~VERSION INFORMATION
 VERS.                 2.0:   CWLS LOG ASCII STANDARD -VERSION 2.0
 WRAP.                  NO:   ONE LINE PER DEPTH STEP
~WELL INFORMATION BLOCK
#MNEM.UNIT           DATA                    DESCRIPTION OF MNEMONIC
#---------    -------------------            -------------------------------
# Generated from Intellog Unique Number	CS_73_76/WELL/2196
WELL.         PETROFINA CANADA LTD           : Well_name    - WELL
LOC .         00/07-17-076-11W4/0            : Location     - LOCATION
UWI .         00/07-17-076-11W4/0            : Uwi          - UNIQUE WELL ID
ENTR.         SP                             : Entered      - ENTERED BY
SRVC.         SCHLUMBERGER                   : Scn          - SERVICE COMPANY
STRT.M        274.32                         : top_depth    - START DEPTH
STOP.M        511.82                         : bot_depth    - STOP DEPTH
STEP.M        0.25                           : increment    - STEP LENGTH
 NULL. -999.2500:NULL Value
~CURVE INFORMATION BLOCK
#MNEM UNIT       ERCB CURVE CODE    CURVE DESCRIPTION
#-----------   ------------------   ----------------------------------
DEPT.M        00 001 00 00         : DEPTH        - DEPTH
GR  .API      00 310 00 00         : GR           - GAMMA RAY
DPHI.V/V      00 890 00 00         : PHID         - DENSITY POROSITY (SANDSTONE)
NPHI.V/V      00 330 00 00         : PHIN         - NEUTRON POROSITY (SANDSTONE)
ILD .OHMM     00 120 00 00         : RESD         - DEEP RESISTIVITY (DIL)
~PARAMETER INFORMATION
#MNEM.UNIT           DATA             DESCRIPTION OF MNEMONIC
#---------         -----------     ------------------------------
GL  .M        667.817              : gl           - GROUND LEVEL ELEVATION
EREF.M        671.17               : kb           - ELEVATION OF DEPTH REFERENCE
DATM.M        667.817              : datum        - DATUM ELEVATION
TDD .M        532.79               : tdd          - TOTAL DEPTH DRILLER
RUN .         ONE                  : Run          - RUN NUMBER
ENG .         BILL                 : Engineer     - RECORDING ENGINEER
WIT .         JIM                  : Witness      - WITNESSED BY
MUD .         GEL                  : Mud_type     - MUD TYPE
MATR.         SANDSTONE            : Logunit      - NEUTRON MATRIX
TMAX.C        8.88889              : BHT          - MAXIMUM RECORDED TEMPERATURE
BHTD.M        532.79               : BHTDEP       - MAXIMUM RECORDED TEMPERATURE
MATR.         1                    : LOGUNIT      - NEUTRON MATRIX
RMT .C        25                   : MDTP         - TEMPERATURE OF MUD
NEUT.         1                    : NEUTRON      - NEUTRON TYPE
RESI.         0                    : RESIST       - RESISTIVITY TYPE
RMC .OHMM     0.25                 : RMC          - RESISTIVITY OF MUD CAKE
RMF .OHMM     0.25                 : RMF          - RESISTIVITY OF MUD FILTRATE
SUFT.C        15                   : SUFT         - SURFACE TEMPERATURE
~A  DEPTH       GR     PHID     PHIN     RESD
# ...
  448.320  108.251    0.208    0.510    3.486
  448.570  107.272    0.208    0.531    3.457
  448.820  106.262    0.211    0.537    3.344
  449.070  106.226    0.218    0.525    3.309
  449.320  107.040    0.224    0.509    3.194
  449.570  108.556    0.236    0.503    3.052
  449.820  111.334    0.222    0.498    2.961
  450.070  112.505    0.212    0.511    2.873
  450.320  113.556    0.207    0.535    2.783
  450.570  113.374    0.218    0.546    2.782
  450.820  112.290    0.229    0.552    2.788
  451.070  107.629    0.235    0.552    2.967
  451.320  105.402    0.232    0.536    3.286
  451.570  102.053    0.223    0.522    3.816
  451.820   98.733    0.203    0.488    4.478
  452.070   98.784    0.185    0.460    5.485
  452.320  100.287    0.180    0.437    6.373
  452.570  101.716    0.169    0.427    6.858
  452.820  102.221    0.163    0.426    7.063
  453.070  103.352    0.145    0.448    7.159
  453.320  103.498    0.161    0.467    7.092
  453.570  102.043    0.194    0.459    7.026
  453.820  101.518    0.187    0.447    7.131
  454.070  102.163    0.182    0.432    7.459
  454.320   98.934    0.171    0.415    8.028
  454.570   92.094    0.160    0.403    8.691
  454.820   91.234    0.154    0.400    9.175
  455.070   93.097    0.185    0.442    9.631
  455.320   94.541    0.191    0.447    9.802
  455.570   92.799    0.200    0.444   10.010
  455.820   90.772    0.204    0.434   10.168
  456.070   91.003    0.214    0.423   10.546
  456.320   91.933    0.218    0.411   11.797
  456.570   89.950    0.222    0.418   14.074
  456.820   83.849    0.229    0.421   19.084
  457.070   76.733    0.237    0.414   26.653
  457.320   69.865    0.254    0.411   40.616
  457.570   68.716    0.285    0.404   52.227
  457.820   71.312    0.282    0.401   56.264
  458.070   72.949    0.282    0.402   56.120
  458.320   73.876    0.278    0.410   55.383
  458.570   75.539    0.271    0.417   52.306
  458.820   77.613    0.268    0.422   47.389
  459.070   81.275    0.266    0.424   42.754
  459.320   85.166    0.261    0.422   37.855
  459.570   89.638    0.256    0.416   32.627
  459.820   94.938    0.261    0.410   26.186
  460.070   97.812    0.268    0.395   22.916
  460.320  100.856    0.259    0.403   19.778
  460.570  103.140    0.249    0.420   16.994
  460.820  105.356    0.244    0.434   13.821
  461.070  109.205    0.235    0.440   12.091
  461.320  114.079    0.213    0.440   10.776
  461.570  120.435    0.186    0.434    9.185
  461.820  124.285    0.180    0.443    8.735
  462.070  122.920    0.181    0.450    8.764
  462.320  118.637    0.181    0.445    9.108
  462.570  113.196    0.181    0.424    9.955
  462.820  106.236    0.178    0.408   11.229
  463.070   99.244    0.177    0.398   12.844
  463.320   89.071    0.188    0.381   14.326
  463.570   83.255    0.206    0.370   16.199
  463.820   83.925    0.217    0.373   17.509
  464.070   86.255    0.226    0.395   18.457
  464.320   89.312    0.221    0.402   18.478
  464.570   91.501    0.218    0.407   17.947
  464.820   92.879    0.215    0.410   16.539
  465.070   94.314    0.176    0.401   15.264
  465.320   93.526    0.130    0.393   13.488
  465.570   93.034    0.108    0.386   12.934
  465.820   91.837    0.125    0.392   13.835
  466.070   88.154    0.188    0.398   17.101
  466.320   82.159    0.232    0.403   20.887
  466.570   77.139    0.251    0.406   23.015
  466.820   77.842    0.242    0.405   24.498
  467.070   79.867    0.227    0.396   24.070
  467.320   81.764    0.216    0.392   21.653
  467.570   82.058    0.221    0.389   19.877
  467.820   78.238    0.234    0.389   20.346
  468.070   70.472    0.253    0.379   25.267
  468.320   62.947    0.268    0.367   36.621
  468.570   57.227    0.258    0.364   52.764
  468.820   61.440    0.243    0.364   64.199
  469.070   70.463    0.233    0.368   42.360
  469.320   82.813    0.215    0.374   26.283
  469.570   94.951    0.184    0.386   18.763
  469.820  100.951    0.186    0.412   11.942
  470.070  104.556    0.194    0.433    8.651
  470.320  106.618    0.169    0.486    7.527
  470.570  108.973    0.167    0.504    6.656
  470.820  107.683    0.192    0.506    7.088
  471.070  100.131    0.218    0.489    7.765
  471.320   84.784    0.250    0.467    8.107
  471.570   74.821    0.269    0.408  125.333
  471.820   68.673    0.291    0.426  194.325
  472.070   61.372    0.300    0.432  261.953
  472.320   59.475    0.298    0.410  305.381
  472.570   57.559    0.308    0.399  401.316
  472.820   55.003    0.318    0.399 1351.080
  473.070   54.812    0.314    0.401 1373.360
  473.320   54.281    0.308    0.404 1370.070
  473.570   53.598    0.306    0.406 1364.860
  473.820   53.670    0.304    0.404 1296.050
  474.070   56.476    0.298    0.405 1082.970
  474.320   59.590    0.293    0.413  507.380
  474.570   64.453    0.293    0.419  240.837
  474.820   68.551    0.268    0.420  174.722
  475.070   70.740    0.222    0.413  165.238
  475.320   70.202    0.086    0.390  164.615
  475.570   69.272    0.071    0.330  179.227
  475.820   73.075    0.068    0.295  116.511
  476.070   76.842    0.100    0.321   53.740
  476.320   81.915    0.133    0.385   39.844
  476.570   84.390    0.195    0.420   30.791
  476.820   89.651    0.254    0.428   23.792
  477.070   95.830    0.243    0.423   20.735
  477.320  102.519    0.235    0.415   16.857
  477.570  108.675    0.226    0.407   14.535
  477.820  112.240    0.213    0.397   11.914
  478.070  117.579    0.198    0.390   10.455
  478.320  120.634    0.178    0.402    9.323
  478.570  123.577    0.171    0.412    8.725
  478.820  127.167    0.166    0.420    8.196
  479.070  130.689    0.163    0.422    7.927
  479.320  127.969    0.165    0.422    7.857
  479.570  123.551    0.171    0.418    7.855
  479.820  120.295    0.184    0.405    7.859
  480.070  117.927    0.204    0.392    7.858
  480.320  116.335    0.213    0.385    7.997
  480.570  115.615    0.201    0.376    8.174
  480.820  116.759    0.187    0.392    8.915
  481.070  116.639    0.184    0.414    9.395
  481.320  113.333    0.201    0.411    9.715
  481.570  100.362    0.213    0.400   10.141
  481.820   91.096    0.221    0.384   10.972
  482.070   83.368    0.224    0.374   11.872
  482.320   85.672    0.215    0.367   12.396
  482.570   87.989    0.204    0.372   12.745
  482.820   91.378    0.191    0.375   12.734
  483.070   95.547    0.164    0.373   12.536
  483.320   99.386    0.153    0.370   12.250
  483.570  104.069    0.161    0.385   10.980
  483.820  107.850    0.168    0.396    9.481
  484.070  111.043    0.171    0.399    8.533
  484.320  111.990    0.177    0.407    8.029
  484.570  113.272    0.180    0.415    7.542
  484.820  115.268    0.164    0.423    7.261
  485.070  116.253    0.154    0.422    7.262
  485.320  115.827    0.160    0.414    7.497
  485.570  113.663    0.163    0.406    7.740
  485.820  108.975    0.163    0.402    8.112
  486.070  106.102    0.179    0.400    8.601
  486.320  104.156    0.190    0.394    8.950
  486.570  105.141    0.187    0.388    9.242
  486.820  108.484    0.193    0.384    9.274
  487.070  109.794    0.196    0.392    9.293
  487.320  106.771    0.186    0.393    8.867
  487.570  112.963    0.167    0.398    7.981
  487.820  115.395    0.159    0.435    7.720
  488.070  112.181    0.162    0.436    7.894
  488.320  107.514    0.167    0.427    8.079
  488.570  103.669    0.173    0.416    8.738
  488.820   98.627    0.200    0.411    9.381
  489.070   96.038    0.225    0.408   10.082
  489.320   93.996    0.226    0.408   10.554
  489.570   93.213    0.220    0.403   11.051
  489.820   93.674    0.210    0.409   11.233
  490.070   90.866    0.204    0.420   11.345
  490.320   87.460    0.219    0.420   11.693
  490.570   85.150    0.219    0.415   12.490
  490.820   83.290    0.209    0.412   13.551
  491.070   78.776    0.214    0.400   14.767
  491.320   72.553    0.213    0.389   16.711
  491.570   71.475    0.253    0.388   18.034
