~VERSION INFORMATION
 VERS.                 2.0:   CWLS LOG ASCII STANDARD -VERSION 2.0
 WRAP.                  NO:   ONE LINE PER DEPTH STEP
~WELL INFORMATION BLOCK
#MNEM.UNIT           DATA                    DESCRIPTION OF MNEMONIC
#---------    -------------------            -------------------------------
# Generated from Intellog Unique Number	CW_73_75/WELL/702
WELL.         MIAMI AMOCO MARTEN HILLS 07-19 : Well_name    - WELL
LOC .         00/07-19-074-01W5/0            : Location     - LOCATION
UWI .         00/07-19-074-01W5/0            : Uwi          - UNIQUE WELL ID
ENTR.         JAYE                           : Entered      - ENTERED BY
SRVC.         SCHLUMBERGER                   : Scn          - SERVICE COMPANY
DATE.         2 FEB 74                       : Date         - LOG DATE
STRT.M        420.624                        : top_depth    - START DEPTH
STOP.M        633.874                        : bot_depth    - STOP DEPTH
STEP.M        0.25                           : increment    - STEP LENGTH
 NULL. -999.2500:NULL Value
~CURVE INFORMATION BLOCK
#MNEM UNIT       ERCB CURVE CODE    CURVE DESCRIPTION
#-----------   ------------------   ----------------------------------
DEPT.M        00 001 00 00         : DEPTH        - DEPTH
ILD .OHMM     00 120 00 00         : RESD         - DEEP RESISTIVITY (DIL)
NPHI.V/V      00 330 00 00         : PHIN         - NEUTRON POROSITY (SANDSTONE)
DPHI.V/V      00 890 00 00         : PHID         - DENSITY POROSITY (SANDSTONE)
GR  .API      00 310 00 00         : GR           - GAMMA RAY
CALI.MM       00 280 01 00         : CAL          - CALIPER
~PARAMETER INFORMATION
#MNEM.UNIT           DATA             DESCRIPTION OF MNEMONIC
#---------         -----------     ------------------------------
GL  .M        673.608              : gl           - GROUND LEVEL ELEVATION
EREF.M        677.57               : kb           - ELEVATION OF DEPTH REFERENCE
DATM.M        673.608              : datum        - DATUM ELEVATION
TDD .M        639.166              : tdd          - TOTAL DEPTH DRILLER
RUN .         ONE                  : Run          - RUN NUMBER
ENG .         WILLIGER             : Engineer     - RECORDING ENGINEER
WIT .         RUDD                 : Witness      - WITNESSED BY
BASE.         RD                   : Branch       - HOME BASE OF LOGGING UNIT
MUD .         GEL CHEM             : Mud_type     - MUD TYPE
MATR.         SANDSTONE            : Logunit      - NEUTRON MATRIX
TMAX.C        25                   : BHT          - MAXIMUM RECORDED TEMPERATURE
BHTD.M        637.946              : BHTDEP       - MAXIMUM RECORDED TEMPERATURE
RMT .C        20                   : MDTP         - TEMPERATURE OF MUD
MUDD.KG/M     1164                 : MWT          - MUD DENSITY
NEUT.         1                    : NEUTRON      - NEUTRON TYPE
RESI.         0                    : RESIST       - RESISTIVITY TYPE
RM  .OHMM     2.38                 : RM           - RESISTIVITY OF MUD
RMC .OHMM     0                    : RMC          - RESISTIVITY OF MUD CAKE
RMF .OHMM     1.89                 : RMF          - RESISTIVITY OF MUD FILTRATE
SUFT.C        -17.7778             : SUFT         - SURFACE TEMPERATURE
~A  DEPTH     RESD     PHIN     PHID       GR      CAL
# ...
  603.124    4.939    0.387    0.073  106.721  172.552
  603.374    4.692    0.382    0.087  106.479  172.742
  603.624    4.457    0.379    0.103  100.772  172.330
  603.874    4.171    0.373    0.117   81.175  169.560
  604.124    3.896    0.326    0.135   60.852  167.094
  604.374    3.613    0.298    0.159   42.351  165.739
  604.624    3.320    0.320    0.208   31.125  164.198
  604.874    3.045    0.337    0.259   29.061  163.576
  605.124    2.870    0.353    0.285   31.058  163.995
  605.374    2.721    0.350    0.280   33.363  163.874
  605.624    2.624    0.348    0.273   29.052  163.365
  605.874    2.567    0.347    0.260   28.816  163.063
  606.124    2.563    0.352    0.258   29.296  163.250
  606.374    2.583    0.366    0.261   29.771  163.459
  606.624    2.613    0.377    0.270   30.934  163.959
  606.874    2.678    0.372    0.269   31.766  164.160
  607.124    2.744    0.364    0.265   32.855  164.558
  607.374    2.812    0.368    0.260   33.950  164.774
  607.624    2.881    0.374    0.259   34.371  165.064
  607.874    3.024    0.375    0.261   34.489  165.585
  608.124    3.116    0.369    0.259   35.764  166.093
  608.374    3.089    0.343    0.225   37.516  166.204
  608.624    3.044    0.317    0.222   40.666  166.085
  608.874    2.940    0.340    0.272   43.756  166.180
  609.124    2.856    0.366    0.298   44.850  166.489
  609.374    2.779    0.370    0.291   43.145  166.576
  609.624    2.744    0.373    0.266   43.808  166.675
  609.874    2.765    0.380    0.261   45.748  166.783
  610.124    2.834    0.388    0.267   46.903  166.882
  610.374    3.002    0.394    0.264   47.200  166.998
  610.624    3.128    0.392    0.257   46.903  167.080
  610.874    3.193    0.388    0.262   46.464  166.962
  611.124    3.183    0.380    0.268   45.857  166.643
  611.374    3.161    0.368    0.265   44.215  166.131
  611.624    3.162    0.351    0.245   41.241  165.819
  611.874    3.140    0.353    0.231   40.876  166.119
  612.124    3.129    0.367    0.234   42.146  166.122
  612.374    3.130    0.383    0.250   44.389  166.219
  612.624    3.137    0.389    0.257   43.048  165.812
  612.874    3.156    0.381    0.248   42.197  165.490
  613.124    3.163    0.350    0.236   42.501  165.286
  613.374    3.176    0.348    0.221   42.920  165.598
  613.624    3.171    0.355    0.224   43.403  165.692
  613.874    3.178    0.368    0.243   44.248  165.674
  614.124    3.209    0.372    0.256   45.704  165.155
  614.374    3.246    0.369    0.249   46.673  164.946
  614.624    3.296    0.373    0.249   46.669  164.737
  614.874    3.321    0.380    0.240   46.549  164.726
  615.124    3.328    0.379    0.232   46.356  164.517
  615.374    3.323    0.382    0.232   46.113  164.742
  615.624    3.300    0.392    0.230   49.507  165.047
  615.874    3.289    0.392    0.225   51.991  165.148
  616.124    3.309    0.389    0.205   53.325  165.218
  616.374    3.416    0.385    0.227   50.227  165.033
  616.624    3.579    0.376    0.226   47.129  165.411
  616.874    3.722    0.369    0.210   46.041  165.928
  617.124    4.069    0.351    0.186   44.883  165.929
  617.374    4.498    0.266    0.203   40.816  166.637
  617.624    5.218    0.240    0.163   34.685  167.662
  617.874    6.469    0.172    0.113   30.800  168.377
  618.124    8.700    0.121    0.047   29.162  168.777
  618.374   11.402    0.113    0.023   29.157  167.757
  618.624   14.971    0.127    0.043   30.431  166.208
  618.874   15.228    0.154    0.074   31.879  164.963
  619.124   10.010    0.194    0.119   33.696  164.441
  619.374    7.729    0.227    0.152   35.029  163.619
  619.624    6.158    0.256    0.199   36.606  162.588
  619.874    5.313    0.312    0.213   38.001  161.971
  620.124    5.505    0.305    0.211   39.389  162.376
  620.374    6.529    0.323    0.207   41.512  162.981
  620.624    8.732    0.318    0.200   44.663  164.625
  620.874   11.423    0.311    0.186   49.754  166.261
  621.124   15.914    0.349    0.191   73.529  167.695
  621.374   18.188    0.310    0.143   76.016  168.610
  621.624   18.094    0.285    0.236   75.653  167.389
  621.874   16.747    0.407    0.270   78.861  165.628
  622.124   14.210    0.492    0.369   84.198  164.283
  622.374   11.947    0.525    0.398   90.379  163.670
  622.624   10.441    0.545    0.342   98.139  165.001
  622.874    7.988    0.560    0.211  114.817  169.307
  623.124    7.099    0.529    0.246  113.480  175.976
  623.374    6.868    0.446    0.279  106.623  176.906
  623.624    6.922    0.422    0.320   97.522  175.350
  623.874    7.443    0.385    0.125   98.492  172.675
  624.124    7.529    0.360    0.109  125.180  175.345
  624.374    7.205    0.355    0.097  127.784  178.316
  624.624    6.894    0.387    0.112  125.055  177.701
  624.874    6.658    0.405    0.134  113.462  173.078
  625.124    7.172    0.426    0.162  107.393  171.212
  625.374    7.584    0.451    0.212   99.807  170.287
  625.624    8.620    0.480    0.279   94.227  170.381
  625.874    9.337    0.468    0.333   94.221  170.788
  626.124   11.053    0.348    0.268   92.218  171.305
  626.374   11.973    0.299    0.051   80.810  171.908
  626.624   11.479    0.251    0.077   86.327  172.009
  626.874   10.088    0.287    0.096   96.396  172.318
  627.124    8.608    0.349    0.120  106.159  172.613
  627.374    8.086    0.401    0.142  119.865  173.227
  627.624    6.360    0.478    0.144  124.355  174.874
  627.874    5.997    0.420    0.143  120.831  176.916
  628.124    6.617    0.354    0.102  119.799  178.450
  628.374    7.075    0.324    0.117  121.678  182.555
  628.624    6.299    0.334    0.096  127.071  182.153
  628.874    5.495    0.366    0.060  129.138  177.204
  629.124    4.975    0.469    0.078  130.222  182.444
  629.374    4.717    0.485    0.108  132.885  188.081
  629.624    4.572    0.489    0.111  134.826  196.405
  629.874    4.532    0.469    0.123  133.611  191.156
  630.124    4.696    0.474    0.106  131.308  173.072
  630.374    5.191    0.432    0.077  128.566  176.667
  630.624    6.376    0.392    0.045  123.167  169.807
  630.874    7.274    0.328    0.040  116.489  170.182
  631.124    7.997    0.293    0.035  109.090  173.671
  631.374    8.149    0.343    0.090   96.649  173.362
  631.624    8.274    0.365    0.083   84.699  174.177
  631.874    8.170    0.370    0.094   78.812  179.412
  632.124    7.876    0.239    0.103   73.712  173.549
  632.374    7.331    0.020    0.064   70.494  165.946
  632.624    6.467    0.003    0.091   68.251  165.229
  632.874    5.715   -0.007    0.153   66.611  165.216
  633.124    5.329   -0.014    0.140   65.514  165.422
  633.374    5.137   -0.021    0.115   65.328  165.832
  633.624    5.959   -0.026    0.101   65.206  166.458
  633.874    6.673   -0.033    0.067   64.902  166.961
