~VERSION INFORMATION
 VERS.                 2.0:   CWLS LOG ASCII STANDARD -VERSION 2.0
 WRAP.                  NO:   ONE LINE PER DEPTH STEP
~WELL INFORMATION BLOCK
#MNEM.UNIT           DATA                    DESCRIPTION OF MNEMONIC
#---------    -------------------            -------------------------------
# Generated from Intellog Unique Number	CS_77_79/WELL/886
WELL.         PEX LOUGHERY                   : Well_name    - WELL
LOC .         00/06-30-078-05W4/0            : Location     - LOCATION
UWI .         00/06-30-078-05W4/0            : Uwi          - UNIQUE WELL ID
ENTR.         JHS                            : Entered      - ENTERED BY
SRVC.         SCHLUMBERGER                   : Scn          - SERVICE COMPANY
STRT.M        115                            : top_depth    - START DEPTH
STOP.M        390                            : bot_depth    - STOP DEPTH
STEP.M        0.25                           : increment    - STEP LENGTH
 NULL. -999.2500:NULL Value
~CURVE INFORMATION BLOCK
#MNEM UNIT       ERCB CURVE CODE    CURVE DESCRIPTION
#-----------   ------------------   ----------------------------------
DEPT.M        00 001 00 00         : DEPTH        - DEPTH
DPHI.V/V      00 890 00 00         : PHID         - DENSITY POROSITY (LIMESTONE)
NPHI.V/V      00 330 00 00         : PHIN         - NEUTRON POROSITY (LIMESTONE)
GR  .API      00 310 00 00         : GR           - GAMMA RAY
ILD .OHMM     00 120 00 00         : RESD         - DEEP RESISTIVITY (DIL)
RHOB.KG/M3    00 350 00 00         : DENS         - BULK DENSITY
~PARAMETER INFORMATION
#MNEM.UNIT           DATA             DESCRIPTION OF MNEMONIC
#---------         -----------     ------------------------------
GL  .M        552.72               : gl           - GROUND LEVEL ELEVATION
EREF.M        555.82               : kb           - ELEVATION OF DEPTH REFERENCE
DATM.M        555.82               : datum        - DATUM ELEVATION
TDD .M        398                  : tdd          - TOTAL DEPTH DRILLER
RUN .         ONE                  : Run          - RUN NUMBER
ENG .         BILL                 : Engineer     - RECORDING ENGINEER
WIT .         JIM                  : Witness      - WITNESSED BY
MUD .         GEL                  : Mud_type     - MUD TYPE
MATR.         LIMESTONE            : Logunit      - NEUTRON MATRIX
TMAX.C        18.5                 : BHT          - MAXIMUM RECORDED TEMPERATURE
BHTD.M        398                  : BHTDEP       - MAXIMUM RECORDED TEMPERATURE
MATR.         1                    : LOGUNIT      - NEUTRON MATRIX
RMT .C        25                   : MDTP         - TEMPERATURE OF MUD
NEUT.         1                    : NEUTRON      - NEUTRON TYPE
RESI.         0                    : RESIST       - RESISTIVITY TYPE
RMC .OHMM     0.25                 : RMC          - RESISTIVITY OF MUD CAKE
RMF .OHMM     0.25                 : RMF          - RESISTIVITY OF MUD FILTRATE
SUFT.C        15                   : SUFT         - SURFACE TEMPERATURE
~A  DEPTH     PHID     PHIN       GR     RESD     DENS
# ...
  188.000    0.240    0.481  104.117    9.407    0.000
  188.250    0.272    0.457   94.920   10.545    0.000
  188.500    0.262    0.444   89.400   11.599    0.000
  188.750    0.249    0.425   93.061   12.761    0.000
  189.000    0.242    0.411  102.840   12.539    0.000
  189.250    0.227    0.412  107.727   11.862    0.000
  189.500    0.229    0.435  110.162   11.432    0.000
  189.750    0.239    0.463  110.762   10.616    0.000
  190.000    0.228    0.449  118.708   10.231    0.000
  190.250    0.213    0.442  121.758   10.050    0.000
  190.500    0.213    0.447  118.070    9.872    0.000
  190.750    0.233    0.475  111.937    9.704    0.000
  191.000    0.238    0.491  109.478    9.711    0.000
  191.250    0.248    0.499  107.014    9.538    0.000
  191.500    0.269    0.507  105.168   10.108    0.000
  191.750    0.285    0.485   97.806   10.506    0.000
  192.000    0.292    0.456   94.122   11.557    0.000
  192.250    0.301    0.461   96.559   12.715    0.000
  192.500    0.294    0.469  103.892   13.216    0.000
  192.750    0.289    0.448  103.266   13.486    0.000
  193.000    0.291    0.466   96.521   13.499    0.000
  193.250    0.291    0.467   92.224   13.513    0.000
  193.500    0.274    0.457   98.334   13.787    0.000
  193.750    0.241    0.439  106.889   13.800    0.000
  194.000    0.230    0.431  109.940   13.559    0.000
  194.250    0.236    0.463   94.012   13.834    0.000
  194.500    0.258    0.482   79.917   14.379    0.000
  194.750    0.279    0.457   71.948   15.527    0.000
  195.000    0.306    0.440   64.590   16.445    0.000
  195.250    0.307    0.431   59.678   17.425    0.000
  195.500    0.312    0.436   59.053   18.119    0.000
  195.750    0.323    0.445   61.491   18.127    0.000
  196.000    0.331    0.436   60.253   17.815    0.000
  196.250    0.332    0.444   61.465   17.503    0.000
  196.500    0.337    0.455   65.738   17.521    0.000
  196.750    0.337    0.443   65.728   17.205    0.000
  197.000    0.339    0.424   64.487   16.907    0.000
  197.250    0.344    0.427   65.701   17.244    0.000
  197.500    0.344    0.451   68.750   17.589    0.000
  197.750    0.332    0.418   73.020   18.286    0.000
  198.000    0.310    0.427   72.397   18.305    0.000
  198.250    0.292    0.417   74.224   16.366    0.000
  198.500    0.257    0.401   85.840   13.823    0.000
  198.750    0.240    0.397   92.564   11.244    0.000
  199.000    0.150    0.458   87.042    9.500    0.000
  199.250    0.107    0.479   80.294    8.492    0.000
  199.500    0.128    0.440   92.527    7.735    0.000
  199.750    0.169    0.465  103.532    7.317    0.000
  200.000    0.211    0.502   99.846    7.325    0.000
  200.250    0.330    0.504   88.204    8.058    0.000
  200.500    0.337    0.480   75.334    9.564    0.000
  200.750    0.325    0.465   78.384   10.717    0.000
  201.000    0.309    0.455   86.942   12.961    0.000
  201.250    0.283    0.436   94.887   13.995    0.000
  201.500    0.281    0.415   97.322   14.006    0.000
  201.750    0.278    0.399   91.802   13.758    0.000
  202.000    0.269    0.398   83.830   13.016    0.000
  202.250    0.274    0.430   91.773   12.311    0.000
  202.500    0.265    0.442   92.984   11.651    0.000
  202.750    0.256    0.453   89.915   11.441    0.000
  203.000    0.259    0.470   81.946   11.240    0.000
  203.250    0.255    0.463   73.358   11.468    0.000
  203.500    0.248    0.427   70.897   11.921    0.000
  203.750    0.245    0.404   73.338   11.933    0.000
  204.000    0.245    0.414   73.937   11.948    0.000
  204.250    0.256    0.429   72.697   11.301    0.000
  204.500    0.266    0.437   75.138   10.894    0.000
  204.750    0.265    0.434   79.406   10.906    0.000
  205.000    0.257    0.426   80.010   11.557    0.000
  205.250    0.260    0.434   77.548   12.239    0.000
  205.500    0.285    0.461   70.189   13.720    0.000
  205.750    0.322    0.462   58.544   15.676    0.000
  206.000    0.365    0.441   56.083   17.912    0.000
  206.250    0.369    0.418   54.848   19.334    0.000
  206.500    0.362    0.414   52.997   20.489    0.000
  206.750    0.360    0.446   52.375   20.509    0.000
  207.000    0.359    0.467   51.751   20.149    0.000
  207.250    0.353    0.453   51.124   19.793    0.000
  207.500    0.354    0.435   52.950   19.445    0.000
  207.750    0.349    0.449   55.997   19.836    0.000
  208.000    0.342    0.439   55.373   19.489    0.000
  208.250    0.337    0.429   57.196   19.142    0.000
  208.500    0.337    0.435   59.021   18.451    0.000
  208.750    0.339    0.436   54.723   17.787    0.000
  209.000    0.326    0.440   53.487   17.154    0.000
  209.250    0.313    0.446   60.822   17.169    0.000
  209.500    0.329    0.435   63.870   17.515    0.000
  209.750    0.338    0.436   58.346   18.208    0.000
  210.000    0.334    0.433   57.721   18.579    0.000
  210.250    0.332    0.435   60.772   18.588    0.000
  210.500    0.334    0.444   61.371   17.927    0.000
  210.750    0.336    0.425   59.523   17.277    0.000
  211.000    0.332    0.423   60.733   16.653    0.000
  211.250    0.326    0.435   64.393   16.366    0.000
  211.500    0.319    0.454   62.543   17.007    0.000
  211.750    0.213    0.498   51.515   19.066    0.000
  212.000    0.081    0.292   40.483   23.936    0.000
  212.250    0.051    0.207   36.797   30.628    0.000
  212.500    0.035    0.174   42.905   33.702    0.000
  212.750    0.053    0.159   47.791   33.111    0.000
  213.000    0.213    0.181   49.004   30.156    0.000
  213.250    0.302    0.343   52.665   25.954    0.000
  213.500    0.340    0.504   56.936   20.721    0.000
  213.750    0.356    0.458   55.701   18.526    0.000
  214.000    0.363    0.433   52.625   18.193    0.000
  214.250    0.345    0.426   51.391   17.879    0.000
  214.500    0.335    0.441   52.603   17.897    0.000
  214.750    0.336    0.442   52.589   17.911    0.000
  215.000    0.340    0.457   49.513   18.983    0.000
  215.250    0.347    0.458   47.055   19.731    0.000
  215.500    0.353    0.430   45.819   20.512    0.000
  215.750    0.361    0.420   44.581   20.919    0.000
  216.000    0.361    0.420   43.345   21.346    0.000
  216.250    0.347    0.419   40.268   21.372    0.000
  216.500    0.342    0.408   39.646   20.606    0.000
  216.750    0.346    0.400   45.145   20.232    0.000
  217.000    0.349    0.404   51.866   18.789    0.000
  217.250    0.349    0.454   53.075   17.775    0.000
  217.500    0.347    0.473   54.903   17.464    0.000
  217.750    0.351    0.467   59.175   17.473    0.000
  218.000    0.355    0.458   59.775   17.833    0.000
  218.250    0.346    0.452   56.698   18.185    0.000
  218.500    0.348    0.461   54.236   18.209    0.000
  218.750    0.348    0.490   54.228   17.890    0.000
  219.000    0.341    0.495   57.886   17.569    0.000
  219.250    0.338    0.443   55.425   16.626    0.000
  219.500    0.335    0.421   50.515   16.639    0.000
  219.750    0.330    0.429   51.730   16.038    0.000
  220.000    0.328    0.477   52.942   14.891    0.000
  220.250    0.335    0.494   57.827   13.066    0.000
  220.500    0.323    0.498   66.995   12.590    0.000
  220.750    0.259    0.463   73.717   11.687    0.000
  221.000    0.233    0.436   79.827   10.649    0.000
  221.250    0.243    0.463   80.425   10.075    0.000
  221.500    0.267    0.483   79.191    9.714    0.000
  221.750    0.286    0.451   82.848    9.362    0.000
  222.000    0.295    0.441   87.122    9.197    0.000
  222.250    0.293    0.445   90.172    8.864    0.000
  222.500    0.279    0.427   90.768    8.547    0.000
  222.750    0.266    0.422   93.816    8.394    0.000
  223.000    0.263    0.434   96.256    8.095    0.000
  223.250    0.256    0.450   96.240    8.100    0.000
  223.500    0.253    0.457   93.783    7.960    0.000
  223.750    0.256    0.448   90.098    8.274    0.000
  224.000    0.266    0.440   86.412    8.284    0.000
  224.250    0.266    0.440   93.131    8.135    0.000
