~VERSION INFORMATION
 VERS.                 2.0:   CWLS LOG ASCII STANDARD -VERSION 2.0
 WRAP.                  NO:   ONE LINE PER DEPTH STEP
~WELL INFORMATION BLOCK
#MNEM.UNIT           DATA                    DESCRIPTION OF MNEMONIC
#---------    -------------------            -------------------------------
# Generated from Intellog Unique Number	CW_70_72/WELL/995
NULL.         -999.25                        : NULL_VALUE
WELL.         CHEVRON MCSU 1 MITSUE 09-27    : Well_name    - WELL              
LOC .         09-27-072-05W5                 : Location     - LOCATION          
UWI .         00/09-27-072-05W5/0            : Uwi          - UNIQUE WELL ID    
ENTR.         JAYE                           : Entered      - ENTERED BY        
SRVC.         WESTERN ATLAS                  : Scn          - SERVICE COMPANY   
DATE.         3 MAR 86                       : Date         - LOG DATE          
STRT.M        390                            : top_depth    - START DEPTH       
STOP.M        625                            : bot_depth    - STOP DEPTH        
STEP.M        0.25                           : increment    - STEP LENGTH       
~CURVE INFORMATION BLOCK
#MNEM UNIT       ERCB CURVE CODE    CURVE DESCRIPTION
#-----------   ------------------   ----------------------------------
DEPT.M        00 001 00 00         : DEPTH        - DEPTH                       
DPHI.V/V      00 890 00 00         : PHID         - DENSITY POROSITY (SANDSTONE)
NPHI.V/V      00 330 00 00         : PHIN         - NEUTRON POROSITY (SANDSTONE)
GR  .API      00 310 00 00         : GR           - GAMMA RAY                   
CALI.MM       00 280 01 00         : CAL          - CALIPER                     
ILD .OHMM     00 120 00 00         : RESD         - DEEP RESISTIVITY (DIL)      
~PARAMETER INFORMATION       
#MNEM.UNIT           DATA             DESCRIPTION OF MNEMONIC
#---------         -----------     ------------------------------
GL  .M        585.42               : gl           - GROUND LEVEL ELEVATION      
EREF.M        591                  : kb           - ELEVATION OF DEPTH REFERENCE
DATM.M        585.42               : datum        - DATUM ELEVATION             
TDD .M        1700                 : tdd          - TOTAL DEPTH DRILLER         
RUN .         ONE                  : Run          - RUN NUMBER                  
ENG .         SENTSEN              : Engineer     - RECORDING ENGINEER          
WIT .         SUO                  : Witness      - WITNESSED BY                
BASE.         LEDUC                : Branch       - HOME BASE OF LOGGING UNIT   
MUD .         GEL-CHEM             : Mud_type     - MUD TYPE                    
MATR.         SANDSTONE            : Logunit      - NEUTRON MATRIX              
TMAX.C        51                   : BHT          - MAXIMUM RECORDED TEMPERATURE
BHTD.M        1701.25              : BHTDEP       - MAXIMUM RECORDED TEMPERATURE
RMT .C        25                   : MDTP         - TEMPERATURE OF MUD          
MUDD.KG/M     1370                 : MWT          - MUD DENSITY                 
NEUT.         1                    : NEUTRON      - NEUTRON TYPE                
RESI.         0                    : RESIST       - RESISTIVITY TYPE            
RM  .OHMM     0.76                 : RM           - RESISTIVITY OF MUD          
RMC .OHMM     1.19                 : RMC          - RESISTIVITY OF MUD CAKE     
RMF .OHMM     0.7                  : RMF          - RESISTIVITY OF MUD FILTRATE 
SUFT.C        32                   : SUFT         - SURFACE TEMPERATURE         
~A  DEPTH     PHID     PHIN       GR      CAL     RESD
# ...
  536.000    0.189    0.392   53.973  286.745    3.731
  536.250    0.204    0.408   56.999  283.438    3.835
  536.500    0.197    0.395   60.649  278.570    3.964
  536.750    0.187    0.386   63.612  275.993    4.074
  537.000    0.180    0.378   62.818  272.375    4.179
  537.250    0.172    0.380   59.644  268.758    4.287
  537.500    0.168    0.374   56.409  266.082    4.340
  537.750    0.174    0.378   58.369  264.021    4.337
  538.000    0.190    0.405   55.385  260.713    4.262
  538.250    0.185    0.400   56.095  257.722    4.124
  538.500    0.182    0.418   60.808  255.776    3.992
  538.750    0.193    0.437   68.279  255.387    3.863
  539.000    0.214    0.449   60.912  256.152    3.774
  539.250    0.224    0.503   56.612  257.436    3.715
  539.500    0.202    0.470   60.452  257.475    3.671
  539.750    0.182    0.448   66.855  258.446    3.647
  540.000    0.196    0.415   59.112  259.420    3.679
  540.250    0.203    0.428   59.697  260.184    3.738
  540.500    0.190    0.420   60.843  261.152    3.800
  540.750    0.181    0.338   60.425  262.123    3.913
  541.000    0.212    0.309   57.252  257.254    4.021
  541.250    0.238    0.353   47.004  252.487    4.087
  541.500    0.232    0.413   51.218  250.963    4.107
  541.750    0.202    0.450   57.249  250.369    4.065
  542.000    0.187    0.442   62.904  250.396    3.949
  542.250    0.183    0.437   49.901  250.951    3.730
  542.500    0.179    0.457   59.939  250.670    3.549
  542.750    0.175    0.446   66.595  250.917    3.474
  543.000    0.172    0.444   47.583  250.842    3.312
  543.250    0.173    0.449   51.485  251.189    3.310
  543.500    0.182    0.431   57.388  251.849    3.383
  543.750    0.195    0.403   64.234  253.342    3.438
  544.000    0.204    0.408   60.809  255.043    3.513
  544.250    0.218    0.425   58.638  258.103    3.625
  544.500    0.231    0.400   53.024  263.357    3.711
  544.750    0.215    0.390   53.233  268.500    3.723
  545.000    0.199    0.382   60.639  273.749    3.685
  545.250    0.184    0.372   69.424  279.210    3.613
  545.500    0.168    0.363   69.630  283.623    3.537
  545.750    0.163    0.379   55.314  287.527    3.423
  546.000    0.164    0.397   63.599  288.910    3.369
  546.250    0.166    0.408   69.377  289.986    3.310
  546.500    0.173    0.406   67.395  290.542    3.326
  546.750    0.189    0.425   67.917  291.305    3.368
  547.000    0.206    0.513   66.056  289.250    3.442
  547.250    0.216    0.551   64.386  271.234    3.479
  547.500    0.227    0.508   55.579  257.699    3.509
  547.750    0.236    0.405   61.546  250.639    3.559
  548.000    0.219    0.426   62.382  247.539    3.631
  548.250    0.210    0.427   62.463  244.339    3.717
  548.500    0.208    0.427   66.805  241.139    3.814
  548.750    0.210    0.440   68.575  239.715    3.927
  549.000    0.213    0.422   67.969  238.704    4.029
  549.250    0.232    0.428   60.726  238.531    4.126
  549.500    0.241    0.425   51.168  238.456    4.216
  549.750    0.235    0.413   57.386  240.263    4.301
  550.000    0.225    0.403   49.046  239.941    4.307
  550.250    0.237    0.398   46.202  243.969    4.328
  550.500    0.246    0.408   49.686  251.973    4.222
  550.750    0.220    0.420   60.055  261.214    3.988
  551.000    0.193    0.420   55.584  272.339    3.747
  551.250    0.179    0.421   54.872  283.886    3.559
  551.500    0.168    0.423   61.482  290.530    3.350
  551.750    0.168    0.412   61.835  291.215    3.059
  552.000    0.185    0.413   60.805  286.476    2.788
  552.250    0.195    0.493   58.588  280.898    2.547
  552.500    0.182    0.468   57.125  287.651    2.401
  552.750    0.171    0.505   59.854  286.978    2.214
  553.000    0.192    0.536   51.121  286.097    2.139
  553.250    0.201    0.519   50.721  292.005    2.130
  553.500    0.207    0.445   64.476  279.648    2.145
  553.750    0.210    0.431   62.696  277.303    2.160
  554.000    0.302    0.426   52.212  281.657    2.135
  554.250    0.342    0.434   57.759  291.317    2.102
  554.500    0.309    0.749   52.913  309.435    2.104
  554.750    0.262    0.721   50.631  300.520    2.171
  555.000    0.214    0.384   59.250  292.764    2.366
  555.250    0.204    0.420   64.866  284.158    2.642
  555.500    0.203    0.428   65.214  273.989    3.162
  555.750    0.192    0.427   60.681  262.982    3.479
  556.000    0.190    0.435   51.381  257.197    3.445
  556.250    0.202    0.415   52.674  264.984    3.397
  556.500    0.218    0.430   53.963  259.198    3.358
  556.750    0.229    0.453   46.921  248.718    3.363
  557.000    0.240    0.443   42.511  252.857    3.367
  557.250    0.257    0.466   45.932  254.175    3.416
  557.500    0.282    0.441   49.478  255.272    3.492
  557.750    0.269    0.434   46.256  259.107    3.563
  558.000    0.219    0.425   50.490  262.919    3.569
  558.250    0.204    0.408   52.783  267.468    3.533
  558.500    0.192    0.432   51.631  272.331    3.458
  558.750    0.184    0.418   54.861  272.811    3.348
  559.000    0.185    0.424   58.093  270.580    3.315
  559.250    0.185    0.445   58.944  268.339    3.313
  559.500    0.177    0.432   62.364  267.155    3.330
  559.750    0.187    0.424   59.586  267.429    3.347
  560.000    0.190    0.416   58.179  266.861    3.358
  560.250    0.186    0.404   62.037  263.064    3.362
  560.500    0.179    0.439   61.387  260.513    3.405
  560.750    0.180    0.450   59.233  260.574    3.423
  561.000    0.196    0.450   53.820  262.094    3.446
  561.250    0.202    0.433   58.617  265.620    3.465
  561.500    0.209    0.419   54.833  267.857    3.495
  561.750    0.177    0.405   48.420  271.059    3.545
  562.000    0.167    0.407   45.074  272.887    3.721
  562.250    0.172    0.404   63.840  275.672    3.964
  562.500    0.154    0.391   70.328  278.137    4.418
  562.750    0.133    0.376   54.898  280.593    5.018
  563.000    0.113    0.362   50.365  283.897    5.217
  563.250    0.118    0.396   66.494  286.245    5.205
  563.500    0.138    0.410   60.895  288.708    5.222
  563.750    0.158    0.415   53.104  289.409    5.573
  564.000    0.175    0.395   54.894  287.900    6.120
  564.250    0.169    0.379   57.000  282.430    6.655
  564.500    0.149    0.368   51.273  278.729    7.321
  564.750    0.116    0.360   44.170  277.129    7.331
  565.000    0.096    0.388   53.101  278.438    6.646
  565.250    0.122    0.389   57.210  284.766    5.889
  565.500    0.155    0.387   62.447  284.932    5.368
  565.750    0.181    0.392   57.790  284.155    5.033
  566.000    0.186    0.398   54.506  284.646    5.059
  566.250    0.190    0.388   53.792  284.697    5.172
  566.500    0.189    0.399   52.700  284.346    5.197
  566.750    0.180    0.420   51.109  283.364    5.137
  567.000    0.183    0.402   49.708  280.810    5.096
  567.250    0.179    0.373   49.931  274.410    5.074
  567.500    0.178    0.326   53.041  268.211    5.033
  567.750    0.182    0.310   56.267  262.836    4.755
  568.000    0.197    0.423   47.975  267.178    4.174
  568.250    0.229    0.442   45.697  277.891    3.631
  568.500    0.285    0.466   45.675  289.434    3.254
  568.750    0.319    0.601   44.454  302.546    2.900
  569.000    0.280    0.441   36.412  282.042    2.876
  569.250    0.234    0.425   48.412  274.905    3.170
  569.500    0.212    0.394   44.256  270.895    3.745
  569.750    0.192    0.381   44.233  270.964    4.334
  570.000    0.173    0.379   45.831  272.477    4.724
  570.250    0.170    0.379   48.122  274.949    4.920
  570.500    0.144    0.373   47.726  275.419    5.029
  570.750    0.110    0.347   42.690  274.653    5.093
  571.000    0.066    0.341   38.024  275.357    5.071
  571.250    0.119    0.397   39.503  276.561    4.983
  571.500    0.161    0.422   46.492  277.658    4.861
  571.750    0.180    0.420   49.976  278.665    4.714
  572.000    0.190    0.398   51.767  279.236    4.404
  572.250    0.202    0.408   55.062  279.721    4.152
