~VERSION INFORMATION
 VERS.                 2.0:   CWLS LOG ASCII STANDARD -VERSION 2.0
 WRAP.                  NO:   ONE LINE PER DEPTH STEP
~WELL INFORMATION BLOCK
#MNEM.UNIT           DATA                    DESCRIPTION OF MNEMONIC
#---------    -------------------            -------------------------------
# Generated from Intellog Unique Number	CS_73_76/WELL/1973
WELL.         AMOCO                          : Well_name    - WELL
LOC .         00/08-04-073-04W4/0            : Location     - LOCATION
UWI .         00/08-04-073-04W4/0            : Uwi          - UNIQUE WELL ID
ENTR.         T                              : Entered      - ENTERED BY
SRVC.         SCHLUMBERGER                   : Scn          - SERVICE COMPANY
STRT.M        325                            : top_depth    - START DEPTH
STOP.M        520                            : bot_depth    - STOP DEPTH
STEP.M        0.25                           : increment    - STEP LENGTH
 NULL. -999.2500:NULL Value
~CURVE INFORMATION BLOCK
#MNEM UNIT       ERCB CURVE CODE    CURVE DESCRIPTION
#-----------   ------------------   ----------------------------------
DEPT.M        00 001 00 00         : DEPTH        - DEPTH
GR  .API      00 310 00 00         : GR           - GAMMA RAY
NPHI.V/V      00 330 00 00         : PHIN         - NEUTRON POROSITY (SANDSTONE)
DPHI.V/V      00 890 00 00         : PHID         - DENSITY POROSITY (SANDSTONE)
ILD .OHMM     00 120 00 00         : RESD         - DEEP RESISTIVITY (DIL)
~PARAMETER INFORMATION
#MNEM.UNIT           DATA             DESCRIPTION OF MNEMONIC
#---------         -----------     ------------------------------
GL  .M        707                  : gl           - GROUND LEVEL ELEVATION
EREF.M        711                  : kb           - ELEVATION OF DEPTH REFERENCE
DATM.M        711                  : datum        - DATUM ELEVATION
TDD .M        535                  : tdd          - TOTAL DEPTH DRILLER
RUN .         ONE                  : Run          - RUN NUMBER
ENG .         BILL                 : Engineer     - RECORDING ENGINEER
WIT .         JIM                  : Witness      - WITNESSED BY
MUD .         GEL                  : Mud_type     - MUD TYPE
MATR.         SANDSTONE            : Logunit      - NEUTRON MATRIX
TMAX.C        13                   : BHT          - MAXIMUM RECORDED TEMPERATURE
BHTD.M        535                  : BHTDEP       - MAXIMUM RECORDED TEMPERATURE
MATR.         1                    : LOGUNIT      - NEUTRON MATRIX
RMT .C        25                   : MDTP         - TEMPERATURE OF MUD
NEUT.         1                    : NEUTRON      - NEUTRON TYPE
RESI.         0                    : RESIST       - RESISTIVITY TYPE
RMC .OHMM     3.53                 : RMC          - RESISTIVITY OF MUD CAKE
RMF .OHMM     4.12                 : RMF          - RESISTIVITY OF MUD FILTRATE
SUFT.C        15                   : SUFT         - SURFACE TEMPERATURE
~A  DEPTH       GR     PHIN     PHID     RESD
# ...
  368.500   94.997    0.430    0.236    3.896
  368.750   93.809    0.439    0.229    3.685
  369.000   92.028    0.450    0.218    3.486
  369.250   89.057    0.449    0.213    3.422
  369.500   87.868    0.446    0.218    3.236
  369.750   84.897    0.444    0.242    3.118
  370.000   81.925    0.446    0.251    2.949
  370.250   77.170    0.468    0.264    2.842
  370.500   73.008    0.478    0.272    2.842
  370.750   67.062    0.468    0.280    3.008
  371.000   62.901    0.457    0.282    3.182
  371.250   60.525    0.441    0.273    3.494
  371.500   61.122    0.420    0.251    3.911
  371.750   61.719    0.410    0.211    4.138
  372.000   61.722    0.395    0.186    3.841
  372.250   61.129    0.363    0.159    3.499
  372.500   60.537    0.324    0.181    3.129
  372.750   65.298    0.351    0.265    2.904
  373.000   70.653    0.372    0.283    2.746
  373.250   73.630    0.422    0.296    2.455
  373.500   72.443    0.457    0.283    2.237
  373.750   71.256    0.464    0.278    2.116
  374.000   70.664    0.455    0.275    2.039
  374.250   70.071    0.446    0.273    2.039
  374.500   69.479    0.439    0.277    2.040
  374.750   69.481    0.435    0.284    2.002
  375.000   69.483    0.430    0.287    1.966
  375.250   69.487    0.430    0.291    1.859
  375.500   68.894    0.429    0.296    1.759
  375.750   68.301    0.428    0.299    1.726
  376.000   67.115    0.422    0.298    1.664
  376.250   66.522    0.419    0.290    1.603
  376.500   65.334    0.416    0.290    1.545
  376.750   64.147    0.414    0.297    1.516
  377.000   62.960    0.414    0.299    1.489
  377.250   64.152    0.416    0.302    1.489
  377.500   65.939    0.417    0.299    1.490
  377.750   68.321    0.420    0.298    1.547
  378.000   68.918    0.423    0.297    1.606
  378.250   68.921    0.424    0.296    1.699
  378.500   68.922    0.424    0.293    1.832
  378.750   68.925    0.426    0.287    1.902
  379.000   68.928    0.430    0.275    2.090
  379.250   68.930    0.423    0.258    2.170
  379.500   68.933    0.415    0.241    2.296
  379.750   68.935    0.409    0.225    2.384
  380.000   67.153    0.408    0.216    2.213
  380.250   63.587    0.412    0.241    2.054
  380.500   60.615    0.418    0.263    1.836
  380.750   57.643    0.429    0.266    1.737
  381.000   55.267    0.437    0.272    1.612
  381.250   57.054    0.436    0.282    1.524
  381.500   57.650    0.432    0.298    1.442
  381.750   59.437    0.430    0.310    1.364
  382.000   62.413    0.430    0.313    1.314
  382.250   63.605    0.430    0.313    1.290
  382.500   64.203    0.430    0.315    1.266
  382.750   63.611    0.430    0.316    1.267
  383.000   61.829    0.431    0.316    1.267
  383.250   60.642    0.432    0.317    1.292
  383.500   60.049    0.432    0.317    1.316
  383.750   60.647    0.434    0.316    1.367
  384.000   61.839    0.439    0.313    1.446
  384.250   64.220    0.443    0.311    1.502
  384.500   66.602    0.442    0.310    1.589
  384.750   68.983    0.440    0.308    1.713
  385.000   72.555    0.440    0.299    1.812
  385.250   75.531    0.442    0.276    1.953
  385.500   78.507    0.433    0.255    2.106
  385.750   83.268    0.423    0.232    2.270
  386.000   86.840    0.408    0.220    2.314
  386.250   88.032    0.395    0.208    2.315
  386.500   88.033    0.405    0.203    2.315
  386.750   88.036    0.412    0.199    2.273
  387.000   88.038    0.410    0.194    2.231
  387.250   88.041    0.405    0.187    2.191
  387.500   89.234    0.403    0.185    2.192
  387.750   89.831    0.403    0.185    2.192
  388.000   90.428    0.403    0.186    2.152
  388.250   91.024    0.403    0.187    2.153
  388.500   91.622    0.401    0.192    2.114
  388.750   90.436    0.399    0.197    2.075
  389.000   87.464    0.390    0.203    2.037
  389.250   85.087    0.387    0.209    1.891
  389.500   85.090    0.387    0.214    1.856
  389.750   85.091    0.388    0.216    1.756
  390.000   85.094    0.390    0.218    1.599
  390.250   83.312    0.395    0.223    1.377
  390.500   79.746    0.402    0.228    1.209
  390.750   73.800    0.410    0.255    1.061
  391.000   67.854    0.425    0.280    1.022
  391.250   63.693    0.437    0.292    0.967
  391.500   68.454    0.447    0.304    0.932
  391.750   69.052    0.458    0.309    0.932
  392.000   68.459    0.460    0.309    0.986
  392.250   67.272    0.457    0.313    1.063
  392.500   67.869    0.449    0.317    1.104
  392.750   69.061    0.442    0.308    1.168
  393.000   70.253    0.436    0.293    1.283
  393.250   70.851    0.434    0.282    1.383
  393.500   70.853    0.430    0.277    1.357
  393.750   69.071    0.429    0.277    1.284
  394.000   66.100    0.429    0.277    1.214
  394.250   63.723    0.427    0.279    1.148
  394.500   62.535    0.427    0.280    1.127
  394.750   58.969    0.426    0.286    1.107
  395.000   55.403    0.424    0.288    1.047
  395.250   53.620    0.423    0.295    1.027
  395.500   54.218    0.420    0.302    0.990
  395.750   54.815    0.419    0.304    0.954
  396.000   53.628    0.418    0.304    0.937
  396.250   53.036    0.418    0.304    0.903
  396.500   52.443    0.418    0.304    0.886
  396.750   52.445    0.419    0.306    0.870
  397.000   54.232    0.422    0.309    0.870
  397.250   56.614    0.427    0.311    0.854
  397.500   58.400    0.436    0.311    0.839
  397.750   57.808    0.450    0.311    0.839
  398.000   57.216    0.449    0.311    0.855
  398.250   59.004    0.442    0.311    0.871
  398.500   60.194    0.437    0.310    0.888
  398.750   61.982    0.438    0.307    0.905
  399.000   62.579    0.444    0.305    0.923
  399.250   63.176    0.455    0.302    0.940
  399.500   63.774    0.473    0.301    0.976
  399.750   63.775    0.472    0.300    1.014
  400.000   64.373    0.465    0.300    1.033
  400.250   65.565    0.456    0.301    1.073
  400.500   66.163    0.449    0.302    1.114
  400.750   66.164    0.448    0.302    1.115
  401.000   66.762    0.455    0.302    1.054
  401.250   66.764    0.456    0.302    1.035
  401.500   66.766    0.446    0.303    0.979
  401.750   66.769    0.441    0.305    0.943
  402.000   66.178    0.439    0.305    0.926
  402.250   65.584    0.439    0.303    0.926
  402.500   64.398    0.437    0.299    0.926
  402.750   63.804    0.433    0.294    0.944
  403.000   62.022    0.429    0.298    0.944
  403.250   61.430    0.426    0.302    0.945
  403.500   61.433    0.435    0.307    0.910
  403.750   59.651    0.438    0.309    0.861
  404.000   56.679    0.433    0.309    0.830
  404.250   56.088    0.430    0.311    0.830
  404.500   56.089    0.430    0.312    0.830
  404.750   57.282    0.439    0.310    0.846
  405.000   58.474    0.446    0.304    0.879
  405.250   60.856    0.445    0.298    0.895
  405.500   62.047    0.439    0.295    0.913
  405.750   65.023    0.435    0.291    0.948
  406.000   67.405    0.434    0.284    0.966
  406.250   69.788    0.435    0.279    0.984
  406.500   70.384    0.436    0.274    0.985
  406.750   72.171    0.437    0.272    1.003
  407.000   73.958    0.442    0.273    1.023
  407.250   74.555    0.448    0.275    1.042
  407.500   73.963    0.458    0.272    1.062
  407.750   72.181    0.463    0.265    1.083
  408.000   70.994    0.466    0.264    1.104
  408.250   68.617    0.463    0.269    1.104
  408.500   66.240    0.451    0.273    1.084
  408.750   63.864    0.442    0.279    1.025
  409.000   66.246    0.438    0.290    1.006
  409.250   67.437    0.438    0.285    0.934
  409.500   66.844    0.437    0.277    0.917
  409.750   63.873    0.436    0.283    0.900
  410.000   61.497    0.431    0.286    0.884
  410.250   61.498    0.429    0.291    0.868
  410.500   62.096    0.425    0.294    0.936
  410.750   62.098    0.423    0.295    0.953
  411.000   63.290    0.426    0.294    0.990
  411.250   65.078    0.442    0.295    1.047
  411.500   68.055    0.447    0.294    1.172
  411.750   70.435    0.449    0.288    1.217
