~VERSION INFORMATION
 VERS.                 2.0:   CWLS LOG ASCII STANDARD -VERSION 2.0
 WRAP.                  NO:   ONE LINE PER DEPTH STEP
~WELL INFORMATION BLOCK
#MNEM.UNIT           DATA                    DESCRIPTION OF MNEMONIC
#---------    -------------------            -------------------------------
# Generated from Intellog Unique Number	CS_69_70/WELL/845
WELL.         BOW VALLEY EXPLORATIONS        : Well_name    - WELL
LOC .         00/07-31-069-13W4/0            : Location     - LOCATION
UWI .         00/07-31-069-13W4/0            : Uwi          - UNIQUE WELL ID
ENTR.         SP                             : Entered      - ENTERED BY
SRVC.         SCHLUMBERGER                   : Scn          - SERVICE COMPANY
STRT.M        265                            : top_depth    - START DEPTH
STOP.M        485                            : bot_depth    - STOP DEPTH
STEP.M        0.25                           : increment    - STEP LENGTH
 NULL. -999.2500:NULL Value
~CURVE INFORMATION BLOCK
#MNEM UNIT       ERCB CURVE CODE    CURVE DESCRIPTION
#-----------   ------------------   ----------------------------------
DEPT.M        00 001 00 00         : DEPTH        - DEPTH
ILD .OHMM     00 120 00 00         : RESD         - DEEP RESISTIVITY (DIL)
DPHI.V/V      00 890 00 00         : PHID         - DENSITY POROSITY (LIMESTONE)
NPHI.V/V      00 330 00 00         : PHIN         - NEUTRON POROSITY (LIMESTONE)
GR  .API      00 310 00 00         : GR           - GAMMA RAY
~PARAMETER INFORMATION
#MNEM.UNIT           DATA             DESCRIPTION OF MNEMONIC
#---------         -----------     ------------------------------
GL  .M        568.8                : gl           - GROUND LEVEL ELEVATION
EREF.M        576.5                : kb           - ELEVATION OF DEPTH REFERENCE
DATM.M        568.8                : datum        - DATUM ELEVATION
TDD .M        486                  : tdd          - TOTAL DEPTH DRILLER
RUN .         ONE                  : Run          - RUN NUMBER
ENG .         BILL                 : Engineer     - RECORDING ENGINEER
WIT .         JIM                  : Witness      - WITNESSED BY
MUD .         GEL                  : Mud_type     - MUD TYPE
MATR.         LIMESTONE            : Logunit      - NEUTRON MATRIX
TMAX.C        20                   : BHT          - MAXIMUM RECORDED TEMPERATURE
BHTD.M        486                  : BHTDEP       - MAXIMUM RECORDED TEMPERATURE
MATR.         1                    : LOGUNIT      - NEUTRON MATRIX
RMT .C        25                   : MDTP         - TEMPERATURE OF MUD
NEUT.         1                    : NEUTRON      - NEUTRON TYPE
RESI.         0                    : RESIST       - RESISTIVITY TYPE
RMC .OHMM     0.25                 : RMC          - RESISTIVITY OF MUD CAKE
RMF .OHMM     0.25                 : RMF          - RESISTIVITY OF MUD FILTRATE
SUFT.C        15                   : SUFT         - SURFACE TEMPERATURE
~A  DEPTH     RESD     PHID     PHIN       GR
  265.000    2.398    0.495    0.552   94.866
  265.250    2.435    0.506    0.550   93.548
  265.500    2.481    0.474    0.559   93.016
  265.750    2.524    0.451    0.575   93.748
  266.000    2.567    0.427    0.592   97.024
  266.250    2.616    0.480    0.583   99.030
  266.500    2.656    0.505    0.569  100.856
  266.750    2.682    0.525    0.556  101.589
  267.000    2.723    0.497    0.542  102.386
  267.250    2.770    0.434    0.531  104.999
  267.500    2.802    0.397    0.486  106.941
  267.750    2.861    0.378    0.471  109.250
  268.000    2.932    0.371    0.477  110.350
  268.250    2.994    0.361    0.489  110.057
  268.500    3.132    0.341    0.501  109.220
  268.750    3.209    0.344    0.496  106.631
  269.000    3.228    0.364    0.485  103.438
  269.250    3.272    0.379    0.479  101.754
  269.500    3.279    0.379    0.471  100.254
  269.750    3.208    0.362    0.460   98.693
  270.000    3.126    0.387    0.451   98.036
  270.250    2.968    0.403    0.446   97.804
  270.500    2.870    0.388    0.470   97.814
  270.750    2.782    0.385    0.488   98.308
  271.000    2.746    0.390    0.500   98.500
  271.250    2.727    0.397    0.506   98.573
  271.500    2.748    0.332    0.513   98.461
  271.750    2.785    0.385    0.508   97.987
  272.000    2.801    0.416    0.518   96.910
  272.250    2.792    0.446    0.530   94.381
  272.500    2.741    0.479    0.508   92.819
  272.750    2.676    0.233    0.476   93.072
  273.000    2.895    0.355    0.503   92.417
  273.250    3.179    0.386    0.540   90.069
  273.500    3.426    0.412    0.549   83.067
  273.750    3.706    0.425    0.517   78.178
  274.000    3.218    0.363    0.446   71.900
  274.250    2.916    0.322    0.378   64.897
  274.500    2.692    0.302    0.304   54.025
  274.750    2.467    0.314    0.318   45.207
  275.000    2.269    0.309    0.332   38.506
  275.250    2.118    0.302    0.344   35.313
  275.500    2.057    0.299    0.349   34.174
  275.750    2.034    0.300    0.355   35.091
  276.000    2.043    0.308    0.345   35.767
  276.250    2.090    0.302    0.341   39.283
  276.500    2.239    0.300    0.336   49.273
  276.750    2.445    0.303    0.338   54.117
  277.000    2.855    0.306    0.337   65.376
  277.250    3.248    0.302    0.335   72.821
  277.500    3.600    0.291    0.368   86.134
  277.750    3.880    0.305    0.390   92.794
  278.000    3.999    0.277    0.413   93.953
  278.250    4.068    0.268    0.387  100.981
  278.500    4.046    0.270    0.378  104.315
  278.750    3.987    0.289    0.408  107.407
  279.000    3.893    0.305    0.427  111.166
  279.250    3.815    0.331    0.447  112.266
  279.500    3.656    0.352    0.469  112.155
  279.750    3.556    0.342    0.481  112.890
  280.000    3.446    0.342    0.476  110.482
  280.250    3.340    0.316    0.483  104.143
  280.500    3.255    0.283    0.458   97.745
  280.750    3.274    0.258    0.440   92.495
  281.000    3.331    0.286    0.423   83.436
  281.250    3.388    0.293    0.422   97.716
  281.500    3.446    0.282    0.432  106.372
  281.750    3.499    0.281    0.428  106.444
  282.000    3.566    0.282    0.418  101.438
  282.250    3.614    0.284    0.407   97.758
  282.500    3.669    0.283    0.402   94.745
  282.750    3.732    0.284    0.401   94.090
  283.000    3.861    0.299    0.407   89.565
  283.250    3.994    0.311    0.399   87.217
  283.500    4.093    0.295    0.395   86.805
  283.750    4.148    0.296    0.409   88.872
  284.000    4.134    0.307    0.421   89.607
  284.250    4.135    0.296    0.427   90.163
  284.500    4.098    0.278    0.429   90.475
  284.750    4.001    0.254    0.435   90.727
  285.000    3.958    0.280    0.448   91.583
  285.250    3.922    0.298    0.456   88.752
  285.500    3.931    0.315    0.448   84.288
  285.750    3.954    0.324    0.417   84.782
  286.000    3.985    0.322    0.396   90.778
  286.250    4.001    0.328    0.421   95.626
  286.500    4.002    0.356    0.441   98.599
  286.750    4.003    0.294    0.433   95.103
  287.000    3.982    0.310    0.439   92.875
  287.250    3.881    0.317    0.434   91.980
  287.500    3.796    0.318    0.443   93.017
  287.750    3.658    0.313    0.456   91.757
  288.000    3.532    0.300    0.391   88.746
  288.250    3.423    0.279    0.382   87.243
  288.500    3.360    0.285    0.404   87.316
  288.750    3.336    0.290    0.417   89.501
  289.000    3.306    0.286    0.428   92.840
  289.250    3.332    0.280    0.441   93.937
  289.500    3.389    0.278    0.427   93.039
  289.750    3.619    0.260    0.414   88.638
  290.000    3.772    0.243    0.426   87.316
  290.250    3.887    0.243    0.444   93.554
  290.500    4.021    0.249    0.452  100.278
  290.750    4.136    0.251    0.445  103.974
  291.000    4.200    0.233    0.440  108.763
  291.250    4.233    0.239    0.443  105.326
  291.500    4.218    0.233    0.445  102.253
  291.750    4.165    0.240    0.438  100.691
  292.000    4.096    0.230    0.437  101.849
  292.250    3.955    0.227    0.443  104.400
  292.500    3.826    0.243    0.455  105.800
  292.750    3.735    0.271    0.469  107.019
  293.000    3.654    0.308    0.479  109.147
  293.250    3.648    0.349    0.496  112.788
  293.500    3.718    0.379    0.507  115.092
  293.750    3.861    0.396    0.492  117.460
  294.000    3.956    0.411    0.479  120.555
  294.250    4.039    0.308    0.469  124.134
  294.500    4.194    0.287    0.460  125.957
  294.750    4.322    0.275    0.450  128.206
  295.000    4.438    0.256    0.438  127.851
  295.250    4.455    0.230    0.428  119.822
  295.500    4.391    0.244    0.428  114.090
  295.750    4.255    0.257    0.425  109.322
  296.000    3.966    0.267    0.419  104.012
  296.250    3.758    0.279    0.413  101.178
  296.500    3.541    0.292    0.411  100.161
  296.750    3.375    0.293    0.410  104.587
  297.000    3.276    0.287    0.405   98.186
  297.250    3.290    0.285    0.416   92.332
  297.500    3.309    0.302    0.433   91.316
  297.750    3.316    0.324    0.438   98.099
  298.000    3.348    0.342    0.426  102.097
  298.250    3.387    0.322    0.448  106.461
  298.500    3.388    0.328    0.471  102.361
  298.750    3.395    0.298    0.460   96.204
  299.000    3.371    0.278    0.456   90.956
  299.250    3.316    0.290    0.468   86.553
  299.500    3.262    0.318    0.468   83.538
  299.750    3.126    0.324    0.470   80.768
  300.000    3.001    0.326    0.479   78.358
  300.250    2.919    0.331    0.488   78.733
  300.500    2.953    0.319    0.493   82.794
  300.750    3.129    0.307    0.474   88.124
  301.000    3.304    0.297    0.456   94.484
  301.250    3.470    0.278    0.442  100.419
  301.500    3.643    0.256    0.426  105.024
  301.750    3.790    0.228    0.418  108.601
  302.000    3.920    0.223    0.426  110.970
  302.250    4.048    0.226    0.431  112.190
  302.500    4.041    0.239    0.428  113.471
  302.750    3.945    0.253    0.422  114.811
  303.000    3.859    0.253    0.421  115.909
  303.250    3.832    0.256    0.424  118.035
  303.500    3.898    0.263    0.428  120.041
  303.750    4.002    0.298    0.435  121.322
  304.000    4.063    0.306    0.438  117.885
  304.250    4.227    0.314    0.443  114.147
  304.500    4.488    0.307    0.436  111.014
  304.750    4.531    0.247    0.429  109.997
  305.000    4.247    0.198    0.418  109.585
  305.250    3.965    0.203    0.320  109.533
  305.500    3.764    0.258    0.348  109.967
  305.750    3.560    0.285    0.407  111.186
  306.000    3.489    0.310    0.439  112.768
  306.250    3.451    0.301    0.449  111.811
  306.500    3.370    0.293    0.457  108.194
  306.750    3.290    0.288    0.454  104.577
  307.000    3.248    0.302    0.426  101.382
  307.250    3.237    0.292    0.394  100.485
  307.500    3.256    0.286    0.412  104.125
  307.750    3.276    0.290    0.429  106.614
  308.000    3.332    0.291    0.444  105.354
  308.250    3.428    0.302    0.455   98.051
