~VERSION INFORMATION
 VERS.                 2.0:   CWLS LOG ASCII STANDARD -VERSION 2.0
 WRAP.                  NO:   ONE LINE PER DEPTH STEP
~WELL INFORMATION BLOCK
#MNEM.UNIT           DATA                    DESCRIPTION OF MNEMONIC
#---------    -------------------            -------------------------------
# Generated from Intellog Unique Number	CW_73_75/WELL/637
WELL.         MANNVILL MESA MITSKE 07-01     : Well_name    - WELL
LOC .         00/07-01-074-03W5/0            : Location     - LOCATION
UWI .         00/07-01-074-03W5/0            : Uwi          - UNIQUE WELL ID
ENTR.         JAYE                           : Entered      - ENTERED BY
SRVC.         SCHLUMBERGER                   : Scn          - SERVICE COMPANY
DATE.         1 MAR 79                       : Date         - LOG DATE
STRT.M        440                            : top_depth    - START DEPTH
STOP.M        675                            : bot_depth    - STOP DEPTH
STEP.M        0.25                           : increment    - STEP LENGTH
 NULL. -999.2500:NULL Value
~CURVE INFORMATION BLOCK
#MNEM UNIT       ERCB CURVE CODE    CURVE DESCRIPTION
#-----------   ------------------   ----------------------------------
DEPT.M        00 001 00 00         : DEPTH        - DEPTH
ILD .OHMM     00 120 00 00         : RESD         - DEEP RESISTIVITY (DIL)
NPHI.V/V      00 330 00 00         : PHIN         - NEUTRON POROSITY (SANDSTONE)
DPHI.V/V      00 890 00 00         : PHID         - DENSITY POROSITY (SANDSTONE)
CALI.MM       00 280 01 00         : CAL          - CALIPER
GR  .API      00 310 00 00         : GR           - GAMMA RAY
~PARAMETER INFORMATION
#MNEM.UNIT           DATA             DESCRIPTION OF MNEMONIC
#---------         -----------     ------------------------------
GL  .M        685.4                : gl           - GROUND LEVEL ELEVATION
EREF.M        688.4                : kb           - ELEVATION OF DEPTH REFERENCE
DATM.M        685.4                : datum        - DATUM ELEVATION
TDD .M        675                  : tdd          - TOTAL DEPTH DRILLER
RUN .         ONE                  : Run          - RUN NUMBER
ENG .         KESTER               : Engineer     - RECORDING ENGINEER
WIT .         MURYNKA              : Witness      - WITNESSED BY
BASE.         EDM                  : Branch       - HOME BASE OF LOGGING UNIT
MUD .         GEL GELEX            : Mud_type     - MUD TYPE
MATR.         SANDSTONE            : Logunit      - NEUTRON MATRIX
TMAX.C        17.5                 : BHT          - MAXIMUM RECORDED TEMPERATURE
BHTD.M        674                  : BHTDEP       - MAXIMUM RECORDED TEMPERATURE
RMT .C        16.7                 : MDTP         - TEMPERATURE OF MUD
MUDD.KG/M     1110                 : MWT          - MUD DENSITY
NEUT.         1                    : NEUTRON      - NEUTRON TYPE
RESI.         0                    : RESIST       - RESISTIVITY TYPE
RM  .OHMM     4.07                 : RM           - RESISTIVITY OF MUD
RMC .OHMM     0                    : RMC          - RESISTIVITY OF MUD CAKE
RMF .OHMM     4.68                 : RMF          - RESISTIVITY OF MUD FILTRATE
SUFT.C        0                    : SUFT         - SURFACE TEMPERATURE
~A  DEPTH     RESD     PHIN     PHID      CAL       GR
# ...
  622.500    6.319    0.387    0.155  158.289   95.368
  622.750    6.090    0.405    0.132  158.880   95.781
  623.000    5.946    0.434    0.133  160.183   96.256
  623.250    6.036    0.445    0.153  160.973   95.626
  623.500    6.301    0.432    0.174  161.360   95.671
  623.750    6.640    0.417    0.160  161.838   94.061
  624.000    6.801    0.405    0.153  161.818   92.941
  624.250    6.981    0.410    0.156  161.790   95.870
  624.500    6.944    0.420    0.163  161.864   96.284
  624.750    6.780    0.430    0.160  161.838   96.636
  625.000    6.658    0.411    0.160  161.913   97.724
  625.250    6.535    0.406    0.150  162.191   97.279
  625.500    6.393    0.407    0.145  162.267   97.692
  625.750    6.242    0.405    0.131  162.550   99.088
  626.000    6.128    0.405    0.145  162.421  102.261
  626.250    5.995    0.407    0.150  162.496  102.921
  626.500    5.920    0.413    0.132  162.574   99.346
  626.750    5.908    0.396    0.125  162.651  100.680
  627.000    5.920    0.386    0.143  162.721  104.406
  627.250    5.923    0.398    0.162  163.004  103.470
  627.500    5.945    0.404    0.151  162.873   99.160
  627.750    5.967    0.392    0.154  162.749  100.799
  628.000    6.006    0.382    0.149  162.616  100.171
  628.250    6.005    0.378    0.142  162.593   99.357
  628.500    5.949    0.395    0.151  162.977   97.931
  628.750    5.628    0.387    0.126  163.050   99.264
  629.000    4.879    0.369    0.106  163.125  103.359
  629.250    4.038    0.359    0.123  163.402  106.840
  629.500    3.380    0.392    0.157  163.789  112.283
  629.750    2.656    0.479    0.166  164.069  110.856
  630.000    1.996    0.513    0.172  164.250  107.036
  630.250    1.686    0.535    0.201  164.935  105.242
  630.500    1.596    0.567    0.250  165.825  103.264
  630.750    1.558    0.607    0.245  166.113  103.432
  631.000    1.581    0.570    0.251  166.797  108.691
  631.250    1.644    0.553    0.257  167.081  109.166
  631.500    1.736    0.536    0.243  168.589  108.046
  631.750    1.866    0.503    0.225  171.424  105.209
  632.000    2.082    0.494    0.198  173.543  106.664
  632.250    2.354    0.496    0.202  174.644  106.097
  632.500    2.767    0.460    0.148  172.878  102.094
  632.750    3.295    0.430    0.080  170.911   97.784
  633.000    5.688    0.373    0.019  170.473   95.191
  633.250    5.701    0.372    0.033  170.754   99.653
  633.500    5.435    0.374    0.086  171.240  108.102
  633.750    5.123    0.376    0.118  172.127  111.583
  634.000    4.889    0.389    0.122  172.312  113.101
  634.250    4.677    0.406    0.135  173.408  112.656
  634.500    4.583    0.416    0.138  174.404  111.106
  634.750    4.434    0.423    0.135  175.397  111.704
  635.000    4.377    0.425    0.109  176.086  110.951
  635.250    4.347    0.414    0.111  175.962  109.955
  635.500    4.363    0.405    0.104  174.503  108.037
  635.750    4.453    0.406    0.088  171.817  109.799
  636.000    4.589    0.424    0.122  169.133  111.011
  636.250    4.861    0.429    0.124  167.061  111.302
  636.500    5.198    0.418    0.122  166.010  111.224
  636.750    5.477    0.405    0.121  165.676  108.816
  637.000    5.694    0.385    0.116  165.246  109.720
  637.250    5.901    0.393    0.105  165.216  109.212
  637.500    6.034    0.424    0.119  165.295  106.315
  637.750    6.149    0.400    0.097  165.363  102.496
  638.000    6.174    0.372    0.073  165.545  103.215
  638.250    6.075    0.359    0.051  165.522  110.439
  638.500    5.954    0.384    0.073  165.491  112.569
  638.750    5.833    0.396    0.093  165.160  113.412
  639.000    5.736    0.393    0.108  164.828  114.133
  639.250    5.641    0.389    0.111  164.394  115.528
  639.500    5.417    0.396    0.103  164.361  115.879
  639.750    5.240    0.410    0.082  164.136  118.992
  640.000    5.449    0.426    0.095  163.803  118.425
  640.250    6.964    0.433    0.101  163.569  110.312
  640.500    8.703    0.382    0.110  163.133   96.984
  640.750   11.058    0.335    0.089  162.803   68.874
  641.000   14.801    0.154    0.051  162.367   51.988
  641.250   19.021    0.116    0.002  161.830   40.930
  641.500   22.651    0.133    0.006  161.590   38.890
  641.750   24.404    0.154    0.016  161.161   39.916
  642.000   24.860    0.169    0.012  160.929   41.190
  642.250   25.288    0.163    0.003  160.702   40.069
  642.500   25.770    0.147    0.010  160.363   37.353
  642.750   26.154    0.123    0.003  160.133   36.602
  643.000   26.708    0.127    0.022  159.907   37.198
  643.250   27.054    0.135    0.030  159.879   37.614
  643.500   27.368    0.149    0.040  159.852   38.701
  643.750   27.841    0.154    0.035  158.702   40.586
  644.000   28.204    0.144    0.014  157.652   41.613
  644.250   28.575    0.131    0.002  156.912   39.942
  644.500   28.843    0.113    0.011  156.884   38.025
  644.750   28.846    0.109    0.011  156.956   37.150
  645.000   28.762    0.112   -0.000  157.139   37.502
  645.250   28.755    0.117    0.006  157.518   37.915
  645.500   28.502    0.123    0.020  157.802   39.986
  645.750   27.925    0.130    0.021  158.592   41.563
  646.000   26.810    0.139    0.014  159.279   43.328
  646.250   25.457    0.154    0.007  159.664   48.219
  646.500   23.818    0.170    0.012  159.739   53.602
  646.750   22.283    0.182    0.042  158.795   56.653
  647.000   20.962    0.196    0.067  157.642   57.434
  647.250   20.013    0.212    0.092  157.306   58.400
  647.500   19.760    0.216    0.113  157.283   60.715
  647.750   19.765    0.206    0.073  158.173   57.017
  648.000   19.551    0.196    0.043  159.272   56.266
  648.250   19.123    0.187    0.029  160.373   58.520
  648.500   18.192    0.175    0.010  160.956   59.178
  648.750   16.676    0.164    0.005  161.442   59.040
  649.000   14.922    0.153    0.006  161.926   59.822
  649.250   13.203    0.146    0.000  162.309   62.996
  649.500   11.638    0.146    0.008  162.894   76.599
  649.750    9.706    0.152    0.019  163.176   82.349
  650.000    7.280    0.205    0.041  163.458  110.551
  650.250    6.786    0.251    0.047  164.251  144.273
  650.500    6.601    0.282    0.065  165.043  149.656
  650.750    6.506    0.333    0.061  165.729  144.916
  651.000    6.389    0.317    0.078  166.519  140.851
  651.250    6.272    0.315    0.086  167.007  138.750
  651.500    6.213    0.319    0.066  166.976  139.592
  651.750    6.203    0.324    0.063  167.057  144.852
  652.000    6.205    0.327    0.070  167.031  145.941
  652.250    6.195    0.329    0.086  167.102  146.600
  652.500    6.162    0.332    0.092  166.976  148.792
  652.750    6.128    0.335    0.084  166.949  151.045
  653.000    6.143    0.329    0.086  167.126  152.625
  653.250    6.155    0.318    0.093  167.205  155.247
  653.500    6.132    0.323    0.101  167.277  158.294
  653.750    6.111    0.340    0.090  167.253  159.816
  654.000    6.101    0.353    0.089  167.327  161.333
  654.250    6.081    0.365    0.101  167.401  161.869
  654.500    6.067    0.356    0.093  167.377  161.792
  654.750    6.046    0.344    0.100  167.353  161.899
  655.000    6.038    0.334    0.084  167.223  162.864
  655.250    6.050    0.331    0.073  167.095  166.775
  655.500    6.062    0.330    0.089  166.859  167.189
  655.750    6.074    0.328    0.059  166.429  163.860
  656.000    6.087    0.328    0.038  166.197  164.395
  656.250    6.113    0.341    0.073  165.656  168.858
  656.500    6.122    0.342    0.103  165.121  172.154
  656.750    6.170    0.341    0.102  164.686  173.304
  657.000    6.241    0.339    0.107  164.354  172.675
  657.250    6.300    0.337    0.115  163.817  172.167
  657.500    6.371    0.335    0.115  163.478  172.397
  657.750    6.518    0.333    0.095  163.148  173.608
  658.000    6.616    0.332    0.090  163.016  175.800
  658.250    6.716    0.332    0.096  162.887  177.992
  658.500    6.793    0.333    0.117  162.556  180.248
  658.750    6.842    0.344    0.106  162.325  183.850
