~VERSION INFORMATION
 VERS.                 2.0:   CWLS LOG ASCII STANDARD -VERSION 2.0
 WRAP.                  NO:   ONE LINE PER DEPTH STEP
~WELL INFORMATION BLOCK
#MNEM.UNIT           DATA                    DESCRIPTION OF MNEMONIC
#---------    -------------------            -------------------------------
# Generated from Intellog Unique Number	CS_67_68/WELL/768
WELL.         FISHER CREEK                   : Well_name    - WELL
LOC .         00/07-01-068-06W4/0            : Location     - LOCATION
UWI .         00/07-01-068-06W4/0            : Uwi          - UNIQUE WELL ID
ENTR.         SP                             : Entered      - ENTERED BY
SRVC.         SCHLUMBERGER                   : Scn          - SERVICE COMPANY
STRT.M        335                            : top_depth    - START DEPTH
STOP.M        550                            : bot_depth    - STOP DEPTH
STEP.M        0.25                           : increment    - STEP LENGTH
 NULL. -999.2500:NULL Value
~CURVE INFORMATION BLOCK
#MNEM UNIT       ERCB CURVE CODE    CURVE DESCRIPTION
#-----------   ------------------   ----------------------------------
DEPT.M        00 001 00 00         : DEPTH        - DEPTH
ILD .OHMM     00 120 00 00         : RESD         - DEEP RESISTIVITY (DIL)
DPHI.V/V      00 890 00 00         : PHID         - DENSITY POROSITY (LIMESTONE)
NPHI.V/V      00 330 00 00         : PHIN         - NEUTRON POROSITY (LIMESTONE)
GR  .API      00 310 00 00         : GR           - GAMMA RAY
~PARAMETER INFORMATION
#MNEM.UNIT           DATA             DESCRIPTION OF MNEMONIC
#---------         -----------     ------------------------------
GL  .M        672.57               : gl           - GROUND LEVEL ELEVATION
EREF.M        675.6                : kb           - ELEVATION OF DEPTH REFERENCE
DATM.M        672.57               : datum        - DATUM ELEVATION
TDD .M        554                  : tdd          - TOTAL DEPTH DRILLER
RUN .         ONE                  : Run          - RUN NUMBER
ENG .         BILL                 : Engineer     - RECORDING ENGINEER
WIT .         JIM                  : Witness      - WITNESSED BY
MUD .         GEL                  : Mud_type     - MUD TYPE
MATR.         LIMESTONE            : Logunit      - NEUTRON MATRIX
TMAX.C        20                   : BHT          - MAXIMUM RECORDED TEMPERATURE
BHTD.M        554                  : BHTDEP       - MAXIMUM RECORDED TEMPERATURE
MATR.         1                    : LOGUNIT      - NEUTRON MATRIX
RMT .C        25                   : MDTP         - TEMPERATURE OF MUD
NEUT.         1                    : NEUTRON      - NEUTRON TYPE
RESI.         0                    : RESIST       - RESISTIVITY TYPE
RMC .OHMM     0.25                 : RMC          - RESISTIVITY OF MUD CAKE
RMF .OHMM     0.25                 : RMF          - RESISTIVITY OF MUD FILTRATE
SUFT.C        15                   : SUFT         - SURFACE TEMPERATURE
~A  DEPTH     RESD     PHID     PHIN       GR
# ...
  465.500    5.789    0.294    0.491   75.336
  465.750    5.609    0.297    0.489   74.709
  466.000    5.425    0.297    0.504   78.662
  466.250    5.326    0.283    0.517   82.301
  466.500    5.220    0.273    0.504   85.376
  466.750    5.126    0.267    0.482   87.509
  467.000    5.071    0.256    0.490   87.886
  467.250    5.035    0.249    0.493   87.573
  467.500    5.076    0.245    0.495   88.578
  467.750    5.295    0.245    0.502   91.213
  468.000    5.389    0.261    0.485   94.350
  468.250    5.402    0.265    0.465   96.797
  468.500    5.365    0.246    0.452   96.861
  468.750    5.297    0.234    0.477   94.979
  469.000    5.152    0.229    0.500   93.914
  469.250    4.964    0.232    0.503   93.977
  469.500    4.738    0.246    0.491   93.789
  469.750    4.635    0.254    0.484   91.218
  470.000    4.690    0.256    0.482   87.893
  470.250    4.764    0.261    0.477   84.255
  470.500    4.960    0.268    0.472   81.119
  470.750    5.332    0.277    0.465   78.046
  471.000    6.595    0.282    0.458   75.035
  471.250    6.863    0.285    0.454   73.028
  471.500    8.138    0.268    0.469   70.582
  471.750   10.215    0.228    0.475   67.257
  472.000   13.289    0.161    0.441   61.612
  472.250   18.434    0.205    0.418   58.664
  472.500   21.534    0.265    0.461   60.045
  472.750   23.459    0.312    0.494   63.182
  473.000   22.517    0.324    0.494   67.009
  473.250   18.202    0.331    0.481   70.711
  473.500   14.574    0.310    0.493   70.273
  473.750   12.898    0.189    0.490   64.125
  474.000   12.079    0.132    0.410   60.864
  474.250   14.489    0.198    0.391   65.946
  474.500   17.379    0.243    0.417   64.943
  474.750   20.806    0.213    0.448   61.430
  475.000   23.943    0.181    0.431   60.301
  475.250   24.597    0.220    0.411   63.815
  475.500   22.565    0.268    0.452   68.458
  475.750   18.762    0.291    0.472   71.407
  476.000   13.722    0.310    0.490   74.105
  476.250   10.188    0.317    0.494   77.368
  476.500    7.795    0.317    0.482   81.886
  476.750    5.766    0.298    0.490   84.333
  477.000    4.634    0.265    0.471   86.404
  477.250    3.746    0.245    0.493   87.408
  477.500    2.905    0.256    0.517   84.460
  477.750    2.348    0.284    0.538   82.140
  478.000    2.051    0.300    0.556   81.638
  478.250    1.877    0.307    0.606   84.838
  478.500    1.772    0.297    0.575   87.411
  478.750    1.723    0.291    0.564   87.851
  479.000    1.689    0.298    0.570   81.829
  479.250    1.683    0.306    0.574   77.187
  479.500    1.697    0.303    0.613   73.988
  479.750    1.708    0.299    0.629   75.432
  480.000    1.719    0.304    0.636   80.576
  480.250    1.730    0.308    0.622   80.954
  480.500    1.734    0.306    0.611   78.758
  480.750    1.741    0.293    0.600   78.633
  481.000    1.752    0.291    0.587   79.826
  481.250    1.787    0.290    0.573   80.015
  481.500    1.849    0.290    0.565   79.953
  481.750    1.933    0.289    0.562   80.267
  482.000    2.070    0.284    0.565   80.958
  482.250    2.171    0.277    0.574   82.903
  482.500    2.299    0.282    0.540   85.162
  482.750    2.403    0.280    0.528   86.480
  483.000    2.413    0.269    0.550   88.363
  483.250    2.378    0.263    0.564   89.681
  483.500    2.296    0.262    0.565   90.685
  483.750    2.204    0.266    0.555   92.191
  484.000    2.180    0.272    0.550   93.447
  484.250    2.198    0.275    0.545   94.890
  484.500    2.262    0.268    0.541   96.083
  484.750    2.378    0.263    0.548   94.829
  485.000    2.480    0.258    0.551   91.504
  485.250    2.612    0.254    0.534   93.951
  485.500    2.688    0.251    0.524   96.587
  485.750    2.767    0.250    0.530   98.156
  486.000    2.837    0.254    0.519   94.204
  486.250    2.954    0.261    0.521   88.935
  486.500    3.075    0.265    0.527   89.061
  486.750    3.238    0.266    0.519   93.453
  487.000    3.307    0.267    0.512   99.288
  487.250    3.353    0.267    0.524  102.551
  487.500    3.275    0.240    0.552  100.105
  487.750    3.173    0.169    0.558   97.219
  488.000    3.063    0.106    0.548  102.615
  488.250    2.985    0.142    0.557  106.192
  488.500    2.930    0.188    0.573  106.945
  488.750    2.872    0.221    0.573  103.370
  489.000    2.777    0.219    0.560   99.105
  489.250    2.666    0.222    0.572   92.204
  489.500    2.877    0.235    0.541   84.363
  489.750    3.645    0.240    0.496   77.902
  490.000    4.347    0.226    0.461   70.876
  490.250    5.324    0.223    0.432   66.799
  490.500    6.184    0.205    0.429   61.843
  490.750    7.544    0.025    0.326   57.139
  491.000    8.551    0.032    0.293   60.025
  491.250    8.428    0.175    0.321   66.613
  491.500    7.908    0.195    0.371   71.883
  491.750    7.379    0.219    0.433   74.205
  492.000    7.003    0.243    0.459   68.936
  492.250    6.980    0.259    0.468   62.788
  492.500    7.448    0.283    0.472   60.091
  492.750    8.700    0.294    0.469   60.970
  493.000    9.549    0.307    0.457   62.727
  493.250    9.573    0.315    0.440   71.323
  493.500    9.069    0.306    0.439   77.722
  493.750    8.787    0.296    0.461   78.915
  494.000    8.185    0.296    0.460   74.210
  494.250    7.945    0.305    0.452   69.631
  494.500    7.626    0.305    0.445   68.879
  494.750    7.238    0.296    0.447   75.592
  495.000    6.947    0.285    0.444   82.556
  495.250    6.630    0.280    0.433   90.085
  495.500    6.340    0.276    0.422   95.606
  495.750    6.166    0.275    0.417   97.113
  496.000    6.312    0.266    0.422   98.682
  496.250    6.583    0.253    0.441  101.129
  496.500    7.010    0.242    0.452  103.576
  496.750    7.423    0.244    0.464   92.974
  497.000    7.714    0.250    0.457   93.163
  497.250    7.941    0.222    0.442   96.426
  497.500    7.959    0.214    0.426   97.995
  497.750    7.584    0.232    0.417   97.180
  498.000    7.293    0.250    0.417   95.424
  498.250    7.256    0.262    0.441   90.092
  498.500    7.554    0.244    0.400   75.350
  498.750    7.968    0.224    0.369   69.767
  499.000    8.501    0.219    0.375   63.494
  499.250    9.332    0.244    0.393   56.970
  499.500    9.770    0.265    0.402   67.322
  499.750   10.152    0.253    0.377   73.847
  500.000   10.411    0.246    0.365   73.409
  500.250   10.616    0.246    0.392   62.368
  500.500   10.483    0.244    0.400   59.984
  500.750   10.119    0.225    0.378   75.230
  501.000    9.804    0.213    0.359   84.891
  501.250    9.340    0.203    0.344   93.487
  501.500    8.682    0.199    0.373   83.199
  501.750    8.193    0.240    0.410   74.667
  502.000    7.983    0.269    0.436   66.199
  502.250    8.534    0.300    0.412   64.819
  502.500    9.898    0.276    0.384   69.525
  502.750   11.093    0.236    0.363   73.352
  503.000   11.523    0.227    0.345   72.349
  503.250   13.014    0.242    0.385   66.641
  503.500   13.750    0.273    0.424   63.755
  503.750   16.184    0.302    0.435   64.509
  504.000   18.727    0.320    0.424   68.964
  504.250   21.877    0.313    0.414   74.799
  504.500   19.954    0.307    0.412   80.446
  504.750   15.300    0.300    0.412   83.457
  505.000   13.062    0.297    0.408   86.155
  505.250   11.280    0.282    0.400   86.219
  505.500    9.907    0.259    0.393   89.105
  505.750    8.719    0.250    0.395   93.309
  506.000    7.746    0.236    0.401   95.819
  506.250    7.039    0.228    0.405   97.576
  506.500    6.730    0.226    0.402   97.765
  506.750    6.646    0.222    0.392   92.496
  507.000    6.815    0.222    0.385   88.293
  507.250    7.175    0.237    0.384   89.799
  507.500    7.541    0.236    0.400   80.892
  507.750    8.046    0.227    0.415   71.231
  508.000    8.982    0.253    0.416   75.372
  508.250    9.972    0.276    0.431   85.347
  508.500    9.847    0.257    0.489   92.249
  508.750    8.914    0.277    0.516   86.603
