~VERSION INFORMATION
 VERS.                 2.0:   CWLS LOG ASCII STANDARD -VERSION 2.0
 WRAP.                  NO:   ONE LINE PER DEPTH STEP
~WELL INFORMATION BLOCK
#MNEM.UNIT           DATA                    DESCRIPTION OF MNEMONIC
#---------    -------------------            -------------------------------
# Generated from Intellog Unique Number	CS_67_68/WELL/2174
WELL.         CHIEFCO et al TWEEDIE          : Well_name    - WELL
LOC .         00/07-02-067-12W4/0            : Location     - LOCATION
UWI .         00/07-02-067-12W4/0            : Uwi          - UNIQUE WELL ID
ENTR.         SP                             : Entered      - ENTERED BY
SRVC.         SCHLUMBERGER                   : Scn          - SERVICE COMPANY
STRT.M        330                            : top_depth    - START DEPTH
STOP.M        540                            : bot_depth    - STOP DEPTH
STEP.M        0.25                           : increment    - STEP LENGTH
 NULL. -999.2500:NULL Value
~CURVE INFORMATION BLOCK
#MNEM UNIT       ERCB CURVE CODE    CURVE DESCRIPTION
#-----------   ------------------   ----------------------------------
DEPT.M        00 001 00 00         : DEPTH        - DEPTH
ILD .OHMM     00 120 00 00         : RESD         - DEEP RESISTIVITY (DIL)
DPHI.V/V      00 890 00 00         : PHID         - DENSITY POROSITY (LIMESTONE)
NPHI.V/V      00 330 00 00         : PHIN         - NEUTRON POROSITY (LIMESTONE)
GR  .API      00 310 00 00         : GR           - GAMMA RAY
CALI.MM       00 280 01 00         : CAL          - CALIPER
~PARAMETER INFORMATION
#MNEM.UNIT           DATA             DESCRIPTION OF MNEMONIC
#---------         -----------     ------------------------------
GL  .M        607.4                : gl           - GROUND LEVEL ELEVATION
EREF.M        610.8                : kb           - ELEVATION OF DEPTH REFERENCE
DATM.M        610.8                : datum        - DATUM ELEVATION
TDD .M        545                  : tdd          - TOTAL DEPTH DRILLER
RUN .         ONE                  : Run          - RUN NUMBER
ENG .         BILL                 : Engineer     - RECORDING ENGINEER
WIT .         JIM                  : Witness      - WITNESSED BY
MUD .         GEL                  : Mud_type     - MUD TYPE
MATR.         LIMESTONE            : Logunit      - NEUTRON MATRIX
TMAX.C        28                   : BHT          - MAXIMUM RECORDED TEMPERATURE
BHTD.M        544.7                : BHTDEP       - MAXIMUM RECORDED TEMPERATURE
MATR.         1                    : LOGUNIT      - NEUTRON MATRIX
RMT .C        25                   : MDTP         - TEMPERATURE OF MUD
NEUT.         1                    : NEUTRON      - NEUTRON TYPE
RESI.         0                    : RESIST       - RESISTIVITY TYPE
RMC .OHMM     0.25                 : RMC          - RESISTIVITY OF MUD CAKE
RMF .OHMM     0.25                 : RMF          - RESISTIVITY OF MUD FILTRATE
SUFT.C        15                   : SUFT         - SURFACE TEMPERATURE
~A  DEPTH     RESD     PHID     PHIN       GR      CAL
# ...
  512.500    4.605    0.171    0.282   62.407  150.647
  512.750    4.659    0.191    0.276   66.759  151.776
  513.000    4.572    0.193    0.281   69.702  153.109
  513.250    4.281    0.196    0.284   72.769  153.934
  513.500    4.061    0.207    0.281   74.793  153.636
  513.750    3.896    0.215    0.300   74.859  152.827
  514.000    3.788    0.220    0.312   73.027  152.427
  514.250    3.739    0.205    0.303   70.522  152.232
  514.500    3.733    0.150    0.303   71.874  152.138
  514.750    3.914    0.123    0.304   76.225  151.841
  515.000    4.255    0.115    0.295   84.005  151.439
  515.250    4.522    0.130    0.287   94.357  150.733
  515.500    4.706    0.136    0.289  101.831  150.435
  515.750    4.779    0.132    0.298  106.122  150.545
  516.000    4.726    0.137    0.308  107.963  151.167
  516.250    4.458    0.168    0.324   94.928  151.583
  516.500    3.884    0.186    0.333   82.136  151.897
  516.750    3.481    0.203    0.326   75.957  152.006
  517.000    3.391    0.227    0.313   78.901  151.912
  517.250    3.610    0.217    0.296   97.151  151.715
  517.500    3.954    0.199    0.286  107.380  151.519
  517.750    4.532    0.167    0.296  111.058  154.282
  518.000    4.954    0.149    0.303  107.329  155.923
  518.250    5.478    0.147    0.309  102.680  155.523
  518.500    5.712    0.142    0.314  100.358  155.021
  518.750    5.866    0.136    0.319  100.914  154.214
  519.000    5.946    0.126    0.322   98.837  153.915
  519.250    5.947    0.135    0.318   98.230  153.820
  519.500    5.915    0.144    0.309  101.358  153.930
  519.750    5.861    0.138    0.310  105.097  154.448
  520.000    5.645    0.133    0.320  108.101  154.865
  520.250    5.529    0.139    0.321  110.004  155.180
  520.500    5.386    0.147    0.316  108.417  155.187
  520.750    5.207    0.153    0.312  103.647  155.197
  521.000    5.025    0.155    0.311  101.631  155.407
  521.250    4.803    0.156    0.316  100.227  155.415
  521.500    4.634    0.149    0.313   98.641  155.015
  521.750    4.497    0.145    0.308   97.115  155.023
  522.000    4.381    0.143    0.303   95.528  154.827
  522.250    4.251    0.163    0.299   96.512  154.529
  522.500    4.149    0.180    0.298   97.680  154.026
  522.750    4.080    0.168    0.300   97.134  153.831
  523.000    3.997    0.159    0.302   93.650  153.532
  523.250    3.930    0.160    0.300   90.593  153.030
  523.500    3.850    0.173    0.294   89.496  152.632
  523.750    3.793    0.181    0.293   89.561  152.434
  524.000    3.773    0.193    0.302   89.995  152.442
  524.250    3.752    0.185    0.310   91.469  153.165
  524.500    3.789    0.156    0.295   91.290  153.683
  524.750    3.855    0.136    0.329   92.458  154.915
  525.000    3.981    0.118    0.370  115.238  156.760
  525.250    4.144    0.093    0.370  122.161  158.706
  525.500    4.329    0.106    0.365  121.615  160.551
  525.750    4.488    0.116    0.362  116.723  161.784
  526.000    4.627    0.104    0.360  113.604  162.405
  526.250    4.717    0.091    0.361  111.772  162.515
  526.500    4.744    0.081    0.360  115.083  162.318
  526.750    4.800    0.071    0.357  117.537  161.613
  527.000    4.810    0.055    0.353  119.502  161.111
  527.250    4.811    0.066    0.349  117.975  161.120
  527.500    4.812    0.069    0.346  117.123  161.125
  527.750    4.786    0.072    0.353  120.006  161.133
  528.000    4.733    0.080    0.363  121.908  161.449
  528.250    4.654    0.078    0.372  121.546  161.763
  528.500    4.577    0.082    0.369  121.183  162.382
  528.750    4.535    0.097    0.360  121.371  162.594
  529.000    4.459    0.085    0.357  124.009  162.909
  529.250    4.385    0.090    0.359  127.258  163.120
  529.500    4.312    0.100    0.366  130.753  162.107
  529.750    4.264    0.111    0.382  129.044  161.401
  530.000    4.225    0.096    0.387  128.314  161.411
  530.250    4.171    0.086    0.374  129.911  161.622
  530.500    4.148    0.081    0.371  132.609  161.834
  530.750    4.087    0.098    0.382  135.552  161.843
  531.000    4.026    0.121    0.391  138.251  162.053
  531.250    3.959    0.107    0.390  131.154  161.858
  531.500    3.915    0.106    0.383  135.139  161.866
  531.750    3.865    0.125    0.375  143.898  161.466
  532.000    3.829    0.121    0.362  149.658  160.351
  532.250    3.780    0.108    0.412  149.112  159.033
  532.500    3.731    0.101    0.425  147.708  157.918
  532.750    3.669    0.109    0.418  148.080  157.110
  533.000    3.628    0.131    0.406  143.248  156.710
  533.250    3.581    0.114    0.399  137.682  156.311
  533.500    3.589    0.094    0.399  141.544  156.115
  533.750    3.583    0.086    0.398  144.549  155.408
  534.000    3.584    0.089    0.396  144.125  155.314
  534.250    3.564    0.112    0.395  142.906  155.323
  534.500    3.532    0.129    0.397  144.686  155.432
  534.750    3.486    0.126    0.402  147.078  156.460
  535.000    3.428    0.117    0.414  150.144  157.577
  535.250    3.403    0.110    0.417  153.149  157.092
  535.500    3.365    0.108    0.407  154.011  156.403
  535.750    3.347    0.126    0.396  154.383  155.712
  536.000    3.329    0.128    0.389  154.265  154.412
  536.250    3.298    0.125    0.396  153.658  152.606
  536.500    3.274    0.122    0.403  153.173  151.201
  536.750    3.250    0.121    0.400  150.668  149.596
  537.000    3.220    0.125    0.406  148.040  149.313
  537.250    3.197    0.139    0.414  147.065  149.641
  537.500    3.168    0.149    0.419  146.641  150.785
  537.750    3.139    0.141    0.426  153.503  152.233
  538.000    3.121    0.131    0.418  158.406  153.784
  538.250    3.081    0.123    0.413  156.758  154.521
  538.500    3.047    0.118    0.424  153.762  154.847
  538.750    3.019    0.115    0.424  156.032  155.076
  539.000    3.014    0.124    0.413  167.853  156.421
  539.250    3.009    0.142    0.406  171.960  157.870
  539.500    3.004    0.139    0.415  173.129  157.893
  539.750    3.022    0.135    0.420  173.439  156.694
  540.000    3.028    0.132    0.413  172.465  155.598
