~VERSION INFORMATION
 VERS.                 2.0:   CWLS LOG ASCII STANDARD -VERSION 2.0
 WRAP.                  NO:   ONE LINE PER DEPTH STEP
~WELL INFORMATION BLOCK
#MNEM.UNIT           DATA                    DESCRIPTION OF MNEMONIC
#---------    -------------------            -------------------------------
# Generated from Intellog Unique Number	CW_70_72/WELL/3003
NULL.         -999.25                        : NULL_VALUE
WELL.         BRASCAN ET AL MEYER 04-11      : Well_name    - WELL              
LOC .         04-11-070-25W4                 : Location     - LOCATION          
UWI .         00/04-11-070-25W4/0            : Uwi          - UNIQUE WELL ID    
ENTR.         J                              : Entered      - ENTERED BY        
SRVC.         WESTERN ATLAS                  : Scn          - SERVICE COMPANY   
DATE.         27 JULY 80                     : Date         - LOG DATE          
STRT.M        485                            : top_depth    - START DEPTH       
STOP.M        685                            : bot_depth    - STOP DEPTH        
STEP.M        0.25                           : increment    - STEP LENGTH       
~CURVE INFORMATION BLOCK
#MNEM UNIT       ERCB CURVE CODE    CURVE DESCRIPTION
#-----------   ------------------   ----------------------------------
DEPT.M        00 001 00 00         : DEPTH        - DEPTH                       
ILD .OHMM     00 120 00 00         : RESD         - DEEP RESISTIVITY (DIL)      
CALI.MM       00 280 01 00         : CAL          - CALIPER                     
GR  .API      00 310 00 00         : GR           - GAMMA RAY                   
NPHI.V/V      00 330 00 00         : PHIN         - NEUTRON POROSITY (SANDSTONE)
DPHI.V/V      00 890 00 00         : PHID         - DENSITY POROSITY (SANDSTONE)
~PARAMETER INFORMATION       
#MNEM.UNIT           DATA             DESCRIPTION OF MNEMONIC
#---------         -----------     ------------------------------
GL  .M        670.9                : gl           - GROUND LEVEL ELEVATION      
EREF.M        674.46               : kb           - ELEVATION OF DEPTH REFERENCE
DATM.M        670.9                : datum        - DATUM ELEVATION             
TDD .M        726                  : tdd          - TOTAL DEPTH DRILLER         
RUN .         ONE                  : Run          - RUN NUMBER                  
ENG .         WEBER                : Engineer     - RECORDING ENGINEER          
WIT .         GOULD                : Witness      - WITNESSED BY                
MUD .         GEL CHEMX            : Mud_type     - MUD TYPE                    
MATR.         SANDSTONE            : Logunit      - NEUTRON MATRIX              
TMAX.C        35                   : BHT          - MAXIMUM RECORDED TEMPERATURE
BHTD.M        728.1                : BHTDEP       - MAXIMUM RECORDED TEMPERATURE
RMT .C        12                   : MDTP         - TEMPERATURE OF MUD          
MUDD.KG/M     9.5                  : MWT          - MUD DENSITY                 
NEUT.         1                    : NEUTRON      - NEUTRON TYPE                
RESI.         0                    : RESIST       - RESISTIVITY TYPE            
RM  .OHMM     3.9                  : RM           - RESISTIVITY OF MUD          
RMC .OHMM     4.5                  : RMC          - RESISTIVITY OF MUD CAKE     
RMF .OHMM     3.2                  : RMF          - RESISTIVITY OF MUD FILTRATE 
SUFT.C        0                    : SUFT         - SURFACE TEMPERATURE         
~A  DEPTH     RESD      CAL       GR     PHIN     PHID
# ...
  594.500    2.594  165.731   64.847    0.356    0.290
  594.750    2.562  165.383   64.207    0.342    0.283
  595.000    2.620  163.192   62.591    0.336    0.274
  595.250    2.797  160.698   60.226    0.315    0.259
  595.500    3.152  161.900   58.908    0.294    0.236
  595.750    3.632  164.534   58.090    0.256    0.205
  596.000    4.108  166.753   56.409    0.228    0.167
  596.250    4.923  168.879   54.539    0.214    0.149
  596.500    5.537  171.716   55.013    0.223    0.172
  596.750    6.251  172.608   57.330    0.242    0.198
  597.000    6.587  171.753   59.280    0.265    0.213
  597.250    6.776  168.018   58.089    0.284    0.234
  597.500    6.970  165.728   55.480    0.234    0.206
  597.750    7.169  163.225   53.800    0.202    0.167
  598.000    7.458  162.066   51.316    0.176    0.126
  598.250    7.830  161.930   50.925    0.160    0.111
  598.500    8.220  164.462   52.321    0.181    0.102
  598.750    8.519  167.816   50.700    0.219    0.119
  599.000    8.272  169.523   50.247    0.264    0.148
  599.250    7.767  168.665   56.199    0.305    0.176
  599.500    7.026  168.421   62.584    0.335    0.203
  599.750    6.309  168.495   67.740    0.360    0.217
  600.000    5.815  168.963   72.645    0.378    0.221
  600.250    5.290  169.030   75.892    0.392    0.211
  600.500    4.777  169.002   78.335    0.402    0.205
  600.750    4.527  168.968   82.133    0.407    0.207
  601.000    4.275  169.038   83.525    0.410    0.210
  601.250    4.082  169.108   84.001    0.410    0.213
  601.500    3.986  169.282   83.607    0.410    0.219
  601.750    3.921  168.825   82.790    0.409    0.224
  602.000    3.871  169.211   80.551    0.405    0.226
  602.250    3.843  169.176   78.005    0.402    0.227
  602.500    3.781  168.727   76.008    0.397    0.230
  602.750    3.768  167.255   75.804    0.405    0.233
  603.000    3.805  165.374   76.338    0.416    0.235
  603.250    3.863  162.777   77.671    0.421    0.235
  603.500    3.951  160.070   80.298    0.420    0.232
  603.750    4.042  158.702   82.867    0.418    0.229
  604.000    4.165  158.865   85.746    0.414    0.223
  604.250    4.277  159.866   90.037    0.408    0.219
  604.500    4.358  163.909   84.594    0.402    0.216
  604.750    4.408  164.719   84.017    0.406    0.215
  605.000    4.451  167.362   83.938    0.413    0.215
  605.250    4.486  167.741   83.853    0.417    0.219
  605.500    4.512  165.831   83.705    0.420    0.221
  605.750    4.514  165.506   83.376    0.421    0.221
  606.000    4.506  165.575   82.991    0.417    0.219
  606.250    4.483  165.575   82.108    0.407    0.214
  606.500    4.459  165.575   81.102    0.400    0.219
  606.750    4.411  165.669   79.911    0.398    0.229
  607.000    4.347  166.054   78.350    0.401    0.239
  607.250    4.284  166.431   76.667    0.404    0.243
  607.500    4.215  166.198   75.169    0.405    0.241
  607.750    4.153  166.060   75.695    0.402    0.240
  608.000    4.094  165.099   76.914    0.402    0.237
  608.250    4.064  163.829   78.984    0.403    0.227
  608.500    4.081  162.666   79.272    0.409    0.218
  608.750    4.097  162.117   78.263    0.414    0.214
  609.000    4.145  163.420   76.951    0.416    0.217
  609.250    4.248  166.468   75.695    0.412    0.223
  609.500    4.361  168.283   74.940    0.406    0.229
  609.750    4.444  169.168   73.873    0.395    0.237
  610.000    4.504  169.131   72.680    0.389    0.244
  610.250    4.556  167.657   72.474    0.391    0.249
  610.500    4.600  166.394   73.189    0.401    0.248
  610.750    4.636  165.129   74.094    0.413    0.248
  611.000    4.663  164.681   75.186    0.413    0.246
  611.250    4.691  164.952   76.583    0.408    0.244
  611.500    4.719  165.842   76.374    0.406    0.244
  611.750    4.719  167.037   73.951    0.410    0.246
  612.000    4.775  167.832   71.651    0.407    0.249
  612.250    4.802  169.127   70.706    0.404    0.253
  612.500    4.804  169.304   70.687    0.396    0.258
  612.750    4.788  168.445   71.099    0.397    0.263
  613.000    4.816  167.282   71.445    0.401    0.268
  613.250    4.835  166.328   71.977    0.401    0.272
  613.500    4.835  165.768   72.823    0.400    0.277
  613.750    4.995  165.746   74.280    0.397    0.280
  614.000    5.052  165.910   75.616    0.393    0.276
  614.250    5.206  163.720   75.349    0.389    0.266
  614.500    5.385  165.635   73.110    0.381    0.255
  614.750    5.570  166.526   71.426    0.377    0.241
  615.000    5.687  165.880   72.083    0.377    0.222
  615.250    5.721  163.276   72.925    0.383    0.203
  615.500    5.586  163.450   74.752    0.391    0.193
  615.750    5.353  164.441   77.746    0.399    0.188
  616.000    4.934  167.991   80.132    0.410    0.188
  616.250    4.506  169.606   84.048    0.414    0.190
  616.500    4.448  169.780   85.754    0.410    0.192
  616.750    4.216  169.743   84.689    0.404    0.194
  617.000    4.033  169.401   81.892    0.396    0.197
  617.250    3.989  169.161   81.197    0.396    0.203
  617.500    4.013  168.097   81.173    0.396    0.211
  617.750    4.082  165.496   81.526    0.396    0.213
  618.000    4.199  162.487   82.183    0.398    0.210
  618.250    4.311  160.598   83.452    0.401    0.206
  618.500    4.443  160.674   85.960    0.403    0.202
  618.750    4.503  164.230   87.783    0.406    0.193
  619.000    4.538  167.892   86.597    0.409    0.189
  619.250    4.531  169.811   85.214    0.413    0.194
  619.500    4.558  170.803   84.394    0.413    0.201
  619.750    4.534  170.256   83.942    0.407    0.199
  620.000    4.501  169.295   83.612    0.400    0.198
  620.250    4.461  168.331   83.529    0.395    0.200
  620.500    4.422  167.791   83.754    0.400    0.203
  620.750    4.422  167.339   84.475    0.412    0.206
  621.000    4.424  167.401   85.755    0.417    0.204
  621.250    4.436  167.372   87.765    0.415    0.200
  621.500    4.443  167.345   88.730    0.407    0.192
  621.750    4.453  167.507   88.033    0.401    0.184
  622.000    4.463  167.680   86.469    0.405    0.184
  622.250    4.447  167.442   86.206    0.411    0.190
  622.500    4.415  167.612   87.230    0.415    0.196
  622.750    4.360  168.192   88.997    0.419    0.201
  623.000    4.297  168.876   91.254    0.422    0.207
  623.250    4.297  168.740   91.540    0.427    0.210
  623.500    4.166  168.501   90.472    0.428    0.211
  623.750    4.152  168.263   88.912    0.416    0.210
  624.000    4.145  168.221   86.608    0.403    0.208
  624.250    4.162  168.087   85.171    0.390    0.205
  624.500    4.190  168.265   83.924    0.379    0.195
  624.750    4.274  168.023   81.745    0.372    0.186
  625.000    4.364  168.704   78.769    0.369    0.183
  625.250    4.481  169.697   75.484    0.368    0.183
  625.500    4.661  170.076   71.583    0.362    0.175
  625.750    4.848  170.249   69.653    0.346    0.164
  626.000    5.128  170.209   71.726    0.326    0.160
  626.250    5.887  170.487   72.075    0.307    0.153
  626.500    6.203  170.550   67.861    0.293    0.143
  626.750    6.203  170.518   64.759    0.269    0.126
  627.000    8.825  170.791   61.963    0.245    0.118
  627.250    9.386  170.247   60.843    0.234    0.111
  627.500   10.655  166.412   58.846    0.254    0.110
  627.750   10.879  162.782   57.469    0.282    0.115
  628.000    9.222  166.851   56.716    0.299    0.132
  628.250    8.037  170.107   56.195    0.309    0.151
  628.500    7.031  171.408   56.427    0.330    0.172
  628.750    6.061  168.088   56.714    0.344    0.190
  629.000    5.514  162.607   57.489    0.355    0.206
  629.250    5.063  158.676   58.152    0.363    0.211
  629.500    4.666  160.388   59.421    0.369    0.223
  629.750    4.245  162.507   60.694    0.376    0.229
  630.000    4.053  163.702   62.032    0.380    0.237
  630.250    3.870  164.184   63.854    0.382    0.243
  630.500    3.661  164.039   65.065    0.379    0.244
  630.750    3.496  163.706   65.353    0.376    0.250
