~VERSION INFORMATION
 VERS.                 2.0:   CWLS LOG ASCII STANDARD -VERSION 2.0
 WRAP.                  NO:   ONE LINE PER DEPTH STEP
~WELL INFORMATION BLOCK
#MNEM.UNIT           DATA                    DESCRIPTION OF MNEMONIC
#---------    -------------------            -------------------------------
# Generated from Intellog Unique Number	CX_WELLS/WELL/2993
WELL.         TRITON ATCOR THORNBURY         : Well_name    - WELL
LOC .         00/08-11-082-12W4/0            : Location     - LOCATION
UWI .         00/08-11-082-12W400            : Uwi          - UNIQUE WELL ID
ENTR.         T                              : Entered      - ENTERED BY
SRVC.         SCHLUMBERGER                   : Scn          - SERVICE COMPANY
STRT.M        300                            : top_depth    - START DEPTH
STOP.M        534                            : bot_depth    - STOP DEPTH
STEP.M        0.25                           : increment    - STEP LENGTH
 NULL. -999.2500:NULL Value
~CURVE INFORMATION BLOCK
#MNEM UNIT       ERCB CURVE CODE    CURVE DESCRIPTION
#-----------   ------------------   ----------------------------------
DEPT.M        00 001 00 00         : DEPTH        - DEPTH
GR  .API      00 310 00 00         : GR           - GAMMA RAY
NPHI.V/V      00 330 00 00         : PHIN         - NEUTRON POROSITY (SANDSTONE)
DPHI.V/V      00 890 00 00         : PHID         - DENSITY POROSITY (SANDSTONE)
ILD .OHMM     00 120 00 00         : RESD         - DEEP RESISTIVITY (OTHER)
~PARAMETER INFORMATION
#MNEM.UNIT           DATA             DESCRIPTION OF MNEMONIC
#---------         -----------     ------------------------------
GL  .M        762                  : gl           - GROUND LEVEL ELEVATION
EREF.M        766                  : kb           - ELEVATION OF DEPTH REFERENCE
DATM.M        766                  : datum        - DATUM ELEVATION
TDD .M        546                  : tdd          - TOTAL DEPTH DRILLER
RUN .         ONE                  : Run          - RUN NUMBER
ENG .         BILL                 : Engineer     - RECORDING ENGINEER
WIT .         JIM                  : Witness      - WITNESSED BY
MUD .         GEL                  : Mud_type     - MUD TYPE
MATR.         SANDSTONE            : Logunit      - NEUTRON MATRIX
TMAX.C        22                   : BHT          - MAXIMUM RECORDED TEMPERATURE
BHTD.M        546                  : BHTDEP       - MAXIMUM RECORDED TEMPERATURE
MATR.         1                    : LOGUNIT      - NEUTRON MATRIX
RMT .C        12.5                 : MDTP         - TEMPERATURE OF MUD
NEUT.         1                    : NEUTRON      - NEUTRON TYPE
RESI.         4.2                  : RESIST       - RESISTIVITY TYPE
RMC .OHMM     2                    : RMC          - RESISTIVITY OF MUD CAKE
RMF .OHMM     3.9                  : RMF          - RESISTIVITY OF MUD FILTRATE
SUFT.C        4                    : SUFT         - SURFACE TEMPERATURE
~A  DEPTH       GR     PHIN     PHID     RESD
# ...
  430.500   77.087    0.459    0.281    5.923
  430.750   77.622    0.464    0.281    6.144
  431.000   78.158    0.466    0.279    6.615
  431.250   77.530    0.473    0.274    6.861
  431.500   76.903    0.451    0.268    6.852
  431.750   74.530    0.444    0.206    6.596
  432.000   71.563    0.425    0.168    6.228
  432.250   79.080    0.410    0.193    5.771
  432.500   83.699    0.460    0.233    5.348
  432.750   85.375    0.475    0.248    4.861
  433.000   88.820    0.475    0.261    4.589
  433.250   89.367    0.460    0.264    4.335
  433.500   85.830    0.459    0.267    4.092
  433.750   86.948    0.459    0.269    4.088
  434.000   89.810    0.470    0.263    4.320
  434.250   93.836    0.499    0.250    4.481
  434.500   97.851    0.512    0.236    5.011
  434.750  100.132    0.525    0.254    5.814
  435.000  101.831    0.509    0.278    6.263
  435.250   98.888    0.488    0.280    6.744
  435.500   94.188    0.478    0.292    7.539
  435.750   87.731    0.468    0.297    7.819
  436.000   82.438    0.455    0.285    7.957
  436.250   81.810    0.444    0.264    7.951
  436.500   80.601    0.436    0.249    7.794
  436.750   80.543    0.428    0.242    7.643
  437.000   79.904    0.424    0.247    7.354
  437.250   79.299    0.419    0.247    7.207
  437.500   79.253    0.423    0.246    6.934
  437.750   80.952    0.454    0.254    6.670
  438.000   83.222    0.477    0.257    6.417
  438.250   86.084    0.477    0.257    6.291
  438.500   88.365    0.465    0.253    6.286
  438.750   89.483    0.460    0.245    6.276
  439.000   88.855    0.462    0.244    6.153
  439.250   88.809    0.466    0.245    5.918
  439.500   88.181    0.466    0.248    5.695
  439.750   88.705    0.467    0.254    5.082
  440.000   88.648    0.467    0.258    4.984
  440.250   88.043    0.465    0.270    4.366
  440.500   85.077    0.461    0.279    3.752
  440.750   85.031    0.458    0.271    3.476
  441.000   86.718    0.478    0.266    3.221
  441.250   87.847    0.501    0.267    3.218
  441.500   89.535    0.505    0.270    3.399
  441.750   89.489    0.515    0.271    3.593
  442.000   89.443    0.511    0.271    3.799
  442.250   88.826    0.499    0.272    4.247
  442.500   87.617    0.488    0.272    4.929
  442.750   84.069    0.478    0.273    5.306
  443.000   81.708    0.461    0.273    5.204
  443.250   83.384    0.447    0.271    5.102
  443.500   85.676    0.434    0.269    4.907
  443.750   90.865    0.457    0.265    4.903
  444.000   96.067    0.465    0.262    5.084
  444.250   97.766    0.483    0.261    5.177
  444.500   97.708    0.489    0.260    5.680
  444.750   98.221    0.483    0.263    6.470
  445.000   98.198    0.475    0.265    8.569
  445.250   96.406    0.464    0.268    9.400
  445.500   94.615    0.461    0.265   10.508
  445.750   95.733    0.455    0.243   11.111
  446.000   98.002    0.446    0.219   11.965
  446.250   97.374    0.427    0.169   11.950
  446.500   94.990    0.419    0.149   10.861
  446.750   91.453    0.388    0.098   10.455
  447.000   87.347    0.368    0.126    9.505
  447.250   83.229    0.337    0.155    8.977
  447.500   88.418    0.380    0.206    8.477
  447.750   93.014    0.391    0.231    7.563
  448.000   95.284    0.395    0.244    7.008
  448.250   95.261    0.401    0.246    6.617
  448.500   95.215    0.427    0.245    6.132
  448.750   94.575    0.437    0.244    5.900
  449.000   95.088    0.462    0.242    5.566
  449.250   95.065    0.473    0.241    5.669
  449.500   96.159    0.474    0.240    6.218
  449.750   96.707    0.473    0.239    6.574
  450.000   97.242    0.468    0.237    7.079
  450.250   97.778    0.466    0.238    7.766
  450.500   97.162    0.471    0.236    8.055
  450.750   95.941    0.465    0.242    8.199
  451.000   91.229    0.443    0.253    8.190
  451.250   90.031    0.444    0.253    8.334
  451.500   88.822    0.467    0.245    8.486
  451.750   82.377    0.474    0.150    8.637
  452.000   75.920    0.446    0.137    8.153
  452.250   74.129    0.409    0.197    7.701
  452.500   78.737    0.399    0.240    7.134
  452.750   83.926    0.438    0.259    6.365
  453.000   87.371    0.445    0.266    6.243
  453.250   88.488    0.453    0.255    6.119
  453.500   88.442    0.464    0.246    6.111
  453.750   86.069    0.468    0.255    6.338
  454.000   84.278    0.469    0.267    6.453
  454.250   81.893    0.468    0.276    6.691
  454.500   81.266    0.463    0.263    7.072
  454.750   81.219    0.460    0.246    7.200
  455.000   82.896    0.454    0.239    7.468
  455.250   83.454    0.444    0.244    7.744
  455.500   83.978    0.445    0.250    7.884
  455.750   83.362    0.444    0.255    8.021
  456.000   82.734    0.435    0.260    8.015
  456.250   82.665    0.421    0.259    8.158
  456.500   83.213    0.410    0.253    8.304
  456.750   84.889    0.404    0.247    8.291
  457.000   84.866    0.410    0.247    8.284
  457.250   85.983    0.419    0.252    8.275
  457.500   86.519    0.422    0.260    8.113
  457.750   87.636    0.425    0.252    7.953
  458.000   87.579    0.423    0.236    7.652
  458.250   85.799    0.413    0.213    7.502
  458.500   77.016    0.407    0.205    7.494
  458.750   71.152    0.436    0.253    7.482
  459.000   71.676    0.452    0.263    7.337
  459.250   75.109    0.454    0.273    7.195
  459.500   77.401    0.453    0.276    6.918
  459.750   79.694    0.452    0.278    6.531
  460.000   82.545    0.456    0.280    6.285
  460.250   81.917    0.469    0.283    5.934
  460.500   79.521    0.472    0.285    5.819
  460.750   78.323    0.471    0.287    5.495
  461.000   77.695    0.463    0.285    5.185
  461.250   77.661    0.456    0.282    4.990
  461.500   78.197    0.453    0.278    4.452
  461.750   80.454    0.454    0.277    4.048
  462.000   82.177    0.465    0.281    3.897
  462.250   87.948    0.475    0.286    3.749
  462.500   93.707    0.479    0.285    4.037
  462.750   96.000    0.480    0.262    4.430
  463.000   91.882    0.479    0.258    5.338
  463.250   86.007    0.475    0.269    6.199
  463.500   77.817    0.464    0.288    7.758
  463.750   70.790    0.444    0.296    8.839
  464.000   69.557    0.431    0.295   10.261
  464.250   71.257    0.429    0.288   11.467
  464.500   69.477    0.434    0.278   12.349
  464.750   66.522    0.335    0.230   12.110
  465.000   63.568    0.284    0.099   10.025
  465.250   62.928    0.375    0.194    8.778
  465.500   65.221    0.421    0.261    8.448
  465.750   68.653    0.431    0.268    7.975
  466.000   74.436    0.453    0.258    7.670
  466.250   79.614    0.469    0.251    7.518
  466.500   83.070    0.466    0.247    7.514
  466.750   86.514    0.452    0.237    7.506
  467.000   85.886    0.439    0.231    7.498
  467.250   85.236    0.441    0.227    7.488
  467.500   85.201    0.442    0.224    7.480
  467.750   88.052    0.440    0.221    7.472
  468.000   90.344    0.441    0.219    7.464
  468.250   88.553    0.443    0.218    7.456
  468.500   84.424    0.442    0.217    7.310
  468.750   84.948    0.435    0.210    7.031
  469.000   86.088    0.426    0.208    6.893
  469.250   88.369    0.427    0.208    6.759
  469.500   91.232    0.430    0.215    6.623
  469.750   94.665    0.430    0.226    6.493
  470.000   95.782    0.430    0.230    6.364
  470.250   96.899    0.430    0.231    6.126
  470.500   98.598    0.424    0.225    5.166
  470.750  100.286    0.417    0.219    4.526
  471.000   97.925    0.429    0.224    3.410
  471.250   93.225    0.472    0.254    2.771
  471.500   87.943    0.500    0.260    2.615
  471.750   82.650    0.514    0.268    2.565
  472.000   77.950    0.533    0.287    2.611
  472.250   73.239    0.517    0.293    2.810
  472.500   68.539    0.490    0.287    3.027
  472.750   63.828    0.424    0.286    3.384
  473.000   62.048    0.406    0.273    4.481
  473.250   66.644    0.396    0.256    4.736
  473.500   71.252    0.395    0.232    5.098
  473.750   75.290    0.397    0.233    5.490
