~VERSION INFORMATION
 VERS.                 2.0:   CWLS LOG ASCII STANDARD -VERSION 2.0
 WRAP.                  NO:   ONE LINE PER DEPTH STEP
~WELL INFORMATION BLOCK
#MNEM.UNIT           DATA                    DESCRIPTION OF MNEMONIC
#---------    -------------------            -------------------------------
# Generated from Intellog Unique Number	CW_76_78/WELL/694
WELL.         NORTHSTAR ET AL MARTEN HILLS 0 : Well_name    - WELL
LOC .         00/08-09-076-03W5/0            : Location     - LOCATION
UWI .         00/08-09-076-03W5/0            : Uwi          - UNIQUE WELL ID
ENTR.         JAYE                           : Entered      - ENTERED BY
SRVC.         COMPUTALOG                     : Scn          - SERVICE COMPANY
DATE.         19 FEB 81                      : Date         - LOG DATE
STRT.M        520                            : top_depth    - START DEPTH
STOP.M        730                            : bot_depth    - STOP DEPTH
STEP.M        0.25                           : increment    - STEP LENGTH
 NULL. -999.2500:NULL Value
~CURVE INFORMATION BLOCK
#MNEM UNIT       ERCB CURVE CODE    CURVE DESCRIPTION
#-----------   ------------------   ----------------------------------
DEPT.M        00 001 00 00         : DEPTH        - DEPTH
ILD .OHMM     00 120 00 00         : RESD         - DEEP RESISTIVITY (DIL)
NPHI.V/V      00 330 00 00         : PHIN         - NEUTRON POROSITY (SANDSTONE)
DPHI.V/V      00 890 00 00         : PHID         - DENSITY POROSITY (SANDSTONE)
GR  .API      00 310 00 00         : GR           - GAMMA RAY
CALI.MM       00 280 01 00         : CAL          - CALIPER
~PARAMETER INFORMATION
#MNEM.UNIT           DATA             DESCRIPTION OF MNEMONIC
#---------         -----------     ------------------------------
GL  .M        793.13               : gl           - GROUND LEVEL ELEVATION
EREF.M        796.43               : kb           - ELEVATION OF DEPTH REFERENCE
DATM.M        793.13               : datum        - DATUM ELEVATION
TDD .M        743                  : tdd          - TOTAL DEPTH DRILLER
RUN .         ONE                  : Run          - RUN NUMBER
ENG .         HUDSON               : Engineer     - RECORDING ENGINEER
WIT .         HOLT/FITZIMMONS      : Witness      - WITNESSED BY
BASE.         EDM                  : Branch       - HOME BASE OF LOGGING UNIT
MUD .         GEL BASE             : Mud_type     - MUD TYPE
MATR.         SANDSTONE            : Logunit      - NEUTRON MATRIX
TMAX.C        32                   : BHT          - MAXIMUM RECORDED TEMPERATURE
BHTD.M        745                  : BHTDEP       - MAXIMUM RECORDED TEMPERATURE
RMT .C        12                   : MDTP         - TEMPERATURE OF MUD
MUDD.KG/M     1120                 : MWT          - MUD DENSITY
NEUT.         1                    : NEUTRON      - NEUTRON TYPE
RESI.         0                    : RESIST       - RESISTIVITY TYPE
RM  .OHMM     5.4                  : RM           - RESISTIVITY OF MUD
RMC .OHMM     10                   : RMC          - RESISTIVITY OF MUD CAKE
RMF .OHMM     9.3                  : RMF          - RESISTIVITY OF MUD FILTRATE
SUFT.C        0                    : SUFT         - SURFACE TEMPERATURE
~A  DEPTH     RESD     PHIN     PHID       GR      CAL
# ...
  629.500    5.308    0.295    0.197   92.918  151.713
  629.750    5.262    0.303    0.184   94.369  150.829
  630.000    5.215    0.312    0.183   98.886  156.656
  630.250    5.209    0.321    0.207  104.044  167.486
  630.500    5.202    0.315    0.235  103.575  160.423
  630.750    5.236    0.334    0.228   99.910  155.277
  631.000    5.269    0.366    0.214   98.806  154.389
  631.250    5.224    0.367    0.220   97.891  154.677
  631.500    5.095    0.351    0.216   96.912  155.815
  631.750    4.929    0.341    0.204   95.231  157.803
  632.000    4.802    0.348    0.194   96.423  159.052
  632.250    4.756    0.359    0.187   97.937  159.869
  632.500    4.709    0.368    0.183  100.412  160.369
  632.750    4.702    0.333    0.190   99.177  161.081
  633.000    4.656    0.317    0.197   97.751  162.113
  633.250    4.650    0.313    0.189   98.369  164.850
  633.500    4.603    0.332    0.165   99.820  167.162
  633.750    4.515    0.339    0.166  103.059  169.684
  634.000    4.469    0.357    0.171  105.532  169.968
  634.250    4.543    0.344    0.171  106.215  169.616
  634.500    4.618    0.339    0.164  107.153  169.372
  634.750    4.772    0.317    0.159  107.774  169.120
  635.000    4.847    0.330    0.157  108.456  169.837
  635.250    4.840    0.318    0.163  108.756  171.188
  635.500    4.712    0.332    0.164  107.457  173.393
  635.750    4.544    0.344    0.158  105.393  175.695
  636.000    4.458    0.348    0.156  104.350  177.053
  636.250    4.412    0.324    0.163  106.820  177.869
  636.500    4.486    0.302    0.162  108.526  178.053
  636.750    4.842    0.309    0.163  109.018  178.547
  637.000    5.278    0.317    0.163  108.807  178.412
  637.250    5.715    0.330    0.173  109.043  176.776
  637.500    5.830    0.341    0.176  108.640  174.935
  637.750    5.703    0.352    0.196  108.299  173.412
  638.000    5.375    0.319    0.191  106.108  172.097
  638.250    5.086    0.315    0.165  104.362  171.748
  638.500    5.079    0.330    0.143  109.455  171.811
  638.750    5.113    0.343    0.137  117.424  171.785
  639.000    5.065    0.307    0.141  119.513  173.565
  639.250    5.061    0.295    0.134  118.406  176.512
  639.500    5.094    0.347    0.131  116.148  177.970
  639.750    5.169    0.388    0.127  115.041  179.749
  640.000    5.200    0.369    0.131  115.406  182.269
  640.250    5.196    0.343    0.134  114.938  182.771
  640.500    5.230    0.312    0.143  112.874  182.206
  640.750    5.183    0.330    0.140  109.914  181.107
  641.000    5.056    0.321    0.137  111.428  179.900
  641.250    5.008    0.317    0.134  114.409  179.436
  641.500    5.043    0.306    0.132  115.094  179.085
  641.750    4.997    0.321    0.144  112.710  179.267
  642.000    4.950    0.342    0.160  110.324  179.767
  642.250    4.903    0.355    0.169  110.816  179.841
  642.500    4.938    0.364    0.168  113.480  178.531
  642.750    4.811    0.349    0.164  112.310  173.276
  643.000    4.563    0.339    0.152  106.538  164.402
  643.250    4.355    0.317    0.153  104.472  159.145
  643.500    4.186    0.334    0.151  106.051  156.558
  643.750    4.182    0.341    0.155  110.504  157.804
  644.000    4.498    0.346    0.162  112.338  161.498
  644.250    4.934    0.350    0.175  113.980  166.579
  644.500    5.329    0.358    0.193  113.895  175.813
  644.750    5.404    0.362    0.204  108.635  177.911
  645.000    5.197    0.363    0.203  106.122  160.514
  645.250    4.948    0.353    0.190  104.951  154.089
  645.500    4.701    0.334    0.186  100.777  154.482
  645.750    4.412    0.303    0.194  100.116  155.295
  646.000    4.245    0.288    0.190  106.234  155.584
  646.250    4.036    0.343    0.175  112.285  156.509
  646.500    4.031    0.365    0.147  109.517  158.183
  646.750    4.146    0.361    0.140  105.343  160.811
  647.000    4.461    0.342    0.129   97.077  169.513
  647.250    4.857    0.320    0.145   98.400  178.855
  647.500    5.294    0.338    0.150  104.388  184.359
  647.750    5.891    0.361    0.155  107.244  184.327
  648.000    6.810    0.376    0.174  110.611  187.169
  648.250    7.569    0.388    0.202  114.938  189.054
  648.500    8.406    0.320    0.173  106.480  188.803
  648.750    8.079    0.267    0.125  102.881  184.833
  649.000    7.549    0.237    0.100  100.815  174.144
  649.250    6.980    0.291    0.140   98.687  164.420
  649.500    6.571    0.308    0.167   95.152  159.484
  649.750    6.484    0.315    0.179   90.529  158.920
  650.000    6.665    0.325    0.179   97.093  160.377
  650.250    6.987    0.328    0.188  102.698  161.513
  650.500    7.308    0.347    0.192  111.626  161.378
  650.750    7.710    0.379    0.191  116.719  160.064
  651.000    8.151    0.403    0.193  113.312  158.643
  651.250    8.272    0.371    0.192  109.329  158.080
  651.500    8.152    0.330    0.196  104.898  157.514
  651.750    8.031    0.320    0.202   97.145  157.160
  652.000    7.911    0.342    0.191   91.948  157.123
  652.250    7.751    0.326    0.187  100.492  156.881
  652.500    7.550    0.345    0.184  106.543  157.167
  652.750    7.390    0.359    0.190  107.803  157.560
  653.000    7.350    0.362    0.194  104.075  158.162
  653.250    7.550    0.334    0.187  103.160  158.877
  653.500    8.233    0.351    0.176  107.358  159.266
  653.750    9.197    0.380    0.176  110.917  159.663
  654.000    9.840    0.381    0.199  113.583  159.522
  654.250   10.241    0.310    0.179  107.874  159.160
  654.500   10.121    0.272    0.109  103.955  158.919
  654.750    9.760    0.222    0.084   99.142  158.572
  655.000    9.037    0.215    0.070   94.711  158.429
  655.250    8.515    0.248    0.109   94.819  158.392
  655.500    8.154    0.332    0.123  100.168  158.574
  655.750    7.833    0.343    0.134  102.641  159.069
  656.000    7.552    0.330    0.147  104.218  159.257
  656.250    7.311    0.324    0.162  105.604  159.222
  656.500    7.070    0.301    0.172  109.545  159.183
  656.750    6.789    0.296    0.168  111.253  159.158
  657.000    6.709    0.324    0.161  110.912  159.231
  657.250    6.669    0.341    0.160  107.570  159.411
  657.500    6.750    0.344    0.167  101.797  159.259
  657.750    6.830    0.285    0.172  103.054  159.225
  658.000    6.871    0.288    0.172  107.574  159.094
  658.250    6.871    0.304    0.161  110.621  158.951
  658.500    6.871    0.308    0.145  113.606  158.808
  658.750    6.871    0.290    0.133  111.476  158.669
  659.000    6.831    0.283    0.127  102.189  158.425
  659.250    6.751    0.284    0.132   98.334  158.185
  659.500    6.671    0.301    0.143  105.216  158.148
  659.750    6.550    0.319    0.152  109.032  158.218
  660.000    6.510    0.330    0.148  108.117  158.292
  660.250    6.430    0.322    0.142  101.897  158.259
  660.500    6.390    0.318    0.149  104.753  158.337
  660.750    6.310    0.323    0.151  109.015  158.614
  661.000    6.270    0.310    0.147  110.210  158.688
  661.250    6.390    0.291    0.144  108.719  158.763
  661.500    6.471    0.312    0.150  109.338  158.839
  661.750    6.551    0.341    0.147  109.574  158.809
  662.000    6.632    0.326    0.144  108.724  158.671
  662.250    6.672    0.315    0.141  107.234  158.844
  662.500    6.833    0.290    0.143  106.574  158.811
  662.750    7.074    0.300    0.132  107.639  159.098
  663.000    7.476    0.301    0.129  108.579  159.280
  663.250    7.315    0.317    0.134  109.262  159.355
  663.500    6.994    0.310    0.130  109.881  159.426
  663.750    6.753    0.300    0.116  104.557  159.708
  664.000    6.472    0.274    0.106   99.807  159.892
  664.250    6.272    0.279    0.125  105.603  160.498
  664.500    6.111    0.286    0.142  111.783  161.424
  664.750    5.991    0.307    0.146  114.319  162.988
  665.000    5.830    0.315    0.142  113.212  164.768
  665.250    5.790    0.315    0.138  113.958  166.971
  665.500    5.831    0.318    0.122  116.686  168.746
  665.750    5.991    0.328    0.109  119.289  168.609
