~VERSION INFORMATION
 VERS.                 2.0:   CWLS LOG ASCII STANDARD -VERSION 2.0
 WRAP.                  NO:   ONE LINE PER DEPTH STEP
~WELL INFORMATION BLOCK
#MNEM.UNIT           DATA                    DESCRIPTION OF MNEMONIC
#---------    -------------------            -------------------------------
# Generated from Intellog Unique Number	CS_77_79/WELL/867
WELL.         ICGR GRAHAM                    : Well_name    - WELL
LOC .         00/06-05-079-05W4/0            : Location     - LOCATION
UWI .         00/06-05-079-05W4/0            : Uwi          - UNIQUE WELL ID
ENTR.         JHS                            : Entered      - ENTERED BY
SRVC.         SCHLUMBERGER                   : Scn          - SERVICE COMPANY
STRT.M        105                            : top_depth    - START DEPTH
STOP.M        365                            : bot_depth    - STOP DEPTH
STEP.M        0.25                           : increment    - STEP LENGTH
 NULL. -999.2500:NULL Value
~CURVE INFORMATION BLOCK
#MNEM UNIT       ERCB CURVE CODE    CURVE DESCRIPTION
#-----------   ------------------   ----------------------------------
DEPT.M        00 001 00 00         : DEPTH        - DEPTH
DPHI.V/V      00 890 00 00         : PHID         - DENSITY POROSITY (LIMESTONE)
NPHI.V/V      00 330 00 00         : PHIN         - NEUTRON POROSITY (LIMESTONE)
GR  .API      00 310 00 00         : GR           - GAMMA RAY
ILD .OHMM     00 120 00 00         : RESD         - DEEP RESISTIVITY (DIL)
RHOB.KG/M3    00 350 00 00         : DENS         - BULK DENSITY
~PARAMETER INFORMATION
#MNEM.UNIT           DATA             DESCRIPTION OF MNEMONIC
#---------         -----------     ------------------------------
GL  .M        529.39               : gl           - GROUND LEVEL ELEVATION
EREF.M        533.04               : kb           - ELEVATION OF DEPTH REFERENCE
DATM.M        533.04               : datum        - DATUM ELEVATION
TDD .M        374                  : tdd          - TOTAL DEPTH DRILLER
RUN .         ONE                  : Run          - RUN NUMBER
ENG .         BILL                 : Engineer     - RECORDING ENGINEER
WIT .         JIM                  : Witness      - WITNESSED BY
MUD .         GEL                  : Mud_type     - MUD TYPE
MATR.         LIMESTONE            : Logunit      - NEUTRON MATRIX
TMAX.C        20.4                 : BHT          - MAXIMUM RECORDED TEMPERATURE
BHTD.M        374                  : BHTDEP       - MAXIMUM RECORDED TEMPERATURE
MATR.         1                    : LOGUNIT      - NEUTRON MATRIX
RMT .C        25                   : MDTP         - TEMPERATURE OF MUD
NEUT.         1                    : NEUTRON      - NEUTRON TYPE
RESI.         0                    : RESIST       - RESISTIVITY TYPE
RMC .OHMM     0.25                 : RMC          - RESISTIVITY OF MUD CAKE
RMF .OHMM     0.25                 : RMF          - RESISTIVITY OF MUD FILTRATE
SUFT.C        15                   : SUFT         - SURFACE TEMPERATURE
~A  DEPTH     PHID     PHIN       GR     RESD     DENS
# ...
  141.500    0.223    0.513  111.581    4.946    0.000
  141.750    0.229    0.521  116.005    4.857    0.000
  142.000    0.236    0.550  117.290    5.048    0.000
  142.250    0.243    0.486  108.485    5.656    0.000
  142.500    0.260    0.450  100.312    6.582    0.000
  142.750    0.264    0.470   95.298    8.414    0.000
  143.000    0.249    0.476   89.013   10.357    0.000
  143.250    0.329    0.434   65.716   13.240    0.000
  143.500    0.336    0.430   63.853   16.610    0.000
  143.750    0.321    0.450   68.284   16.010    0.000
  144.000    0.299    0.455   73.975   12.314    0.000
  144.250    0.275    0.450  101.724    9.834    0.000
  144.500    0.254    0.448  107.421    8.466    0.000
  144.750    0.225    0.462  102.401    7.712    0.000
  145.000    0.226    0.467   98.016    7.435    0.000
  145.250    0.228    0.460   98.033    7.443    0.000
  145.500    0.216    0.464   96.791    7.734    0.000
  145.750    0.216    0.450   91.144    8.349    0.000
  146.000    0.267    0.425   86.759    8.675    0.000
  146.250    0.270    0.447   84.257    9.360    0.000
  146.500    0.234    0.471   81.135   10.487    0.000
  146.750    0.233    0.451   79.262   12.918    0.000
  147.000    0.262    0.432   76.127   13.419    0.000
  147.250    0.245    0.445   71.734   13.948    0.000
  147.500    0.243    0.466   61.672   15.052    0.000
  147.750    0.325    0.459   45.939   17.514    0.000
  148.000    0.365    0.461   41.553   21.159    0.000
  148.250    0.376    0.449   39.051   25.090    0.000
  148.500    0.377    0.402   35.923   27.073    0.000
  148.750    0.369    0.400   35.940   27.094    0.000
  149.000    0.361    0.395   40.373   24.222    0.000
  149.250    0.347    0.386   54.264   18.627    0.000
  149.500    0.305    0.429   66.890   15.742    0.000
  149.750    0.258    0.460   72.583   16.677    0.000
  150.000    0.250    0.445   55.588   17.324    0.000
  150.250    0.322    0.433   36.701   21.732    0.000
  150.500    0.345    0.419   30.428   29.962    0.000
  150.750    0.353    0.422   29.181   31.724    0.000
  151.000    0.345    0.423   33.614   30.005    0.000
  151.250    0.326    0.422   39.308   26.832    0.000
  151.500    0.322    0.456   40.596   24.908    0.000
  151.750    0.363    0.452   45.659   22.277    0.000
  152.000    0.379    0.424   60.805   21.463    0.000
  152.250    0.331    0.406   76.583   19.552    0.000
  152.500    0.312    0.414   84.794   18.499    0.000
  152.750    0.309    0.429   89.233   18.511    0.000
  153.000    0.309    0.445   91.146   18.536    0.000
  153.250    0.306    0.453   95.576   18.549    0.000
  153.500    0.314    0.436   98.117   18.913    0.000
  153.750    0.315    0.433   96.254   20.035    0.000
  154.000    0.309    0.411   91.231   21.220    0.000
  154.250    0.322    0.376   80.537   22.470    0.000
  154.500    0.305    0.412   65.431   23.346    0.000
  154.750    0.290    0.468   55.371   25.680    0.000
  155.000    0.319    0.434   44.677   27.198    0.000
  155.250    0.347    0.390   42.177   28.260    0.000
  155.500    0.334    0.383   40.942   29.926    0.000
  155.750    0.326    0.380   34.660   32.300    0.000
  156.000    0.326    0.365   32.789   31.724    0.000
  156.250    0.332    0.347   38.484   28.364    0.000
  156.500    0.317    0.335   53.630   26.326    0.000
  156.750    0.307    0.399   61.846   24.909    0.000
  157.000    0.296    0.425   59.350   24.460    0.000
  157.250    0.322    0.408   53.073   24.479    0.000
  157.500    0.361    0.401   51.202   23.166    0.000
  157.750    0.338    0.420   53.114   21.909    0.000
  158.000    0.335    0.455   60.063   20.335    0.000
  158.250    0.320    0.436   74.582   18.877    0.000
  158.500    0.290    0.415   79.015   17.860    0.000
  158.750    0.260    0.414   73.996   17.216    0.000
  159.000    0.272    0.437   73.389   16.596    0.000
  159.250    0.271    0.440   79.078   15.997    0.000
  159.500    0.252    0.420   88.560   15.418    0.000
  159.750    0.254    0.442   91.727   14.863    0.000
  160.000    0.281    0.446   91.750   14.601    0.000
  160.250    0.260    0.421   90.518   14.337    0.000
  160.500    0.248    0.405   89.908   13.313    0.000
  160.750    0.273    0.404   90.553   12.832    0.000
  161.000    0.272    0.425   96.880   12.365    0.000
  161.250    0.256    0.446  101.940   11.267    0.000
  161.500    0.254    0.458   98.188   10.073    0.000
  161.750    0.268    0.447   99.465    9.174    0.000
  162.000    0.273    0.456  108.310    8.843    0.000
  162.250    0.264    0.464  111.483    9.021    0.000
  162.500    0.249    0.462  107.098    9.552    0.000
  162.750    0.241    0.455  102.704   10.509    0.000
  163.000    0.242    0.438   98.310   10.918    0.000
  163.250    0.265    0.422   93.294   11.781    0.000
  163.500    0.278    0.422   92.687   12.243    0.000
  163.750    0.257    0.438   93.967   12.256    0.000
  164.000    0.254    0.453  108.481   11.591    0.000
  164.250    0.249    0.470  115.440   10.563    0.000
  164.500    0.235    0.464  113.567    9.992    0.000
  164.750    0.241    0.438  112.961    9.633    0.000
  165.000    0.239    0.460  115.504    9.637    0.000
  165.250    0.234    0.472  114.896    9.647    0.000
  165.500    0.221    0.475  111.764    9.656    0.000
  165.750    0.223    0.455  110.524    9.666    0.000
  166.000    0.240    0.457  106.766    9.856    0.000
  166.250    0.242    0.500   99.230   10.243    0.000
  166.500    0.250    0.508   92.944   10.849    0.000
  166.750    0.291    0.483   79.102   11.713    0.000
  167.000    0.314    0.463   81.651   11.943    0.000
  167.250    0.302    0.445   90.488   12.411    0.000
  167.500    0.302    0.441   98.073   12.422    0.000
  167.750    0.312    0.460   99.362   12.672    0.000
  168.000    0.303    0.463   99.377   12.681    0.000
  168.250    0.262    0.440  101.287   12.690    0.000
  168.500    0.237    0.437  105.089   12.703    0.000
  168.750    0.232    0.457  110.154   12.478    0.000
  169.000    0.237    0.472  107.658   12.492    0.000
  169.250    0.229    0.493   98.229   12.499    0.000
  169.500    0.221    0.465   92.572   12.748    0.000
  169.750    0.287    0.439   87.553   13.249    0.000
  170.000    0.350    0.443   77.490   13.770    0.000
  170.250    0.372    0.450   61.759   14.309    0.000
  170.500    0.375    0.450   61.152   14.592    0.000
  170.750    0.360    0.460   61.171   14.889    0.000
  171.000    0.361    0.455   60.562   14.903    0.000
  171.250    0.364    0.432   62.476   14.637    0.000
  171.500    0.346    0.436   64.390   14.645    0.000
  171.750    0.341    0.448   65.037   14.385    0.000
  172.000    0.351    0.440   64.431   13.869    0.000
  172.250    0.336    0.414   70.755   13.119    0.000
  172.500    0.321    0.414   75.193   12.412    0.000
  172.750    0.315    0.435   80.252   11.740    0.000
  173.000    0.271    0.511   85.945   11.102    0.000
  173.250    0.198    0.481   83.444   10.115    0.000
  173.500    0.144    0.482   80.320    9.214    0.000
  173.750    0.134    0.524   91.684    8.086    0.000
  174.000    0.158    0.539  102.417    7.229    0.000
  174.250    0.277    0.506  110.634    6.838    0.000
  174.500    0.287    0.461  103.720    6.972    0.000
  174.750    0.310    0.445   86.096    7.386    0.000
  175.000    0.334    0.437   83.596    7.820    0.000
  175.250    0.330    0.440   92.442    8.929    0.000
  175.500    0.308    0.426   88.683   10.588    0.000
  175.750    0.303    0.417   83.039   11.644    0.000
  176.000    0.289    0.429   84.949   11.438    0.000
  176.250    0.277    0.439   80.555   11.236    0.000
  176.500    0.264    0.438   74.906   11.243    0.000
  176.750    0.258    0.442   73.664   11.043    0.000
  177.000    0.267    0.443   74.948   11.055    0.000
  177.250    0.273    0.442   74.975   11.491    0.000
  177.500    0.264    0.448   71.214   11.941    0.000
  177.750    0.289    0.437   65.563   12.176    0.000
