~VERSION INFORMATION
 VERS.                 2.0:   CWLS LOG ASCII STANDARD -VERSION 2.0
 WRAP.                  NO:   ONE LINE PER DEPTH STEP
~WELL INFORMATION BLOCK
#MNEM.UNIT           DATA                    DESCRIPTION OF MNEMONIC
#---------    -------------------            -------------------------------
# Generated from Intellog Unique Number	CW_73_75/WELL/3521
WELL.         G&W ET AL SPUR                 : Well_name    - WELL
LOC .         00/08-05-073-02W5/0            : Location     - LOCATION
UWI .         00/08-05-073-02W5/0            : Uwi          - UNIQUE WELL ID
ENTR.         TOM                            : Entered      - ENTERED BY
SRVC.         SCHLUMBERGER                   : Scn          - SERVICE COMPANY
STRT.M        350                            : top_depth    - START DEPTH
STOP.M        600                            : bot_depth    - STOP DEPTH
STEP.M        0.25                           : increment    - STEP LENGTH
 NULL. -999.2500:NULL Value
~CURVE INFORMATION BLOCK
#MNEM UNIT       ERCB CURVE CODE    CURVE DESCRIPTION
#-----------   ------------------   ----------------------------------
DEPT.M        00 001 00 00         : DEPTH        - DEPTH
GR  .API      00 310 00 00         : GR           - GAMMA RAY
NPHI.V/V      00 330 00 00         : PHIN         - NEUTRON POROSITY (SANDSTONE)
DPHI.V/V      00 890 00 00         : PHID         - DENSITY POROSITY (SANDSTONE)
ILD .OHMM     00 120 00 00         : RESD         - DEEP RESISTIVITY (DIL)
~PARAMETER INFORMATION
#MNEM.UNIT           DATA             DESCRIPTION OF MNEMONIC
#---------         -----------     ------------------------------
GL  .M        601.5                : gl           - GROUND LEVEL ELEVATION
EREF.M        604.3                : kb           - ELEVATION OF DEPTH REFERENCE
DATM.M        604.3                : datum        - DATUM ELEVATION
TDD .M        604                  : tdd          - TOTAL DEPTH DRILLER
RUN .         ONE                  : Run          - RUN NUMBER
ENG .         BILL                 : Engineer     - RECORDING ENGINEER
WIT .         JIM                  : Witness      - WITNESSED BY
MUD .         GEL                  : Mud_type     - MUD TYPE
MATR.         SANDSTONE            : Logunit      - NEUTRON MATRIX
TMAX.C        28                   : BHT          - MAXIMUM RECORDED TEMPERATURE
BHTD.M        604                  : BHTDEP       - MAXIMUM RECORDED TEMPERATURE
RMT .C        17                   : MDTP         - TEMPERATURE OF MUD
MUDD.KG/M     1100                 : MWT          - MUD DENSITY
NEUT.         1                    : NEUTRON      - NEUTRON TYPE
RESI.         0                    : RESIST       - RESISTIVITY TYPE
RM  .OHMM     4.5                  : RM           - RESISTIVITY OF MUD
RMC .OHMM     0                    : RMC          - RESISTIVITY OF MUD CAKE
RMF .OHMM     2.744                : RMF          - RESISTIVITY OF MUD FILTRATE
SUFT.C        15                   : SUFT         - SURFACE TEMPERATURE
~A  DEPTH       GR     PHIN     PHID     RESD
  350.000  110.571    0.451    0.200    3.102
  350.250  109.323    0.446    0.199    3.098
  350.500  108.655    0.426    0.198    3.152
  350.750  110.955    0.422    0.198    3.267
  351.000  113.853    0.428    0.197    3.325
  351.250  115.609    0.433    0.197    3.381
  351.500  117.927    0.423    0.196    3.378
  351.750  116.064    0.426    0.198    3.190
  352.000  101.043    0.425    0.201    3.014
  352.250   93.207    0.423    0.209    3.242
  352.500   81.769    0.421    0.225    3.551
  352.750   71.544    0.417    0.248    3.614
  353.000   58.315    0.413    0.256    3.413
  353.250   58.841    0.389    0.254    3.286
  353.500   71.313    0.195    0.229    3.162
  353.750   62.880    0.081    0.072    3.098
  354.000   17.379    0.094    0.104    3.590
  354.250   13.706    0.218    0.227    4.237
  354.500   14.232    0.247    0.267    4.076
  354.750   14.758    0.268    0.293    3.780
  355.000   15.285    0.306    0.303    3.505
  355.250   17.005    0.304    0.301    3.312
  355.500   18.726    0.297    0.299    3.128
  355.750   23.451    0.313    0.301    3.066
  356.000   31.145    0.330    0.316    3.063
  356.250   32.268    0.333    0.318    3.003
  356.500   32.197    0.322    0.310    2.998
  356.750   29.737    0.319    0.304    2.993
  357.000   24.870    0.324    0.303    2.937
  357.250   21.830    0.336    0.302    2.933
  357.500   22.953    0.328    0.304    2.928
  357.750   30.050    0.335    0.304    2.923
  358.000   33.545    0.344    0.301    2.921
  358.250   33.492    0.341    0.298    2.971
  358.500   32.823    0.323    0.296    2.966
  358.750   31.557    0.326    0.296    2.964
  359.000   30.274    0.329    0.296    2.960
  359.250   30.800    0.331    0.296    2.955
  359.500   32.521    0.336    0.295    2.898
  359.750   32.450    0.340    0.292    2.893
  360.000   32.361    0.336    0.295    2.889
  360.250   32.325    0.333    0.299    2.886
  360.500   34.046    0.328    0.303    2.883
  360.750   33.378    0.318    0.297    2.988
  361.000   29.108    0.303    0.279    3.396
  361.250   33.218    0.293    0.270    3.934
  361.500   43.319    0.301    0.263    4.231
  361.750   49.818    0.311    0.259    4.385
  362.000   53.330    0.322    0.254    4.461
  362.250   53.259    0.329    0.250    4.454
  362.500   52.591    0.338    0.249    4.365
  362.750   53.117    0.334    0.253    4.362
  363.000   54.820    0.327    0.260    4.277
  363.250   56.523    0.328    0.258    4.271
  363.500   57.682    0.328    0.246    4.344
  363.750   60.598    0.328    0.240    4.340
  364.000   64.725    0.335    0.245    4.414
  364.250   71.225    0.344    0.247    4.408
  364.500   76.494    0.360    0.250    4.323
  364.750   74.666    0.372    0.215    4.159
  365.000   70.414    0.366    0.211    4.004
  365.250   66.741    0.355    0.235    3.852
  365.500   61.892    0.342    0.242    3.846
  365.750   58.834    0.340    0.248    3.987
  366.000   58.166    0.340    0.240    4.133
  366.250   59.887    0.337    0.233    4.364
  366.500   61.607    0.337    0.234    4.606
  366.750   64.523    0.344    0.236    4.687
  367.000   67.403    0.359    0.238    4.678
  367.250   68.562    0.381    0.241    4.501
  367.500   68.491    0.399    0.239    4.498
  367.750   66.013    0.387    0.230    4.410
  368.000   72.529    0.361    0.205    4.165
  368.250   80.838    0.341    0.193    3.932
  368.500   91.519    0.351    0.166    3.857
  368.750   96.244    0.371    0.165    3.712
  369.000   96.155    0.384    0.170    3.638
  369.250   89.513    0.406    0.172    3.569
  369.500   81.677    0.365    0.166    3.435
  369.750   83.398    0.372    0.165    3.304
  370.000   86.911    0.384    0.190    3.179
  370.250   89.211    0.392    0.196    3.118
  370.500   90.932    0.398    0.203    3.000
  370.750   92.073    0.403    0.204    2.888
  371.000   93.197    0.405    0.193    2.779
  371.250   93.705    0.411    0.196    2.723
  371.500   93.652    0.424    0.206    2.670
  371.750   94.142    0.445    0.218    2.667
  372.000   94.704    0.456    0.224    2.661
  372.250   95.828    0.455    0.226    2.659
  372.500   94.562    0.452    0.222    2.657
  372.750   90.907    0.437    0.219    2.509
  373.000   92.031    0.430    0.217    2.415
  373.250   95.543    0.436    0.216    2.325
  373.500   97.246    0.449    0.216    2.195
  373.750   98.370    0.464    0.217    2.153
  374.000   99.475    0.480    0.219    2.072
  374.250  100.635    0.488    0.219    2.031
  374.500  105.939    0.496    0.218    1.953
  374.750  108.855    0.507    0.218    1.952
  375.000  105.200    0.513    0.222    1.949
  375.250  100.947    0.522    0.229    1.947
  375.500   96.080    0.537    0.235    1.980
  375.750   94.235    0.551    0.236    2.014
  376.000   94.128    0.522    0.237    2.049
  376.250   93.460    0.505    0.232    2.049
  376.500   92.194    0.492    0.225    1.969
  376.750   93.335    0.497    0.221    2.042
  377.000   97.445    0.490    0.220    2.077
  377.250  100.379    0.476    0.223    2.112
  377.500  101.484    0.480    0.230    2.150
  377.750   98.409    0.489    0.241    2.146
  378.000   94.736    0.488    0.247    2.185
  378.250   93.506    0.481    0.240    2.181
  378.500   92.223    0.480    0.222    2.179
  378.750   97.545    0.485    0.218    2.177
  379.000   96.279    0.489    0.218    2.132
  379.250   95.611    0.495    0.215    2.130
  379.500   98.526    0.488    0.206    2.167
  379.750  103.234    0.483    0.183    2.289
  380.000  103.163    0.482    0.187    2.372
  380.250  103.671    0.481    0.197    2.325
  380.500  104.795    0.480    0.207    2.279
  380.750  104.126    0.477    0.206    2.192
  381.000  103.475    0.471    0.204    2.151
  381.250  102.807    0.470    0.200    2.108
  381.500  101.541    0.476    0.198    2.184
  381.750  102.068    0.468    0.197    2.484
  382.000  103.173    0.426    0.202    2.823
  382.250  102.487    0.428    0.212    2.873
  382.500  101.257    0.439    0.223    2.817
  382.750   99.991    0.448    0.229    2.662
  383.000   99.920    0.467    0.227    2.514
  383.250   99.234    0.474    0.225    2.465
  383.500   97.986    0.442    0.227    2.601
  383.750   93.716    0.394    0.255    2.747
  384.000   87.075    0.379    0.263    2.953
  384.250   75.637    0.383    0.271    2.951
  384.500   78.570    0.417    0.279    2.839
  384.750   75.495    0.466    0.290    2.784
  385.000   71.840    0.478    0.266    2.730
  385.250   66.991    0.486    0.259    2.880
  385.500   59.734    0.477    0.275    2.932
  385.750   54.288    0.423    0.286    2.983
  386.000   57.203    0.389    0.284    3.148
  386.250   60.100    0.390    0.277    3.325
  386.500   61.821    0.392    0.262    3.445
  386.750   64.139    0.381    0.259    3.377
  387.000   65.298    0.371    0.257    3.374
  387.250   68.214    0.372    0.252    3.247
  387.500   71.727    0.381    0.245    3.067
  387.750   77.031    0.410    0.240    2.791
  388.000   81.738    0.458    0.233    2.589
  388.250   82.862    0.473    0.239    2.271
  388.500   83.388    0.490    0.244    2.268
  388.750   84.512    0.500    0.252    2.222
  389.000   79.065    0.480    0.259    2.221
  389.250   71.826    0.410    0.268    2.389
  389.500   60.389    0.394    0.274    2.767
  389.750   53.150    0.394    0.270    3.515
  390.000   51.867    0.396    0.262    4.384
  390.250   52.990    0.395    0.261    4.802
  390.500   54.114    0.389    0.261    4.887
  390.750   55.237    0.381    0.261    4.877
  391.000   56.975    0.377    0.260    4.873
  391.250   59.891    0.379    0.254    4.868
  391.500   61.612    0.380    0.243    4.682
  391.750   56.744    0.404    0.234    4.593
  392.000   48.908    0.436    0.261    4.180
  392.250   45.236    0.456    0.297    3.876
  392.500   48.169    0.464    0.313    3.595
  392.750   54.071    0.455    0.288    3.397
  393.000   61.150    0.440    0.266    2.979
  393.250   63.468    0.425    0.257    2.919
