~VERSION INFORMATION
 VERS.                 2.0:   CWLS LOG ASCII STANDARD -VERSION 2.0
 WRAP.                  NO:   ONE LINE PER DEPTH STEP
~WELL INFORMATION BLOCK
#MNEM.UNIT           DATA                    DESCRIPTION OF MNEMONIC
#---------    -------------------            -------------------------------
# Generated from Intellog Unique Number	CS_73_76/WELL/2276
WELL.         BOW VALLEY EXPLORATION         : Well_name    - WELL
LOC .         00/07-22-076-16W4/0            : Location     - LOCATION
UWI .         00/07-22-076-16W4/0            : Uwi          - UNIQUE WELL ID
ENTR.         SP                             : Entered      - ENTERED BY
SRVC.         SCHLUMBERGER                   : Scn          - SERVICE COMPANY
STRT.M        353.568                        : top_depth    - START DEPTH
STOP.M        588.068                        : bot_depth    - STOP DEPTH
STEP.M        0.25                           : increment    - STEP LENGTH
 NULL. -999.2500:NULL Value
~CURVE INFORMATION BLOCK
#MNEM UNIT       ERCB CURVE CODE    CURVE DESCRIPTION
#-----------   ------------------   ----------------------------------
DEPT.M        00 001 00 00         : DEPTH        - DEPTH
GR  .API      00 310 00 00         : GR           - GAMMA RAY
DPHI.V/V      00 890 00 00         : PHID         - DENSITY POROSITY (SANDSTONE)
NPHI.V/V      00 330 00 00         : PHIN         - NEUTRON POROSITY (SANDSTONE)
ILD .OHMM     00 120 00 00         : RESD         - DEEP RESISTIVITY (DIL)
~PARAMETER INFORMATION
#MNEM.UNIT           DATA             DESCRIPTION OF MNEMONIC
#---------         -----------     ------------------------------
GL  .M        714.146              : gl           - GROUND LEVEL ELEVATION
EREF.M        723.595              : kb           - ELEVATION OF DEPTH REFERENCE
DATM.M        714.146              : datum        - DATUM ELEVATION
TDD .M        594.36               : tdd          - TOTAL DEPTH DRILLER
RUN .         ONE                  : Run          - RUN NUMBER
ENG .         BILL                 : Engineer     - RECORDING ENGINEER
WIT .         JIM                  : Witness      - WITNESSED BY
MUD .         GEL                  : Mud_type     - MUD TYPE
MATR.         SANDSTONE            : Logunit      - NEUTRON MATRIX
TMAX.C        25.5556              : BHT          - MAXIMUM RECORDED TEMPERATURE
BHTD.M        594.36               : BHTDEP       - MAXIMUM RECORDED TEMPERATURE
MATR.         1                    : LOGUNIT      - NEUTRON MATRIX
RMT .C        25                   : MDTP         - TEMPERATURE OF MUD
NEUT.         1                    : NEUTRON      - NEUTRON TYPE
RESI.         0                    : RESIST       - RESISTIVITY TYPE
RMC .OHMM     0.25                 : RMC          - RESISTIVITY OF MUD CAKE
RMF .OHMM     0.25                 : RMF          - RESISTIVITY OF MUD FILTRATE
SUFT.C        15                   : SUFT         - SURFACE TEMPERATURE
~A  DEPTH       GR     PHID     PHIN     RESD
# ...
  484.068   82.587    0.245    0.500    4.783
  484.318   82.782    0.264    0.505    4.719
  484.568   83.473    0.269    0.512    4.616
  484.818   83.379    0.270    0.517    4.616
  485.068   81.886    0.274    0.518    4.763
  485.318   79.095    0.264    0.515    5.072
  485.568   77.742    0.260    0.522    5.276
  485.818   68.442    0.284    0.508    5.535
  486.068   63.732    0.304    0.485    5.668
  486.318   60.020    0.306    0.457    5.658
  486.568   55.406    0.295    0.449    5.485
  486.818   52.689    0.318    0.464    5.324
  487.068   51.136    0.357    0.465    5.160
  487.318   52.083    0.343    0.458    5.102
  487.568   52.933    0.351    0.456    5.066
  487.818   52.920    0.338    0.456    5.062
  488.068   52.173    0.340    0.456    5.062
  488.318   52.969    0.346    0.465    5.060
  488.568   53.997    0.359    0.476    5.069
  488.818   54.304    0.359    0.484    4.956
  489.068   54.646    0.359    0.470    4.962
  489.318   54.264    0.362    0.459    4.870
  489.568   53.476    0.358    0.456    4.875
  489.818   52.239    0.354    0.462    4.875
  490.068   51.544    0.359    0.475    4.815
  490.318   52.239    0.364    0.479    4.787
  490.568   53.284    0.371    0.477    4.784
  490.818   56.024    0.358    0.475    4.783
  491.068   56.376    0.361    0.462    4.782
  491.318   56.371    0.355    0.453    4.784
  491.568   57.679    0.353    0.461    4.828
  491.818   57.533    0.358    0.469    4.882
  492.068   57.051    0.347    0.465    5.201
  492.318   56.271    0.330    0.447    5.549
  492.568   55.158    0.306    0.396    6.213
  492.818   54.215    0.235    0.303    6.908
  493.068   52.716    0.140    0.174    8.327
  493.318   51.595    0.078    0.175    9.989
  493.568   50.880    0.065    0.175   10.749
  493.818   51.699    0.062    0.178   11.187
  494.068   53.108    0.065    0.183   10.993
  494.318   57.939    0.078    0.209   10.678
  494.568   61.953    0.091    0.273   10.117
  494.818   63.853    0.096    0.300    9.517
  495.068   64.547    0.094    0.317    8.819
  495.318   66.590    0.172    0.360    8.120
  495.568   68.955    0.248    0.402    7.069
  495.818   71.070    0.294    0.454    6.197
  496.068   72.410    0.309    0.501    5.527
  496.318   72.043    0.312    0.529    4.830
  496.568   71.072    0.302    0.545    4.623
  496.818   69.455    0.303    0.551    4.278
  497.068   69.755    0.319    0.538    4.195
  497.318   69.889    0.329    0.525    4.107
  497.568   68.860    0.338    0.521    4.115
  497.818   67.605    0.331    0.526    4.114
  498.068   66.367    0.307    0.526    4.113
  498.318   66.015    0.321    0.513    4.112
  498.568   64.529    0.319    0.509    4.106
  498.818   63.972    0.326    0.529    4.191
  499.068   64.631    0.328    0.549    4.186
  499.318   64.747    0.338    0.534    4.182
  499.568   65.153    0.347    0.519    4.263
  499.818   65.211    0.334    0.514    4.202
  500.068   64.473    0.336    0.517    4.252
  500.318   64.562    0.329    0.520    4.255
  500.568   63.594    0.322    0.521    4.260
  500.818   62.605    0.326    0.519    4.263
  501.068   62.091    0.335    0.507    4.262
  501.318   61.831    0.336    0.504    4.262
  501.568   61.483    0.348    0.509    4.261
  501.818   60.786    0.346    0.509    4.261
  502.068   62.642    0.347    0.506    4.260
  502.318   63.915    0.342    0.511    4.260
  502.568   65.735    0.351    0.518    4.259
  502.818   65.075    0.353    0.525    4.259
  503.068   62.669    0.356    0.531    4.259
  503.318   62.601    0.347    0.538    4.258
  503.568   63.319    0.346    0.539    4.258
  503.818   63.210    0.343    0.528    4.257
  504.068   63.961    0.350    0.518    4.259
  504.318   63.196    0.350    0.513    4.265
  504.568   63.277    0.350    0.528    4.339
  504.818   62.282    0.350    0.538    4.336
  505.068   62.670    0.357    0.545    4.335
  505.318   63.697    0.346    0.527    4.275
  505.568   63.985    0.340    0.514    4.257
  505.818   64.396    0.344    0.513    4.253
  506.068   63.998    0.332    0.527    4.203
  506.318   63.718    0.342    0.545    4.177
  506.568   62.116    0.353    0.539    4.174
  506.818   60.690    0.351    0.526    4.163
  507.068   60.710    0.337    0.528    4.243
  507.318   59.641    0.342    0.527    4.237
  507.568   59.586    0.346    0.513    4.247
  507.818   59.566    0.351    0.509    4.248
  508.068   59.619    0.356    0.504    4.311
  508.318   58.904    0.355    0.497    4.319
  508.568   58.959    0.350    0.494    4.410
  508.818   60.071    0.338    0.497    4.398
  509.068   59.509    0.335    0.496    4.497
  509.318   58.947    0.341    0.483    4.489
  509.568   58.200    0.335    0.481    4.539
  509.818   57.655    0.344    0.488    4.571
  510.068   57.032    0.357    0.498    4.566
  510.318   58.682    0.356    0.499    4.664
  510.568   59.587    0.348    0.480    4.656
  510.818   60.944    0.347    0.475    4.655
  511.068   63.339    0.339    0.475    4.654
  511.318   65.563    0.325    0.485    4.654
  511.568   65.941    0.311    0.497    4.651
  511.818   67.453    0.319    0.512    4.623
  512.068   69.612    0.321    0.512    4.567
  512.318   73.004    0.298    0.506    4.482
  512.568   75.463    0.273    0.500    4.371
  512.818   77.336    0.271    0.484    4.322
  513.068   78.018    0.261    0.476    4.230
  513.318   77.965    0.255    0.484    4.226
  513.568   77.938    0.262    0.490    4.165
  513.818   79.356    0.271    0.502    4.084
  514.068   81.641    0.261    0.494    4.006
  514.318   84.110    0.248    0.486    3.953
  514.568   86.388    0.243    0.497    3.941
  514.818   88.726    0.234    0.515    3.939
  515.068   90.148    0.225    0.531    4.134
  515.318   86.753    0.208    0.515    4.370
  515.568   81.604    0.247    0.476    4.636
  515.818   78.554    0.261    0.454    4.980
  516.068   77.171    0.258    0.470    5.138
  516.318   76.194    0.254    0.490    5.372
  516.568   74.331    0.253    0.513    5.488
  516.818   70.803    0.259    0.529    5.470
  517.068   67.254    0.246    0.540    5.375
  517.318   66.435    0.252    0.502    5.337
  517.568   67.192    0.285    0.487    5.281
  517.818   70.706    0.296    0.481    5.357
  518.068   73.015    0.282    0.476    5.404
  518.318   76.044    0.268    0.472    5.580
  518.568   76.960    0.251    0.470    5.752
  518.818   78.826    0.233    0.473    5.926
  519.068   80.095    0.230    0.485    6.114
  519.318   83.324    0.234    0.504    6.128
  519.568   85.831    0.226    0.524    6.000
  519.818   85.733    0.227    0.514    5.907
  520.068   84.096    0.221    0.495    5.845
  520.318   82.516    0.221    0.483    5.788
  520.568   82.055    0.229    0.482    5.784
  520.818   82.824    0.237    0.487    5.775
  521.068   83.759    0.240    0.477    5.894
  521.318   83.683    0.232    0.475    5.888
  521.568   83.224    0.236    0.480    5.882
  521.818   81.351    0.227    0.488    5.997
  522.068   82.651    0.219    0.484    6.000
  522.318   81.080    0.223    0.477    6.021
  522.568   78.617    0.233    0.486    6.113
  522.818   75.847    0.238    0.496    6.169
  523.068   74.730    0.227    0.496    6.215
  523.318   76.790    0.214    0.490    6.322
  523.568   78.903    0.231    0.477    6.388
  523.818   79.447    0.223    0.469    6.460
  524.068   78.753    0.228    0.461    6.578
  524.318   80.410    0.217    0.457    6.535
  524.568   84.291    0.225    0.467    6.331
  524.818   87.643    0.200    0.467    6.125
  525.068   89.979    0.179    0.479    5.751
  525.318   91.365    0.203    0.501    5.574
  525.568   93.413    0.198    0.502    5.558
  525.818   93.867    0.191    0.498    5.677
  526.068   94.443    0.195    0.506    5.658
  526.318   93.767    0.213    0.500    5.790
  526.568   93.071    0.227    0.482    5.652
  526.818   92.497    0.213    0.469    5.398
  527.068   91.696    0.226    0.458    5.195
  527.318   88.927    0.216    0.453    4.881
