~VERSION INFORMATION
 VERS.                 2.0:   CWLS LOG ASCII STANDARD -VERSION 2.0
 WRAP.                  NO:   ONE LINE PER DEPTH STEP
~WELL INFORMATION BLOCK
#MNEM.UNIT           DATA                    DESCRIPTION OF MNEMONIC
#---------    -------------------            -------------------------------
# Generated from Intellog Unique Number	CS_77_79/WELL/905
WELL.         MESA HB THORNBURY              : Well_name    - WELL
LOC .         00/07-22-078-12W4/0            : Location     - LOCATION
UWI .         00/07-22-078-12W4/0            : Uwi          - UNIQUE WELL ID
ENTR.         JHS                            : Entered      - ENTERED BY
SRVC.         SCHLUMBERGER                   : Scn          - SERVICE COMPANY
STRT.M        256.032                        : top_depth    - START DEPTH
STOP.M        475.282                        : bot_depth    - STOP DEPTH
STEP.M        0.25                           : increment    - STEP LENGTH
 NULL. -999.2500:NULL Value
~CURVE INFORMATION BLOCK
#MNEM UNIT       ERCB CURVE CODE    CURVE DESCRIPTION
#-----------   ------------------   ----------------------------------
DEPT.M        00 001 00 00         : DEPTH        - DEPTH
RHOB.KG/M3    00 350 00 00         : DENS         - BULK DENSITY
GR  .API      00 310 00 00         : GR           - GAMMA RAY
DPHI.V/V      00 890 00 00         : PHID         - DENSITY POROSITY (SANDSTONE)
NPHI.V/V      00 330 00 00         : PHIN         - NEUTRON POROSITY (SANDSTONE)
ILD .OHMM     00 120 00 00         : RESD         - DEEP RESISTIVITY (DIL)
~PARAMETER INFORMATION
#MNEM.UNIT           DATA             DESCRIPTION OF MNEMONIC
#---------         -----------     ------------------------------
GL  .M        675.315              : gl           - GROUND LEVEL ELEVATION
EREF.M        679.094              : kb           - ELEVATION OF DEPTH REFERENCE
DATM.M        679.094              : datum        - DATUM ELEVATION
TDD .M        490.728              : tdd          - TOTAL DEPTH DRILLER
RUN .         ONE                  : Run          - RUN NUMBER
ENG .         BILL                 : Engineer     - RECORDING ENGINEER
WIT .         JIM                  : Witness      - WITNESSED BY
MUD .         GEL                  : Mud_type     - MUD TYPE
MATR.         SANDSTONE            : Logunit      - NEUTRON MATRIX
TMAX.C        19.4444              : BHT          - MAXIMUM RECORDED TEMPERATURE
BHTD.M        490.728              : BHTDEP       - MAXIMUM RECORDED TEMPERATURE
MATR.         1                    : LOGUNIT      - NEUTRON MATRIX
RMT .C        25                   : MDTP         - TEMPERATURE OF MUD
NEUT.         1                    : NEUTRON      - NEUTRON TYPE
RESI.         0                    : RESIST       - RESISTIVITY TYPE
RMC .OHMM     0.25                 : RMC          - RESISTIVITY OF MUD CAKE
RMF .OHMM     0.25                 : RMF          - RESISTIVITY OF MUD FILTRATE
SUFT.C        15                   : SUFT         - SURFACE TEMPERATURE
~A  DEPTH     DENS       GR     PHID     PHIN     RESD
  256.032    0.000    0.000    0.217    0.487    3.304
  256.282    0.000  105.485    0.234    0.487    3.374
  256.532    0.000  101.879    0.231    0.500    3.390
  256.782    0.000  101.656    0.237    0.507    3.441
  257.032    0.000  104.711    0.227    0.508    3.555
  257.282    0.000  108.484    0.241    0.515    3.577
  257.532    0.000  111.638    0.218    0.504    3.638
  257.782    0.000  110.243    0.244    0.485    3.732
  258.032    0.000  107.226    0.242    0.497    3.736
  258.282    0.000  107.228    0.230    0.513    3.799
  258.532    0.000  108.249    0.217    0.521    3.881
  258.782    0.000  106.188    0.211    0.532    3.959
  259.032    0.000  102.579    0.222    0.498    4.014
  259.282    0.000   99.636    0.216    0.451    4.044
  259.532    0.000  103.799    0.206    0.467    3.972
  259.782    0.000  105.229    0.232    0.500    3.932
  260.032    0.000  104.421    0.211    0.531    3.784
  260.282    0.000  102.879    0.221    0.548    3.624
  260.532    0.000  102.229    0.237    0.524    3.626
  260.782    0.000  100.759    0.241    0.507    3.717
  261.032    0.000   98.233    0.234    0.478    3.842
  261.282    0.000   97.457    0.248    0.453    3.854
  261.532    0.000   99.974    0.251    0.448    3.859
  261.782    0.000  103.830    0.229    0.472    3.868
  262.032    0.000  108.507    0.212    0.501    3.764
  262.282    0.000  112.783    0.212    0.517    3.731
  262.532    0.000  114.482    0.221    0.525    3.661
  262.782    0.000  113.468    0.227    0.531    3.670
  263.032    0.000  108.838    0.211    0.508    3.671
  263.282    0.000  102.677    0.230    0.491    3.781
  263.532    0.000  100.588    0.227    0.480    3.987
  263.782    0.000  100.718    0.211    0.493    4.178
  264.032    0.000   99.482    0.219    0.500    4.281
  264.282    0.000   98.174    0.210    0.491    4.376
  264.532    0.000   96.170    0.213    0.488    4.437
  264.782    0.000   94.484    0.210    0.499    4.604
  265.032    0.000   91.475    0.190    0.510    5.122
  265.282    0.000   82.552    0.171    0.515    6.361
  265.532    0.000   67.228    0.150    0.384    9.125
  265.782    0.000   44.889    0.125    0.320   12.899
  266.032    0.000   35.023    0.180    0.330   20.382
  266.282    0.000   34.678    0.297    0.380   31.912
  266.532    0.000   36.645    0.317    0.402   37.097
  266.782    0.000   38.265    0.321    0.401   35.786
  267.032    0.000   40.802    0.325    0.407   32.800
  267.282    0.000   44.133    0.332    0.394   29.874
  267.532    0.000   50.363    0.345    0.394   28.990
  267.782    0.000   54.186    0.335    0.412   28.149
  268.032    0.000   55.787    0.344    0.434   26.920
  268.282    0.000   56.101    0.355    0.437   25.854
  268.532    0.000   56.535    0.343    0.414   25.293
  268.782    0.000   57.242    0.348    0.397   25.274
  269.032    0.000   60.093    0.353    0.397   26.011
  269.282    0.000   61.526    0.332    0.426   26.330
  269.532    0.000   60.953    0.323    0.451   27.212
  269.782    0.000   59.285    0.329    0.456   27.403
  270.032    0.000   57.492    0.348    0.434   27.421
  270.282    0.000   54.051    0.335    0.420   26.976
  270.532    0.000   49.850    0.333    0.406   25.838
  270.782    0.000   55.140    0.350    0.399   23.909
  271.032    0.000   60.161    0.349    0.388   21.985
  271.282    0.000   70.892    0.318    0.382   16.810
  271.532    0.000   81.856    0.292    0.393   10.278
  271.782    0.000  105.910    0.233    0.442    7.041
  272.032    0.000  113.233    0.215    0.467    5.667
  272.282    0.000  111.907    0.207    0.472    5.607
  272.532    0.000  107.699    0.194    0.457    5.921
  272.782    0.000   97.353    0.177    0.423    6.313
  273.032    0.000   91.259    0.165    0.420    6.812
  273.282    0.000   90.750    0.168    0.429    7.001
  273.532    0.000   91.718    0.182    0.420    7.007
  273.782    0.000   94.893    0.213    0.416    6.824
  274.032    0.000   99.632    0.213    0.423    6.483
  274.282    0.000  104.037    0.203    0.430    6.188
  274.532    0.000  107.107    0.188    0.430    6.005
  274.782    0.000  108.094    0.206    0.439    5.953
  275.032    0.000  106.868    0.189    0.446    5.954
  275.282    0.000  104.180    0.208    0.453    6.184
  275.532    0.000  100.883    0.221    0.449    6.653
  275.782    0.000   96.827    0.240    0.445    7.833
  276.032    0.000   88.697    0.264    0.464    9.071
  276.282    0.000   82.375    0.261    0.421   10.357
  276.532    0.000   77.679    0.222    0.420   12.041
  276.782    0.000   73.091    0.249    0.436   12.716
  277.032    0.000   71.687    0.278    0.413   12.309
  277.282    0.000   71.834    0.256    0.412   11.793
  277.532    0.000   77.492    0.233    0.422   10.518
  277.782    0.000   82.402    0.220    0.419    9.400
  278.032    0.000   89.518    0.215    0.416    8.465
  278.282    0.000   94.375    0.201    0.429    7.708
  278.532    0.000   97.871    0.228    0.445    7.850
  278.782    0.000   99.263    0.248    0.456    9.046
  279.032    0.000   96.694    0.248    0.451   12.532
  279.282    0.000   79.699    0.280    0.430   17.866
  279.532    0.000   57.360    0.266    0.376   23.111
  279.782    0.000   54.878    0.252    0.352   27.010
  280.032    0.000   61.701    0.221    0.354   26.137
  280.282    0.000   72.496    0.224    0.349   24.481
  280.532    0.000   79.680    0.195    0.345   19.473
  280.782    0.000   87.599    0.188    0.358   14.736
  281.032    0.000   94.818    0.210    0.393   12.627
  281.282    0.000   97.615    0.188    0.435   11.036
  281.532    0.000   99.285    0.140    0.436    9.157
  281.782    0.000  104.411    0.131    0.427    8.004
  282.032    0.000  110.414    0.147    0.426    7.456
  282.282    0.000  117.303    0.170    0.441    7.259
  282.532    0.000  121.058    0.216    0.475    6.912
  282.782    0.000  123.766    0.206    0.482    6.785
  283.032    0.000  126.591    0.193    0.474    6.512
  283.282    0.000  128.311    0.195    0.493    6.422
  283.532    0.000  126.499    0.189    0.506    6.254
  283.782    0.000  121.709    0.189    0.494    6.078
  284.032    0.000  119.956    0.199    0.473    5.738
  284.282    0.000  122.823    0.176    0.476    5.344
  284.532    0.000  128.165    0.158    0.490    4.970
  284.782    0.000  134.329    0.186    0.477    4.558
  285.032    0.000  135.737    0.205    0.478    4.230
  285.282    0.000  136.235    0.207    0.505    4.067
  285.532    0.000  134.944    0.230    0.536    3.936
  285.782    0.000  132.740    0.228    0.555    4.014
  286.032    0.000  129.815    0.215    0.561    4.180
  286.282    0.000  126.707    0.219    0.551    4.924
  286.532    0.000  125.156    0.242    0.500    5.831
  286.782    0.000  123.338    0.266    0.472    8.079
  287.032    0.000  118.560    0.269    0.453   10.986
  287.282    0.000  114.291    0.241    0.429   13.582
  287.532    0.000  112.137    0.224    0.424   14.789
  287.782    0.000  111.379    0.232    0.411   14.579
  288.032    0.000  110.271    0.252    0.424   14.637
  288.282    0.000  107.435    0.266    0.432   14.512
  288.532    0.000  104.129    0.268    0.423   13.611
  288.782    0.000   98.684    0.279    0.431   11.634
  289.032    0.000   94.515    0.288    0.446    9.815
  289.282    0.000  101.442    0.164    0.456    8.074
  289.532    0.000  110.285    0.134    0.470    6.798
  289.782    0.000  117.979    0.121    0.491    6.529
  290.032    0.000  122.820    0.102    0.454    6.627
  290.282    0.000  124.921    0.116    0.437    7.598
  290.532    0.000  128.764    0.183    0.431    9.232
  290.782    0.000  129.469    0.228    0.442   10.796
  291.032    0.000  121.986    0.241    0.417   11.855
  291.282    0.000  116.245    0.251    0.407   13.090
  291.532    0.000  114.956    0.262    0.420   14.045
  291.782    0.000  112.150    0.253    0.443   14.367
  292.032    0.000  107.839    0.276    0.448   14.383
  292.282    0.000  102.182    0.286    0.426   13.896
