~VERSION INFORMATION
 VERS.                 2.0:   CWLS LOG ASCII STANDARD -VERSION 2.0
 WRAP.                  NO:   ONE LINE PER DEPTH STEP
~WELL INFORMATION BLOCK
#MNEM.UNIT           DATA                    DESCRIPTION OF MNEMONIC
#---------    -------------------            -------------------------------
# Generated from Intellog Unique Number	CW_73_75/WELL/3521
WELL.         G&W ET AL SPUR                 : Well_name    - WELL
LOC .         00/08-05-073-02W5/0            : Location     - LOCATION
UWI .         00/08-05-073-02W5/0            : Uwi          - UNIQUE WELL ID
ENTR.         TOM                            : Entered      - ENTERED BY
SRVC.         SCHLUMBERGER                   : Scn          - SERVICE COMPANY
STRT.M        350                            : top_depth    - START DEPTH
STOP.M        600                            : bot_depth    - STOP DEPTH
STEP.M        0.25                           : increment    - STEP LENGTH
 NULL. -999.2500:NULL Value
~CURVE INFORMATION BLOCK
#MNEM UNIT       ERCB CURVE CODE    CURVE DESCRIPTION
#-----------   ------------------   ----------------------------------
DEPT.M        00 001 00 00         : DEPTH        - DEPTH
GR  .API      00 310 00 00         : GR           - GAMMA RAY
NPHI.V/V      00 330 00 00         : PHIN         - NEUTRON POROSITY (SANDSTONE)
DPHI.V/V      00 890 00 00         : PHID         - DENSITY POROSITY (SANDSTONE)
ILD .OHMM     00 120 00 00         : RESD         - DEEP RESISTIVITY (DIL)
~PARAMETER INFORMATION
#MNEM.UNIT           DATA             DESCRIPTION OF MNEMONIC
#---------         -----------     ------------------------------
GL  .M        601.5                : gl           - GROUND LEVEL ELEVATION
EREF.M        604.3                : kb           - ELEVATION OF DEPTH REFERENCE
DATM.M        604.3                : datum        - DATUM ELEVATION
TDD .M        604                  : tdd          - TOTAL DEPTH DRILLER
RUN .         ONE                  : Run          - RUN NUMBER
ENG .         BILL                 : Engineer     - RECORDING ENGINEER
WIT .         JIM                  : Witness      - WITNESSED BY
MUD .         GEL                  : Mud_type     - MUD TYPE
MATR.         SANDSTONE            : Logunit      - NEUTRON MATRIX
TMAX.C        28                   : BHT          - MAXIMUM RECORDED TEMPERATURE
BHTD.M        604                  : BHTDEP       - MAXIMUM RECORDED TEMPERATURE
RMT .C        17                   : MDTP         - TEMPERATURE OF MUD
MUDD.KG/M     1100                 : MWT          - MUD DENSITY
NEUT.         1                    : NEUTRON      - NEUTRON TYPE
RESI.         0                    : RESIST       - RESISTIVITY TYPE
RM  .OHMM     4.5                  : RM           - RESISTIVITY OF MUD
RMC .OHMM     0                    : RMC          - RESISTIVITY OF MUD CAKE
RMF .OHMM     2.744                : RMF          - RESISTIVITY OF MUD FILTRATE
SUFT.C        15                   : SUFT         - SURFACE TEMPERATURE
~A  DEPTH       GR     PHIN     PHID     RESD
# ...
  437.000   85.597    0.402    0.237    4.523
  437.250   83.137    0.415    0.271    4.515
  437.500   80.659    0.436    0.296    4.428
  437.750   85.384    0.437    0.301    4.340
  438.000   90.056    0.434    0.272    4.253
  438.250   88.211    0.424    0.253    4.170
  438.500   86.963    0.420    0.247    4.091
  438.750   83.905    0.426    0.244    4.010
  439.000   79.653    0.430    0.250    3.932
  439.250   74.786    0.426    0.256    3.925
  439.500   71.710    0.419    0.269    3.995
  439.750   71.042    0.416    0.279    4.218
  440.000   78.771    0.412    0.231    4.371
  440.250   88.854    0.405    0.204    4.529
  440.500   91.172    0.405    0.185    4.524
  440.750   90.504    0.408    0.211    4.353
  441.000   88.026    0.410    0.236    4.186
  441.250   84.968    0.414    0.255    4.183
  441.500   80.136    0.419    0.259    4.177
  441.750   72.880    0.423    0.266    4.249
  442.000   70.402    0.425    0.287    4.404
  442.250   71.525    0.422    0.297    4.398
  442.500   72.052    0.417    0.290    4.394
  442.750   71.401    0.416    0.275    4.229
  443.000   69.538    0.418    0.282    3.995
  443.250   65.286    0.418    0.289    3.773
  443.500   67.007    0.411    0.277    3.769
  443.750   66.936    0.408    0.265    3.763
  444.000   62.666    0.412    0.274    3.757
  444.250   60.767    0.415    0.293    3.753
  444.500   63.121    0.417    0.297    3.681
  444.750   70.832    0.419    0.293    3.606
  445.000   82.707    0.419    0.283    3.538
  445.250   83.233    0.419    0.273    3.532
  445.500   71.796    0.411    0.214    3.527
  445.750   68.141    0.404    0.195    3.523
  446.000   65.681    0.397    0.241    3.651
  446.250   71.582    0.403    0.250    4.075
  446.500   76.905    0.407    0.257    4.225
  446.750   85.793    0.401    0.184    4.544
  447.000   91.080    0.397    0.176    4.622
  447.250   89.832    0.401    0.199    4.529
  447.500   84.965    0.402    0.222    4.440
  447.750   81.925    0.404    0.242    4.433
  448.000   77.040    0.404    0.239    4.511
  448.250   74.597    0.392    0.202    4.761
  448.500   69.151    0.337    0.085    4.847
  448.750   59.505    0.361    0.095    5.117
  449.000   61.244    0.371    0.145    5.818
  449.250   66.548    0.393    0.185    6.737
  449.500   70.061    0.407    0.249    6.606
  449.750   68.777    0.419    0.251    6.014
  450.000   68.706    0.421    0.251    5.475
  450.250   72.834    0.415    0.256    4.891
  450.500   76.926    0.408    0.225    4.794
  450.750   75.063    0.396    0.201    4.789
  451.000   75.572    0.397    0.189    4.874
  451.250   77.925    0.397    0.183    4.955
  451.500   83.827    0.400    0.175    4.858
  451.750   86.743    0.405    0.176    4.853
  452.000   86.636    0.408    0.179    4.760
  452.250   87.198    0.403    0.180    4.666
  452.500   87.706    0.397    0.181    4.573
  452.750   88.232    0.392    0.185    4.483
  453.000   88.179    0.396    0.195    4.644
  453.250   88.108    0.402    0.182    4.814
  453.500   86.245    0.401    0.169    4.989
  453.750   86.174    0.399    0.174    4.983
  454.000   88.474    0.395    0.177    4.887
  454.250   88.983    0.398    0.182    4.614
  454.500   88.350    0.402    0.181    4.526
  454.750   87.084    0.400    0.183    4.520
  455.000   87.013    0.396    0.189    4.683
  455.250   89.313    0.398    0.195    4.764
  455.500   90.454    0.400    0.210    4.671
  455.750   87.379    0.398    0.235    4.497
  456.000   72.973    0.394    0.256    4.326
  456.250   63.327    0.384    0.263    4.322
  456.500   62.659    0.375    0.257    4.236
  456.750   61.990    0.377    0.268    4.000
  457.000   59.530    0.377    0.282    3.851
  457.250   53.486    0.379    0.292    3.706
  457.500   48.039    0.392    0.294    3.499
  457.750   47.371    0.399    0.291    3.370
  458.000   50.251    0.392    0.286    3.242
  458.250   50.180    0.386    0.281    3.062
  458.500   50.126    0.385    0.286    3.060
  458.750   50.055    0.394    0.291    3.056
  459.000   49.966    0.401    0.291    3.052
  459.250   49.877    0.416    0.292    3.048
  459.500   50.404    0.422    0.293    3.044
  459.750   50.350    0.417    0.293    3.039
  460.000   50.894    0.410    0.291    3.092
  460.250   50.806    0.407    0.287    3.089
  460.500   50.734    0.407    0.285    3.201
  460.750   50.681    0.407    0.282    3.257
  461.000   50.592    0.403    0.281    3.374
  461.250   51.118    0.401    0.277    3.371
  461.500   52.224    0.395    0.276    3.305
  461.750   52.786    0.389    0.280    3.240
  462.000   53.909    0.375    0.285    3.235
  462.250   54.435    0.368    0.285    3.292
  462.500   54.962    0.403    0.279    3.409
  462.750   54.873    0.414    0.273    3.470
  463.000   54.222    0.411    0.270    3.596
  463.250   52.957    0.400    0.266    3.591
  463.500   52.270    0.383    0.259    3.654
  463.750   51.023    0.304    0.233    3.857
  464.000   49.124    0.228    0.205    4.386
  464.250   48.491    0.256    0.125    5.081
  464.500   47.225    0.289    0.073    6.456
  464.750   47.752    0.325    0.062    7.338
  465.000   51.264    0.366    0.205    7.194
  465.250   51.791    0.377    0.228    6.549
  465.500   52.299    0.364    0.253    5.853
  465.750   52.843    0.369    0.273    5.037
  466.000   55.161    0.382    0.274    4.762
  466.250   59.271    0.395    0.274    4.177
  466.500   63.960    0.404    0.273    3.530
  466.750   62.097    0.394    0.272    3.098
  467.000   59.655    0.381    0.272    2.767
  467.250   57.195    0.381    0.268    3.032
  467.500   52.925    0.382    0.259    3.385
  467.750   49.867    0.381    0.253    3.640
  468.000   48.601    0.378    0.260    3.702
  468.250   55.101    0.375    0.271    3.631
  468.500   61.020    0.386    0.284    3.365
  468.750   69.311    0.408    0.274    3.240
  469.000   73.421    0.422    0.265    3.061
  469.250   66.780    0.417    0.295    2.734
  469.500   55.922    0.416    0.301    2.631
  469.750   53.462    0.420    0.303    2.628
  470.000   53.988    0.422    0.298    2.674
  470.250   57.518    0.418    0.291    2.720
  470.500   59.239    0.413    0.285    2.819
  470.750   62.734    0.409    0.275    2.869
  471.000   64.490    0.412    0.233    2.917
  471.250   70.392    0.416    0.218    2.914
  471.500   84.059    0.412    0.186    2.910
  471.750   86.957    0.408    0.188    2.906
  472.000   87.518    0.399    0.195    2.957
  472.250   85.022    0.400    0.203    3.066
  472.500   81.368    0.405    0.235    3.295
  472.750   78.328    0.412    0.229    3.416
  473.000   76.465    0.413    0.222    3.674
  473.250   79.977    0.409    0.212    3.739
  473.500   86.459    0.400    0.208    3.598
  473.750   85.808    0.402    0.216    3.397
  474.000   83.945    0.404    0.225    3.332
  474.250   82.680    0.409    0.231    3.327
  474.500   78.427    0.414    0.221    3.322
  474.750   76.547    0.434    0.205    3.380
  475.000   81.869    0.428    0.199    3.503
  475.250   81.183    0.416    0.185    3.564
  475.500   81.709    0.405    0.161    3.625
  475.750   84.045    0.403    0.160    3.757
  476.000   88.137    0.404    0.186    3.824
  476.250   86.274    0.406    0.185    3.961
  476.500   85.623    0.400    0.183    4.106
  476.750   87.326    0.390    0.188    4.179
  477.000   87.273    0.393    0.192    4.331
  477.250   87.764    0.399    0.191    4.322
  477.500   87.710    0.402    0.196    4.161
  477.750   87.639    0.392    0.201    4.081
  478.000   86.971    0.390    0.197    3.853
  478.250   86.918    0.394    0.195    3.850
  478.500   86.829    0.400    0.200    3.845
  478.750   86.758    0.402    0.226    3.911
  479.000   84.280    0.404    0.257    4.052
  479.250   79.430    0.404    0.280    4.049
  479.500   74.001    0.409    0.305    3.823
  479.750   69.152    0.413    0.325    3.680
  480.000   66.058    0.418    0.326    3.347
  480.250   68.974    0.419    0.325    3.283
