~VERSION INFORMATION
 VERS.                 2.0:   CWLS LOG ASCII STANDARD -VERSION 2.0
 WRAP.                  NO:   ONE LINE PER DEPTH STEP
~WELL INFORMATION BLOCK
#MNEM.UNIT           DATA                    DESCRIPTION OF MNEMONIC
#---------    -------------------            -------------------------------
# Generated from Intellog Unique Number	CW_70_72/WELL/185
NULL.         -999.25                        : NULL_VALUE
WELL.         GLOBAL ET AL CALLS 02-22       : Well_name    - WELL              
LOC .         02-22-071-22W4                 : Location     - LOCATION          
UWI .         00/02-22-071-22W4/0            : Uwi          - UNIQUE WELL ID    
ENTR.         JAYE                           : Entered      - ENTERED BY        
SRVC.         SCHLUMBERGER                   : Scn          - SERVICE COMPANY   
DATE.         22 FEB 81                      : Date         - LOG DATE          
STRT.M        410                            : top_depth    - START DEPTH       
STOP.M        605                            : bot_depth    - STOP DEPTH        
STEP.M        0.25                           : increment    - STEP LENGTH       
~CURVE INFORMATION BLOCK
#MNEM UNIT       ERCB CURVE CODE    CURVE DESCRIPTION
#-----------   ------------------   ----------------------------------
DEPT.M        00 001 00 00         : DEPTH        - DEPTH                       
DPHI.V/V      00 890 00 00         : PHID         - DENSITY POROSITY (SANDSTONE)
NPHI.V/V      00 330 00 00         : PHIN         - NEUTRON POROSITY (SANDSTONE)
GR  .API      00 310 00 00         : GR           - GAMMA RAY                   
CALI.MM       00 280 01 00         : CAL          - CALIPER                     
ILD .OHMM     00 120 00 00         : RESD         - DEEP RESISTIVITY (DIL)      
~PARAMETER INFORMATION       
#MNEM.UNIT           DATA             DESCRIPTION OF MNEMONIC
#---------         -----------     ------------------------------
GL  .M        652.55               : gl           - GROUND LEVEL ELEVATION      
EREF.M        656.1                : kb           - ELEVATION OF DEPTH REFERENCE
DATM.M        652.55               : datum        - DATUM ELEVATION             
TDD .M        660                  : tdd          - TOTAL DEPTH DRILLER         
RUN .         ONE                  : Run          - RUN NUMBER                  
ENG .         DOWNIE               : Engineer     - RECORDING ENGINEER          
WIT .         SAUNDERS             : Witness      - WITNESSED BY                
BASE.         EDSON                : Branch       - HOME BASE OF LOGGING UNIT   
MUD .         GEL CHEM             : Mud_type     - MUD TYPE                    
MATR.         SANDSTONE            : Logunit      - NEUTRON MATRIX              
TMAX.C        31.7                 : BHT          - MAXIMUM RECORDED TEMPERATURE
BHTD.M        660                  : BHTDEP       - MAXIMUM RECORDED TEMPERATURE
RMT .C        22.2                 : MDTP         - TEMPERATURE OF MUD          
MUDD.KG/M     1060                 : MWT          - MUD DENSITY                 
NEUT.         1                    : NEUTRON      - NEUTRON TYPE                
RESI.         0                    : RESIST       - RESISTIVITY TYPE            
RM  .OHMM     5.69                 : RM           - RESISTIVITY OF MUD          
RMC .OHMM     0                    : RMC          - RESISTIVITY OF MUD CAKE     
RMF .OHMM     2.56                 : RMF          - RESISTIVITY OF MUD FILTRATE 
SUFT.C        0                    : SUFT         - SURFACE TEMPERATURE         
~A  DEPTH     PHID     PHIN       GR      CAL     RESD
# ...
  446.500    0.280    0.398   69.769  150.926    9.049
  446.750    0.275    0.374   67.290  151.131   11.169
  447.000    0.276    0.392   64.439  151.337   13.050
  447.250    0.214    0.385   58.925  152.059   14.853
  447.500    0.051    0.175   50.498  151.955   16.341
  447.750    0.048    0.192   48.391  152.058   17.249
  448.000    0.066    0.215   53.347  151.231   16.050
  448.250    0.045    0.209   57.498  150.301   13.851
  448.500    0.025    0.179   57.126  148.649   11.820
  448.750    0.074    0.225   56.816  146.892   10.047
  449.000    0.206    0.333   62.577  146.479    8.622
  449.250    0.264    0.438   73.234  147.304    7.510
  449.500    0.288    0.428   71.251  148.336    6.756
  449.750    0.296    0.410   64.497  149.575    6.298
  450.000    0.294    0.412   65.798  150.710    5.928
  450.250    0.291    0.424   77.321  151.948    5.683
  450.500    0.281    0.437   96.714  152.774    5.368
  450.750    0.288    0.460   92.934  153.496    5.090
  451.000    0.295    0.455   85.127  153.495    4.853
  451.250    0.295    0.438   80.170  153.495    4.620
  451.500    0.292    0.432   75.027  153.494    4.438
  451.750    0.291    0.438   70.132  153.803    4.273
  452.000    0.287    0.433   65.051  153.802    4.174
  452.250    0.286    0.422   67.281  154.112    4.087
  452.500    0.283    0.402   74.096  154.214    4.038
  452.750    0.276    0.387   77.627  154.730    4.121
  453.000    0.272    0.376   76.512  155.142    4.221
  453.250    0.265    0.383   84.132  156.277    4.405
  453.500    0.249    0.390   91.876  157.413    4.563
  453.750    0.226    0.401   96.585  158.238    4.737
  454.000    0.226    0.407   97.204  158.960    4.761
  454.250    0.225    0.414   97.823  159.373    4.777
  454.500    0.221    0.420   97.575  159.475    4.747
  454.750    0.216    0.427   94.105  159.681    4.727
  455.000    0.212    0.434   92.989  159.887    4.689
  455.250    0.216    0.435   96.272  160.299    4.669
  455.500    0.208    0.427  101.353  161.022    4.675
  455.750    0.192    0.419  105.008  162.157    4.681
  456.000    0.171    0.437  103.458  163.085    4.706
  456.250    0.180    0.445  101.413  163.808    4.720
  456.500    0.189    0.436  100.979  164.427    4.736
  456.750    0.176    0.432  100.173  168.247    4.743
  457.000    0.171    0.451   98.005  172.790    4.669
  457.250    0.211    0.477   92.304  171.240    4.571
  457.500    0.252    0.485   81.895  166.489    4.441
  457.750    0.262    0.478   66.591  158.641    4.324
  458.000    0.263    0.426   54.942  153.787    4.241
  458.250    0.264    0.401   55.562  152.547    4.168
  458.500    0.268    0.386   56.552  152.443    4.134
  458.750    0.273    0.384   55.561  153.785    4.117
  459.000    0.266    0.380   56.985  155.436    4.092
  459.250    0.254    0.377   63.367  158.224    4.050
  459.500    0.228    0.367   70.182  159.669    3.988
  459.750    0.230    0.426   77.616  158.635    3.926
  460.000    0.248    0.443   65.100  155.743    3.873
  460.250    0.274    0.422   53.142  153.781    3.806
  460.500    0.288    0.377   46.078  153.470    3.733
  460.750    0.293    0.377   46.016  153.263    3.668
  461.000    0.287    0.386   49.361  153.366    3.598
  461.250    0.282    0.396   52.397  153.675    3.537
  461.500    0.288    0.406   52.954  153.881    3.488
  461.750    0.298    0.394   50.228  154.190    3.447
  462.000    0.293    0.386   48.430  154.499    3.388
  462.250    0.294    0.377   49.793  154.911    3.348
  462.500    0.301    0.376   51.342  155.324    3.333
  462.750    0.308    0.395   51.899  155.633    3.313
  463.000    0.309    0.388   49.358  155.529    3.311
  463.250    0.307    0.394   43.843  155.631    3.315
  463.500    0.307    0.409   43.162  155.631    3.321
  463.750    0.309    0.416   44.029  155.836    3.318
  464.000    0.312    0.400   46.259  156.146    3.292
  464.250    0.316    0.394   48.861  156.558    3.265
  464.500    0.317    0.396   50.471  156.867    3.234
  464.750    0.319    0.398   50.904  157.073    3.231
  465.000    0.320    0.399   48.302  157.072    3.242
  465.250    0.320    0.407   47.929  157.072    3.247
  465.500    0.319    0.407   48.611  157.174    3.239
  465.750    0.316    0.400   48.858  157.587    3.213
  466.000    0.314    0.394   48.672  157.793    3.211
  466.250    0.310    0.388   48.362  158.102    3.204
  466.500    0.311    0.379   48.299  158.721    3.213
  466.750    0.313    0.376   48.299  159.030    3.224
  467.000    0.314    0.377   48.051  159.132    3.223
  467.250    0.314    0.381   47.617  159.235    3.227
  467.500    0.314    0.391   46.625  159.131    3.213
  467.750    0.314    0.403   44.456  159.027    3.230
  468.000    0.312    0.402   44.331  158.923    3.265
  468.250    0.307    0.394   45.137  158.819    3.288
  468.500    0.301    0.394   46.004  158.715    3.298
  468.750    0.300    0.395   46.685  158.921    3.260
  469.000    0.313    0.386   47.304  159.333    3.185
  469.250    0.325    0.390   47.118  159.436    3.118
  469.500    0.330    0.400   47.551  159.539    3.146
  469.750    0.336    0.409   48.666  159.641    3.234
  470.000    0.333    0.419   54.675  159.744    3.370
  470.250    0.333    0.428   56.844  160.053    3.544
  470.500    0.333    0.429   54.055  160.052    3.713
  470.750    0.328    0.421   55.418  160.052    3.860
  471.000    0.320    0.399   55.541  160.154    4.113
  471.250    0.311    0.396   52.443  160.257    4.350
  471.500    0.297    0.403   49.345  160.256    4.505
  471.750    0.279    0.400   46.184  160.359    4.161
  472.000    0.250    0.370   49.778  160.358    3.743
  472.250    0.235    0.350   50.892  160.048    3.502
  472.500    0.260    0.359   50.830  160.047    3.321
  472.750    0.281    0.370   49.776  159.943    3.215
  473.000    0.306    0.380   49.528  159.943    3.165
  473.250    0.321    0.389   49.652  159.942    3.133
  473.500    0.322    0.399   48.722  159.631    3.103
  473.750    0.318    0.407   47.544  159.321    3.067
  474.000    0.314    0.415   50.208  158.907    3.031
  474.250    0.313    0.422   52.005  158.597    3.023
  474.500    0.316    0.429   51.385  158.493    3.004
  474.750    0.323    0.435   50.888  158.286    2.986
  475.000    0.324    0.444   51.570  158.079    2.991
  475.250    0.320    0.435   54.109  157.871    2.994
  475.500    0.308    0.427   57.950  157.871    2.993
  475.750    0.284    0.424   62.101  157.663    2.980
  476.000    0.278    0.445   60.118  157.456    2.978
  476.250    0.299    0.438   57.206  157.352    2.960
  476.500    0.318    0.435   54.355  157.249    2.948
  476.750    0.334    0.439   52.992  157.145    2.930
  477.000    0.337    0.442   54.850  157.144    2.917
  477.250    0.329    0.445   56.523  156.833    2.904
  477.500    0.328    0.448   55.407  156.730    2.892
  477.750    0.333    0.450   54.601  156.212    2.896
  478.000    0.336    0.443   56.026  156.005    2.905
  478.250    0.333    0.434   57.264  155.901    2.920
  478.500    0.328    0.428   56.645  155.798    2.941
  478.750    0.321    0.426   55.343  155.797    2.950
  479.000    0.319    0.422   53.670  155.899    3.114
  479.250    0.312    0.415   54.103  155.899    3.232
  479.500    0.309    0.423   56.023  155.898    3.310
  479.750    0.312    0.432   57.324  155.691    3.372
  480.000    0.299    0.418   60.050  155.587    3.402
  480.250    0.311    0.425   62.962  155.586    3.413
  480.500    0.318    0.435   64.820  155.792    3.398
  480.750    0.297    0.441   64.448  155.792    3.372
  481.000    0.273    0.427   62.217  155.584    3.382
  481.250    0.257    0.413   57.755  155.584    3.348
  481.500    0.263    0.421   55.834  155.273    3.278
  481.750    0.292    0.438   57.693  155.169    3.227
  482.000    0.301    0.447   61.534  154.962    3.213
  482.250    0.301    0.436   64.507  154.755    3.267
  482.500    0.303    0.422   64.817  154.651    3.429
  482.750    0.307    0.405   62.586  154.650    3.794
