~VERSION INFORMATION
 VERS.                 2.0:   CWLS LOG ASCII STANDARD -VERSION 2.0
 WRAP.                  NO:   ONE LINE PER DEPTH STEP
~WELL INFORMATION BLOCK
#MNEM.UNIT           DATA                    DESCRIPTION OF MNEMONIC
#---------    -------------------            -------------------------------
# Generated from Intellog Unique Number	CS_77_79/WELL/866
WELL.         GULF LEISMER                   : Well_name    - WELL
LOC .         00/06-03-079-09W4/0            : Location     - LOCATION
UWI .         00/06-03-079-09W4/0            : Uwi          - UNIQUE WELL ID
ENTR.         JHS                            : Entered      - ENTERED BY
SRVC.         SCHLUMBERGER                   : Scn          - SERVICE COMPANY
STRT.M        182.88                         : top_depth    - START DEPTH
STOP.M        447.88                         : bot_depth    - STOP DEPTH
STEP.M        0.25                           : increment    - STEP LENGTH
 NULL. -999.2500:NULL Value
~CURVE INFORMATION BLOCK
#MNEM UNIT       ERCB CURVE CODE    CURVE DESCRIPTION
#-----------   ------------------   ----------------------------------
DEPT.M        00 001 00 00         : DEPTH        - DEPTH
GR  .API      00 310 00 00         : GR           - GAMMA RAY
DPHI.V/V      00 890 00 00         : PHID         - DENSITY POROSITY (SANDSTONE)
NPHI.V/V      00 330 00 00         : PHIN         - NEUTRON POROSITY (SANDSTONE)
ILD .OHMM     00 120 00 00         : RESD         - DEEP RESISTIVITY (DIL)
~PARAMETER INFORMATION
#MNEM.UNIT           DATA             DESCRIPTION OF MNEMONIC
#---------         -----------     ------------------------------
GL  .M        654.71               : gl           - GROUND LEVEL ELEVATION
EREF.M        658.368              : kb           - ELEVATION OF DEPTH REFERENCE
DATM.M        658.368              : datum        - DATUM ELEVATION
TDD .M        449.275              : tdd          - TOTAL DEPTH DRILLER
RUN .         ONE                  : Run          - RUN NUMBER
ENG .         BILL                 : Engineer     - RECORDING ENGINEER
WIT .         JIM                  : Witness      - WITNESSED BY
MUD .         GEL                  : Mud_type     - MUD TYPE
MATR.         SANDSTONE            : Logunit      - NEUTRON MATRIX
TMAX.C        23.3333              : BHT          - MAXIMUM RECORDED TEMPERATURE
BHTD.M        449.275              : BHTDEP       - MAXIMUM RECORDED TEMPERATURE
MATR.         1                    : LOGUNIT      - NEUTRON MATRIX
RMT .C        25                   : MDTP         - TEMPERATURE OF MUD
NEUT.         1                    : NEUTRON      - NEUTRON TYPE
RESI.         0                    : RESIST       - RESISTIVITY TYPE
RMC .OHMM     0.25                 : RMC          - RESISTIVITY OF MUD CAKE
RMF .OHMM     0.25                 : RMF          - RESISTIVITY OF MUD FILTRATE
SUFT.C        15                   : SUFT         - SURFACE TEMPERATURE
~A  DEPTH       GR     PHID     PHIN     RESD
# ...
  226.380  104.789    0.348    0.602    3.191
  226.630  102.006    0.348    0.601    3.233
  226.880  101.845    0.352    0.593    3.280
  227.130  103.978    0.347    0.589    3.295
  227.380  105.769    0.337    0.590    3.298
  227.630  103.679    0.350    0.604    3.300
  227.880  100.355    0.351    0.607    3.311
  228.130   99.028    0.357    0.577    3.424
  228.380  100.065    0.344    0.568    3.464
  228.630  100.225    0.347    0.579    3.503
  228.880   99.153    0.317    0.568    3.558
  229.130   99.067    0.338    0.561    3.653
  229.380   99.801    0.332    0.563    3.843
  229.630  100.298    0.322    0.574    3.944
  229.880  101.111    0.315    0.573    4.236
  230.130  103.448    0.306    0.573    4.466
  230.380  104.287    0.298    0.568    4.633
  230.630  103.205    0.288    0.567    4.710
  230.880  102.229    0.273    0.585    4.556
  231.130  100.299    0.263    0.597    4.289
  231.380   97.595    0.308    0.569    4.051
  231.630   95.595    0.295    0.556    3.863
  231.880   95.753    0.292    0.549    3.854
  232.130   97.593    0.285    0.543    3.852
  232.380  100.149    0.270    0.567    3.849
  232.630  102.115    0.265    0.562    3.969
  232.880  104.085    0.274    0.542    4.008
  233.130  104.141    0.271    0.533    4.208
  233.380  102.409    0.266    0.533    4.434
  233.630   99.809    0.252    0.543    4.565
  233.880   97.425    0.267    0.554    4.565
  234.130   98.315    0.289    0.552    4.565
  234.380  100.233    0.270    0.530    4.576
  234.630  104.319    0.259    0.519    4.354
  234.880  105.103    0.285    0.528    4.130
  235.130  102.002    0.285    0.542    3.943
  235.380   98.737    0.303    0.535    3.906
  235.630   98.688    0.282    0.522    3.868
  235.880  101.280    0.283    0.517    3.924
  236.130  102.105    0.297    0.509    4.095
  236.380  105.477    0.290    0.506    4.504
  236.630  107.609    0.269    0.530    4.684
  236.880  104.664    0.253    0.541    4.554
  237.130  103.498    0.243    0.543    4.420
  237.380  106.001    0.249    0.555    4.334
  237.630  105.606    0.259    0.568    4.363
  237.880  101.973    0.266    0.527    4.659
  238.130   98.848    0.237    0.501    4.776
  238.380   98.305    0.223    0.481    4.659
  238.630  100.513    0.206    0.496    4.599
  238.880   99.423    0.238    0.511    4.541
  239.130   92.029    0.253    0.513    4.605
  239.380   81.256    0.234    0.498    5.138
  239.630   76.465    0.215    0.433    5.877
  239.880   77.975    0.231    0.445    6.811
  240.130   81.661    0.310    0.459    7.813
  240.380   84.795    0.315    0.444    8.648
  240.630   88.334    0.302    0.446    9.509
  240.880   86.686    0.290    0.450    9.745
  241.130   85.290    0.289    0.448    9.534
  241.380   85.747    0.304    0.456    9.397
  241.630   88.497    0.304    0.467    9.536
  241.880   88.887    0.280    0.476    9.937
  242.130   86.715    0.283    0.467   10.122
  242.380   87.894    0.284    0.465    9.783
  242.630   90.275    0.273    0.473    9.195
  242.880   91.886    0.282    0.477    8.618
  243.130   92.711    0.273    0.459    8.512
  243.380   92.686    0.267    0.442    8.395
  243.630   92.083    0.282    0.441    8.393
  243.880   91.398    0.294    0.452    8.363
  244.130   91.481    0.288    0.463    8.263
  244.380   91.765    0.271    0.470    7.942
  244.630   92.864    0.274    0.463    7.602
  244.880   94.945    0.286    0.463    7.174
  245.130   95.772    0.292    0.489    6.636
  245.380   95.699    0.279    0.518    6.604
  245.630   93.639    0.264    0.507    6.594
  245.880   91.642    0.263    0.481    6.778
  246.130   90.293    0.274    0.470    6.991
  246.380   90.941    0.269    0.502    7.080
  246.630   92.043    0.268    0.521    7.128
  246.880   93.927    0.266    0.515    7.007
  247.130   94.132    0.274    0.521    6.874
  247.380   90.474    0.299    0.474    6.731
  247.630   87.907    0.279    0.448    6.749
  247.880   89.641    0.266    0.442    6.814
  248.130   93.038    0.254    0.459    6.886
  248.380   94.450    0.265    0.467    7.113
  248.630   95.058    0.271    0.474    7.331
  248.880   93.953    0.263    0.476    7.559
  249.130   94.154    0.252    0.482    7.662
  249.380   96.239    0.258    0.477    7.710
  249.630   98.266    0.254    0.473    7.565
  249.880   98.921    0.262    0.479    7.566
  250.130   98.828    0.248    0.492    7.546
  250.380   97.202    0.248    0.490    7.299
  250.630   94.929    0.245    0.494    7.228
  250.880   91.899    0.232    0.484    7.188
  251.130   91.538    0.218    0.474    7.281
  251.380   92.600    0.235    0.465    7.590
  251.630   95.362    0.264    0.459    7.909
  251.880   95.437    0.280    0.460    8.175
  252.130   95.230    0.291    0.460    8.034
  252.380   96.539    0.291    0.477    7.444
  252.630   96.340    0.279    0.504    7.000
  252.880   93.699    0.286    0.501    6.585
  253.130   88.790    0.310    0.478    6.305
  253.380   82.651    0.289    0.482    6.288
  253.630   74.703    0.257    0.498    6.623
  253.880   67.891    0.231    0.422    7.918
  254.130   61.736    0.171    0.402    9.027
  254.380   70.659    0.156    0.397    9.508
  254.630   75.252    0.200    0.472    8.292
  254.880   72.937    0.267    0.509    7.160
  255.130   76.607    0.287    0.483    7.366
  255.380   77.732    0.269    0.463    7.859
  255.630   76.646    0.295    0.446    8.599
  255.880   75.247    0.314    0.437    8.998
  256.130   71.772    0.319    0.450   12.482
  256.380   64.920    0.348    0.482   14.028
  256.630   55.907    0.379    0.537   13.856
  256.880   55.362    0.391    0.547   15.302
  257.130   57.184    0.351    0.499   16.331
  257.380   59.761    0.349    0.462   14.816
  257.630   62.399    0.354    0.452   13.702
  257.880   65.107    0.348    0.454   13.649
  258.130   69.255    0.337    0.445   14.178
  258.380   72.374    0.325    0.441   15.959
  258.630   74.718    0.318    0.446   17.756
  258.880   74.921    0.317    0.448   18.252
  259.130   73.572    0.319    0.447   18.794
  259.380   71.644    0.317    0.450   18.428
  259.630   72.742    0.317    0.461   18.084
  259.880   76.848    0.322    0.461   17.677
  260.130   78.741    0.331    0.459   18.364
  260.380   80.601    0.337    0.464   18.407
  260.630   80.848    0.338    0.469   18.402
  260.880   79.872    0.337    0.464   17.832
  261.130   79.005    0.351    0.464   17.307
  261.380   79.077    0.337    0.456   16.797
  261.630   80.521    0.351    0.459   16.851
  261.880   83.601    0.349    0.469   16.494
  262.130   85.732    0.320    0.478   16.207
  262.380   85.720    0.297    0.456   15.792
  262.630   85.928    0.293    0.444   14.687
  262.880   88.701    0.283    0.432   13.528
  263.130   92.537    0.279    0.438   12.891
  263.380   95.285    0.268    0.430   11.485
  263.630   99.980    0.249    0.429   10.831
  263.880  104.351    0.230    0.441   10.639
  264.130  103.986    0.220    0.438   10.998
  264.380  102.829    0.215    0.444   11.379
  264.630  105.705    0.231    0.441   11.068
  264.880  112.778    0.262    0.440    9.780
  265.130  117.722    0.250    0.490    8.138
  265.380  122.873    0.246    0.564    6.762
  265.630  125.443    0.266    0.583    5.844
  265.880  123.790    0.241    0.588    5.432
  266.130  119.482    0.218    0.562    5.429
  266.380  113.792    0.196    0.542    5.690
  266.630  119.011    0.193    0.494    6.467
  266.880  121.712    0.296    0.506    7.732
  267.130  119.278    0.309    0.481    9.874
  267.380  114.076    0.279    0.444   12.200
  267.630  112.793    0.278    0.428   12.307
  267.880  115.766    0.297    0.423   13.413
  268.130  114.651    0.317    0.433   14.612
  268.380  107.177    0.322    0.458   15.444
  268.630  107.667    0.312    0.465   16.213
  268.880  107.389    0.281    0.456   13.726
  269.130  104.888    0.263    0.462   12.364
  269.380  100.922    0.267    0.457   11.798
  269.630   96.881    0.267    0.435   12.716
