~VERSION INFORMATION
 VERS.                 2.0:   CWLS LOG ASCII STANDARD -VERSION 2.0
 WRAP.                  NO:   ONE LINE PER DEPTH STEP
~WELL INFORMATION BLOCK
#MNEM.UNIT           DATA                    DESCRIPTION OF MNEMONIC
#---------    -------------------            -------------------------------
# Generated from Intellog Unique Number	CS_71_72/WELL/778
WELL.         PEX PHILLIPS AEC GRIST         : Well_name    - WELL
LOC .         00/06-27-071-08W4/0            : Location     - LOCATION
UWI .         00/06-27-071-08W4/0            : Uwi          - UNIQUE WELL ID
ENTR.         SP                             : Entered      - ENTERED BY
SRVC.         SCHLUMBERGER                   : Scn          - SERVICE COMPANY
STRT.M        295                            : top_depth    - START DEPTH
STOP.M        520                            : bot_depth    - STOP DEPTH
STEP.M        0.25                           : increment    - STEP LENGTH
 NULL. -999.2500:NULL Value
~CURVE INFORMATION BLOCK
#MNEM UNIT       ERCB CURVE CODE    CURVE DESCRIPTION
#-----------   ------------------   ----------------------------------
DEPT.M        00 001 00 00         : DEPTH        - DEPTH
ILD .OHMM     00 120 00 00         : RESD         - DEEP RESISTIVITY (DIL)
DPHI.V/V      00 890 00 00         : PHID         - DENSITY POROSITY (LIMESTONE)
NPHI.V/V      00 330 00 00         : PHIN         - NEUTRON POROSITY (LIMESTONE)
GR  .API      00 310 00 00         : GR           - GAMMA RAY
~PARAMETER INFORMATION
#MNEM.UNIT           DATA             DESCRIPTION OF MNEMONIC
#---------         -----------     ------------------------------
GL  .M        653.4                : gl           - GROUND LEVEL ELEVATION
EREF.M        657.2                : kb           - ELEVATION OF DEPTH REFERENCE
DATM.M        653.4                : datum        - DATUM ELEVATION
TDD .M        532                  : tdd          - TOTAL DEPTH DRILLER
RUN .         ONE                  : Run          - RUN NUMBER
ENG .         BILL                 : Engineer     - RECORDING ENGINEER
WIT .         JIM                  : Witness      - WITNESSED BY
MUD .         GEL                  : Mud_type     - MUD TYPE
MATR.         LIMESTONE            : Logunit      - NEUTRON MATRIX
TMAX.C        23                   : BHT          - MAXIMUM RECORDED TEMPERATURE
BHTD.M        532                  : BHTDEP       - MAXIMUM RECORDED TEMPERATURE
MATR.         1                    : LOGUNIT      - NEUTRON MATRIX
RMT .C        25                   : MDTP         - TEMPERATURE OF MUD
NEUT.         1                    : NEUTRON      - NEUTRON TYPE
RESI.         0                    : RESIST       - RESISTIVITY TYPE
RMC .OHMM     0.25                 : RMC          - RESISTIVITY OF MUD CAKE
RMF .OHMM     0.25                 : RMF          - RESISTIVITY OF MUD FILTRATE
SUFT.C        15                   : SUFT         - SURFACE TEMPERATURE
~A  DEPTH     RESD     PHID     PHIN       GR
# ...
  338.500    9.963    0.260    0.384  113.222
  338.750    9.868    0.248    0.406  111.958
  339.000    9.828    0.253    0.425  104.187
  339.250   10.142    0.265    0.437   99.272
  339.500   10.332    0.282    0.440  103.846
  339.750   10.702    0.294    0.444  109.518
  340.000   11.086    0.291    0.449  115.127
  340.250   11.293    0.288    0.454  119.337
  340.500   11.353    0.282    0.456  111.139
  340.750   11.099    0.269    0.441  107.441
  341.000   10.413    0.246    0.419  113.598
  341.250    9.411    0.242    0.433  118.723
  341.500    8.442    0.251    0.456  116.060
  341.750    7.935    0.239    0.462  112.850
  342.000    7.771    0.230    0.422  113.044
  342.250    7.813    0.213    0.392  115.551
  342.500    7.695    0.201    0.378  127.853
  342.750    7.355    0.206    0.400  139.668
  343.000    7.005    0.217    0.437  143.636
  343.250    6.295    0.230    0.456  138.601
  343.500    5.657    0.241    0.473  135.146
  343.750    5.459    0.272    0.489  132.178
  344.000    5.179    0.299    0.504  130.305
  344.250    5.044    0.320    0.508  126.487
  344.500    5.024    0.340    0.518  122.302
  344.750    5.453    0.262    0.485  118.361
  345.000    5.997    0.193    0.448  121.661
  345.250    6.885    0.201    0.444  125.688
  345.500    8.054    0.200    0.444  112.623
  345.750    9.420    0.163    0.249  100.530
  346.000   10.694    0.033    0.207   85.457
  346.250   11.960    0.080    0.189   74.277
  346.500   13.426    0.147    0.210   87.430
  346.750   15.128    0.176    0.309  108.248
  347.000   16.267    0.204    0.357  126.208
  347.250   11.087    0.216    0.386  133.522
  347.500    9.816    0.209    0.400  137.792
  347.750    9.141    0.205    0.396  136.224
  348.000    9.036    0.226    0.391  126.200
  348.250    9.001    0.285    0.390  116.845
  348.500    8.733    0.332    0.399  109.741
  348.750    8.317    0.369    0.439  107.140
  349.000    7.950    0.387    0.475  107.213
  349.250    7.642    0.304    0.472  105.036
  349.500    7.415    0.304    0.439  106.145
  349.750    7.222    0.300    0.474  114.370
  350.000    7.047    0.277    0.499  122.596
  350.250    6.888    0.249    0.485  139.034
  350.500    6.810    0.229    0.473  136.614
  350.750    6.808    0.232    0.495  128.597
  351.000    6.948    0.234    0.509  121.129
  351.250    7.333    0.238    0.492  126.739
  351.500    7.639    0.231    0.490  131.863
  351.750    7.073    0.239    0.471  126.582
  352.000    6.736    0.253    0.476  121.487
  352.250    6.597    0.275    0.507  117.972
  352.500    6.571    0.257    0.524  115.186
  352.750    6.655    0.230    0.502  118.303
  353.000    6.742    0.222    0.501  120.202
  353.250    6.971    0.235    0.484  119.182
  353.500    7.261    0.240    0.449  116.214
  353.750    7.451    0.236    0.441  112.881
  354.000    7.520    0.245    0.444  108.150
  354.250    7.646    0.257    0.431  102.992
  354.500    7.788    0.263    0.436  106.229
  354.750    7.859    0.268    0.445  111.413
  355.000    7.857    0.249    0.457  114.894
  355.250    7.303    0.237    0.465  109.919
  355.500    6.852    0.244    0.459  104.154
  355.750    6.824    0.251    0.430  102.099
  356.000    7.109    0.250    0.401   99.253
  356.250    7.531    0.273    0.414   95.251
  356.500    8.053    0.296    0.434   90.155
  356.750    8.579    0.319    0.443   94.245
  357.000    9.037    0.309    0.432  100.892
  357.250    9.467    0.296    0.419  103.760
  357.500    9.844    0.295    0.421  106.268
  357.750   10.234    0.297    0.434  103.544
  358.000   10.424    0.290    0.430  100.942
  358.250   10.598    0.289    0.415   98.096
  358.500   11.166    0.288    0.402   96.162
  358.750   11.205    0.267    0.401  102.138
  359.000   11.140    0.243    0.410  108.842
  359.250   10.972    0.235    0.401  114.574
  359.500   10.468    0.235    0.396  118.177
  359.750   10.329    0.236    0.417  117.277
  360.000   10.174    0.238    0.433  116.378
  360.250    9.927    0.250    0.424  111.464
  360.500    9.331    0.262    0.414  104.300
  360.750    9.172    0.262    0.419  106.504
  361.000    9.431    0.266    0.409  112.906
  361.250    9.606    0.305    0.402  117.722
  361.500    9.622    0.359    0.430  117.857
  361.750    9.530    0.385    0.485  109.355
  362.000    9.093    0.383    0.520  105.597
  362.250    8.233    0.351    0.528   97.459
  362.500    7.899    0.309    0.480   88.286
  362.750    7.737    0.301    0.451   90.063
  363.000    7.793    0.309    0.442   95.126
  363.250    8.042    0.306    0.447   97.999
  363.500    8.207    0.297    0.459   98.132
  363.750    8.375    0.292    0.471   98.024
  364.000    8.484    0.301    0.468   95.969
  364.250    8.624    0.294    0.422   89.291
  364.500    8.735    0.279    0.389   87.601
  364.750    8.816    0.269    0.373   98.079
  365.000    8.913    0.262    0.364  106.972
  365.250    8.994    0.288    0.400  114.347
  365.500    8.876    0.308    0.426  120.322
  365.750    8.453    0.303    0.453  126.359
  366.000    8.005    0.252    0.410  130.508
  366.250    7.481    0.219    0.415  132.102
  366.500    7.179    0.250    0.424  118.794
  366.750    6.900    0.243    0.409  115.217
  367.000    6.809    0.223    0.399  122.713
  367.250    6.833    0.211    0.400  125.099
  367.500    6.960    0.206    0.403  119.456
  367.750    7.102    0.197    0.397  117.157
  368.000    7.275    0.182    0.389  118.873
  368.250    7.397    0.199    0.400  113.838
  368.500    7.535    0.234    0.414  101.076
  368.750    7.660    0.296    0.414   85.030
  369.000    7.891    0.320    0.419   74.762
  369.250    8.220    0.327    0.445   73.865
  369.500    8.922    0.338    0.459   76.188
  369.750    9.452    0.350    0.449   79.608
  370.000   10.432    0.341    0.430   78.527
  370.250   10.727    0.334    0.417   75.985
  370.500   11.216    0.332    0.423   78.371
  370.750   11.553    0.338    0.430   81.001
  371.000   11.725    0.340    0.430   81.865
  371.250   11.810    0.339    0.435   80.479
  371.500   11.807    0.341    0.444   83.900
  371.750   11.760    0.347    0.439   84.703
  372.000   11.669    0.344    0.428   81.249
  372.250   11.666    0.336    0.421   75.912
  372.500   11.663    0.333    0.434   73.246
  372.750   11.616    0.339    0.443   70.765
  373.000   11.613    0.350    0.453   69.927
  373.250   11.654    0.344    0.436   71.948
  373.500   11.651    0.344    0.412   74.760
  373.750   11.648    0.343    0.416   75.137
  374.000   11.645    0.337    0.425   77.768
  374.250   11.620    0.339    0.416   79.909
  374.500   11.595    0.345    0.417   80.592
  374.750   11.570    0.336    0.428   78.599
  375.000   11.524    0.330    0.431   76.238
  375.250   11.499    0.328    0.426   77.894
  375.500   11.474    0.330    0.426   78.943
  375.750   11.428    0.338    0.413   79.503
  376.000   11.383    0.342    0.404   83.409
  376.250   11.316    0.336    0.412   86.222
  376.500   11.271    0.336    0.417   87.818
  376.750   11.227    0.343    0.417   87.586
  377.000   11.182    0.331    0.424   83.099
  377.250   11.138    0.321    0.431   78.734
  377.500   11.094    0.328    0.436   76.311
  377.750   11.050    0.336    0.437   80.097
  378.000   10.904    0.337    0.434   87.775
  378.250   10.699    0.323    0.432   92.230
  378.500   10.227    0.312    0.445   94.312
  378.750    9.261    0.336    0.460   93.533
  379.000    8.214    0.357    0.470   88.802
  379.250    7.494    0.363    0.454   90.761
  379.500    6.773    0.306    0.470  100.448
  379.750    5.974    0.296    0.492  107.883
  380.000    5.191    0.299    0.486  112.579
  380.250    4.605    0.308    0.500  118.555
  380.500    3.855    0.306    0.515  123.252
  380.750    3.319    0.311    0.529  125.151
  381.000    2.846    0.330    0.543  124.435
  381.250    2.573    0.306    0.527  122.259
  381.500    2.418    0.280    0.543  121.967
  381.750    2.311    0.257    0.575  124.048
