~VERSION INFORMATION
 VERS.                 2.0:   CWLS LOG ASCII STANDARD -VERSION 2.0
 WRAP.                  NO:   ONE LINE PER DEPTH STEP
~WELL INFORMATION BLOCK
#MNEM.UNIT           DATA                    DESCRIPTION OF MNEMONIC
#---------    -------------------            -------------------------------
# Generated from Intellog Unique Number	CS_73_76/WELL/781
WELL.         MAYNARD ENERGY                 : Well_name    - WELL
LOC .         00/07-36-073-13W4/0            : Location     - LOCATION
UWI .         00/07-36-073-13W4/0            : Uwi          - UNIQUE WELL ID
ENTR.         SP                             : Entered      - ENTERED BY
SRVC.         SCHLUMBERGER                   : Scn          - SERVICE COMPANY
STRT.M        300                            : top_depth    - START DEPTH
STOP.M        525                            : bot_depth    - STOP DEPTH
STEP.M        0.25                           : increment    - STEP LENGTH
 NULL. -999.2500:NULL Value
~CURVE INFORMATION BLOCK
#MNEM UNIT       ERCB CURVE CODE    CURVE DESCRIPTION
#-----------   ------------------   ----------------------------------
DEPT.M        00 001 00 00         : DEPTH        - DEPTH
GR  .API      00 310 00 00         : GR           - GAMMA RAY
NPHI.V/V      00 330 00 00         : PHIN         - NEUTRON POROSITY (LIMESTONE)
DPHI.V/V      00 890 00 00         : PHID         - DENSITY POROSITY (LIMESTONE)
ILD .OHMM     00 120 00 00         : RESD         - DEEP RESISTIVITY (DIL)
~PARAMETER INFORMATION
#MNEM.UNIT           DATA             DESCRIPTION OF MNEMONIC
#---------         -----------     ------------------------------
GL  .M        662.29               : gl           - GROUND LEVEL ELEVATION
EREF.M        665.74               : kb           - ELEVATION OF DEPTH REFERENCE
DATM.M        662.29               : datum        - DATUM ELEVATION
TDD .M        540                  : tdd          - TOTAL DEPTH DRILLER
RUN .         ONE                  : Run          - RUN NUMBER
ENG .         BILL                 : Engineer     - RECORDING ENGINEER
WIT .         JIM                  : Witness      - WITNESSED BY
MUD .         GEL                  : Mud_type     - MUD TYPE
MATR.         LIMESTONE            : Logunit      - NEUTRON MATRIX
TMAX.C        21                   : BHT          - MAXIMUM RECORDED TEMPERATURE
BHTD.M        540                  : BHTDEP       - MAXIMUM RECORDED TEMPERATURE
MATR.         1                    : LOGUNIT      - NEUTRON MATRIX
RMT .C        25                   : MDTP         - TEMPERATURE OF MUD
NEUT.         1                    : NEUTRON      - NEUTRON TYPE
RESI.         0                    : RESIST       - RESISTIVITY TYPE
RMC .OHMM     0.25                 : RMC          - RESISTIVITY OF MUD CAKE
RMF .OHMM     0.25                 : RMF          - RESISTIVITY OF MUD FILTRATE
SUFT.C        15                   : SUFT         - SURFACE TEMPERATURE
~A  DEPTH       GR     PHIN     PHID     RESD
# ...
  387.000   63.123    0.413    0.310    7.820
  387.250   65.555    0.417    0.311    7.821
  387.500   65.550    0.422    0.309    7.822
  387.750   64.935    0.427    0.296    7.824
  388.000   66.147    0.437    0.290    7.745
  388.250   67.971    0.448    0.284    7.746
  388.500   69.183    0.459    0.273    7.748
  388.750   69.177    0.470    0.283    7.830
  389.000   67.953    0.475    0.290    7.832
  389.250   69.775    0.469    0.303    7.752
  389.500   71.600    0.463    0.315    7.671
  389.750   74.641    0.454    0.316    7.592
  390.000   77.074    0.449    0.311    7.268
  390.250   78.896    0.448    0.307    6.782
  390.500   79.501    0.450    0.304    6.132
  390.750   78.886    0.450    0.301    4.996
  391.000   77.050    0.455    0.304    3.859
  391.250   74.606    0.469    0.304    3.129
  391.500   73.381    0.491    0.281    2.886
  391.750   87.399    0.517    0.279    2.725
  392.000   92.880    0.543    0.283    2.645
  392.250   97.752    0.577    0.290    3.297
  392.500   98.966    0.597    0.317    4.030
  392.750   96.520    0.546    0.321    4.926
  393.000   91.027    0.491    0.314    5.822
  393.250   85.530    0.468    0.302    6.637
  393.500   83.695    0.445    0.286    6.881
  393.750   83.081    0.431    0.265    7.533
  394.000   81.854    0.420    0.261    7.779
  394.250   77.581    0.394    0.255    7.699
  394.500   73.917    0.369    0.256    7.538
  394.750   70.250    0.362    0.275    7.458
  395.000   68.417    0.362    0.282    7.378
  395.250   69.629    0.369    0.303    7.055
  395.500   74.499    0.380    0.305    6.974
  395.750   77.544    0.387    0.297    6.814
  396.000   81.195    0.405    0.292    6.815
  396.250   82.411    0.416    0.284    6.816
  396.500   81.794    0.425    0.284    6.818
  396.750   76.910    0.427    0.296    6.900
  397.000   72.635    0.422    0.300    6.902
  397.250   71.409    0.416    0.304    6.985
  397.500   70.794    0.412    0.305    7.067
  397.750   73.226    0.412    0.296    7.312
  398.000   73.831    0.414    0.283    8.208
  398.250   75.045    0.419    0.261    9.836
  398.500   75.038    0.347    0.242   12.683
  398.750   73.203    0.278    0.207   15.286
  399.000   75.024    0.216    0.147   28.335
  399.250   75.630    0.140    0.036   32.202
  399.500   74.404    0.109    0.013   36.874
  399.750   70.129    0.089    0.006   37.422
  400.000   62.806    0.084    0.002   31.495
  400.250   57.312    0.088    0.001   26.381
  400.500   54.868    0.109    0.027   15.459
  400.750   59.735    0.146    0.091   12.533
  401.000   63.999    0.210    0.161   10.340
  401.250   67.044    0.286    0.209    8.796
  401.500   70.696    0.340    0.263    7.578
  401.750   72.521    0.382    0.297    7.010
  402.000   74.954    0.407    0.317    6.605
  402.250   77.387    0.418    0.326    6.363
  402.500   80.428    0.421    0.317    6.202
  402.750   80.421    0.430    0.317    6.122
  403.000   78.585    0.435    0.314    6.043
  403.250   77.362    0.443    0.306    5.963
  403.500   78.574    0.451    0.297    5.882
  403.750   79.789    0.457    0.284    5.640
  404.000   81.001    0.461    0.268    5.560
  404.250   81.604    0.466    0.265    5.480
  404.500   81.600    0.462    0.269    5.481
  404.750   82.202    0.452    0.275    5.565
  405.000   83.415    0.442    0.270    5.566
  405.250   84.021    0.437    0.260    5.567
  405.500   84.625    0.434    0.255    5.650
  405.750   85.228    0.430    0.267    5.651
  406.000   86.442    0.430    0.278    5.653
  406.250   87.654    0.430    0.286    5.735
  406.500   88.257    0.430    0.291    5.737
  406.750   86.423    0.433    0.271    5.820
  407.000   82.759    0.449    0.242    5.821
  407.250   85.190    0.457    0.220    5.904
  407.500   87.014    0.445    0.218    5.906
  407.750   89.447    0.430    0.221    5.907
  408.000   91.271    0.419    0.224    5.990
  408.250   93.094    0.414    0.230    5.991
  408.500   94.916    0.417    0.235    6.074
  408.750   94.911    0.422    0.231    6.075
  409.000   94.902    0.430    0.227    6.077
  409.250   94.899    0.435    0.218    6.078
  409.500   98.548    0.442    0.219    6.080
  409.750  100.374    0.440    0.241    6.000
  410.000  102.196    0.443    0.269    5.839
  410.250  100.973    0.459    0.285    5.596
  410.500   93.648    0.473    0.300    5.272
  410.750   89.374    0.489    0.280    5.112
  411.000   86.928    0.488    0.261    5.113
  411.250   89.359    0.472    0.246    5.195
  411.500   90.575    0.460    0.250    5.278
  411.750   91.177    0.452    0.244    5.361
  412.000   91.172    0.459    0.241    5.444
  412.250   94.216    0.465    0.240    5.526
  412.500   97.869    0.471    0.241    5.772
  412.750  100.302    0.476    0.242    5.854
  413.000   97.856    0.481    0.235    6.018
  413.250   97.239    0.478    0.234    6.183
  413.500   98.453    0.472    0.245    6.265
  413.750   98.448    0.470    0.256    6.267
  414.000   97.832    0.467    0.263    6.269
  414.250   94.166    0.467    0.272    6.270
  414.500   93.549    0.476    0.272    6.272
  414.750   93.546    0.487    0.266    6.029
  415.000   95.368    0.496    0.258    6.112
  415.250   99.630    0.491    0.252    6.113
  415.500  102.673    0.487    0.255    6.196
  415.750  103.886    0.481    0.247    6.278
  416.000  103.881    0.475    0.239    6.442
  416.250  102.046    0.477    0.239    6.525
  416.500  100.820    0.481    0.240    6.608
  416.750  102.033    0.477    0.238    6.528
  417.000   99.589    0.467    0.233    6.367
  417.250   98.363    0.459    0.227    6.287
  417.500   98.355    0.453    0.228    6.288
  417.750   99.569    0.448    0.235    6.291
  418.000  100.784    0.445    0.238    6.292
  418.250  103.216    0.447    0.236    6.294
  418.500  102.601    0.447    0.238    6.376
  418.750   97.104    0.444    0.239    6.459
  419.000   95.271    0.442    0.241    6.541
  419.250   91.606    0.431    0.246    6.624
  419.500   89.769    0.426    0.252    6.625
  419.750   89.765    0.420    0.256    6.464
  420.000   90.366    0.416    0.256    6.221
  420.250   90.972    0.416    0.251    5.816
  420.500   94.625    0.427    0.248    4.843
  420.750   96.447    0.434    0.242    4.599
  421.000   98.269    0.438    0.229    4.032
  421.250  100.703    0.450    0.227    3.383
  421.500  101.306    0.470    0.235    2.815
  421.750  102.520    0.485    0.244    2.329
  422.000  104.343    0.507    0.256    2.086
  422.250  104.947    0.560    0.265    1.925
  422.500  106.161    0.584    0.271    1.764
  422.750  110.424    0.612    0.272    2.010
  423.000  114.683    0.598    0.277    2.255
  423.250  115.899    0.543    0.276    2.663
  423.500  113.454    0.506    0.254    3.071
  423.750  105.521    0.478    0.239    3.641
  424.000  103.075    0.454    0.220    4.293
  424.250  102.460    0.439    0.218    4.782
  424.500  102.454    0.449    0.223    5.190
  424.750  103.056    0.454    0.223    5.273
  425.000  103.051    0.460    0.237    5.356
  425.250  101.825    0.467    0.242    5.439
  425.500   98.159    0.468    0.236    5.441
  425.750   96.327    0.468    0.234    5.442
  426.000   93.880    0.462    0.229    5.444
  426.250   94.484    0.453    0.230    5.445
  426.500   95.698    0.447    0.234    5.528
  426.750   96.302    0.447    0.242    5.529
  427.000   95.074    0.446    0.245    5.611
  427.250   94.459    0.441    0.239    5.857
  427.500   91.405    0.433    0.236    6.021
  427.750   90.788    0.429    0.232    6.022
  428.000   91.391    0.426    0.250    6.106
  428.250   90.166    0.430    0.258    6.107
  428.500   88.332    0.440    0.266    6.108
  428.750   84.667    0.440    0.263    6.191
  429.000   82.221    0.395    0.239    6.274
  429.250   79.168    0.379    0.219    6.275
  429.500   74.284    0.378    0.214    6.277
  429.750   77.935    0.378    0.226    6.197
  430.000   85.246    0.397    0.246    6.036
  430.250   89.509    0.418    0.243    5.793
