~VERSION INFORMATION
 VERS.                 2.0:   CWLS LOG ASCII STANDARD -VERSION 2.0
 WRAP.                  NO:   ONE LINE PER DEPTH STEP
~WELL INFORMATION BLOCK
#MNEM.UNIT           DATA                    DESCRIPTION OF MNEMONIC
#---------    -------------------            -------------------------------
# Generated from Intellog Unique Number	CS_73_76/WELL/784
WELL.         ANR PRODUCTION COMPANY         : Well_name    - WELL
LOC .         00/09-17-073-18W4/0            : Location     - LOCATION
UWI .         00/09-17-073-18W4/0            : Uwi          - UNIQUE WELL ID
ENTR.         SP                             : Entered      - ENTERED BY
SRVC.         SCHLUMBERGER                   : Scn          - SERVICE COMPANY
STRT.M        225                            : top_depth    - START DEPTH
STOP.M        480                            : bot_depth    - STOP DEPTH
STEP.M        0.25                           : increment    - STEP LENGTH
 NULL. -999.2500:NULL Value
~CURVE INFORMATION BLOCK
#MNEM UNIT       ERCB CURVE CODE    CURVE DESCRIPTION
#-----------   ------------------   ----------------------------------
DEPT.M        00 001 00 00         : DEPTH        - DEPTH
ILD .OHMM     00 120 00 00         : RESD         - DEEP RESISTIVITY (DIL)
DPHI.V/V      00 890 00 00         : PHID         - DENSITY POROSITY (LIMESTONE)
NPHI.V/V      00 330 00 00         : PHIN         - NEUTRON POROSITY (LIMESTONE)
GR  .API      00 310 00 00         : GR           - GAMMA RAY
~PARAMETER INFORMATION
#MNEM.UNIT           DATA             DESCRIPTION OF MNEMONIC
#---------         -----------     ------------------------------
GL  .M        595.3                : gl           - GROUND LEVEL ELEVATION
EREF.M        599.2                : kb           - ELEVATION OF DEPTH REFERENCE
DATM.M        595.3                : datum        - DATUM ELEVATION
TDD .M        485                  : tdd          - TOTAL DEPTH DRILLER
RUN .         ONE                  : Run          - RUN NUMBER
ENG .         BILL                 : Engineer     - RECORDING ENGINEER
WIT .         JIM                  : Witness      - WITNESSED BY
MUD .         GEL                  : Mud_type     - MUD TYPE
MATR.         LIMESTONE            : Logunit      - NEUTRON MATRIX
TMAX.C        18                   : BHT          - MAXIMUM RECORDED TEMPERATURE
BHTD.M        485                  : BHTDEP       - MAXIMUM RECORDED TEMPERATURE
MATR.         1                    : LOGUNIT      - NEUTRON MATRIX
RMT .C        25                   : MDTP         - TEMPERATURE OF MUD
NEUT.         1                    : NEUTRON      - NEUTRON TYPE
RESI.         0                    : RESIST       - RESISTIVITY TYPE
RMC .OHMM     0.25                 : RMC          - RESISTIVITY OF MUD CAKE
RMF .OHMM     0.25                 : RMF          - RESISTIVITY OF MUD FILTRATE
SUFT.C        15                   : SUFT         - SURFACE TEMPERATURE
~A  DEPTH     RESD     PHID     PHIN       GR
# ...
  268.500    2.336    0.219    0.397   62.962
  268.750    2.294    0.211    0.399   63.571
  269.000    2.253    0.209    0.390   66.627
  269.250    2.254    0.221    0.386   67.236
  269.500    2.213    0.226    0.382   67.843
  269.750    2.214    0.230    0.374   67.838
  270.000    2.215    0.233    0.372   67.223
  270.250    2.258    0.236    0.370   67.220
  270.500    2.260    0.238    0.387   66.603
  270.750    2.260    0.247    0.386   66.599
  271.000    2.304    0.232    0.380   64.146
  271.250    2.305    0.218    0.385   64.755
  271.500    2.350    0.208    0.407   67.198
  271.750    2.395    0.203    0.368   67.195
  272.000    2.397    0.210    0.366   67.802
  272.250    2.442    0.219    0.393   67.799
  272.500    2.490    0.231    0.393   66.571
  272.750    2.538    0.225    0.381   65.342
  273.000    2.587    0.222    0.371   65.338
  273.250    2.637    0.233    0.374   64.110
  273.500    2.688    0.228    0.386   64.105
  273.750    2.740    0.214    0.392   64.715
  274.000    2.845    0.203    0.384   65.934
  274.250    2.901    0.208    0.379   68.379
  274.500    2.956    0.211    0.370   68.375
  274.750    3.013    0.205    0.365   67.146
  275.000    2.959    0.201    0.358   67.143
  275.250    3.016    0.202    0.348   68.976
  275.500    3.133    0.200    0.341   68.971
  275.750    3.194    0.181    0.343   68.966
  276.000    3.195    0.158    0.348   69.576
  276.250    3.256    0.151    0.356   70.796
  276.500    3.320    0.152    0.371   69.567
  276.750    3.384    0.160    0.367   68.339
  277.000    3.385    0.172    0.374   65.886
  277.250    3.451    0.183    0.384   64.045
  277.500    3.388    0.189    0.394   63.427
  277.750    3.266    0.196    0.405   63.425
  278.000    3.207    0.185    0.402   64.645
  278.250    3.034    0.183    0.406   65.863
  278.500    2.979    0.189    0.412   66.473
  278.750    2.925    0.197    0.410   67.080
  279.000    2.926    0.197    0.396   68.300
  279.250    2.983    0.192    0.384   68.297
  279.500    3.098    0.182    0.363   68.905
  279.750    3.100    0.175    0.354   69.514
  280.000    3.101    0.171    0.359   69.509
  280.250    3.103    0.170    0.361   70.117
  280.500    3.104    0.169    0.369   70.113
  280.750    3.106    0.165    0.380   69.497
  281.000    3.165    0.182    0.390   68.881
  281.250    3.543    0.191    0.399   68.266
  281.500    4.039    0.196    0.410   67.036
  281.750    4.692    0.219    0.445   63.972
  282.000    5.450    0.256    0.494   57.845
  282.250    6.572    0.496    0.543   48.046
  282.500    7.219    0.541    0.508   37.633
  282.750    7.639    0.301    0.416   41.301
  283.000    7.787    0.266    0.336   43.748
  283.250    7.645    0.240    0.333   47.417
  283.500    7.098    0.233    0.335   49.249
  283.750    6.592    0.246    0.340   46.184
  284.000    6.353    0.263    0.339   44.344
  284.250    6.238    0.278    0.340   44.951
  284.500    6.013    0.278    0.340   45.558
  284.750    6.015    0.281    0.337   46.166
  285.000    6.018    0.288    0.339   46.163
  285.250    6.136    0.267    0.345   46.159
  285.500    6.138    0.255    0.342   46.768
  285.750    6.140    0.240    0.336   48.601
  286.000    6.142    0.248    0.333   51.657
  286.250    6.146    0.234    0.331   54.102
  286.500    6.036    0.223    0.336   55.935
  286.750    5.927    0.213    0.349   57.767
  287.000    5.819    0.205    0.356   58.376
  287.250    5.609    0.201    0.346   58.983
  287.500    5.307    0.198    0.329   58.979
  287.750    5.308    0.195    0.325   58.364
  288.000    5.411    0.204    0.333   56.523
  288.250    5.516    0.211    0.327   55.294
  288.500    5.728    0.217    0.328   57.739
  288.750    6.061    0.226    0.330   63.245
  289.000    6.659    0.228    0.338   66.302
  289.250    6.915    0.210    0.343   66.298
  289.500    7.181    0.194    0.339   65.069
  289.750    7.319    0.177    0.333   65.677
  290.000    7.602    0.184    0.325   66.284
  290.250    7.464    0.204    0.322   66.894
  290.500    7.193    0.216    0.321   67.501
  290.750    6.806    0.229    0.314   67.499
  291.000    6.559    0.235    0.311   65.045
  291.250    6.204    0.245    0.306   62.592
  291.500    5.980    0.264    0.306   58.915
  291.750    5.764    0.263    0.319   51.564
  292.000    5.660    0.258    0.319   37.479
  292.250    5.663    0.255    0.317   27.066
  292.500    5.772    0.234    0.316   25.226
  292.750    5.885    0.223    0.324   33.792
  293.000    5.998    0.220    0.330   37.462
  293.250    6.115    0.233    0.319   42.968
  293.500    6.116    0.229    0.311   47.862
  293.750    6.006    0.228    0.307   49.694
  294.000    5.789    0.240    0.313   51.527
  294.250    5.476    0.249    0.329   50.911
  294.500    4.991    0.255    0.343   49.070
  294.750    4.721    0.164    0.355   51.515
  295.000    4.383    0.136    0.365   60.082
  295.250    4.070    0.112    0.355   66.200
  295.500    3.922    0.101    0.357   70.482
  295.750    3.575    0.122    0.371   74.151
  296.000    3.445    0.147    0.383   74.760
  296.250    3.320    0.161    0.393   75.979
  296.500    3.141    0.168    0.405   75.975
  296.750    3.084    0.172    0.416   77.808
  297.000    2.973    0.178    0.405   79.028
  297.250    2.919    0.188    0.388   81.472
  297.500    2.921    0.193    0.392   82.082
  297.750    2.977    0.193    0.404   82.078
  298.000    3.150    0.198    0.409   82.073
  298.250    3.525    0.201    0.383   83.906
  298.500    4.019    0.199    0.357   84.514
  298.750    4.757    0.200    0.337   82.061
  299.000    5.323    0.203    0.350   80.221
  299.250    5.740    0.197    0.337   78.380
  299.500    5.960    0.203    0.323   76.539
  299.750    6.189    0.209    0.328   74.085
  300.000    6.309    0.219    0.340   72.858
  300.250    6.312    0.222    0.347   72.853
  300.500    6.555    0.225    0.339   74.686
  300.750    7.336    0.235    0.343   75.294
  301.000    9.184    0.234    0.347   72.841
  301.250   10.869    0.219    0.337   68.550
  301.500   12.863    0.241    0.342   64.874
  301.750   14.393    0.295    0.350   56.911
  302.000   17.034    0.313    0.360   50.785
  302.250   19.063    0.310    0.372   48.944
  302.500   18.723    0.295    0.380   48.327
  302.750   18.042    0.285    0.375   47.099
  303.000   14.980    0.272    0.363   45.871
  303.250   14.167    0.258    0.360   47.090
  303.500   12.912    0.236    0.356   47.699
  303.750   11.987    0.209    0.354   47.082
  304.000   10.926    0.194    0.355   47.077
  304.250   10.336    0.211    0.365   48.297
  304.500    9.960    0.230    0.359   48.907
  304.750    9.424    0.252    0.353   50.740
  305.000    9.082    0.266    0.352   52.573
  305.250    9.085    0.243    0.344   52.569
  305.500    8.922    0.232    0.333   52.564
  305.750    8.762    0.240    0.332   53.172
  306.000    8.289    0.270    0.347   54.393
  306.250    7.695    0.282    0.361   54.389
  306.500    7.013    0.269    0.361   53.771
  306.750    6.273    0.256    0.348   53.768
  307.000    6.045    0.226    0.341   54.376
  307.250    5.719    0.199    0.336   56.210
  307.500    5.722    0.207    0.333   61.101
  307.750    5.833    0.221    0.336   63.548
  308.000    6.058    0.217    0.332   67.218
  308.250    6.175    0.208    0.326   68.438
  308.500    6.293    0.216    0.321   65.984
  308.750    6.296    0.219    0.319   64.143
  309.000    6.300    0.209    0.322   65.976
  309.250    6.303    0.203    0.324   69.646
  309.500    6.305    0.198    0.326   76.375
  309.750    6.550    0.192    0.330   80.044
  310.000    6.551    0.196    0.333   80.654
  310.250    6.805    0.210    0.326   75.751
  310.500    7.067    0.213    0.322   71.462
  310.750    7.071    0.205    0.316   65.948
  311.000    7.073    0.196    0.309   61.658
  311.250    6.567    0.183    0.311   64.103
  311.500    5.875    0.171    0.324   65.323
  311.750    5.157    0.164    0.344   65.931
