~VERSION INFORMATION
 VERS.                 2.0:   CWLS LOG ASCII STANDARD -VERSION 2.0
 WRAP.                  NO:   ONE LINE PER DEPTH STEP
~WELL INFORMATION BLOCK
#MNEM.UNIT           DATA                    DESCRIPTION OF MNEMONIC
#---------    -------------------            -------------------------------
# Generated from Intellog Unique Number	CW_79_81/WELL/2453
WELL.         06-24-081-23W4                 : Well_name    - WELL
LOC .         00/06-24-081-23W4/0            : Location     - LOCATION
UWI .         00/06-24-081-23W4/0            : Uwi          - UNIQUE WELL ID
ENTR.         MAX                            : Entered      - ENTERED BY
SRVC.         WESTERN ATLAS                  : Scn          - SERVICE COMPANY
STRT.M        200                            : top_depth    - START DEPTH
STOP.M        452                            : bot_depth    - STOP DEPTH
STEP.M        0.25                           : increment    - STEP LENGTH
 NULL. -999.2500:NULL Value
~CURVE INFORMATION BLOCK
#MNEM UNIT       ERCB CURVE CODE    CURVE DESCRIPTION
#-----------   ------------------   ----------------------------------
DEPT.M        00 001 00 00         : DEPTH        - DEPTH
ILD .OHMM     00 120 00 00         : RESD         - DEEP RESISTIVITY (DIL)
NPHI.V/V      00 330 00 00         : PHIN         - NEUTRON POROSITY (SANDSTONE)
DPHI.V/V      00 890 00 00         : PHID         - DENSITY POROSITY (SANDSTONE)
GR  .API      00 310 00 00         : GR           - GAMMA RAY
CALI.MM       00 280 01 00         : CAL          - CALIPER
~PARAMETER INFORMATION
#MNEM.UNIT           DATA             DESCRIPTION OF MNEMONIC
#---------         -----------     ------------------------------
GL  .M        610                  : gl           - GROUND LEVEL ELEVATION
EREF.M        614.3                : kb           - ELEVATION OF DEPTH REFERENCE
DATM.M        610                  : datum        - DATUM ELEVATION
TDD .M        458.5                : tdd          - TOTAL DEPTH DRILLER
RUN .         ONE                  : Run          - RUN NUMBER
ENG .         BILL                 : Engineer     - RECORDING ENGINEER
WIT .         JIM                  : Witness      - WITNESSED BY
MUD .         GEL                  : Mud_type     - MUD TYPE
MATR.         SANDSTONE            : Logunit      - NEUTRON MATRIX
TMAX.C        28                   : BHT          - MAXIMUM RECORDED TEMPERATURE
BHTD.M        458.5                : BHTDEP       - MAXIMUM RECORDED TEMPERATURE
MATR.         1                    : LOGUNIT      - NEUTRON MATRIX
RMT .C        15                   : MDTP         - TEMPERATURE OF MUD
NEUT.         1                    : NEUTRON      - NEUTRON TYPE
RESI.         0                    : RESIST       - RESISTIVITY TYPE
RMC .OHMM     5.6                  : RMC          - RESISTIVITY OF MUD CAKE
RMF .OHMM     5                    : RMF          - RESISTIVITY OF MUD FILTRATE
SUFT.C        -20                  : SUFT         - SURFACE TEMPERATURE
~A  DEPTH     RESD     PHIN     PHID       GR      CAL
# ...
  273.000   22.907    0.343    0.332   57.994  196.204
  273.250   22.914    0.362    0.333   61.145  196.207
  273.500   22.771    0.369    0.331   64.680  195.860
  273.750   22.635    0.371    0.329   65.203  195.534
  274.000   22.752    0.374    0.329   65.726  195.214
  274.250   22.869    0.378    0.329   65.890  194.685
  274.500   22.732    0.382    0.331   65.395  193.852
  274.750   21.981    0.379    0.334   64.309  192.673
  275.000   21.355    0.359    0.336   65.848  192.326
  275.250   21.381    0.345    0.337   65.173  192.000
  275.500   21.770    0.336    0.336   58.387  191.962
  275.750   22.129    0.332    0.335   54.476  192.228
  276.000   22.283    0.331    0.333   57.035  192.602
  276.250   22.286    0.330    0.331   64.624  192.700
  276.500   22.151    0.331    0.329   66.416  192.784
  276.750   21.701    0.334    0.330   65.981  192.835
  277.000   21.255    0.338    0.332   66.984  192.903
  277.250   20.744    0.346    0.335   68.826  192.980
  277.500   20.326    0.357    0.339   71.028  193.061
  277.750   20.355    0.369    0.342   73.182  193.069
  278.000   20.387    0.382    0.342   72.974  192.706
  278.250   20.424    0.373    0.340   70.623  192.380
  278.500   20.567    0.363    0.339   67.912  192.060
  278.750   20.748    0.354    0.339   66.037  192.137
  279.000   20.968    0.347    0.339   65.240  192.807
  279.250   21.381    0.343    0.339   65.217  194.500
  279.500   21.746    0.348    0.338   67.255  196.649
  279.750   21.944    0.353    0.338   71.135  200.729
  280.000   22.260    0.354    0.338   71.241  203.595
  280.250   22.539    0.352    0.336   69.845  205.865
  280.500   22.737    0.346    0.333   68.627  207.938
  280.750   22.983    0.333    0.330   68.228  210.182
  281.000   23.201    0.325    0.325   66.032  211.090
  281.250   22.724    0.321    0.320   62.235  210.350
  281.500   21.885    0.357    0.327   60.064  209.626
  281.750   20.567    0.379    0.336   64.540  211.101
  282.000   19.113    0.377    0.340   72.607  214.468
  282.250   18.005    0.389    0.334   72.698  216.953
  282.500   17.762    0.391    0.336   70.488  217.037
  282.750   17.917    0.382    0.343   65.737  217.096
  283.000   18.676    0.379    0.346   62.067  216.561
  283.250   19.553    0.382    0.350   60.671  215.633
  283.500   20.173    0.385    0.356   61.852  214.510
  283.750   20.393    0.368    0.354   65.026  213.324
  284.000   20.583    0.343    0.340   65.063  212.977
  284.250   20.615    0.342    0.327   66.784  212.643
  284.500   20.527    0.350    0.323   66.349  212.620
  284.750   20.480    0.355    0.321   65.075  212.897
  285.000   20.473    0.352    0.320   64.819  213.368
  285.250   20.298    0.346    0.317   68.186  214.013
  285.500   20.021    0.343    0.312   69.225  214.913
  285.750   19.615    0.341    0.312   64.478  215.785
  286.000   19.318    0.345    0.313   62.429  217.256
  286.250   18.991    0.355    0.314   61.872  219.329
  286.500   18.674    0.365    0.315   61.849  221.801
  286.750   18.570    0.370    0.314   61.814  224.944
  287.000   18.597    0.371    0.320   62.613  228.347
  287.250   18.631    0.365    0.324   60.492  233.618
  287.500   18.451    0.374    0.323   58.022  238.284
  287.750   17.935    0.395    0.330   55.912  243.345
  288.000   17.255    0.411    0.347   54.878  248.804
  288.250   16.808    0.389    0.371   56.098  253.605
  288.500   16.959    0.360    0.374   58.385  253.250
  288.750   18.141    0.309    0.359   56.752  248.134
  289.000   19.511    0.262    0.306   55.302  233.429
  289.250   21.253    0.226    0.216   54.264  219.720
  289.500   23.477    0.204    0.126   53.579  212.203
  289.750   26.537    0.191    0.111   52.814  210.531
  290.000   28.946    0.189    0.145   52.361  209.791
  290.250   27.933    0.234    0.221   52.649  210.249
  290.500   25.165    0.291    0.279   56.164  214.311
  290.750   22.056    0.325    0.311   59.679  218.177
  291.000   19.464    0.330    0.320   62.178  220.245
  291.250   17.337    0.335    0.320   65.115  221.625
  291.500   15.616    0.348    0.322   66.404  224.204
  291.750   15.070    0.357    0.333   64.776  228.669
  292.000   14.707    0.359    0.350   62.066  234.027
  292.250   14.460    0.357    0.358   59.590  235.694
  292.500   14.270    0.355    0.356   58.072  232.174
  292.750   14.064    0.349    0.348   57.998  223.578
  293.000   13.981    0.342    0.336   59.786  216.160
  293.250   14.002    0.341    0.328   65.579  206.645
  293.500   14.022    0.344    0.319   70.837  200.738
  293.750   14.041    0.349    0.311   73.636  198.216
  294.000   14.113    0.358    0.307   74.156  197.979
  294.250   14.441    0.375    0.310   74.688  198.067
  294.500   14.913    0.380    0.314   74.734  198.144
  294.750   15.383    0.365    0.316   71.180  200.620
  295.000   15.605    0.345    0.320   65.833  203.379
  295.250   15.741    0.331    0.326   61.929  205.445
  295.500   15.881    0.329    0.333   60.958  206.420
  295.750   16.032    0.338    0.336   63.674  206.503
  296.000   16.055    0.337    0.335   68.715  206.587
  296.250   16.080    0.338    0.330   69.473  206.653
  296.500   16.100    0.338    0.325   68.258  207.018
  296.750   16.063    0.341    0.321   67.224  207.284
  297.000   15.999    0.350    0.318   67.089  207.353
  297.250   16.028    0.362    0.316   66.492  207.863
  297.500   16.051    0.346    0.308   63.289  210.012
  297.750   16.196    0.343    0.293   60.220  213.678
  298.000   16.430    0.354    0.287   59.125  217.944
  298.250   16.577    0.369    0.291   59.888  221.414
  298.500   16.603    0.380    0.306   61.909  223.585
  298.750   16.578    0.380    0.336   64.272  225.274
  299.000   16.354    0.383    0.337   65.061  227.438
  299.250   15.781    0.388    0.336   63.424  229.899
  299.500   15.061    0.386    0.338   61.797  235.061
  299.750   14.217    0.387    0.338   60.761  237.530
  300.000   13.356    0.391    0.337   61.393  235.007
  300.250   12.541    0.396    0.333   65.730  228.136
  300.500   12.181    0.393    0.330   68.026  227.388
  300.750   12.017    0.373    0.322   66.145  228.651
  301.000   11.924    0.372    0.319   64.273  227.525
  301.250   11.985    0.381    0.326   63.599  224.201
  301.500   12.203    0.391    0.342   64.237  219.181
  301.750   12.558    0.388    0.353   64.797  212.453
  302.000   12.874    0.370    0.348   62.606  208.355
  302.250   12.989    0.357    0.335   61.683  204.835
  302.500   12.743    0.354    0.323   61.309  202.213
  302.750   11.919    0.362    0.313   64.467  201.089
  303.000   10.684    0.373    0.302   70.975  200.861
  303.250    9.088    0.368    0.279   78.295  199.661
  303.500    7.827    0.361    0.268   82.333  199.322
  303.750    7.063    0.354    0.272   82.377  199.402
  304.000    6.826    0.360    0.281   82.242  199.771
  304.250    6.834    0.365    0.292   81.445  199.845
  304.500    6.958    0.361    0.304   79.032  199.622
  304.750    7.219    0.346    0.316   73.428  199.702
  305.000    7.684    0.339    0.323   72.716  199.771
  305.250    9.018    0.342    0.326   73.239  199.837
  305.500    9.804    0.350    0.329   71.426  199.914
  305.750   10.447    0.358    0.332   68.835  199.791
  306.000   11.150    0.362    0.334   67.740  199.463
  306.250   11.525    0.369    0.333   71.792  199.060
  306.500   11.630    0.375    0.332   75.087  198.713
  306.750   11.822    0.374    0.333   71.294  198.387
  307.000   11.949    0.362    0.331   68.937  198.361
  307.250   12.012    0.351    0.327   68.859  198.434
  307.500   11.896    0.347    0.320   70.581  198.507
  307.750   11.276    0.348    0.305   72.465  198.594
  308.000   10.704    0.351    0.294   73.260  198.663
  308.250    9.880    0.355    0.301   74.262  198.736
  308.500    9.384    0.361    0.308   75.444  198.815
  308.750    9.162    0.371    0.319   77.047  198.888
  309.000    9.225    0.380    0.329   78.650  198.954
  309.250    9.777    0.372    0.322   78.677  199.122
