~VERSION INFORMATION
 VERS.                 2.0:   CWLS LOG ASCII STANDARD -VERSION 2.0
 WRAP.                  NO:   ONE LINE PER DEPTH STEP
~WELL INFORMATION BLOCK
#MNEM.UNIT           DATA                    DESCRIPTION OF MNEMONIC
#---------    -------------------            -------------------------------
# Generated from Intellog Unique Number	CX_WELLS/WELL/2704
WELL.         05-15-080-11W4                 : Well_name    - WELL
LOC .         00/05-15-080-11W4/0            : Location     - LOCATION
UWI .         00/05-15-080-11W400            : Uwi          - UNIQUE WELL ID
ENTR.         T                              : Entered      - ENTERED BY
SRVC.         SCHLUMBERGER                   : Scn          - SERVICE COMPANY
STRT.M        250                            : top_depth    - START DEPTH
STOP.M        480                            : bot_depth    - STOP DEPTH
STEP.M        0.25                           : increment    - STEP LENGTH
 NULL. -999.2500:NULL Value
~CURVE INFORMATION BLOCK
#MNEM UNIT       ERCB CURVE CODE    CURVE DESCRIPTION
#-----------   ------------------   ----------------------------------
DEPT.M        00 001 00 00         : DEPTH        - DEPTH
GR  .API      00 310 00 00         : GR           - GAMMA RAY
NPHI.V/V      00 330 00 00         : PHIN         - NEUTRON POROSITY (SANDSTONE)
DPHI.V/V      00 890 00 00         : PHID         - DENSITY POROSITY (SANDSTONE)
ILD .OHMM     00 120 00 00         : RESD         - DEEP RESISTIVITY (DIL)
~PARAMETER INFORMATION
#MNEM.UNIT           DATA             DESCRIPTION OF MNEMONIC
#---------         -----------     ------------------------------
GL  .M        684                  : gl           - GROUND LEVEL ELEVATION
EREF.M        687                  : kb           - ELEVATION OF DEPTH REFERENCE
DATM.M        687                  : datum        - DATUM ELEVATION
TDD .M        486                  : tdd          - TOTAL DEPTH DRILLER
RUN .         ONE                  : Run          - RUN NUMBER
ENG .         BILL                 : Engineer     - RECORDING ENGINEER
WIT .         JIM                  : Witness      - WITNESSED BY
MUD .         GEL                  : Mud_type     - MUD TYPE
MATR.         SANDSTONE            : Logunit      - NEUTRON MATRIX
TMAX.C        25                   : BHT          - MAXIMUM RECORDED TEMPERATURE
BHTD.M        486                  : BHTDEP       - MAXIMUM RECORDED TEMPERATURE
MATR.         1                    : LOGUNIT      - NEUTRON MATRIX
RMT .C        17                   : MDTP         - TEMPERATURE OF MUD
NEUT.         1                    : NEUTRON      - NEUTRON TYPE
RESI.         6.7                  : RESIST       - RESISTIVITY TYPE
RMC .OHMM     6.3                  : RMC          - RESISTIVITY OF MUD CAKE
RMF .OHMM     6.3                  : RMF          - RESISTIVITY OF MUD FILTRATE
SUFT.C        4                    : SUFT         - SURFACE TEMPERATURE
~A  DEPTH       GR     PHIN     PHID     RESD
# ...
  337.000   52.319    0.467    0.366   18.825
  337.250   52.975    0.455    0.367   18.832
  337.500   53.613    0.440    0.368   18.848
  337.750   53.640    0.436    0.369   18.867
  338.000   54.287    0.435    0.364   18.879
  338.250   54.332    0.451    0.361   18.899
  338.500   53.746    0.468    0.357   19.279
  338.750   53.791    0.472    0.357   19.291
  339.000   53.214    0.465    0.358   19.311
  339.250   52.629    0.459    0.359   19.327
  339.500   52.682    0.453    0.356   19.343
  339.750   53.312    0.451    0.326   17.617
  340.000   61.922    0.478    0.320   15.161
  340.250   69.912    0.485    0.306   12.332
  340.500   77.307    0.489    0.303   10.222
  340.750   76.101    0.495    0.303    8.314
  341.000   76.136    0.492    0.312    6.763
  341.250   79.240    0.487    0.325    6.160
  341.500   77.440    0.493    0.329    6.165
  341.750   76.243    0.506    0.332    6.170
  342.000   72.625    0.516    0.330    6.294
  342.250   70.816    0.522    0.334    6.540
  342.500   69.619    0.481    0.344    6.071
  342.750   65.993    0.458    0.357    5.427
  343.000   64.193    0.443    0.372    4.944
  343.250   62.384    0.434    0.382    4.765
  343.500   60.584    0.432    0.382    5.141
  343.750   63.687    0.468    0.384    6.451
  344.000   66.791    0.526    0.386    7.944
  344.250   69.282    0.544    0.390    8.104
  344.500   70.524    0.554    0.386    7.243
  344.750   70.559    0.540    0.337    6.849
  345.000   68.777    0.529    0.310    6.010
  345.250   68.183    0.517    0.300    5.900
  345.500   66.995    0.504    0.321    5.687
  345.750   65.807    0.487    0.327    5.691
  346.000   64.619    0.475    0.339    6.625
  346.250   65.887    0.476    0.343    7.424
  346.500   69.593    0.474    0.343    8.165
  346.750   81.883    0.478    0.341    9.152
  347.000   83.125    0.505    0.340    9.159
  347.250   88.667    0.514    0.336    8.034
  347.500   92.985    0.541    0.328    6.784
  347.750   97.924    0.553    0.307    5.314
  348.000  101.010    0.556    0.293    4.405
  348.250  104.122    0.554    0.285    3.386
  348.500  104.149    0.555    0.281    2.755
  348.750  104.193    0.552    0.280    2.557
  349.000  103.608    0.542    0.278    2.558
  349.250  103.032    0.544    0.277    2.562
  349.500  103.085    0.554    0.273    2.563
  349.750  102.500    0.563    0.272    2.565
  350.000  102.527    0.574    0.270    2.567
  350.250  101.959    0.570    0.270    2.668
  350.500  101.986    0.561    0.277    2.880
  350.750  101.427    0.557    0.281    3.108
  351.000  101.454    0.557    0.287    3.418
  351.250  101.480    0.555    0.292    3.760
  351.500  101.525    0.547    0.290    3.981
  351.750  100.948    0.533    0.278    4.379
  352.000  100.975    0.502    0.280    4.726
  352.250   99.175    0.497    0.289    5.100
  352.500   93.704    0.504    0.295    5.505
  352.750   88.845    0.512    0.301    5.830
  353.000   83.986    0.510    0.302    6.058
  353.250   76.679    0.476    0.300    6.296
  353.500   74.267    0.466    0.298    6.422
  353.750   79.197    0.450    0.302    6.550
  354.000   82.913    0.456    0.307    6.682
  354.250   82.336    0.482    0.308    6.813
  354.500   79.924    0.487    0.297    6.950
  354.750   79.348    0.488    0.288    6.956
  355.000   82.443    0.460    0.288    6.704
  355.250   86.761    0.461    0.299    6.341
  355.500   91.700    0.501    0.307    5.775
  355.750   95.398    0.504    0.302    5.259
  356.000   98.502    0.521    0.293    4.614
  356.250  100.373    0.530    0.277    4.363
  356.500  100.399    0.522    0.274    4.049
  356.750   98.599    0.512    0.270    3.977
  357.000   95.576    0.507    0.271    3.906
  357.250   94.387    0.499    0.276    3.910
  357.500   95.647    0.499    0.279    3.840
  357.750   98.750    0.500    0.283    3.842
  358.000   99.397    0.501    0.285    3.846
  358.250   98.218    0.508    0.281    3.850
  358.500   97.021    0.515    0.279    3.781
  358.750   94.609    0.531    0.279    3.784
  359.000   92.818    0.535    0.285    3.717
  359.250   90.406    0.532    0.286    3.720
  359.500   88.606    0.479    0.283    3.724
  359.750   90.477    0.457    0.275    3.726
  360.000   91.736    0.459    0.264    3.872
  360.250   92.987    0.469    0.258    4.180
  360.500   93.634    0.485    0.264    4.427
  360.750   91.222    0.494    0.265    4.348
  361.000   89.431    0.495    0.265    4.269
  361.250   88.846    0.488    0.266    4.194
  361.500   87.658    0.477    0.270    4.443
  361.750   84.652    0.478    0.273    4.616
  362.000   83.446    0.478    0.277    5.076
  362.250   81.654    0.477    0.279    5.478
  362.500   81.681    0.472    0.279    5.693
  362.750   82.329    0.471    0.279    5.809
  363.000   82.976    0.472    0.279    5.813
  363.250   84.244    0.473    0.277    5.929
  363.500   85.503    0.473    0.277    5.933
  363.750   86.150    0.469    0.278    5.827
  364.000   87.410    0.468    0.278    5.617
  364.250   88.057    0.473    0.275    5.413
  364.500   89.334    0.486    0.271    5.120
  364.750   89.963    0.511    0.272    4.934
  365.000   92.455    0.514    0.274    4.668
  365.250   94.326    0.506    0.275    4.500
  365.500   96.809    0.497    0.274    4.502
  365.750   98.680    0.490    0.269    4.506
  366.000   99.939    0.489    0.267    4.509
  366.250   99.363    0.489    0.264    4.777
  366.500   97.563    0.490    0.271    4.963
  366.750   96.384    0.491    0.279    5.161
  367.000   96.401    0.497    0.281    5.067
  367.250   93.998    0.505    0.284    4.883
  367.500   92.189    0.515    0.285    4.708
  367.750   88.554    0.499    0.289    4.801
  368.000   84.918    0.477    0.297    5.183
  368.250   81.895    0.476    0.297    5.489
  368.500   76.424    0.481    0.267    5.922
  368.750   66.679    0.484    0.223    6.391
  369.000   66.705    0.482    0.141    6.767
  369.250   71.635    0.442    0.126    7.444
  369.500   76.575    0.373    0.187    7.885
  369.750   81.505    0.399    0.231    8.042
  370.000   87.047    0.468    0.256    8.047
  370.250   91.374    0.480    0.268    8.055
  370.500   90.798    0.487    0.273    8.060
  370.750   90.221    0.487    0.275    8.067
  371.000   88.412    0.484    0.277    8.076
  371.250   88.457    0.476    0.277    8.082
  371.500   89.716    0.468    0.271    7.938
  371.750   91.587    0.462    0.259    7.652
  372.000   91.631    0.459    0.249    7.657
  372.250   91.037    0.457    0.253    7.380
  372.500   90.470    0.458    0.262    7.249
  372.750   89.290    0.463    0.271    7.121
  373.000   88.714    0.469    0.276    6.993
  373.250   88.750    0.471    0.279    6.614
  373.500   90.630    0.476    0.283    6.255
  373.750   91.871    0.481    0.280    5.806
  374.000   95.586    0.496    0.273    5.189
  374.250   95.613    0.517    0.265    4.638
  374.500   95.657    0.534    0.271    4.068
  374.750   96.917    0.543    0.281    3.996
  375.000   99.408    0.549    0.284    3.924
  375.250  100.038    0.542    0.285    3.928
  375.500  101.909    0.532    0.284    3.932
  375.750  101.962    0.523    0.282    3.933
  376.000  100.153    0.513    0.278    4.090
  376.250   96.509    0.503    0.274    4.171
  376.500   92.873    0.490    0.274    4.416
  376.750   90.462    0.469    0.272    4.677
  377.000   89.885    0.467    0.268    5.242
  377.250   89.930    0.470    0.263    5.447
  377.500   89.965    0.469    0.256    5.879
  377.750   89.389    0.465    0.265    6.226
  378.000   88.812    0.455    0.276    6.722
  378.250   90.080    0.445    0.276    6.986
  378.500   90.719    0.433    0.270    7.260
  378.750   91.987    0.418    0.266    7.403
  379.000   92.634    0.403    0.264    7.694
  379.250   79.200    0.370    0.261    7.998
  379.500   73.729    0.329    0.258    8.155
  379.750   67.646    0.293    0.252    8.640
  380.000   68.294    0.280    0.045    8.976
  380.250   75.059    0.269    0.071    9.691
