~VERSION INFORMATION
 VERS.                 2.0:   CWLS LOG ASCII STANDARD -VERSION 2.0
 WRAP.                  NO:   ONE LINE PER DEPTH STEP
~WELL INFORMATION BLOCK
#MNEM.UNIT           DATA                    DESCRIPTION OF MNEMONIC
#---------    -------------------            -------------------------------
# Generated from Intellog Unique Number	CW_73_75/WELL/620
WELL.         ANG ET AL FRANCIS 06-36        : Well_name    - WELL
LOC .         00/06-36-074-22W4/0            : Location     - LOCATION
UWI .         00/06-36-074-22W4/0            : Uwi          - UNIQUE WELL ID
ENTR.         JAYE                           : Entered      - ENTERED BY
SRVC.         SCHLUMBERGER                   : Scn          - SERVICE COMPANY
DATE.         27 MAR 88                      : Date         - LOG DATE
STRT.M        350                            : top_depth    - START DEPTH
STOP.M        560                            : bot_depth    - STOP DEPTH
STEP.M        0.25                           : increment    - STEP LENGTH
 NULL. -999.2500:NULL Value
~CURVE INFORMATION BLOCK
#MNEM UNIT       ERCB CURVE CODE    CURVE DESCRIPTION
#-----------   ------------------   ----------------------------------
DEPT.M        00 001 00 00         : DEPTH        - DEPTH
ILD .OHMM     00 120 00 00         : RESD         - DEEP RESISTIVITY (DIL)
DPHI.V/V      00 890 00 00         : PHID         - DENSITY POROSITY (SANDSTONE)
NPHI.V/V      00 330 00 00         : PHIN         - NEUTRON POROSITY (SANDSTONE)
GR  .API      00 310 00 00         : GR           - GAMMA RAY
CALI.MM       00 280 01 00         : CAL          - CALIPER
~PARAMETER INFORMATION
#MNEM.UNIT           DATA             DESCRIPTION OF MNEMONIC
#---------         -----------     ------------------------------
GL  .M        656.8                : gl           - GROUND LEVEL ELEVATION
EREF.M        660                  : kb           - ELEVATION OF DEPTH REFERENCE
DATM.M        656.8                : datum        - DATUM ELEVATION
TDD .M        620                  : tdd          - TOTAL DEPTH DRILLER
RUN .         ONE                  : Run          - RUN NUMBER
ENG .         POWELL               : Engineer     - RECORDING ENGINEER
WIT .         LIEHTENBELT          : Witness      - WITNESSED BY
BASE.         EDM                  : Branch       - HOME BASE OF LOGGING UNIT
MUD .         GEL CHEM             : Mud_type     - MUD TYPE
MATR.         SANDSTONE            : Logunit      - NEUTRON MATRIX
TMAX.C        47                   : BHT          - MAXIMUM RECORDED TEMPERATURE
BHTD.M        619.5                : BHTDEP       - MAXIMUM RECORDED TEMPERATURE
RMT .C        18                   : MDTP         - TEMPERATURE OF MUD
MUDD.KG/M     1170                 : MWT          - MUD DENSITY
NEUT.         1                    : NEUTRON      - NEUTRON TYPE
RESI.         0                    : RESIST       - RESISTIVITY TYPE
RM  .OHMM     1.26                 : RM           - RESISTIVITY OF MUD
RMC .OHMM     0                    : RMC          - RESISTIVITY OF MUD CAKE
RMF .OHMM     3.44                 : RMF          - RESISTIVITY OF MUD FILTRATE
SUFT.C        0                    : SUFT         - SURFACE TEMPERATURE
~A  DEPTH     RESD     PHID     PHIN       GR      CAL
# ...
  496.000   21.913    0.036    0.207   49.064  167.774
  496.250   15.933    0.009    0.181   46.223  167.924
  496.500    9.457    0.043    0.186   50.408  167.972
  496.750    7.633    0.109    0.276   55.449  168.031
  497.000    6.302    0.174    0.401   66.908  167.468
  497.250    5.582    0.220    0.431   72.990  166.704
  497.500    5.689    0.277    0.447   69.110  165.735
  497.750    6.092    0.269    0.459   71.097  164.972
  498.000    6.498    0.257    0.458   73.080  164.415
  498.250    7.421    0.242    0.430   71.156  164.358
  498.500    8.380    0.208    0.405   66.726  164.310
  498.750    9.197    0.177    0.378   65.168  164.053
  499.000    9.626    0.165    0.351   64.099  164.413
  499.250    9.146    0.180    0.362   65.107  165.074
  499.500    7.814    0.185    0.377   65.994  166.046
  499.750    6.663    0.174    0.360   66.329  167.111
  500.000    6.165    0.183    0.401   72.042  167.976
  500.250    6.096    0.224    0.434   77.573  167.824
  500.500    6.073    0.238    0.453   79.070  166.961
  500.750    6.073    0.240    0.452   80.324  166.604
  501.000    6.016    0.238    0.442   81.148  166.563
  501.250    6.028    0.225    0.444   82.952  166.709
  501.500    6.017    0.211    0.442   87.016  167.069
  501.750    6.075    0.210    0.432   88.024  167.324
  502.000    6.180    0.207    0.434   85.060  167.781
  502.250    6.287    0.205    0.435   84.480  168.031
  502.500    6.408    0.213    0.417   85.979  168.393
  502.750    6.481    0.198    0.418   83.991  168.544
  503.000    6.544    0.186    0.424   84.205  168.705
  503.250    6.632    0.178    0.435   88.269  168.545
  503.500    6.721    0.190    0.434   90.254  167.980
  503.750    6.798    0.177    0.436   89.492  167.931
  504.000    6.863    0.186    0.431   91.173  169.104
  504.250    6.890    0.189    0.434   93.464  169.869
  504.500    6.943    0.204    0.435   94.839  169.611
  504.750    6.956    0.195    0.424   95.483  168.545
  505.000    6.997    0.196    0.423   93.618  167.479
  505.250    7.050    0.189    0.421   93.403  168.237
  505.500    7.118    0.175    0.427   91.357  170.019
  505.750    7.186    0.189    0.440   87.538  168.652
  506.000    7.269    0.182    0.445   91.909  168.191
  506.250    7.325    0.168    0.434   90.104  169.972
  506.500    7.381    0.150    0.410   90.321  172.059
  506.750    7.382    0.179    0.421   92.612  171.907
  507.000    7.340    0.185    0.433   94.474  168.497
  507.250    7.327    0.182    0.444   94.264  168.648
  507.500    7.300    0.186    0.444   93.927  170.538
  507.750    7.245    0.181    0.418   93.527  171.705
  508.000    7.177    0.168    0.431   91.055  171.763
  508.250    7.110    0.173    0.442   91.148  172.010
  508.500    7.043    0.177    0.430   89.160  171.965
  508.750    6.977    0.166    0.433   86.257  171.618
  509.000    6.898    0.164    0.447   86.960  171.249
  509.250    6.860    0.167    0.437   90.230  170.994
  509.500    6.808    0.181    0.443   93.011  171.152
  509.750    6.732    0.173    0.444   92.247  171.003
  510.000    6.606    0.160    0.430   95.087  171.049
  510.250    6.531    0.159    0.425   94.629  170.796
  510.500    6.458    0.182    0.439   93.621  170.436
  510.750    6.422    0.162    0.434   91.819  170.288
  511.000    6.422    0.152    0.429   92.156  170.136
  511.250    6.447    0.181    0.436   93.165  170.286
  511.500    6.447    0.172    0.429   86.840  170.641
  511.750    6.472    0.161    0.427   88.275  170.187
  512.000    6.510    0.148    0.424   87.696  169.827
  512.250    6.597    0.186    0.423   87.671  169.570
  512.500    6.648    0.178    0.419   88.858  170.441
  512.750    6.711    0.158    0.423   89.744  171.711
  513.000    6.815    0.164    0.443   91.487  171.863
  513.250    6.959    0.155    0.434   90.844  171.100
  513.500    7.133    0.156    0.405   89.163  169.530
  513.750    7.215    0.180    0.384   87.055  168.257
  514.000    7.243    0.184    0.377   84.831  167.283
  514.250    7.299    0.200    0.391   83.878  166.321
  514.500    7.299    0.204    0.406   83.664  165.858
  514.750    7.286    0.212    0.417   84.187  165.708
  515.000    7.231    0.199    0.407   85.009  165.967
  515.250    7.109    0.165    0.391   86.569  166.728
  515.500    6.871    0.124    0.374   90.326  167.387
  515.750    6.679    0.152    0.390   99.400  168.252
  516.000    6.591    0.176    0.404  102.243  169.427
  516.250    6.616    0.177    0.416  102.396  170.801
  516.500    6.886    0.186    0.430  102.182  172.076
  516.750    7.180    0.182    0.426  102.213  172.736
  517.000    7.644    0.172    0.406  101.144  172.790
  517.250    7.955    0.161    0.392   97.691  172.033
  517.500    8.201    0.142    0.381   89.656  170.758
  517.750    8.359    0.143    0.365   86.082  168.875
  518.000    8.423    0.154    0.364   88.006  167.592
  518.250    8.392    0.173    0.378   87.975  166.836
  518.500    8.345    0.179    0.389   86.478  166.780
  518.750    8.537    0.187    0.391   88.587  167.450
  519.000    9.477    0.199    0.379   89.046  167.901
  519.250   10.322    0.158    0.374   83.517  168.460
  519.500   10.907    0.124    0.359   77.193  168.621
  519.750   11.502    0.092    0.321   71.418  169.277
  520.000   11.746    0.086    0.270   65.643  171.369
  520.250   11.570    0.103    0.308   71.478  171.720
  520.500    9.463    0.108    0.338   81.714  170.757
  520.750    7.918    0.119    0.351   86.634  170.405
  521.000    7.026    0.126    0.393   90.086  170.448
  521.250    6.765    0.145    0.422   93.111  170.807
  521.500    6.778    0.158    0.438   95.280  171.571
  521.750    6.792    0.156    0.439   96.410  172.338
  522.000    6.792    0.154    0.412   92.226  172.893
  522.250    6.792    0.136    0.409   90.729  172.437
  522.500    6.845    0.160    0.415   90.454  171.473
  522.750    6.884    0.176    0.416   87.551  170.096
  523.000    6.911    0.158    0.419   86.546  169.337
  523.250    6.951    0.153    0.415   88.897  169.088
  523.500    6.991    0.156    0.420   91.677  168.929
  523.750    7.234    0.153    0.429   94.396  169.488
  524.000    7.331    0.123    0.416   97.666  170.252
  524.250    7.374    0.132    0.401   96.047  170.911
  524.500    7.416    0.147    0.404   94.488  171.474
  524.750    7.473    0.129    0.422   94.275  171.830
  525.000    7.474    0.161    0.422   94.306  171.574
  525.250    7.474    0.156    0.415   94.091  171.326
  525.500    7.432    0.127    0.408   93.636  170.963
  525.750    7.349    0.127    0.391   96.415  171.023
  526.000    7.170    0.158    0.396   98.706  170.863
  526.250    7.036    0.162    0.411   98.492  171.117
  526.500    6.917    0.163    0.413  100.600  171.170
  526.750    6.800    0.166    0.405  101.303  171.324
  527.000    6.635    0.172    0.407   95.897  171.378
  527.250    6.474    0.161    0.418   92.505  171.430
  527.500    6.365    0.142    0.394   90.213  171.380
  527.750    6.222    0.117    0.365   92.016  171.427
  528.000    6.059    0.136    0.392   92.417  171.686
  528.250    5.801    0.162    0.394   93.972  171.938
  528.500    5.296    0.144    0.389   96.756  172.496
  528.750    4.525    0.132    0.381   93.546  173.055
  529.000    3.638    0.163    0.398   91.927  173.720
  529.250    2.953    0.222    0.439   94.892  173.769
  529.500    2.494    0.231    0.482   96.142  172.395
  529.750    2.317    0.242    0.547   95.565  167.459
  530.000    2.348    0.238    0.559   94.921  166.489
  530.250    2.379    0.229    0.542   94.097  166.541
  530.500    2.393    0.219    0.532   96.512  166.795
  530.750    2.467    0.230    0.525  100.634  166.951
  531.000    2.553    0.216    0.518  101.339  166.998
  531.250    2.723    0.223    0.512   99.170  167.253
  531.500    3.152    0.193    0.496   96.388  168.019
  531.750    3.950    0.153    0.463   90.981  169.303
  532.000    5.008    0.117    0.390   88.202  170.675
  532.250    5.580    0.100    0.370   91.226  172.151
