~VERSION INFORMATION
 VERS.                 2.0:   CWLS LOG ASCII STANDARD -VERSION 2.0
 WRAP.                  NO:   ONE LINE PER DEPTH STEP
~WELL INFORMATION BLOCK
#MNEM.UNIT           DATA                    DESCRIPTION OF MNEMONIC
#---------    -------------------            -------------------------------
# Generated from Intellog Unique Number	CW_82_90/WELL/620
WELL.         ANDEX WABASCA 07-27            : Well_name    - WELL
LOC .         00/07-27-082-21W4/0            : Location     - LOCATION
UWI .         00/07-27-082-21W4/0            : Uwi          - UNIQUE WELL ID
ENTR.         JAYE                           : Entered      - ENTERED BY
SRVC.         SCHLUMBERGER                   : Scn          - SERVICE COMPANY
DATE.         13 FEB 74                      : Date         - LOG DATE
STRT.M        228.6                          : top_depth    - START DEPTH
STOP.M        460.35                         : bot_depth    - STOP DEPTH
STEP.M        0.25                           : increment    - STEP LENGTH
 NULL. -999.2500:NULL Value
~CURVE INFORMATION BLOCK
#MNEM UNIT       ERCB CURVE CODE    CURVE DESCRIPTION
#-----------   ------------------   ----------------------------------
DEPT.M        00 001 00 00         : DEPTH        - DEPTH
CALI.MM       00 280 01 00         : CAL          - CALIPER
GR  .API      00 310 00 00         : GR           - GAMMA RAY
NPHI.V/V      00 330 00 00         : PHIN         - NEUTRON POROSITY (SANDSTONE)
DPHI.V/V      00 890 00 00         : PHID         - DENSITY POROSITY (SANDSTONE)
ILD .OHMM     00 120 00 00         : RESD         - DEEP RESISTIVITY (DIL)
~PARAMETER INFORMATION
#MNEM.UNIT           DATA             DESCRIPTION OF MNEMONIC
#---------         -----------     ------------------------------
GL  .M        623.621              : gl           - GROUND LEVEL ELEVATION
EREF.M        627.278              : kb           - ELEVATION OF DEPTH REFERENCE
DATM.M        623.621              : datum        - DATUM ELEVATION
TDD .M        467.868              : tdd          - TOTAL DEPTH DRILLER
RUN .         ONE                  : Run          - RUN NUMBER
ENG .         WOON                 : Engineer     - RECORDING ENGINEER
WIT .         McARTHUR             : Witness      - WITNESSED BY
BASE.         EDMONTON             : Branch       - HOME BASE OF LOGGING UNIT
MUD .         GEL                  : Mud_type     - MUD TYPE
MATR.         SANDSTONE            : Logunit      - NEUTRON MATRIX
TMAX.C        30.5556              : BHT          - MAXIMUM RECORDED TEMPERATURE
BHTD.M        467.868              : BHTDEP       - MAXIMUM RECORDED TEMPERATURE
RMT .C        15.5556              : MDTP         - TEMPERATURE OF MUD
MUDD.KG/M     9500                 : MWT          - MUD DENSITY
NEUT.         1                    : NEUTRON      - NEUTRON TYPE
RESI.         0                    : RESIST       - RESISTIVITY TYPE
RM  .OHMM     0.25                 : RM           - RESISTIVITY OF MUD
RMC .OHMM     0.25                 : RMC          - RESISTIVITY OF MUD CAKE
RMF .OHMM     2.23                 : RMF          - RESISTIVITY OF MUD FILTRATE
SUFT.C        4                    : SUFT         - SURFACE TEMPERATURE
~A  DEPTH      CAL       GR     PHIN     PHID     RESD
# ...
  411.100  157.057   86.032    0.392    0.211   21.426
  411.350  155.177   83.217    0.384    0.197   21.393
  411.600  154.124   67.485    0.375    0.194   23.261
  411.850  152.960   56.017    0.364    0.239   25.639
  412.100  152.107   45.647    0.365    0.254   29.529
  412.350  151.775   45.815    0.368    0.250   33.747
  412.600  151.748   33.922    0.364    0.255   39.605
  412.850  152.535   32.873    0.365    0.274   45.274
  413.100  153.541   33.591    0.378    0.290   52.632
  413.350  154.749   35.709    0.372    0.278   53.636
  413.600  156.164   39.047    0.362    0.262   50.823
  413.850  157.268   42.325    0.362    0.250   36.086
  414.100  157.858   42.981    0.372    0.243   26.366
  414.350  158.140   45.283    0.377    0.249   22.194
  414.600  157.598   47.463    0.376    0.256   19.514
  414.850  156.437   48.546    0.389    0.263   18.317
  415.100  154.453   50.665    0.399    0.278   17.759
  415.350  155.145   55.160    0.406    0.284   17.791
  415.600  156.665   60.631    0.400    0.263   18.165
  415.850  158.074   68.598    0.349    0.232   18.511
  416.100  159.798   77.054    0.343    0.188   18.754
  416.350  161.724   85.753    0.352    0.150   18.044
  416.600  163.240   87.566    0.369    0.156   15.217
  416.850  164.037   87.249    0.381    0.158   12.206
  417.100  165.031   89.063    0.391    0.172   10.719
  417.350  164.183   92.401    0.403    0.158    8.868
  417.600  162.720   96.775    0.421    0.167    7.211
  417.850  160.737  101.819    0.443    0.174    5.676
  418.100  159.676  105.094    0.472    0.185    4.538
  418.350  159.343  103.497    0.471    0.175    3.613
  418.600  160.447   99.462    0.447    0.159    3.359
  418.850  161.758   95.855    0.399    0.159    3.632
  419.100  162.451   91.698    0.352    0.116    4.246
  419.350  162.419   88.213    0.315    0.083    5.678
  419.600  161.978   91.672    0.304    0.070    7.930
  419.850  161.440  103.053    0.332    0.097    9.485
  420.100  160.174  106.268    0.376    0.148    9.394
  420.350  159.431  105.158    0.401    0.173    8.522
  420.600  159.190  104.048    0.424    0.170    7.076
  420.850  159.270  104.948    0.441    0.171    5.636
  421.100  159.651  102.437    0.456    0.185    4.844
  421.350  160.342   97.184    0.424    0.196    4.634
  421.600  161.450   87.240    0.390    0.185    5.087
  421.850  162.042   74.127    0.349    0.165    6.145
  422.100  161.191   72.163    0.347    0.147    7.863
  422.350  159.311   74.223    0.348    0.152   11.089
  422.600  158.769   68.239    0.316    0.137   15.552
  422.850  160.077   64.631    0.268    0.091   18.825
  423.100  162.312   65.775    0.280    0.067   19.508
  423.350  164.038   67.162    0.304    0.092   19.358
  423.600  163.594   66.175    0.303    0.056   18.238
  423.850  161.203   70.730    0.293    0.076   17.021
  424.100  158.808   76.627    0.318    0.118   13.762
  424.350  157.855   85.510    0.345    0.154   11.605
  424.600  158.132   87.141    0.371    0.165    9.785
  424.850  158.208   89.381    0.376    0.164    8.542
  425.100  158.385   91.804    0.415    0.163    7.746
  425.350  158.153   92.949    0.429    0.151    7.183
  425.600  158.333   91.170    0.431    0.149    7.088
  425.850  159.541   91.826    0.410    0.159    7.101
  426.100  162.291   94.677    0.400    0.166    7.514
  426.350  164.629   98.806    0.401    0.173    7.914
  426.600  163.673  102.386    0.439    0.200    8.381
  426.850  163.546  106.456    0.479    0.225    9.414
  427.100  165.474  108.819    0.519    0.242   10.717
  427.350  167.813  113.436    0.570    0.300   11.994
  427.600  165.313  117.383    0.446    0.345   13.729
  427.850  160.757  108.536    0.325    0.141   15.366
  428.100  164.126   97.494    0.307    0.133   17.131
  428.350  164.815   88.829    0.313    0.114   18.669
  428.600  163.453   92.227    0.337    0.081   19.021
  428.850  160.957   98.368    0.335    0.088   19.090
  429.100  157.531  105.301    0.315    0.100   18.719
  429.350  156.164  115.219    0.292    0.093   18.147
  429.600  161.997  120.689    0.285    0.107   17.664
  429.850  163.520  124.514    0.314    0.121   17.058
  430.100  161.229  121.331    0.352    0.133   16.610
  430.350  157.086  114.007    0.352    0.146   16.041
  430.600  159.526  108.937    0.355    0.164   15.757
  430.850  161.350  103.014    0.375    0.186   15.696
  431.100  157.517   95.203    0.369    0.201   15.724
  431.350  157.381   92.264    0.369    0.213   15.843
  431.600  157.870   86.888    0.379    0.211   16.107
  431.850  158.870   82.854    0.373    0.225   16.325
  432.100  155.965   92.529    0.336    0.209   16.635
  432.350  153.879  101.350    0.334    0.190   17.084
  432.600  157.965  104.138    0.358    0.161   17.844
  432.850  158.763   92.246    0.373    0.181   18.890
  433.100  158.324   74.990    0.378    0.226   19.735
  433.350  158.705   62.852    0.367    0.225   20.818
  433.600  158.671   53.700    0.357    0.234   22.163
  433.850  159.060   60.693    0.356    0.248   23.334
  434.100  159.441   68.052    0.362    0.233   24.941
  434.350  159.316   74.312    0.383    0.210   25.415
  434.600  159.082   71.497    0.384    0.221   24.684
  434.850  159.258   69.657    0.365    0.233   24.399
  435.100  159.543   70.496    0.357    0.233   24.572
  435.350  160.440   77.246    0.371    0.216   24.565
  435.600  162.368   81.010    0.362    0.203   23.646
  435.850  163.885   77.890    0.363    0.195   20.132
  436.100  163.547   68.433    0.385    0.231   16.055
  436.350  160.839   58.062    0.375    0.246   16.585
  436.600  159.890   56.159    0.374    0.236   17.561
  436.850  159.753   58.827    0.390    0.232   17.922
  437.100  159.728   63.565    0.380    0.227   18.232
  437.350  160.013   64.711    0.368    0.215   18.646
  437.600  159.464   65.489    0.357    0.211   18.567
  437.850  159.031   68.096    0.359    0.214   18.289
  438.100  158.076   63.513    0.386    0.204   17.697
  438.350  156.298   50.035    0.400    0.230   16.018
  438.600  152.358   37.167    0.378    0.239   18.377
  438.850  148.113   24.115    0.345    0.243   21.083
  439.100  146.644   17.705    0.338    0.250   23.372
  439.350  154.542   15.740    0.342    0.261   25.220
  439.600  153.587   17.312    0.396    0.277   25.551
  439.850  156.134   19.309    0.407    0.285   25.542
  440.100  160.120   21.733    0.395    0.302   26.163
  440.350  160.811   24.400    0.384    0.303   26.669
  440.600  160.783   25.663    0.384    0.295   28.403
  440.850  159.621   25.224    0.394    0.285   33.282
  441.100  159.180   24.787    0.399    0.291   37.316
  441.350  158.745   26.905    0.402    0.308   39.810
  441.600  158.511   28.477    0.404    0.311   39.352
  441.850  158.793   31.022    0.407    0.301   35.606
  442.100  158.866   33.994    0.417    0.304   33.047
  442.350  158.837   36.964    0.404    0.298   30.548
  442.600  158.708   39.086    0.397    0.274   27.074
  442.850  159.400   42.484    0.403    0.286   30.123
  443.100  160.919   46.248    0.396    0.289   28.379
  443.350  162.637   51.292    0.371    0.269   27.097
  443.600  163.020   58.163    0.360    0.245   24.575
  443.850  163.404   69.482    0.377    0.235   20.450
  444.100  162.967   71.052    0.400    0.225   15.288
  444.350  161.291   73.781    0.403    0.238   15.166
  444.600  161.986   79.799    0.375    0.255   15.600
  444.850  162.163   89.961    0.346    0.238   14.312
  445.100  159.148  109.322    0.328    0.185   12.373
  445.350  160.361  126.002    0.331    0.131    9.685
  445.600  163.934  134.214    0.350    0.111    8.502
  445.850  169.564  132.799    0.374    0.129    8.305
  446.100  170.254  126.754    0.393    0.132    7.912
  446.350  169.305  124.913    0.420    0.131    7.703
  446.600  167.322  127.641    0.441    0.151    7.457
  446.850  164.927  123.607    0.458    0.142    7.284
  447.100  163.558  119.573    0.456    0.127    7.310
  447.350  164.048  110.177    0.454    0.151    7.593
