~VERSION INFORMATION
 VERS.                 2.0:   CWLS LOG ASCII STANDARD -VERSION 2.0
 WRAP.                  NO:   ONE LINE PER DEPTH STEP
~WELL INFORMATION BLOCK
#MNEM.UNIT           DATA                    DESCRIPTION OF MNEMONIC
#---------    -------------------            -------------------------------
# Generated from Intellog Unique Number	CS_67_68/WELL/2171
WELL.         06-17-067-06W4                 : Well_name    - WELL
LOC .         00/06-17-067-06W4/0            : Location     - LOCATION
UWI .         00/06-17-067-06W4/0            : Uwi          - UNIQUE WELL ID
ENTR.         SP                             : Entered      - ENTERED BY
SRVC.         SCHLUMBERGER                   : Scn          - SERVICE COMPANY
STRT.M        330                            : top_depth    - START DEPTH
STOP.M        535                            : bot_depth    - STOP DEPTH
STEP.M        0.25                           : increment    - STEP LENGTH
 NULL. -999.2500:NULL Value
~CURVE INFORMATION BLOCK
#MNEM UNIT       ERCB CURVE CODE    CURVE DESCRIPTION
#-----------   ------------------   ----------------------------------
DEPT.M        00 001 00 00         : DEPTH        - DEPTH
ILD .OHMM     00 120 00 00         : RESD         - DEEP RESISTIVITY (DIL)
DPHI.V/V      00 890 00 00         : PHID         - DENSITY POROSITY (LIMESTONE)
NPHI.V/V      00 330 00 00         : PHIN         - NEUTRON POROSITY (LIMESTONE)
GR  .API      00 310 00 00         : GR           - GAMMA RAY
CALI.MM       00 280 01 00         : CAL          - CALIPER
~PARAMETER INFORMATION
#MNEM.UNIT           DATA             DESCRIPTION OF MNEMONIC
#---------         -----------     ------------------------------
GL  .M        653.87               : gl           - GROUND LEVEL ELEVATION
EREF.M        656.96               : kb           - ELEVATION OF DEPTH REFERENCE
DATM.M        656.96               : datum        - DATUM ELEVATION
TDD .M        545                  : tdd          - TOTAL DEPTH DRILLER
RUN .         ONE                  : Run          - RUN NUMBER
ENG .         BILL                 : Engineer     - RECORDING ENGINEER
WIT .         JIM                  : Witness      - WITNESSED BY
MUD .         GEL                  : Mud_type     - MUD TYPE
MATR.         LIMESTONE            : Logunit      - NEUTRON MATRIX
TMAX.C        21                   : BHT          - MAXIMUM RECORDED TEMPERATURE
BHTD.M        545.5                : BHTDEP       - MAXIMUM RECORDED TEMPERATURE
MATR.         1                    : LOGUNIT      - NEUTRON MATRIX
RMT .C        25                   : MDTP         - TEMPERATURE OF MUD
NEUT.         1                    : NEUTRON      - NEUTRON TYPE
RESI.         0                    : RESIST       - RESISTIVITY TYPE
RMC .OHMM     0.25                 : RMC          - RESISTIVITY OF MUD CAKE
RMF .OHMM     0.25                 : RMF          - RESISTIVITY OF MUD FILTRATE
SUFT.C        15                   : SUFT         - SURFACE TEMPERATURE
~A  DEPTH     RESD     PHID     PHIN       GR      CAL
# ...
  366.500    5.882    0.221    0.449   90.548  165.787
  366.750    5.983    0.210    0.459   88.249  165.312
  367.000    6.029    0.199    0.463   90.583  164.834
  367.250    5.996    0.202    0.458   90.723  164.559
  367.500    5.797    0.218    0.467   88.730  164.387
  367.750    5.449    0.236    0.478   87.467  164.108
  368.000    5.093    0.251    0.448   85.598  164.036
  368.250    4.914    0.264    0.428   84.332  163.763
  368.500    4.805    0.272    0.442   83.801  163.796
  368.750    4.779    0.274    0.452   84.430  163.512
  369.000    4.815    0.270    0.454   83.776  163.243
  369.250    4.798    0.264    0.447   81.965  163.168
  369.500    4.816    0.262    0.439   81.982  162.891
  369.750    4.890    0.264    0.435   83.586  162.725
  370.000    4.964    0.267    0.447   84.946  162.648
  370.250    4.984    0.270    0.473   83.136  162.679
  370.500    4.901    0.272    0.484   81.692  163.212
  370.750    4.846    0.270    0.485   80.913  164.065
  371.000    4.810    0.264    0.466   82.150  164.693
  371.250    4.811    0.256    0.442   91.616  166.045
  371.500    4.811    0.249    0.452   96.876  167.090
  371.750    4.839    0.248    0.473   97.930  168.035
  372.000    4.876    0.238    0.483   94.107  168.165
  372.250    4.813    0.236    0.478   92.113  167.077
  372.500    4.644    0.234    0.463   94.023  167.924
  372.750    4.567    0.228    0.483   98.735  169.066
  373.000    4.550    0.222    0.496  102.652  173.260
  373.250    4.628    0.223    0.482  101.572  177.455
  373.500    4.708    0.234    0.475  101.346  175.758
  373.750    4.664    0.241    0.473  103.801  172.130
  374.000    4.621    0.251    0.465  101.320  166.477
  374.250    4.656    0.249    0.457   95.121  164.164
  374.500    4.719    0.253    0.450   91.542  163.278
  374.750    4.827    0.260    0.431   88.939  162.700
  375.000    5.012    0.267    0.416   91.333  162.528
  375.250    4.929    0.265    0.414   90.498  162.563
  375.500    4.738    0.260    0.430   83.628  162.583
  375.750    4.748    0.264    0.456   79.866  162.720
  376.000    4.802    0.270    0.446   78.543  162.951
  376.250    4.758    0.273    0.428   81.733  162.164
  376.500    4.574    0.275    0.412   88.088  160.167
  376.750    4.688    0.279    0.434   86.461  158.877
  377.000    4.813    0.283    0.445   82.698  158.502
  377.250    4.942    0.283    0.447   80.401  158.524
  377.500    5.084    0.284    0.455   81.087  158.354
  377.750    5.260    0.278    0.466   81.532  158.589
  378.000    5.330    0.248    0.437   82.098  158.721
  378.250    5.351    0.160    0.393   83.275  159.150
  378.500    5.291    0.185    0.452   85.608  159.587
  378.750    5.116    0.254    0.478   84.225  159.516
  379.000    4.983    0.276    0.475   82.475  159.138
  379.250    4.937    0.285    0.476   81.822  158.558
  379.500    4.882    0.272    0.486   83.058  158.487
  379.750    4.837    0.262    0.469   88.868  158.515
  380.000    4.792    0.256    0.471   90.347  158.652
  380.250    4.784    0.251    0.462   85.427  158.676
  380.500    4.757    0.264    0.447   80.325  158.401
  380.750    4.785    0.273    0.433   75.100  158.329
  381.000    4.913    0.284    0.438   69.876  158.255
  381.250    5.218    0.252    0.451   64.652  158.389
  381.500    5.491    0.151    0.257   58.881  158.723
  381.750    5.712    0.131    0.228   53.838  159.058
  382.000    5.756    0.225    0.262   60.621  159.189
  382.250    5.649    0.251    0.367   72.586  159.222
  382.500    5.391    0.269    0.409   83.698  159.348
  382.750    5.124    0.255    0.432   90.603  159.484
  383.000    4.789    0.250    0.454   92.145  159.714
  383.250    4.763    0.249    0.446   89.237  159.844
  383.500    4.808    0.246    0.446   86.999  159.976
  383.750    4.818    0.248    0.453   87.261  160.005
  384.000    4.800    0.262    0.451   85.998  160.238
  384.250    4.765    0.279    0.447   83.334  160.272
  384.500    4.712    0.287    0.458   82.133  160.400
  384.750    4.704    0.290    0.479   80.994  160.123
  385.000    4.643    0.291    0.491   80.647  160.253
  385.250    4.548    0.279    0.481   80.784  160.390
  385.500    4.489    0.283    0.471   82.266  161.127
  385.750    4.456    0.291    0.464   85.208  161.664
  386.000    4.448    0.292    0.456   84.312  162.099
  386.250    4.482    0.282    0.452   83.781  162.432
  386.500    4.542    0.277    0.447   85.933  162.364
  386.750    4.611    0.274    0.453   88.814  162.390
  387.000    4.620    0.268    0.467   92.307  162.424
  387.250    4.664    0.261    0.470   92.995  162.251
  387.500    4.674    0.260    0.471   91.672  161.975
  387.750    4.683    0.265    0.474   87.240  162.000
  388.000    4.683    0.273    0.474   82.993  161.624
  388.250    4.684    0.278    0.470   80.205  161.451
  388.500    4.676    0.268    0.463   81.870  161.378
  388.750    4.632    0.255    0.455   84.140  161.104
  389.000    4.616    0.246    0.468   87.389  161.030
  389.250    4.616    0.249    0.460   86.675  160.859
  389.500    4.565    0.254    0.456   84.559  160.787
  389.750    4.531    0.255    0.449   84.577  160.619
  390.000    4.514    0.255    0.450   86.302  160.643
  390.250    4.540    0.258    0.460   85.772  160.975
  390.500    4.592    0.266    0.458   85.362  161.005
  390.750    4.619    0.263    0.453   85.260  161.238
  391.000    4.611    0.258    0.450   85.522  161.271
  391.250    4.637    0.253    0.453   86.451  161.601
  391.500    4.646    0.252    0.452   88.664  161.936
  391.750    4.638    0.256    0.467   90.572  161.865
  392.000    4.630    0.270    0.477   91.931  161.893
  392.250    4.596    0.273    0.472   88.658  161.820
  392.500    4.562    0.257    0.451   85.322  161.956
  392.750    4.562    0.248    0.444   83.694  162.087
  393.000    4.606    0.256    0.448   85.540  162.521
  393.250    4.659    0.259    0.441   87.996  162.757
  393.500    4.686    0.258    0.439   88.195  163.090
  393.750    4.651    0.255    0.448   86.752  163.015
  394.000    4.617    0.255    0.453   85.735  162.844
  394.250    4.600    0.260    0.455   85.445  162.873
  394.500    4.609    0.263    0.450   85.038  162.899
  394.750    4.627    0.264    0.442   85.541  163.132
  395.000    4.662    0.257    0.441   87.632  163.374
  395.250    4.654    0.250    0.451   90.209  163.398
  395.500    4.602    0.243    0.455   90.046  163.221
  395.750    4.577    0.241    0.450   88.723  163.047
  396.000    4.551    0.246    0.457   87.703  162.981
  396.250    4.509    0.249    0.469   89.610  163.106
  396.500    4.468    0.251    0.479   91.639  163.138
  396.750    4.443    0.249    0.486   94.159  162.860
  397.000    4.418    0.243    0.467   95.088  162.890
  397.250    4.402    0.243    0.452   94.558  163.124
  397.500    4.403    0.244    0.467   93.173  163.152
  397.750    4.403    0.240    0.484   92.581  163.285
  398.000    4.420    0.238    0.479   93.513  163.313
  398.250    4.421    0.240    0.463   90.178  163.546
  398.500    4.413    0.240    0.446   89.404  163.677
  398.750    4.422    0.238    0.434   90.092  163.506
  399.000    4.439    0.241    0.438   90.232  163.432
  399.250    4.473    0.245    0.438   89.216  163.465
  399.500    4.482    0.243    0.434   88.195  163.491
  399.750    4.465    0.237    0.430   85.653  163.520
  400.000    4.457    0.238    0.420   83.232  163.552
  400.250    4.433    0.240    0.409   83.859  163.680
  400.500    4.408    0.237    0.405   88.266  163.512
  400.750    4.376    0.233    0.421   93.160  163.334
  401.000    4.352    0.233    0.442   96.408  163.059
  401.250    4.352    0.237    0.457   91.976  163.089
  401.500    4.312    0.243    0.447   83.094  162.915
  401.750    4.137    0.260    0.430   76.591  162.745
  402.000    3.963    0.292    0.427   71.183  162.570
  402.250    3.746    0.318    0.419   64.617  162.293
  402.500    3.547    0.335    0.411   60.003  161.918
  402.750    3.436    0.322    0.399   57.520  161.337
