~VERSION INFORMATION
 VERS.                 2.0:   CWLS LOG ASCII STANDARD -VERSION 2.0
 WRAP.                  NO:   ONE LINE PER DEPTH STEP
~WELL INFORMATION BLOCK
#MNEM.UNIT           DATA                    DESCRIPTION OF MNEMONIC
#---------    -------------------            -------------------------------
# Generated from Intellog Unique Number	CS_71_72/WELL/812
WELL.         BVX ET AL NIXON                : Well_name    - WELL
LOC .         00/07-15-072-15W4/0            : Location     - LOCATION
UWI .         00/07-15-072-15W4/0            : Uwi          - UNIQUE WELL ID
ENTR.         SP                             : Entered      - ENTERED BY
SRVC.         SCHLUMBERGER                   : Scn          - SERVICE COMPANY
STRT.M        280                            : top_depth    - START DEPTH
STOP.M        466                            : bot_depth    - STOP DEPTH
STEP.M        0.25                           : increment    - STEP LENGTH
 NULL. -999.2500:NULL Value
~CURVE INFORMATION BLOCK
#MNEM UNIT       ERCB CURVE CODE    CURVE DESCRIPTION
#-----------   ------------------   ----------------------------------
DEPT.M        00 001 00 00         : DEPTH        - DEPTH
ILD .OHMM     00 120 00 00         : RESD         - DEEP RESISTIVITY (DIL)
DPHI.V/V      00 890 00 00         : PHID         - DENSITY POROSITY (LIMESTONE)
NPHI.V/V      00 330 00 00         : PHIN         - NEUTRON POROSITY (LIMESTONE)
GR  .API      00 310 00 00         : GR           - GAMMA RAY
~PARAMETER INFORMATION
#MNEM.UNIT           DATA             DESCRIPTION OF MNEMONIC
#---------         -----------     ------------------------------
GL  .M        603.39               : gl           - GROUND LEVEL ELEVATION
EREF.M        606.89               : kb           - ELEVATION OF DEPTH REFERENCE
DATM.M        603.39               : datum        - DATUM ELEVATION
TDD .M        471.95               : tdd          - TOTAL DEPTH DRILLER
RUN .         ONE                  : Run          - RUN NUMBER
ENG .         BILL                 : Engineer     - RECORDING ENGINEER
WIT .         JIM                  : Witness      - WITNESSED BY
MUD .         GEL                  : Mud_type     - MUD TYPE
MATR.         LIMESTONE            : Logunit      - NEUTRON MATRIX
TMAX.C        21                   : BHT          - MAXIMUM RECORDED TEMPERATURE
BHTD.M        471.95               : BHTDEP       - MAXIMUM RECORDED TEMPERATURE
MATR.         1                    : LOGUNIT      - NEUTRON MATRIX
RMT .C        25                   : MDTP         - TEMPERATURE OF MUD
NEUT.         1                    : NEUTRON      - NEUTRON TYPE
RESI.         0                    : RESIST       - RESISTIVITY TYPE
RMC .OHMM     0.25                 : RMC          - RESISTIVITY OF MUD CAKE
RMF .OHMM     0.25                 : RMF          - RESISTIVITY OF MUD FILTRATE
SUFT.C        15                   : SUFT         - SURFACE TEMPERATURE
~A  DEPTH     RESD     PHID     PHIN       GR
# ...
  323.500    4.248    0.231    0.419  101.385
  323.750    4.408    0.226    0.404   99.575
  324.000    4.490    0.236    0.395   97.163
  324.250    4.834    0.238    0.390   95.353
  324.500    5.016    0.243    0.386   97.760
  324.750    5.109    0.244    0.382  102.577
  325.000    5.301    0.236    0.386  104.382
  325.250    5.500    0.228    0.392   97.150
  325.500    5.602    0.230    0.380   92.931
  325.750    5.601    0.238    0.386   89.917
  326.000    5.600    0.243    0.390   87.504
  326.250    5.495    0.246    0.399   86.297
  326.500    5.494    0.248    0.409   85.693
  326.750    5.595    0.234    0.404   84.485
  327.000    5.595    0.222    0.398   83.881
  327.250    5.698    0.216    0.404   79.058
  327.500    5.804    0.207    0.404   80.261
  327.750    6.022    0.163    0.392   83.271
  328.000    6.021    0.130    0.382   83.871
  328.250    6.019    0.146    0.359   77.242
  328.500    5.799    0.182    0.364   78.444
  328.750    5.691    0.222    0.383   86.876
  329.000    5.482    0.207    0.397   88.680
  329.250    5.380    0.193    0.403   92.894
  329.500    5.182    0.186    0.416   94.700
  329.750    5.086    0.175    0.426   97.710
  330.000    5.085    0.178    0.427  100.117
  330.250    5.084    0.192    0.424  101.319
  330.500    4.989    0.207    0.422  100.111
  330.750    4.897    0.203    0.420   98.302
  331.000    4.896    0.210    0.429   93.481
  331.250    4.894    0.225    0.438   96.490
  331.500    4.985    0.243    0.418   95.283
  331.750    4.984    0.261    0.397   89.256
  332.000    5.076    0.248    0.397   84.434
  332.250    5.170    0.257    0.401   80.215
  332.500    5.266    0.247    0.404   76.598
  332.750    5.265    0.236    0.406   78.403
  333.000    5.362    0.230    0.400   84.424
  333.250    5.262    0.219    0.405   89.241
  333.500    5.261    0.224    0.421   91.649
  333.750    5.162    0.209    0.420   89.840
  334.000    5.067    0.189    0.412   86.825
  334.250    5.066    0.157    0.427   84.411
  334.500    4.880    0.139    0.439   83.807
  334.750    4.879    0.158    0.446   83.204
  335.000    4.878    0.183    0.421   88.020
  335.250    4.968    0.221    0.408   91.028
  335.500    5.060    0.213    0.400   92.232
  335.750    5.349    0.207    0.399   94.638
  336.000    5.654    0.221    0.410   95.841
  336.250    5.866    0.239    0.394   96.442
  336.500    5.975    0.260    0.406   97.041
  336.750    5.974    0.272    0.415   95.232
  337.000    5.973    0.209    0.395   92.819
  337.250    5.753    0.204    0.383   91.613
  337.500    5.752    0.227    0.389   89.200
  337.750    5.439    0.237    0.394   85.583
  338.000    5.240    0.253    0.397   83.774
  338.250    5.048    0.259    0.388   80.759
  338.500    4.862    0.272    0.382   75.335
  338.750    4.772    0.288    0.377   70.514
  339.000    4.597    0.305    0.386   62.680
  339.250    4.512    0.316    0.377   62.676
  339.500    4.510    0.304    0.376   63.879
  339.750    4.594    0.298    0.383   64.480
  340.000    4.767    0.293    0.389   65.683
  340.250    4.945    0.287    0.397   69.294
  340.500    5.037    0.278    0.409   73.508
  340.750    5.131    0.277    0.421   76.518
  341.000    5.226    0.281    0.426   78.926
  341.250    5.322    0.281    0.437   81.936
  341.500    5.223    0.310    0.448   80.126
  341.750    5.126    0.331    0.434   75.907
  342.000    5.031    0.362    0.416   69.278
  342.250    4.937    0.377    0.394   68.070
  342.500    4.668    0.288    0.387   69.875
  342.750    4.581    0.306    0.390   71.680
  343.000    4.496    0.310    0.396   74.087
  343.250    4.495    0.302    0.409   75.892
  343.500    4.494    0.311    0.415   74.082
  343.750    4.329    0.321    0.399   71.067
  344.000    4.577    0.325    0.402   69.860
  344.250    4.328    0.331    0.400   68.653
  344.500    4.326    0.327    0.404   67.446
  344.750    4.326    0.304    0.410   65.034
  345.000    4.658    0.270    0.399   66.839
  345.250    4.924    0.221    0.390   69.848
  345.500    5.109    0.200    0.384   68.039
  345.750    5.204    0.246    0.380   65.626
  346.000    5.202    0.277    0.386   65.624
  346.250    5.105    0.294    0.399   69.236
  346.500    5.010    0.292    0.409   71.041
  346.750    4.917    0.292    0.426   71.641
  347.000    4.916    0.293    0.426   72.241
  347.250    4.915    0.303    0.404   74.045
  347.500    4.914    0.312    0.408   74.646
  347.750    5.005    0.324    0.399   75.848
  348.000    5.290    0.313    0.387   74.641
  348.250    5.592    0.039    0.376   71.626
  348.500    5.803    0.011    0.278   68.612
  348.750    6.248    0.065    0.258   59.574
  349.000    6.484    0.173    0.305   57.764
  349.250    6.604    0.192    0.340   64.388
  349.500    5.906    0.206    0.356   73.422
  349.750    5.585    0.199    0.373   81.853
  350.000    5.280    0.217    0.384   86.067
  350.250    5.087    0.243    0.396   90.282
  350.500    4.993    0.275    0.405   87.869
  350.750    4.900    0.294    0.414   86.060
  351.000    4.899    0.259    0.410   86.058
  351.250    4.807    0.269    0.401   84.851
  351.500    4.806    0.257    0.395   81.836
  351.750    4.805    0.254    0.399   74.604
  352.000    4.804    0.272    0.390   69.180
  352.250    4.803    0.283    0.396   64.961
  352.500    4.713    0.281    0.407   63.754
  352.750    4.626    0.287    0.398   63.752
  353.000    4.540    0.268    0.387   66.159
  353.250    4.373    0.249    0.404   72.180
  353.500    4.213    0.237    0.413   76.395
  353.750    4.135    0.243    0.416   83.019
  354.000    3.983    0.262    0.444   87.233
  354.250    3.909    0.264    0.476   89.641
  354.500    3.836    0.246    0.496   86.626
  354.750    3.765    0.220    0.485   85.419
  355.000    3.834    0.208    0.461   89.632
  355.250    4.053    0.207    0.441   89.631
  355.500    4.128    0.219    0.436   85.411
  355.750    4.204    0.245    0.438   82.999
  356.000    4.203    0.264    0.420   79.382
  356.250    4.202    0.297    0.404   76.971
  356.500    4.124    0.311    0.397   72.149
  356.750    4.048    0.320    0.392   67.929
  357.000    4.047    0.321    0.380   66.120
  357.250    4.046    0.318    0.397   65.515
  357.500    4.198    0.324    0.396   66.115
  357.750    4.276    0.327    0.390   69.124
  358.000    4.436    0.315    0.387   69.725
  358.250    4.436    0.323    0.378   70.927
  358.500    4.434    0.327    0.402   70.323
  358.750    4.271    0.328    0.407   68.513
  359.000    4.192    0.332    0.410   68.510
  359.250    4.192    0.337    0.401   69.110
  359.500    4.113    0.328    0.384   69.709
  359.750    4.037    0.317    0.384   69.707
  360.000    4.036    0.296    0.384   70.307
  360.250    4.110    0.287    0.387   70.907
  360.500    4.187    0.274    0.394   71.508
  360.750    4.264    0.274    0.403   72.106
  361.000    4.343    0.283    0.408   72.707
  361.250    4.424    0.293    0.404   72.705
  361.500    4.341    0.283    0.410   73.305
  361.750    4.340    0.275    0.413   75.110
  362.000    4.260    0.259    0.415   78.722
  362.250    4.180    0.242    0.406   82.936
  362.500    4.026    0.241    0.419   86.548
  362.750    3.879    0.258    0.427   88.354
  363.000    3.737    0.265    0.440   91.965
  363.250    3.600    0.258    0.447   90.757
  363.500    3.533    0.251    0.426   89.550
  363.750    3.532    0.258    0.433   89.549
  364.000    3.598    0.271    0.444   90.751
  364.250    3.733    0.270    0.448   87.132
  364.500    3.945    0.235    0.447   85.926
  364.750    4.170    0.235    0.435   84.719
  365.000    4.328    0.241    0.424   84.115
  365.250    4.660    0.228    0.420   85.317
  365.500    4.926    0.188    0.411   85.314
  365.750    5.111    0.198    0.396   82.903
  366.000    5.206    0.215    0.400   82.900
  366.250    5.302    0.225    0.423   85.307
  366.500    5.400    0.222    0.430   90.725
  366.750    5.399    0.215    0.437   92.530
