~VERSION INFORMATION
 VERS.                 2.0:   CWLS LOG ASCII STANDARD -VERSION 2.0
 WRAP.                  NO:   ONE LINE PER DEPTH STEP
~WELL INFORMATION BLOCK
#MNEM.UNIT           DATA                    DESCRIPTION OF MNEMONIC
#---------    -------------------            -------------------------------
# Generated from Intellog Unique Number	CS_69_70/WELL/2586
WELL.         08-16-069-07W4                 : Well_name    - WELL
LOC .         00/08-16-069-07W4/0            : Location     - LOCATION
UWI .         00/08-16-069-07W4/0            : Uwi          - UNIQUE WELL ID
ENTR.         TIM                            : Entered      - ENTERED BY
SRVC.         SCHLUMBERGER                   : Scn          - SERVICE COMPANY
STRT.M        285                            : top_depth    - START DEPTH
STOP.M        510                            : bot_depth    - STOP DEPTH
STEP.M        0.25                           : increment    - STEP LENGTH
 NULL. -999.2500:NULL Value
~CURVE INFORMATION BLOCK
#MNEM UNIT       ERCB CURVE CODE    CURVE DESCRIPTION
#-----------   ------------------   ----------------------------------
DEPT.M        00 001 00 00         : DEPTH        - DEPTH
ILD .OHMM     00 120 00 00         : RESD         - DEEP RESISTIVITY (DIL)
DPHI.V/V      00 890 00 00         : PHID         - DENSITY POROSITY (SANDSTONE)
NPHI.V/V      00 330 00 00         : PHIN         - NEUTRON POROSITY (SANDSTONE)
CALI.MM       00 280 01 00         : CAL          - CALIPER
GR  .API      00 310 00 00         : GR           - GAMMA RAY
~PARAMETER INFORMATION
#MNEM.UNIT           DATA             DESCRIPTION OF MNEMONIC
#---------         -----------     ------------------------------
GL  .M        623                  : gl           - GROUND LEVEL ELEVATION
EREF.M        627.1                : kb           - ELEVATION OF DEPTH REFERENCE
DATM.M        627.1                : datum        - DATUM ELEVATION
TDD .M        514                  : tdd          - TOTAL DEPTH DRILLER
RUN .         ONE                  : Run          - RUN NUMBER
ENG .         BILL                 : Engineer     - RECORDING ENGINEER
WIT .         JIM                  : Witness      - WITNESSED BY
MUD .         GEL                  : Mud_type     - MUD TYPE
MATR.         SANDSTONE            : Logunit      - NEUTRON MATRIX
TMAX.C        24                   : BHT          - MAXIMUM RECORDED TEMPERATURE
BHTD.M        514                  : BHTDEP       - MAXIMUM RECORDED TEMPERATURE
RMT .C        8                    : MDTP         - TEMPERATURE OF MUD
MUDD.KG/M     1000                 : MWT          - MUD DENSITY
NEUT.         1                    : NEUTRON      - NEUTRON TYPE
RESI.         0                    : RESIST       - RESISTIVITY TYPE
RM  .OHMM     6.6                  : RM           - RESISTIVITY OF MUD
RMC .OHMM     2.9                  : RMC          - RESISTIVITY OF MUD CAKE
RMF .OHMM     6.7                  : RMF          - RESISTIVITY OF MUD FILTRATE
SUFT.C        4                    : SUFT         - SURFACE TEMPERATURE
~A  DEPTH     RESD     PHID     PHIN      CAL       GR
# ...
  358.000    5.511    0.286    0.423  158.586   69.829
  358.250    5.522    0.287    0.429  157.611   69.239
  358.500    5.430    0.288    0.463  157.646   71.083
  358.750    5.434    0.287    0.476  157.680   72.921
  359.000    5.342    0.286    0.459  157.706   74.153
  359.250    5.256    0.287    0.425  156.731   74.790
  359.500    5.261    0.288    0.421  156.775   75.406
  359.750    5.172    0.290    0.429  155.800   75.427
  360.000    5.177    0.292    0.442  155.834   75.448
  360.250    5.184    0.295    0.464  155.869   75.474
  360.500    5.099    0.295    0.454  155.904   77.312
  360.750    5.104    0.296    0.447  155.938   78.545
  361.000    5.112    0.297    0.447  155.973   76.142
  361.250    5.024    0.299    0.443  156.008   74.346
  361.500    5.036    0.299    0.447  156.051   73.761
  361.750    4.951    0.300    0.453  156.103   74.993
  362.000    4.954    0.300    0.464  156.120   78.048
  362.250    4.961    0.298    0.467  156.146   78.069
  362.500    4.877    0.298    0.468  156.189   78.090
  362.750    4.886    0.298    0.469  156.224   78.105
  363.000    4.892    0.303    0.473  156.259   78.742
  363.250    4.724    0.309    0.474  157.321   78.758
  363.500    4.727    0.315    0.474  157.338   78.173
  363.750    4.318    0.308    0.473  159.392   82.440
  364.000    3.470    0.287    0.470  164.475   85.495
  364.250    2.688    0.278    0.467  172.596   87.323
  364.500    2.643    0.288    0.460  178.680   90.378
  364.750    2.747    0.345    0.478  185.783   90.393
  365.000    2.851    0.392    0.516  189.865   86.779
  365.250    3.307    0.329    0.526  181.813   81.954
  365.500    3.906    0.273    0.475  172.769   79.551
  365.750    4.366    0.257    0.433  167.756   79.572
  366.000    5.065    0.246    0.443  163.777   82.021
  366.250    5.458    0.283    0.469  162.785   79.613
  366.500    5.671    0.340    0.481  161.819   74.787
  366.750    5.782    0.358    0.466  161.845   68.750
  367.000    5.899    0.354    0.446  161.871   66.969
  367.250    5.906    0.346    0.442  161.923   66.979
  367.500    5.912    0.343    0.446  161.940   68.818
  367.750    5.922    0.340    0.452  161.975   71.873
  368.000    6.040    0.337    0.451  162.018   71.888
  368.250    6.160    0.335    0.451  162.053   71.909
  368.500    6.166    0.331    0.453  162.096   72.536
  368.750    6.291    0.330    0.457  162.130   73.773
  369.000    6.299    0.332    0.459  162.165   74.395
  369.250    6.195    0.337    0.464  162.200   75.627
  369.500    6.090    0.342    0.465  162.234   76.264
  369.750    6.099    0.342    0.468  162.269   76.285
  370.000    5.996    0.340    0.466  162.304   76.912
  370.250    6.004    0.332    0.459  163.357   77.538
  370.500    5.902    0.317    0.458  163.383   77.559
  370.750    5.908    0.312    0.462  163.417   76.969
  371.000    5.916    0.304    0.460  163.452   77.596
  371.250    5.924    0.280    0.441  164.496   78.833
  371.500    5.934    0.272    0.442  164.531   80.671
  371.750    5.942    0.285    0.453  164.566   83.110
  372.000    5.952    0.290    0.460  165.610   84.353
  372.250    5.960    0.291    0.458  165.645   81.951
  372.500    5.966    0.285    0.454  165.679   78.942
  372.750    5.974    0.280    0.452  165.714   75.929
  373.000    5.984    0.280    0.452  165.749   76.555
  373.250    5.883    0.275    0.451  166.793   79.000
  373.500    5.889    0.272    0.450  166.828   81.449
  373.750    5.793    0.274    0.441  167.872   82.076
  374.000    5.797    0.275    0.439  167.916   80.885
  374.250    5.703    0.276    0.443  167.959   79.694
  374.500    5.711    0.277    0.445  167.985   79.720
  374.750    5.932    0.275    0.436  168.028   79.735
  375.000    6.392    0.269    0.405  168.071   79.150
  375.250    6.888    0.154    0.350  168.089   74.325
  375.500    7.157    0.046    0.277  168.132   67.681
  375.750    7.295    0.052    0.229  168.175   61.043
  376.000    7.171    0.098    0.241  168.193   65.299
  376.250    6.925    0.115    0.368  168.236   72.590
  376.500    6.810    0.257    0.389  168.271   75.034
  376.750    6.698    0.300    0.399  168.297   77.484
  377.000    6.702    0.318    0.412  168.349   76.904
  377.250    6.591    0.285    0.412  169.384   76.914
  377.500    6.480    0.258    0.417  169.419   77.541
  377.750    6.491    0.237    0.424  170.472   79.389
  378.000    6.497    0.226    0.432  170.507   80.021
  378.250    6.624    0.232    0.437  171.542   80.032
  378.500    6.756    0.239    0.436  171.577   78.841
  378.750    6.765    0.245    0.433  172.648   78.862
  379.000    6.899    0.239    0.432  172.665   80.105
  379.250    7.169    0.235    0.433  172.691   80.726
  379.500    7.314    0.235    0.428  172.725   81.347
  379.750    7.457    0.230    0.409  169.748   82.580
  380.000    7.605    0.128    0.372  167.772   81.389
  380.250    7.759    0.097    0.330  166.797   74.746
  380.500    7.769    0.084    0.283  165.805   66.891
  380.750    7.635    0.105    0.256  164.838   65.700
  381.000    7.107    0.128    0.250  164.873   72.996
  381.250    6.860    0.156    0.292  164.908   77.863
  381.500    6.386    0.210    0.311  164.942   83.336
  381.750    6.162    0.231    0.363  164.977   87.603
  382.000    5.948    0.235    0.435  165.003   90.047
  382.250    5.743    0.240    0.450  165.038   92.491
  382.500    5.644    0.246    0.457  165.072   93.113
  382.750    5.549    0.252    0.468  165.124   95.567
  383.000    5.456    0.257    0.471  166.169   98.011
  383.250    5.364    0.256    0.459  167.204   97.426
  383.500    5.273    0.257    0.454  168.249   95.630
  383.750    5.184    0.259    0.457  170.320   93.227
  384.000    5.098    0.266    0.472  172.357   92.642
  384.250    4.923    0.275    0.512  176.430   92.658
  384.500    4.837    0.281    0.510  183.550   92.678
  384.750    4.584    0.281    0.495  185.587   90.281
  385.000    4.188    0.281    0.496  189.669   89.090
  385.250    3.970    0.281    0.513  191.723   90.929
  385.500    3.902    0.278    0.504  190.748   92.762
  385.750    3.768    0.273    0.476  187.754   96.423
  386.000    3.638    0.269    0.482  183.758   98.261
  386.250    3.577    0.265    0.496  181.782   99.493
  386.500    3.451    0.260    0.512  180.790  101.332
  386.750    3.393    0.261    0.533  178.814  102.564
  387.000    3.159    0.268    0.507  177.830  101.373
  387.250    2.993    0.276    0.489  175.863   97.759
  387.500    2.734    0.285    0.465  175.889   89.904
  387.750    2.498    0.295    0.415  175.915   89.319
  388.000    2.594    0.301    0.467  177.977   89.956
  388.250    2.900    0.307    0.498  182.060   90.578
  388.500    3.242    0.309    0.531  183.104   92.421
  388.750    3.692    0.307    0.554  184.140   93.048
  389.000    4.130    0.298    0.531  183.165   93.669
  389.250    4.287    0.289    0.510  180.179   93.084
  389.500    4.453    0.282    0.493  176.175   91.893
  389.750    4.459    0.276    0.485  174.181   90.702
  390.000    4.468    0.270    0.481  170.194   88.310
  390.250    4.472    0.258    0.476  168.210   87.715
  390.500    4.395    0.251    0.481  167.226   89.553
  390.750    4.323    0.249    0.485  166.259   87.150
  391.000    4.331    0.244    0.480  165.267   81.719
  391.250    4.336    0.253    0.480  164.301   77.499
  391.500    4.343    0.270    0.477  163.334   73.885
  391.750    4.346    0.292    0.474  163.378   72.694
  392.000    4.434    0.310    0.466  163.395   70.897
  392.250    4.439    0.330    0.457  163.438   73.352
  392.500    4.526    0.342    0.456  163.464   74.589
  392.750    4.532    0.345    0.459  163.499   73.994
  393.000    4.622    0.346    0.464  163.542   72.197
  393.250    4.630    0.347    0.469  163.568   69.194
  393.500    4.724    0.346    0.465  162.593   67.998
  393.750    4.728    0.343    0.460  162.636   66.201
  394.000    4.736    0.342    0.460  162.680   66.222
  394.250    4.744    0.338    0.463  162.714   66.854
