~VERSION INFORMATION
 VERS.                 2.0:   CWLS LOG ASCII STANDARD -VERSION 2.0
 WRAP.                  NO:   ONE LINE PER DEPTH STEP
~WELL INFORMATION BLOCK
#MNEM.UNIT           DATA                    DESCRIPTION OF MNEMONIC
#---------    -------------------            -------------------------------
# Generated from Intellog Unique Number	CW_82_90/WELL/528
WELL.         06-19-083-22W4                 : Well_name    - WELL
LOC .         00/06-19-083-22W4/0            : Location     - LOCATION
UWI .         00/06-19-083-22W4/0            : Uwi          - UNIQUE WELL ID
ENTR.         JAYE                           : Entered      - ENTERED BY
SRVC.         SCHLUMBERGER                   : Scn          - SERVICE COMPANY
DATE.         11 FEB 86                      : Date         - LOG DATE
STRT.M        220                            : top_depth    - START DEPTH
STOP.M        435                            : bot_depth    - STOP DEPTH
STEP.M        0.25                           : increment    - STEP LENGTH
 NULL. -999.2500:NULL Value
~CURVE INFORMATION BLOCK
#MNEM UNIT       ERCB CURVE CODE    CURVE DESCRIPTION
#-----------   ------------------   ----------------------------------
DEPT.M        00 001 00 00         : DEPTH        - DEPTH
CALI.MM       00 280 01 00         : CAL          - CALIPER
GR  .API      00 310 00 00         : GR           - GAMMA RAY
NPHI.V/V      00 330 00 00         : PHIN         - NEUTRON POROSITY (SANDSTONE)
DPHI.V/V      00 890 00 00         : PHID         - DENSITY POROSITY (SANDSTONE)
ILD .OHMM     00 120 00 00         : RESD         - DEEP RESISTIVITY (DIL)
~PARAMETER INFORMATION
#MNEM.UNIT           DATA             DESCRIPTION OF MNEMONIC
#---------         -----------     ------------------------------
GL  .M        606.8                : gl           - GROUND LEVEL ELEVATION
EREF.M        610.4                : kb           - ELEVATION OF DEPTH REFERENCE
DATM.M        606.8                : datum        - DATUM ELEVATION
TDD .M        435                  : tdd          - TOTAL DEPTH DRILLER
RUN .         ONE                  : Run          - RUN NUMBER
ENG .         LAROSE               : Engineer     - RECORDING ENGINEER
WIT .         BLOTT                : Witness      - WITNESSED BY
BASE.         EDMONTON             : Branch       - HOME BASE OF LOGGING UNIT
MUD .         GEL CHEM             : Mud_type     - MUD TYPE
MATR.         SANDSTONE            : Logunit      - NEUTRON MATRIX
TMAX.C        46                   : BHT          - MAXIMUM RECORDED TEMPERATURE
BHTD.M        435                  : BHTDEP       - MAXIMUM RECORDED TEMPERATURE
RMT .C        18                   : MDTP         - TEMPERATURE OF MUD
MUDD.KG/M     1100                 : MWT          - MUD DENSITY
NEUT.         1                    : NEUTRON      - NEUTRON TYPE
RESI.         0                    : RESIST       - RESISTIVITY TYPE
RM  .OHMM     6.69                 : RM           - RESISTIVITY OF MUD
RMC .OHMM     0                    : RMC          - RESISTIVITY OF MUD CAKE
RMF .OHMM     8.7                  : RMF          - RESISTIVITY OF MUD FILTRATE
SUFT.C        0                    : SUFT         - SURFACE TEMPERATURE
~A  DEPTH      CAL       GR     PHIN     PHID     RESD
# ...
  402.500  254.847   92.471    0.467    0.147   11.106
  402.750  257.019   93.835    0.434    0.118   10.546
  403.000  255.960   93.951    0.427    0.121   10.546
  403.250  253.129   94.563    0.435    0.174   10.546
  403.500  252.282   95.990    0.452    0.225    9.394
  403.750  251.433   96.797    0.458    0.223    9.292
  404.000  250.685   99.224    0.458    0.202    8.990
  404.250  250.774  102.401    0.441    0.187    9.033
  404.500  250.648  106.829    0.423    0.178    9.369
  404.750  250.743  102.570    0.404    0.169   10.367
  405.000  250.934   78.184    0.400    0.146   10.893
  405.250  250.603   81.237    0.400    0.155   11.915
  405.500  249.755   88.915    0.430    0.164   12.546
  405.750  249.421   89.401    0.437    0.150   13.753
  406.000  249.305   91.082    0.414    0.103   13.834
  406.250  249.392   94.323    0.347    0.041   12.531
  406.500  249.475   96.061    0.347    0.019   11.306
  406.750  249.246   93.491    0.387    0.149    9.185
  407.000  249.238   93.354    0.361    0.158    8.748
  407.250  249.431   99.784    0.378    0.163    7.716
  407.500  249.728  107.335    0.425    0.169    7.082
  407.750  250.334  107.890    0.427    0.173    7.346
  408.000  250.839   97.379    0.423    0.165    8.296
  408.250  251.445   79.306    0.424    0.159    9.072
  408.500  251.745   70.546    0.451    0.152   11.216
  408.750  252.037   72.973    0.460    0.154   12.641
  409.000  252.129   79.778    0.455    0.153   13.388
  409.250  252.111   86.517    0.442    0.143   11.966
  409.500  252.092   93.758    0.405    0.126    9.286
  409.750  252.078   87.434    0.356    0.116   10.155
  410.000  252.062   81.862    0.356    0.116   11.445
  410.250  251.317   63.040    0.365    0.137   13.859
  410.500  249.842   64.154    0.383    0.163   16.098
  410.750  247.638   66.895    0.445    0.191   18.046
  411.000  246.789   68.135    0.426    0.217   19.958
  411.250  245.833   68.188    0.406    0.230   21.992
  411.500  245.193   64.804    0.397    0.250   24.188
  411.750  244.447   56.856    0.408    0.253   26.404
  412.000  243.803   51.283    0.423    0.248   27.750
  412.250  243.577   50.585    0.412    0.244   28.793
  412.500  243.667   51.824    0.414    0.251   28.386
  412.750  243.652   57.190    0.425    0.285   27.361
  413.000  244.155   64.305    0.438    0.285   25.392
  413.250  244.973   74.297    0.448    0.283   23.043
  413.500  246.103   75.850    0.444    0.290   22.084
  413.750  247.746   73.839    0.438    0.283   22.953
  414.000  248.464   73.141    0.425    0.268   24.310
  414.250  249.900   72.943    0.411    0.250   26.339
  414.500  250.098   71.372    0.399    0.245   28.313
  414.750  250.809   59.987    0.416    0.250   31.029
  415.000  251.418   58.789    0.429    0.256   31.701
  415.250  251.713   61.090    0.439    0.255   31.973
  415.500  252.012   62.957    0.420    0.255   22.918
  415.750  252.101   67.323    0.399    0.279   15.732
  416.000  252.813   70.811    0.383    0.279   13.491
  416.250  253.836   71.740    0.365    0.260   12.036
  416.500  254.549   70.293    0.351    0.220   11.514
  416.750  255.056   66.095    0.369    0.194   11.202
  417.000  255.351   68.208    0.362    0.190   10.840
  417.250  255.644   71.138    0.385    0.193   10.706
  417.500  256.048   74.191    0.383    0.205   10.796
  417.750  256.030   52.119    0.364    0.218   11.370
  418.000  255.910   47.045    0.356    0.226   12.767
  418.250  255.268   52.472    0.379    0.217   14.803
  418.500  254.938   62.776    0.413    0.144   14.566
  418.750  254.090   75.454    0.372    0.107   13.267
  419.000  253.761   87.007    0.311    0.078   10.008
  419.250  253.641   87.059    0.285    0.063    8.265
  419.500  252.894   83.925    0.382    0.105    7.541
  419.750  252.878   78.540    0.403    0.162    6.961
  420.000  252.756   73.093    0.421    0.168    6.498
  420.250  252.113   73.582    0.438    0.168    6.309
  420.500  251.788   81.697    0.456    0.174    6.140
  420.750  251.665   86.500    0.477    0.189    5.895
  421.000  251.650   89.365    0.499    0.276    5.650
  421.250  251.528   91.979    0.495    0.301    5.324
  421.500  251.410   94.283    0.472    0.298    5.083
  421.750  250.974   98.960    0.465    0.294    5.049
  422.000  250.543   99.389    0.476    0.273    5.368
  422.250  250.317   93.689    0.500    0.223    5.806
  422.500  250.092   95.429    0.523    0.179    6.125
  422.750  249.973   98.546    0.508    0.164    6.499
  423.000  249.956   97.597    0.498    0.165    6.743
  423.250  250.252   92.276    0.478    0.183    7.128
  423.500  250.340   82.829    0.456    0.216    7.591
  423.750  250.428   76.881    0.436    0.204    8.444
  424.000  250.516   72.620    0.430    0.175    9.790
  424.250  250.499   71.236    0.427    0.147   11.331
  424.500  250.690   72.040    0.416    0.143   12.485
  424.750  251.506   75.904    0.393    0.207   13.576
  425.000  252.533   77.892    0.375    0.220   14.626
  425.250  253.558   76.694    0.379    0.223   15.638
  425.500  254.166   74.374    0.406    0.231   16.405
  425.750  254.775   69.676    0.408    0.239   17.345
  426.000  254.030   66.918    0.401    0.242   17.856
  426.250  251.095   63.094    0.406    0.243   18.074
  426.500  249.204   64.209    0.398    0.241   18.021
  426.750  247.626   72.135    0.388    0.238   16.918
  427.000  246.255   77.065    0.367    0.230   14.454
  427.250  244.260   82.678    0.372    0.236   12.511
  427.500  244.346   85.796    0.400    0.281   10.312
  427.750  244.535   90.411    0.416    0.288    8.694
  428.000  244.523   97.464    0.412    0.262    8.130
  428.250  246.795   98.390    0.415    0.226    8.435
  428.500  248.863   94.631    0.425    0.114    9.018
  428.750  249.577   77.309    0.442    0.089    9.533
  429.000  248.206   70.112    0.429    0.083    9.852
  429.250  246.625   70.474    0.419    0.076   10.049
  429.500  246.299   71.901    0.423    0.085   10.019
  429.750  246.282   75.644    0.423    0.150   10.085
  430.000  246.681   81.695    0.418    0.190   10.383
  430.250  247.395   84.561    0.386    0.193   10.065
  430.500  248.521   87.677    0.405    0.176    9.184
  430.750  249.550   92.354    0.439    0.157    8.088
  431.000  250.260   95.658    0.423    0.180    7.958
  431.250  250.557   96.835    0.387    0.229    8.412
  431.500  251.062   95.762    0.374    0.209    9.395
  431.750  250.942   91.439    0.365    0.167   10.060
  432.000  250.821   89.680    0.371    0.148   12.626
  432.250  250.180   90.232    0.370    0.084   14.126
  432.500  248.389   90.660    0.387    0.059   14.762
  432.750  246.084   89.024    0.408    0.044   15.088
  433.000  242.421   85.516    0.434    0.043   15.013
  433.250  240.113   77.568    0.453    0.046   14.553
  433.500  238.118   71.684    0.444    0.058   13.610
  433.750  235.810   65.798    0.441    0.066   12.491
  434.000  231.523   67.477    0.438    0.186   11.725
  434.250  225.673   71.090    0.413    0.169   11.365
  434.500  218.573   75.707    0.409    0.147   11.207
  434.750  217.408   72.820    0.404    0.098   11.051
  435.000  216.770   69.684    0.390    0.093   11.015
