~VERSION INFORMATION
 VERS.                 2.0:   CWLS LOG ASCII STANDARD -VERSION 2.0
 WRAP.                  NO:   ONE LINE PER DEPTH STEP
~WELL INFORMATION BLOCK
#MNEM.UNIT           DATA                    DESCRIPTION OF MNEMONIC
#---------    -------------------            -------------------------------
# Generated from Intellog Unique Number	CS_67_68/WELL/2168
WELL.         06-13-067-08W4                 : Well_name    - WELL
LOC .         00/06-13-067-08W4/0            : Location     - LOCATION
UWI .         00/06-13-067-08W4/0            : Uwi          - UNIQUE WELL ID
ENTR.         SP                             : Entered      - ENTERED BY
SRVC.         SCHLUMBERGER                   : Scn          - SERVICE COMPANY
STRT.M        335                            : top_depth    - START DEPTH
STOP.M        566                            : bot_depth    - STOP DEPTH
STEP.M        0.25                           : increment    - STEP LENGTH
 NULL. -999.2500:NULL Value
~CURVE INFORMATION BLOCK
#MNEM UNIT       ERCB CURVE CODE    CURVE DESCRIPTION
#-----------   ------------------   ----------------------------------
DEPT.M        00 001 00 00         : DEPTH        - DEPTH
ILD .OHMM     00 120 00 00         : RESD         - DEEP RESISTIVITY (DIL)
DPHI.V/V      00 890 00 00         : PHID         - DENSITY POROSITY (LIMESTONE)
NPHI.V/V      00 330 00 00         : PHIN         - NEUTRON POROSITY (LIMESTONE)
GR  .API      00 310 00 00         : GR           - GAMMA RAY
CALI.MM       00 280 01 00         : CAL          - CALIPER
~PARAMETER INFORMATION
#MNEM.UNIT           DATA             DESCRIPTION OF MNEMONIC
#---------         -----------     ------------------------------
GL  .M        646.93               : gl           - GROUND LEVEL ELEVATION
EREF.M        650.73               : kb           - ELEVATION OF DEPTH REFERENCE
DATM.M        650.73               : datum        - DATUM ELEVATION
TDD .M        570                  : tdd          - TOTAL DEPTH DRILLER
RUN .         ONE                  : Run          - RUN NUMBER
ENG .         BILL                 : Engineer     - RECORDING ENGINEER
WIT .         JIM                  : Witness      - WITNESSED BY
MUD .         GEL                  : Mud_type     - MUD TYPE
MATR.         LIMESTONE            : Logunit      - NEUTRON MATRIX
TMAX.C        21                   : BHT          - MAXIMUM RECORDED TEMPERATURE
BHTD.M        570.5                : BHTDEP       - MAXIMUM RECORDED TEMPERATURE
MATR.         1                    : LOGUNIT      - NEUTRON MATRIX
RMT .C        25                   : MDTP         - TEMPERATURE OF MUD
NEUT.         1                    : NEUTRON      - NEUTRON TYPE
RESI.         0                    : RESIST       - RESISTIVITY TYPE
RMC .OHMM     0.25                 : RMC          - RESISTIVITY OF MUD CAKE
RMF .OHMM     0.25                 : RMF          - RESISTIVITY OF MUD FILTRATE
SUFT.C        15                   : SUFT         - SURFACE TEMPERATURE
~A  DEPTH     RESD     PHID     PHIN       GR      CAL
# ...
  371.500    7.761    0.048    0.245   59.570  156.549
  371.750    7.479    0.093    0.210   65.976  156.449
  372.000    7.018    0.139    0.356   74.167  156.145
  372.250    6.475    0.183    0.390   82.728  155.840
  372.500    5.896    0.212    0.428   87.225  155.535
  372.750    5.596    0.245    0.461   87.042  155.332
  373.000    5.485    0.284    0.458   85.751  155.233
  373.250    5.458    0.269    0.444   85.506  154.929
  373.500    5.523    0.260    0.453   87.110  154.726
  373.750    5.528    0.260    0.459   90.067  154.422
  374.000    5.521    0.256    0.474   92.470  154.425
  374.250    5.503    0.270    0.487   95.797  154.735
  374.500    5.508    0.269    0.466   97.954  155.046
  374.750    5.553    0.265    0.461   97.895  155.563
  375.000    5.674    0.268    0.471   96.172  155.874
  375.250    5.742    0.268    0.476   94.142  156.595
  375.500    5.735    0.256    0.457   92.420  157.317
  375.750    5.685    0.251    0.444   94.207  160.194
  376.000    5.572    0.244    0.454   96.672  164.712
  376.250    5.410    0.240    0.467   98.522  168.923
  376.500    5.213    0.237    0.474  100.124  175.392
  376.750    4.985    0.238    0.494  100.311  179.807
  377.000    4.840    0.256    0.508  100.374  188.534
  377.250    4.964    0.300    0.521  103.763  197.568
  377.500    5.091    0.261    0.477  106.166  187.617
  377.750    5.162    0.251    0.459  101.488  172.944
  378.000    5.234    0.251    0.467   94.224  162.479
  378.250    5.308    0.261    0.478   86.468  158.685
  378.500    5.352    0.283    0.465   82.528  157.149
  378.750    5.376    0.292    0.445   79.944  156.536
  379.000    5.379    0.291    0.434   79.207  156.026
  379.250    5.455    0.290    0.429   77.854  155.208
  379.500    5.500    0.295    0.429   75.762  154.698
  379.750    5.483    0.309    0.436   74.163  154.804
  380.000    5.446    0.305    0.444   76.813  155.012
  380.250    5.490    0.290    0.419   80.386  154.399
  380.500    5.782    0.279    0.415   83.097  154.095
  380.750    6.088    0.276    0.430   85.193  154.611
  381.000    6.472    0.281    0.441   85.872  155.948
  381.250    6.879    0.280    0.449   85.197  157.388
  381.500    7.411    0.254    0.457   82.797  158.418
  381.750    7.967    0.112    0.356   77.257  159.755
  382.000    8.929    0.089    0.265   69.623  161.297
  382.250    9.297    0.102    0.272   81.263  162.326
  382.500    8.121    0.187    0.352   91.117  162.945
  382.750    7.492    0.212    0.401   97.646  163.462
  383.000    6.809    0.226    0.424   95.308  165.004
  383.250    6.130    0.212    0.443   95.926  166.854
  383.500    5.873    0.204    0.458   95.866  168.910
  383.750    5.618    0.222    0.486   91.619  166.450
  384.000    5.547    0.263    0.483   84.171  162.451
  384.250    5.520    0.288    0.490   79.677  159.272
  384.500    5.503    0.317    0.507   74.075  156.607
  384.750    5.444    0.324    0.494   70.075  154.866
  385.000    5.407    0.297    0.451   74.325  154.459
  385.250    5.350    0.286    0.427   72.049  154.153
  385.500    5.333    0.290    0.423   65.647  154.156
  385.750    5.178    0.304    0.418   60.107  154.365
  386.000    4.980    0.322    0.421   57.092  154.471
  386.250    4.772    0.342    0.426   53.522  154.576
  386.500    4.624    0.343    0.417   54.016  154.477
  386.750    4.593    0.337    0.404   56.420  154.685
  387.000    4.518    0.334    0.413   57.838  154.688
  387.250    4.470    0.331    0.421   58.825  154.691
  387.500    4.542    0.326    0.414   59.566  154.900
  387.750    4.605    0.322    0.407   60.799  155.108
  388.000    4.688    0.319    0.402   60.000  155.316
  388.250    4.735    0.319    0.404   58.401  155.422
  388.500    4.721    0.321    0.408   60.127  155.322
  388.750    4.697    0.321    0.417   60.191  155.326
  389.000    4.656    0.322    0.409   60.192  155.431
  389.250    4.572    0.327    0.404   63.951  155.332
  389.500    4.524    0.331    0.420   67.462  155.335
  389.750    4.518    0.337    0.430   70.605  155.646
  390.000    4.599    0.331    0.441   72.700  156.367
  390.250    4.717    0.326    0.423   66.236  156.576
  390.500    4.819    0.324    0.407   60.204  156.373
  390.750    4.905    0.320    0.393   62.114  155.863
  391.000    5.002    0.316    0.401   67.289  155.353
  391.250    5.110    0.303    0.407   71.539  155.049
  391.500    5.201    0.290    0.397   74.435  155.154
  391.750    5.294    0.287    0.407   77.270  154.850
  392.000    5.378    0.296    0.420   80.042  154.647
  392.250    5.423    0.303    0.429   81.584  154.240
  392.500    5.479    0.306    0.431   81.770  154.243
  392.750    5.502    0.295    0.427   84.235  154.247
  393.000    5.528    0.286    0.432   86.084  154.147
  393.250    5.541    0.292    0.426   83.993  154.561
  393.500    5.587    0.295    0.417   86.519  154.769
  393.750    5.633    0.287    0.411   89.477  154.977
  394.000    5.659    0.286    0.423   92.865  155.494
  394.250    5.738    0.291    0.432   93.298  155.702
  394.500    5.896    0.282    0.437   95.147  155.705
  394.750    6.069    0.267    0.428   97.797  156.324
  395.000    6.213    0.258    0.424   99.153  157.456
  395.250    6.348    0.259    0.414   97.247  158.280
  395.500    6.436    0.258    0.407   97.864  158.693
  395.750    6.477    0.250    0.406  100.945  159.825
  396.000    6.494    0.230    0.409  105.134  162.086
  396.250    6.535    0.214    0.429  107.968  165.271
  396.500    6.652    0.209    0.442  110.248  168.968
  396.750    6.796    0.230    0.449  106.433  187.855
  397.000    6.840    0.257    0.451  102.001  182.932
  397.250    6.755    0.261    0.437  100.217  175.546
  397.500    6.621    0.281    0.450   97.140  169.186
  397.750    6.501    0.297    0.458   91.477  163.545
  398.000    6.457    0.285    0.421   88.831  158.006
  398.250    6.412    0.265    0.384   89.387  153.391
  398.500    6.296    0.255    0.389   92.098  151.854
  398.750    6.148    0.248    0.426   90.622  153.192
  399.000    6.014    0.267    0.472   81.388  152.887
  399.250    5.962    0.279    0.437   75.232  153.198
  399.500    5.877    0.285    0.413   71.477  153.817
  399.750    5.792    0.288    0.406   70.371  154.436
  400.000    5.699    0.224    0.391   75.792  154.541
  400.250    5.450    0.192    0.404   72.530  154.545
  400.500    5.096    0.263    0.422   62.002  154.137
  400.750    4.855    0.300    0.429   56.524  153.935
  401.000    4.678    0.319    0.385   56.772  153.835
  401.250    4.593    0.293    0.368   74.261  153.838
  401.500    4.720    0.256    0.364   83.808  153.636
  401.750    4.822    0.250    0.370   89.536  153.845
  402.000    4.927    0.250    0.385   88.861  153.950
  402.250    5.005    0.256    0.402   77.163  154.159
  402.500    5.018    0.277    0.414   67.990  154.162
  402.750    4.984    0.305    0.400   63.250  154.267
  403.000    5.035    0.311    0.390   74.151  154.271
  403.250    5.067    0.282    0.392   80.680  154.068
  403.500    5.070    0.255    0.398   86.224  153.866
  403.750    5.007    0.243    0.406   85.980  153.767
  404.000    4.880    0.263    0.401   76.807  153.975
  404.250    4.783    0.281    0.387   69.543  153.978
  404.500    4.750    0.291    0.372   70.406  153.981
  404.750    4.763    0.299    0.357   75.950  154.293
  405.000    4.829    0.309    0.369   74.105  154.706
  405.250    4.971    0.320    0.373   68.380  155.017
  405.500    5.079    0.305    0.371   66.473  155.226
  405.750    5.140    0.302    0.380   67.583  155.537
  406.000    5.134    0.308    0.388   68.878  155.642
  406.250    5.118    0.313    0.392   72.267  155.337
  406.500    5.121    0.305    0.396   74.054  155.546
  406.750    5.233    0.286    0.407   74.610  155.959
  407.000    5.428    0.273    0.404   76.829  156.578
  407.250    5.640    0.259    0.384   79.540  156.889
  407.500    5.907    0.249    0.361   82.313  157.200
  407.750    6.023    0.245    0.372   84.285  157.408
