~VERSION INFORMATION
 VERS.                 2.0:   CWLS LOG ASCII STANDARD -VERSION 2.0
 WRAP.                  NO:   ONE LINE PER DEPTH STEP
~WELL INFORMATION BLOCK
#MNEM.UNIT           DATA                    DESCRIPTION OF MNEMONIC
#---------    -------------------            -------------------------------
# Generated from Intellog Unique Number	CX_WELLS/WELL/1072
WELL.         07-22-088-18W4                 : Well_name    - WELL
LOC .         00/07-22-088-18W4/0            : Location     - LOCATION
UWI .         00/07-22-088-18W400            : Uwi          - UNIQUE WELL ID
ENTR.         DW                             : Entered      - ENTERED BY
SRVC.         SCHLUMBERGER                   : Scn          - SERVICE COMPANY
STRT.M        100                            : top_depth    - START DEPTH
STOP.M        205                            : bot_depth    - STOP DEPTH
STEP.M        0.25                           : increment    - STEP LENGTH
 NULL. -999.2500:NULL Value
~CURVE INFORMATION BLOCK
#MNEM UNIT       ERCB CURVE CODE    CURVE DESCRIPTION
#-----------   ------------------   ----------------------------------
DEPT.M        00 001 00 00         : DEPTH        - DEPTH
GR  .API      00 310 00 00         : GR           - GAMMA RAY
NPHI.V/V      00 330 00 00         : PHIN         - NEUTRON POROSITY (SANDSTONE)
DPHI.V/V      00 890 00 00         : PHID         - DENSITY POROSITY (SANDSTONE)
ILD .OHMM     00 120 00 00         : RESD         - DEEP RESISTIVITY (DIL)
~PARAMETER INFORMATION
#MNEM.UNIT           DATA             DESCRIPTION OF MNEMONIC
#---------         -----------     ------------------------------
GL  .M        499.66               : gl           - GROUND LEVEL ELEVATION
EREF.M        502.71               : kb           - ELEVATION OF DEPTH REFERENCE
DATM.M        502.71               : datum        - DATUM ELEVATION
TDD .M        211                  : tdd          - TOTAL DEPTH DRILLER
RUN .         ONE                  : Run          - RUN NUMBER
ENG .         BILL                 : Engineer     - RECORDING ENGINEER
WIT .         JIM                  : Witness      - WITNESSED BY
MUD .         GEL                  : Mud_type     - MUD TYPE
MATR.         SANDSTONE            : Logunit      - NEUTRON MATRIX
TMAX.C        28.8                 : BHT          - MAXIMUM RECORDED TEMPERATURE
BHTD.M        211                  : BHTDEP       - MAXIMUM RECORDED TEMPERATURE
MATR.         1                    : LOGUNIT      - NEUTRON MATRIX
RMT .C        25                   : MDTP         - TEMPERATURE OF MUD
NEUT.         1                    : NEUTRON      - NEUTRON TYPE
RESI.         0                    : RESIST       - RESISTIVITY TYPE
RMC .OHMM     0.25                 : RMC          - RESISTIVITY OF MUD CAKE
RMF .OHMM     0.25                 : RMF          - RESISTIVITY OF MUD FILTRATE
SUFT.C        15                   : SUFT         - SURFACE TEMPERATURE
~A  DEPTH       GR     PHIN     PHID     RESD
# ...
  143.500   69.826    0.425    0.187   13.732
  143.750   70.382    0.423    0.188   13.755
  144.000   72.672    0.426    0.210   13.793
  144.250   73.815    0.431    0.219   13.832
  144.500   76.692    0.437    0.230   13.847
  144.750   80.150    0.446    0.239   13.878
  145.000   84.183    0.443    0.241   13.909
  145.250   83.583    0.438    0.244   13.208
  145.500   81.236    0.438    0.245   12.753
  145.750   78.301    0.439    0.244   12.314
  146.000   78.270    0.441    0.240   11.687
  146.250   78.838    0.446    0.238   11.500
  146.500   79.961    0.447    0.233   11.739
  146.750   81.103    0.452    0.226   11.765
  147.000   81.658    0.446    0.204   11.584
  147.250   82.781    0.438    0.194   11.392
  147.500   83.349    0.429    0.186   11.012
  147.750   83.318    0.429    0.177   10.842
  148.000   83.293    0.435    0.181   10.662
  148.250   81.526    0.443    0.185   10.492
  148.500   78.597    0.453    0.194   10.318
  148.750   75.089    0.453    0.213   10.159
  149.000   73.322    0.443    0.213   10.758
  149.250   73.290    0.427    0.186   11.824
  149.500   73.846    0.416    0.150   12.753
  149.750   76.142    0.422    0.101   14.002
  150.000   79.607    0.443    0.130   11.897
  150.250   85.387    0.446    0.169    8.265
  150.500   91.748    0.469    0.225    7.689
  150.750   98.696    0.479    0.252    6.297
  151.000  103.315    0.498    0.246    4.536
  151.250   98.046    0.521    0.234    4.716
  151.500   95.711    0.510    0.221    5.894
  151.750   92.203    0.489    0.217    6.841
  152.000   88.694    0.478    0.204    8.242
  152.250   85.179    0.468    0.183    9.054
  152.500   82.257    0.455    0.164    9.946
  152.750   76.988    0.436    0.124   10.153
  153.000   75.814    0.419    0.100   10.187
  153.250   75.789    0.426    0.130   10.198
  153.500   80.408    0.433    0.161   10.227
  153.750   84.447    0.440    0.169   10.250
  154.000   86.744    0.446    0.169   10.463
  154.250   87.879    0.457    0.170   10.492
  154.500   87.854    0.464    0.174   10.318
  154.750   88.409    0.467    0.175   10.341
  155.000   87.223    0.467    0.175   10.364
  155.250   86.037    0.460    0.174   10.393
  155.500   83.683    0.418    0.173   10.615
  155.750   81.922    0.396    0.170   10.627
  156.000   83.639    0.388    0.177   11.260
  156.250   82.440    0.391    0.182   11.930
  156.500   80.098    0.396    0.177   12.171
  156.750   76.009    0.413    0.163   13.127
  157.000   72.501    0.418    0.145   14.166
  157.250   68.992    0.413    0.155   14.721
  157.500   66.632    0.392    0.168   15.886
  157.750   66.619    0.394    0.154   16.813
  158.000   66.007    0.396    0.128   18.154
  158.250   64.820    0.377    0.110   19.580
  158.500   63.053    0.355    0.121   20.735
  158.750   61.286    0.361    0.130   22.364
  159.000   59.513    0.368    0.132   23.238
  159.250   57.740    0.370    0.070   25.078
  159.500   57.140    0.361    0.040   26.556
  159.750   56.535    0.263    0.029   27.123
  160.000   59.412    0.274    0.039   26.689
  160.250   61.135    0.287    0.064   24.870
  160.500   64.587    0.302    0.096   23.577
  160.750   68.632    0.314    0.114   21.177
  161.000   71.509    0.337    0.133   19.701
  161.250   75.542    0.358    0.147   17.696
  161.500   78.419    0.381    0.166   16.180
  161.750   78.981    0.410    0.189   15.060
  162.000   76.621    0.428    0.217   13.770
  162.250   74.860    0.430    0.229   12.824
  162.500   71.351    0.415    0.219   11.733
  162.750   67.843    0.417    0.210   12.654
  163.000   64.915    0.416    0.189   14.151
  163.250   63.148    0.405    0.136   18.687
  163.500   61.961    0.304    0.071   20.528
  163.750   60.768    0.300    0.054   22.563
  164.000   60.163    0.307    0.041   24.323
  164.250   60.131    0.309    0.030   24.828
  164.500   61.254    0.304    0.024   25.358
  164.750   61.242    0.283    0.020   24.067
  165.000   63.532    0.272    0.026   21.606
  165.250   65.261    0.343    0.037   20.483
  165.500   71.622    0.364    0.083   18.388
  165.750   80.299    0.391    0.109   16.216
  166.000   84.918    0.428    0.125   15.373
  166.250   86.054    0.439    0.151   14.582
  166.500   85.448    0.437    0.156   13.824
  166.750   85.430    0.436    0.157   12.654
  167.000   84.817    0.441    0.158   12.219
  167.250   85.373    0.446    0.162   12.017
  167.500   85.934    0.447    0.165   11.405
  167.750   86.490    0.439    0.141   11.018
  168.000   85.303    0.429    0.157   10.848
  168.250   85.852    0.433    0.167   10.674
  168.500   86.395    0.438    0.160   10.704
  168.750   86.382    0.440    0.150   10.722
  169.000   86.931    0.440    0.133   10.740
  169.250   86.332    0.439    0.144   10.770
  169.500   86.300    0.439    0.152   10.597
  169.750   85.700    0.439    0.150   10.615
  170.000   85.669    0.437    0.140   10.650
  170.250   85.644    0.433    0.113   10.662
  170.500   81.561    0.429    0.099   10.698
  170.750   82.116    0.427    0.104   10.710
  171.000   84.993    0.422    0.114   10.746
  171.250   85.536    0.417    0.119   10.969
  171.500   84.350    0.417    0.107   10.993
  171.750   84.325    0.418    0.117   11.222
  172.000   84.886    0.415    0.139   11.462
  172.250   86.016    0.414    0.147   11.687
  172.500   87.732    0.410    0.158   11.713
  172.750   88.294    0.410    0.165   11.957
  173.000   88.268    0.411    0.166   12.205
  173.250   88.817    0.417    0.167   12.246
  173.500   89.373    0.418    0.171   12.057
  173.750   87.606    0.413    0.171   12.070
  174.000   87.006    0.408    0.170   11.877
  174.250   87.561    0.405    0.166   11.910
  174.500   89.272    0.397    0.159   11.937
  174.750   89.246    0.362    0.150   12.410
  175.000   85.738    0.385    0.138   12.668
  175.250   82.229    0.406    0.042   13.179
  175.500   76.972    0.378    0.026   13.445
  175.750   74.050    0.293    0.015   13.979
  176.000   75.767    0.225    0.015   14.269
  176.250   87.353    0.258    0.044   15.111
  176.500   93.133    0.293    0.095   17.539
  176.750   96.591    0.341    0.126   18.245
  177.000   95.405    0.363    0.148   16.370
  177.250   94.219    0.392    0.156   16.425
  177.500   94.774    0.405    0.152   15.280
  177.750   95.910    0.409    0.139   13.475
  178.000   95.866    0.413    0.121   13.755
  178.250   94.692    0.417    0.084   14.041
  178.500   92.338    0.414    0.051   13.824
  178.750   90.571    0.407    0.043   13.603
  179.000   91.707    0.397    0.026   13.142
  179.250   93.998    0.368    0.044   12.925
  179.500   95.146    0.377    0.099   11.818
  179.750   98.017    0.393    0.138   10.812
  180.000   98.573    0.407    0.176   10.069
  180.250   98.554    0.428    0.171    9.377
  180.500   96.206    0.447    0.161    9.059
  180.750   91.530    0.454    0.142    9.424
  181.000   88.021    0.440    0.109    9.787
  181.250   87.409    0.361    0.059   10.752
  181.500   89.706    0.360    0.074   12.259
  181.750   92.590    0.387    0.098   14.230
  182.000   96.629    0.397    0.124   14.794
  182.250   99.506    0.414    0.146   13.786
  182.500  101.803    0.427    0.152   13.084
  182.750  102.939    0.438    0.152   12.626
  183.000  102.327    0.447    0.152   11.759
  183.250  103.463    0.454    0.152   10.752
  183.500  103.438    0.459    0.146   10.198
  183.750  101.671    0.457    0.119    9.674
  184.000   99.904    0.448    0.021    9.346
  184.250   98.717    0.441    0.033    9.207
  184.500  100.427    0.426    0.064    9.217
  184.750  100.989    0.425    0.157    9.242
  185.000  100.964    0.427    0.162    9.268
  185.250  100.932    0.427    0.159    9.461
  185.500  100.907    0.428    0.150    9.658
  185.750   97.404    0.428    0.144   10.035
  186.000   95.051    0.422    0.136   11.235
  186.250   96.193    0.405    0.057   11.674
  186.500  100.806    0.395    0.067   12.598
  186.750  101.948    0.387    0.080   13.595
