~VERSION INFORMATION
 VERS.                 2.0:   CWLS LOG ASCII STANDARD -VERSION 2.0
 WRAP.                  NO:   ONE LINE PER DEPTH STEP
~WELL INFORMATION BLOCK
#MNEM.UNIT           DATA                    DESCRIPTION OF MNEMONIC
#---------    -------------------            -------------------------------
# Generated from Intellog Unique Number	CC_84_87/WELL/1045
NULL.         -999.25                        : NULL_VALUE
WELL.         PARA ET AL GRANOR              : Location     - LOCATION          
UWI .         00/01-21-084-17W400            : Uwi          - UNIQUE WELL ID    
ENTR.         JHS                            : Entered      - ENTERED BY        
SRVC.         COMPUTALOG                     : Scn          - SERVICE COMPANY   
DATE.         17 FEB 82                      : Date         - LOG DATE
STRT.M        95                             : top_depth    - START DEPTH       
STOP.M        293                            : bot_depth    - STOP DEPTH        
STEP.M        0.3                            : increment    - STEP LENGTH       
~CURVE INFORMATION BLOCK
#MNEM UNIT       ERCB CURVE CODE    CURVE DESCRIPTION
#-----------   ------------------   ----------------------------------
DEPT.M        00 001 00 00         : DEPTH        - DEPTH                       
DPHI.V/V      00 890 00 00         : PHID         - DENSITY POROSITY (LIMESTONE)
NPHI.V/V      00 330 00 00         : PHIN         - NEUTRON POROSITY (LIMESTONE)
GR  .API      00 310 00 00         : GR           - GAMMA RAY                   
ILD .OHMM     00 120 00 00         : RESD         - DEEP RESISTIVITY (DIL)      
~PARAMETER INFORMATION       
#MNEM.UNIT           DATA             DESCRIPTION OF MNEMONIC
#---------         -----------     ------------------------------
GL  .M        520.21               : gl           - GROUND LEVEL ELEVATION      
EREF.M        523.81               : kb           - ELEVATION OF DEPTH REFERENCE
DATM.M        523.81               : datum        - DATUM ELEVATION             
TDD .M        293                  : tdd          - TOTAL DEPTH DRILLER         
RUN .         ONE                  : Run          - RUN NUMBER                  
ENG .         BILL                 : Engineer     - RECORDING ENGINEER          
WIT .         JIM                  : Witness      - WITNESSED BY                
MUD .         GEL                  : Mud_type     - MUD TYPE                    
MATR.         LIMESTONE            : Logunit      - NEUTRON MATRIX              
TMAX.C        22                   : BHT          - MAXIMUM RECORDED TEMPERATURE
BHTD.M        293                  : BHTDEP       - MAXIMUM RECORDED TEMPERATURE
MATR.         1                    : LOGUNIT      - NEUTRON MATRIX              
RMT .C        25                   : MDTP         - TEMPERATURE OF MUD          
NEUT.         1                    : NEUTRON      - NEUTRON TYPE                
RESI.         0                    : RESIST       - RESISTIVITY TYPE            
RMC .OHMM     0.25                 : RMC          - RESISTIVITY OF MUD CAKE     
RMF .OHMM     0.25                 : RMF          - RESISTIVITY OF MUD FILTRATE 
SUFT.C        15                   : SUFT         - SURFACE TEMPERATURE         
~A  DEPTH     PHID     PHIN       GR     RESD
   95.000    0.302    0.377   46.348   24.176
   95.300    0.301    0.391   47.598   23.733
   95.600    0.298    0.374   47.012   22.451
   95.900    0.300    0.380   47.040   20.849
   96.200    0.282    0.414   48.893   21.636
   96.500    0.260    0.411   48.918   23.736
   96.800    0.180    0.281   42.847   27.022
   97.100    0.134    0.269   34.946   30.763
   97.400    0.161    0.301   29.483   34.379
   97.700    0.185    0.298   24.630   30.200
   98.000    0.206    0.289   25.878   24.183
   98.300    0.246    0.325   32.613   17.328
   98.600    0.278    0.441   49.712   12.884
   98.900    0.272    0.448   81.450    9.581
   99.200    0.217    0.429   93.671    7.124
   99.500    0.218    0.433  101.626    6.494
   99.800    0.242    0.420  103.480    6.865
  100.100    0.261    0.419   99.243    7.962
  100.400    0.253    0.424   96.825    9.064
  100.700    0.230    0.458   91.976   10.909
  101.000    0.266    0.425   86.512   11.748
  101.300    0.278    0.386   78.610   11.748
  101.600    0.269    0.359   78.027   12.192
  101.900    0.235    0.383   89.033   11.749
  102.200    0.205    0.414  101.863   10.710
  102.500    0.215    0.410  104.328    9.945
  102.800    0.222    0.375   99.476   10.132
  103.100    0.226    0.403   97.680   10.132
  103.400    0.210    0.426   98.925    9.585
  103.700    0.206    0.443   98.948    8.737
  104.000    0.196    0.405   97.145    8.265
  104.300    0.219    0.396   95.344    8.420
  104.600    0.213    0.376   94.755    8.901
  104.900    0.218    0.387   95.393    8.902
  105.200    0.205    0.354   96.638    8.266
  105.500    0.186    0.310   99.717    6.997
  105.800    0.177    0.300  104.010    5.815
  106.100    0.180    0.345  109.525    5.300
  106.400    0.181    0.408  113.210    5.014
  106.700    0.190    0.536  114.456    5.014
  107.000    0.161    0.495  116.314    5.204
  107.300    0.166    0.430  118.168    5.108
  107.600    0.182    0.414  118.193    4.744
  107.900    0.198    0.380  117.004    4.487
  108.200    0.190    0.417  117.035    4.091
  108.500    0.202    0.454  118.272    3.729
  108.800    0.227    0.494  122.570    3.594
  109.100    0.240    0.467  125.645    4.406
  109.400    0.238    0.421  124.452    5.605
  109.700    0.240    0.408  112.890    7.823
  110.000    0.245    0.426  101.332   10.328
  110.300    0.245    0.370  100.138   10.328
  110.600    0.246    0.329  105.045    9.770
  110.900    0.241    0.335  106.899    8.583
  111.200    0.252    0.357  107.538    7.680
  111.500    0.241    0.429  113.660    7.265
  111.800    0.237    0.465  117.345    7.540
  112.100    0.272    0.459  109.445    9.244
  112.400    0.330    0.394   99.103   11.332
  112.700    0.360    0.291   83.888   14.418
  113.000    0.360    0.312   76.595   18.343
  113.300    0.329    0.326   71.743   16.721
  113.600    0.328    0.388   71.159   16.415
  113.900    0.324    0.423   69.357   17.677
  114.200    0.320    0.452   66.335   20.501
  114.500    0.316    0.416   63.313   21.275
  114.800    0.321    0.434   60.288   20.502
  115.100    0.315    0.464   61.535   19.757
  115.400    0.320    0.453   63.390   18.690
  115.700    0.325    0.448   63.418   18.690
  116.000    0.328    0.470   61.004   18.348
  116.300    0.325    0.454   60.421   17.038
  116.600    0.323    0.407   62.887   14.967
  116.900    0.297    0.409   69.621   15.247
  117.200    0.225    0.324   73.915   15.248
  117.500    0.221    0.301   76.993   13.394
  117.800    0.254    0.357   79.458    9.248
  118.100    0.269    0.398   84.361    7.005
  118.400    0.243    0.383   91.705    5.507
  118.700    0.241    0.393  102.707    4.492
  119.000    0.242    0.414  106.395    4.249
  119.300    0.226    0.457  108.256    4.171
  119.600    0.225    0.463  108.888    4.410
  119.900    0.223    0.428  106.474    4.492
  120.200    0.226    0.370  101.015    4.576
  120.500    0.231    0.370   99.822    4.577
  120.800    0.253    0.435   98.017    4.410
  121.100    0.266    0.481   95.604    4.172
  121.400    0.259    0.504   95.629    3.947
  121.700    0.254    0.512   95.049    3.803
  122.000    0.257    0.539   92.024    4.096
  122.300    0.268    0.505   88.390    4.411
  122.600    0.292    0.444   82.931    5.211
  122.900    0.297    0.442   78.688    6.754
  123.200    0.292    0.491   75.665    8.592
  123.500    0.296    0.533   73.865   10.731
  123.800    0.275    0.474   69.620   12.445
  124.100    0.137    0.264   63.547   16.129
  124.400    0.130    0.227   62.964   19.411
  124.700    0.166    0.329   67.869   19.774
  125.000    0.247    0.382   77.042   19.412
  125.300    0.253    0.400   80.730   20.145
  125.600    0.278    0.432   86.243   20.146
  125.900    0.288    0.462   92.367   19.776
  126.200    0.271    0.494   97.272   21.298
  126.500    0.250    0.511   94.862   22.515
  126.800    0.248    0.499   87.569   22.516
  127.100    0.271    0.425   76.620   21.299
  127.400    0.307    0.405   67.496   20.149
  127.700    0.331    0.441   56.549   20.150
  128.000    0.339    0.453   56.581   20.150
  128.300    0.332    0.424   57.213   20.527
  128.600    0.331    0.415   57.848   20.151
  128.900    0.332    0.431   59.705   20.152
  129.200    0.321    0.435   59.119   20.152
  129.500    0.320    0.420   58.536   20.153
  129.800    0.325    0.402   59.787   19.784
  130.100    0.321    0.406   60.425   19.421
  130.400    0.321    0.414   59.838   19.422
  130.700    0.328    0.401   58.645   19.066
  131.000    0.338    0.398   58.063   18.036
  131.300    0.337    0.432   61.138   18.036
  131.600    0.324    0.411   62.993   18.374
  131.900    0.315    0.429   61.799   19.068
  132.200    0.305    0.437   61.822   19.069
  132.500    0.298    0.472   60.630   18.376
  132.800    0.294    0.473   58.218   18.039
  133.100    0.298    0.434   57.637   17.384
  133.400    0.311    0.419   58.880   17.065
  133.700    0.320    0.409   61.962   16.143
  134.000    0.324    0.388   64.424   15.271
  134.300    0.344    0.410   66.887   15.557
  134.600    0.342    0.461   68.136   15.848
  134.900    0.336    0.481   66.942   15.558
  135.200    0.319    0.477   65.136   15.273
  135.500    0.312    0.465   63.332   14.718
  135.800    0.315    0.402   64.578   14.448
  136.100    0.316    0.384   65.219   14.449
  136.400    0.324    0.394   65.244   13.924
  136.700    0.327    0.380   65.884   13.172
  137.000    0.323    0.398   67.128   12.693
  137.300    0.321    0.445   68.370   12.460
  137.600    0.326    0.432   71.447   12.461
  137.900    0.322    0.432   72.082   12.931
  138.200    0.321    0.444   69.062   13.420
  138.500    0.311    0.450   66.646   13.420
  138.800    0.303    0.420   66.672   13.420
  139.100    0.307    0.415   67.924   13.175
  139.400    0.315    0.412   69.167   13.175
  139.700    0.318    0.386   71.023   13.175
  140.000    0.319    0.368   71.656   12.934
  140.300    0.314    0.390   69.858   12.697
  140.600    0.305    0.410   69.273   12.236
  140.900    0.293    0.445   69.297   12.236
  141.200    0.262    0.449   66.276   12.465
  141.500    0.272    0.448   61.422   13.424
  141.800    0.296    0.471   59.013   14.191
  142.100    0.317    0.484   60.259   14.457
  142.400    0.322    0.484   61.504   14.192
  142.700    0.325    0.453   61.531   14.192
  143.000    0.332    0.478   60.949   14.193
  143.300    0.333    0.503   61.584   14.193
  143.600    0.325    0.509   62.222   14.459
  143.900    0.323    0.494   61.024   14.459
  144.201    0.331    0.467   59.831   14.194
  144.501    0.341    0.455   59.857   13.934
  144.801    0.339    0.430   61.717   13.935
  145.101    0.328    0.414   61.132   13.935
  145.401    0.321    0.409   59.328   13.935
  145.701    0.324    0.396   59.964   14.196
  146.001    0.327    0.461   57.551   14.462
  146.301    0.322    0.486   55.138   14.197
  146.601    0.325    0.505   57.606   15.008
  146.901    0.324    0.465   55.193   15.575
