~VERSION INFORMATION
 VERS.                 2.0:   CWLS LOG ASCII STANDARD -VERSION 2.0
 WRAP.                  NO:   ONE LINE PER DEPTH STEP
~WELL INFORMATION BLOCK
#MNEM.UNIT           DATA                    DESCRIPTION OF MNEMONIC
#---------    -------------------            -------------------------------
# Generated from Intellog Unique Number	CW_73_75/WELL/637
WELL.         MANNVILL MESA MITSKE 07-01     : Well_name    - WELL
LOC .         00/07-01-074-03W5/0            : Location     - LOCATION
UWI .         00/07-01-074-03W5/0            : Uwi          - UNIQUE WELL ID
ENTR.         JAYE                           : Entered      - ENTERED BY
SRVC.         SCHLUMBERGER                   : Scn          - SERVICE COMPANY
DATE.         1 MAR 79                       : Date         - LOG DATE
STRT.M        440                            : top_depth    - START DEPTH
STOP.M        675                            : bot_depth    - STOP DEPTH
STEP.M        0.25                           : increment    - STEP LENGTH
 NULL. -999.2500:NULL Value
~CURVE INFORMATION BLOCK
#MNEM UNIT       ERCB CURVE CODE    CURVE DESCRIPTION
#-----------   ------------------   ----------------------------------
DEPT.M        00 001 00 00         : DEPTH        - DEPTH
ILD .OHMM     00 120 00 00         : RESD         - DEEP RESISTIVITY (DIL)
NPHI.V/V      00 330 00 00         : PHIN         - NEUTRON POROSITY (SANDSTONE)
DPHI.V/V      00 890 00 00         : PHID         - DENSITY POROSITY (SANDSTONE)
CALI.MM       00 280 01 00         : CAL          - CALIPER
GR  .API      00 310 00 00         : GR           - GAMMA RAY
~PARAMETER INFORMATION
#MNEM.UNIT           DATA             DESCRIPTION OF MNEMONIC
#---------         -----------     ------------------------------
GL  .M        685.4                : gl           - GROUND LEVEL ELEVATION
EREF.M        688.4                : kb           - ELEVATION OF DEPTH REFERENCE
DATM.M        685.4                : datum        - DATUM ELEVATION
TDD .M        675                  : tdd          - TOTAL DEPTH DRILLER
RUN .         ONE                  : Run          - RUN NUMBER
ENG .         KESTER               : Engineer     - RECORDING ENGINEER
WIT .         MURYNKA              : Witness      - WITNESSED BY
BASE.         EDM                  : Branch       - HOME BASE OF LOGGING UNIT
MUD .         GEL GELEX            : Mud_type     - MUD TYPE
MATR.         SANDSTONE            : Logunit      - NEUTRON MATRIX
TMAX.C        17.5                 : BHT          - MAXIMUM RECORDED TEMPERATURE
BHTD.M        674                  : BHTDEP       - MAXIMUM RECORDED TEMPERATURE
RMT .C        16.7                 : MDTP         - TEMPERATURE OF MUD
MUDD.KG/M     1110                 : MWT          - MUD DENSITY
NEUT.         1                    : NEUTRON      - NEUTRON TYPE
RESI.         0                    : RESIST       - RESISTIVITY TYPE
RM  .OHMM     4.07                 : RM           - RESISTIVITY OF MUD
RMC .OHMM     0                    : RMC          - RESISTIVITY OF MUD CAKE
RMF .OHMM     4.68                 : RMF          - RESISTIVITY OF MUD FILTRATE
SUFT.C        0                    : SUFT         - SURFACE TEMPERATURE
~A  DEPTH     RESD     PHIN     PHID      CAL       GR
# ...
  513.000    4.166    0.461    0.193  163.513   98.822
  513.250    4.180    0.473    0.178  162.976  102.308
  513.500    4.179    0.482    0.197  161.920  110.600
  513.750    4.162    0.483    0.209  158.157  116.457
  514.000    4.131    0.461    0.209  155.540  102.152
  514.250    4.113    0.452    0.222  152.506   93.340
  514.500    4.082    0.457    0.210  150.197   86.339
  514.750    4.065    0.459    0.223  151.014   85.642
  515.000    4.051    0.459    0.229  154.950   85.382
  515.250    4.078    0.457    0.220  159.718   83.812
  515.500    4.115    0.466    0.207  162.196   81.741
  515.750    4.263    0.460    0.202  162.072   79.234
  516.000    4.440    0.457    0.238  161.537   75.415
  516.250    4.739    0.448    0.275  160.268   72.721
  516.500    5.104    0.431    0.240  159.631   70.714
  516.750    5.490    0.354    0.233  160.549   68.644
  517.000    5.569    0.360    0.203  162.718   70.256
  517.250    5.081    0.418    0.180  164.572   73.554
  517.500    4.731    0.465    0.249  165.281   77.912
  517.750    4.325    0.524    0.287  164.850   80.273
  518.000    4.020    0.530    0.316  162.024   81.076
  518.250    3.814    0.504    0.273  159.510   81.814
  518.500    3.721    0.474    0.272  157.098   82.926
  518.750    3.687    0.468    0.264  155.416   78.984
  519.000    3.692    0.464    0.255  153.319   79.410
  519.250    3.732    0.456    0.266  151.429   85.205
  519.500    3.766    0.446    0.241  150.164   88.191
  519.750    3.821    0.451    0.223  150.666   86.994
  520.000    3.885    0.442    0.197  153.664   88.045
  520.250    3.966    0.444    0.192  157.496   90.594
  520.500    4.023    0.439    0.177  160.914   93.516
  520.750    4.061    0.435    0.188  162.248   96.253
  521.000    4.096    0.436    0.196  161.502  100.050
  521.250    4.142    0.445    0.184  160.756  103.286
  521.500    4.156    0.456    0.176  160.634  104.024
  521.750    4.147    0.459    0.165  161.032  102.516
  522.000    4.146    0.442    0.152  162.054   96.513
  522.250    4.113    0.433    0.159  162.665   96.441
  522.500    4.037    0.435    0.172  163.373   96.678
  522.750    3.925    0.427    0.160  163.982   96.856
  523.000    3.850    0.433    0.153  164.796   97.034
  523.250    3.792    0.447    0.147  164.882   94.776
  523.500    3.763    0.458    0.159  164.866   93.767
  523.750    3.719    0.455    0.174  164.536   98.937
  524.000    3.683    0.451    0.180  164.414  102.859
  524.250    3.641    0.459    0.206  164.502  103.472
  524.500    3.607    0.458    0.187  164.484  101.839
  524.750    3.573    0.438    0.177  164.466   98.083
  525.000    3.558    0.451    0.176  164.763   97.323
  525.250    3.563    0.457    0.184  163.289   99.311
  525.500    3.609    0.462    0.199  163.686   98.051
  525.750    3.724    0.481    0.212  164.188   95.294
  526.000    3.894    0.466    0.229  164.587   92.476
  526.250    4.071    0.445    0.202  164.571   88.471
  526.500    4.185    0.471    0.181  164.553   85.713
  526.750    4.138    0.474    0.177  164.745   83.832
  527.000    3.926    0.451    0.184  165.454   81.759
  527.250    3.691    0.445    0.191  165.750   79.753
  527.500    3.431    0.466    0.199  161.051   75.497
  527.750    3.201    0.488    0.215  156.561   72.617
  528.000    3.020    0.476    0.250  154.046   70.109
  528.250    2.935    0.464    0.272  153.717   67.477
  528.500    2.874    0.458    0.279  154.116   65.344
  528.750    2.831    0.456    0.288  154.618   64.648
  529.000    2.804    0.461    0.266  154.600   65.824
  529.250    2.778    0.474    0.268  154.688   66.936
  529.500    2.787    0.483    0.265  155.189   67.363
  529.750    2.786    0.478    0.278  155.485   67.726
  530.000    2.786    0.464    0.268  155.569   67.840
  530.250    2.790    0.456    0.272  155.554   68.703
  530.500    2.780    0.461    0.279  155.430   68.881
  530.750    2.784    0.468    0.271  155.725   68.559
  531.000    2.798    0.468    0.256  156.231   67.612
  531.250    2.807    0.464    0.269  156.941   65.542
  531.500    2.854    0.467    0.283  157.858   64.408
  531.750    2.907    0.459    0.284  158.255   64.772
  532.000    2.977    0.465    0.291  158.138   65.948
  532.250    3.084    0.472    0.293  157.600   70.182
  532.500    3.243    0.483    0.299  156.747   73.043
  532.750    3.371    0.492    0.270  156.629   76.028
  533.000    3.498    0.471    0.252  156.506   79.139
  533.250    3.651    0.457    0.241  156.176   84.185
  533.500    3.839    0.460    0.243  156.056   91.164
  533.750    4.067    0.472    0.265  155.832   91.841
  534.000    4.300    0.460    0.253  155.188   87.523
  534.250    4.478    0.459    0.216  155.067   83.205
  534.500    4.716    0.467    0.229  154.841   80.200
  534.750    5.274    0.430    0.214  154.825   76.382
  535.000    6.110    0.406    0.160  154.705   75.247
  535.250    7.186    0.325    0.062  154.792   73.178
  535.500    7.038    0.267    0.022  156.854   69.984
  535.750    6.072    0.259    0.009  160.060   71.284
  536.000    4.980    0.281    0.040  161.395   74.331
  536.250    4.295    0.342    0.071  160.650   78.252
  536.500    3.523    0.384    0.155  158.344   81.614
  536.750    3.343    0.468    0.189  155.728   84.913
  537.000    3.311    0.466    0.241  153.317   86.962
  537.250    3.334    0.452    0.227  152.674   90.009
  537.500    3.435    0.452    0.217  152.657   92.808
  537.750    3.565    0.462    0.216  152.953   94.359
  538.000    3.712    0.460    0.198  153.350   88.231
  538.250    3.838    0.464    0.161  154.372   89.282
  538.500    3.948    0.473    0.176  154.980   94.889
  538.750    4.013    0.484    0.190  155.795   91.071
  539.000    4.042    0.476    0.193  157.234   95.804
  539.250    4.047    0.471    0.176  158.465   98.041
  539.500    4.061    0.468    0.169  159.282   94.410
  539.750    4.130    0.471    0.190  158.952   94.462
  540.000    4.174    0.477    0.208  157.997   96.699
  540.250    4.165    0.472    0.194  157.563   98.811
  540.500    4.148    0.471    0.194  156.610  100.985
  540.750    4.133    0.478    0.180  155.656  101.723
  541.000    4.094    0.462    0.163  155.743   97.906
  541.250    4.084    0.445    0.172  157.598   98.394
  541.500    4.066    0.458    0.180  159.869  102.254
  541.750    4.028    0.462    0.169  161.310   98.748
  542.000    4.034    0.456    0.185  161.812   96.490
  542.250    4.010    0.458    0.184  161.481  100.288
  542.500    3.994    0.458    0.158  161.359  104.397
  542.750    3.994    0.445    0.176  161.447  104.199
  543.000    3.985    0.442    0.204  161.324  101.193
  543.250    3.985    0.459    0.194  161.100   99.621
  543.500    3.983    0.477    0.182  160.768   98.300
  543.750    4.013    0.489    0.188  160.857   97.853
  544.000    4.018    0.490    0.191  161.359   98.904
  544.250    4.001    0.476    0.169  162.069  103.201
  544.500    4.008    0.463    0.160  162.987  104.189
  544.750    4.008    0.467    0.168  163.390  106.675
  545.000    3.975    0.476    0.177  164.514  108.725
  545.250    3.960    0.475    0.166  164.810  103.596
  545.500    3.980    0.474    0.169  165.104   99.466
  545.750    3.995    0.479    0.181  165.190   99.081
  546.000    4.016    0.482    0.176  164.964   94.951
  546.250    4.059    0.467    0.177  164.738   95.190
  546.500    4.142    0.461    0.181  164.620   99.924
  546.750    4.196    0.475    0.169  163.769  102.534
  547.000    4.258    0.464    0.206  162.192   97.718
  547.250    4.337    0.457    0.240  160.198   98.082
  547.500    4.434    0.448    0.234  159.764  104.313
  547.750    4.474    0.438    0.206  161.205   97.562
  548.000    4.489    0.450    0.183  162.436   91.871
  548.250    4.489    0.460    0.170  163.563   86.368
  548.500    4.520    0.455    0.184  164.271   86.045
  548.750    4.493    0.444    0.209  163.940   85.037
  549.000    4.450    0.434    0.205  163.510   84.027
  549.250    4.392    0.432    0.203  162.868   85.764
