~VERSION INFORMATION
 VERS.                 2.0:   CWLS LOG ASCII STANDARD -VERSION 2.0
 WRAP.                  NO:   ONE LINE PER DEPTH STEP
~WELL INFORMATION BLOCK
#MNEM.UNIT           DATA                    DESCRIPTION OF MNEMONIC
#---------    -------------------            -------------------------------
# Generated from Intellog Unique Number	CS_71_72/WELL/818
WELL.         BOW VALLEY INDUSTRIES          : Well_name    - WELL
LOC .         00/07-25-071-18W4/0            : Location     - LOCATION
UWI .         00/07-25-071-18W4/0            : Uwi          - UNIQUE WELL ID
ENTR.         SP                             : Entered      - ENTERED BY
SRVC.         SCHLUMBERGER                   : Scn          - SERVICE COMPANY
STRT.M        289.56                         : top_depth    - START DEPTH
STOP.M        460.06                         : bot_depth    - STOP DEPTH
STEP.M        0.25                           : increment    - STEP LENGTH
 NULL. -999.2500:NULL Value
~CURVE INFORMATION BLOCK
#MNEM UNIT       ERCB CURVE CODE    CURVE DESCRIPTION
#-----------   ------------------   ----------------------------------
DEPT.M        00 001 00 00         : DEPTH        - DEPTH
GR  .API      00 310 00 00         : GR           - GAMMA RAY
DPHI.V/V      00 890 00 00         : PHID         - DENSITY POROSITY (SANDSTONE)
NPHI.V/V      00 330 00 00         : PHIN         - NEUTRON POROSITY (SANDSTONE)
ILD .OHMM     00 120 00 00         : RESD         - DEEP RESISTIVITY (DIL)
~PARAMETER INFORMATION
#MNEM.UNIT           DATA             DESCRIPTION OF MNEMONIC
#---------         -----------     ------------------------------
GL  .M        590.245              : gl           - GROUND LEVEL ELEVATION
EREF.M        592.836              : kb           - ELEVATION OF DEPTH REFERENCE
DATM.M        590.245              : datum        - DATUM ELEVATION
TDD .M        487.68               : tdd          - TOTAL DEPTH DRILLER
RUN .         ONE                  : Run          - RUN NUMBER
ENG .         BILL                 : Engineer     - RECORDING ENGINEER
WIT .         JIM                  : Witness      - WITNESSED BY
MUD .         GEL                  : Mud_type     - MUD TYPE
MATR.         SANDSTONE            : Logunit      - NEUTRON MATRIX
TMAX.C        11.6667              : BHT          - MAXIMUM RECORDED TEMPERATURE
BHTD.M        487.68               : BHTDEP       - MAXIMUM RECORDED TEMPERATURE
MATR.         1                    : LOGUNIT      - NEUTRON MATRIX
RMT .C        25                   : MDTP         - TEMPERATURE OF MUD
NEUT.         1                    : NEUTRON      - NEUTRON TYPE
RESI.         0                    : RESIST       - RESISTIVITY TYPE
RMC .OHMM     0.25                 : RMC          - RESISTIVITY OF MUD CAKE
RMF .OHMM     0.25                 : RMF          - RESISTIVITY OF MUD FILTRATE
SUFT.C        15                   : SUFT         - SURFACE TEMPERATURE
~A  DEPTH       GR     PHID     PHIN     RESD
# ...
  376.560   66.943    0.294    0.399    4.755
  376.810   66.055    0.262    0.377    5.351
  377.060   66.016    0.230    0.283    6.056
  377.310   65.850    0.172    0.270    6.717
  377.560   64.362    0.149    0.286    7.008
  377.810   64.515    0.178    0.317    6.639
  378.060   67.540    0.207    0.370    5.350
  378.310   71.651    0.240    0.401    4.648
  378.560   75.095    0.273    0.416    4.315
  378.810   73.335    0.300    0.428    4.185
  379.060   71.300    0.304    0.427    4.230
  379.310   73.574    0.301    0.434    4.260
  379.560   76.618    0.299    0.443    4.272
  379.810   79.802    0.296    0.448    4.231
  380.060   84.080    0.294    0.448    4.185
  380.310   82.718    0.288    0.454    4.149
  380.560   79.552    0.289    0.460    4.145
  380.810   77.456    0.296    0.457    4.157
  381.060   73.697    0.304    0.450    4.190
  381.310   70.929    0.303    0.441    4.226
  381.560   68.071    0.296    0.430    4.323
  381.810   65.143    0.288    0.427    4.391
  382.060   63.473    0.280    0.423    4.456
  382.310   61.370    0.280    0.423    4.470
  382.560   60.646    0.277    0.415    4.405
  382.810   65.407    0.278    0.422    4.357
  383.060   70.712    0.283    0.439    4.233
  383.310   73.788    0.285    0.448    4.105
  383.560   76.741    0.285    0.445    4.007
  383.810   74.235    0.285    0.448    3.977
  384.060   72.489    0.286    0.459    3.987
  384.310   72.215    0.291    0.466    3.997
  384.560   73.683    0.295    0.471    4.032
  384.810   74.799    0.303    0.462    4.049
  385.060   75.269    0.310    0.457    4.056
  385.310   73.127    0.298    0.472    4.061
  385.560   71.466    0.293    0.457    4.048
  385.810   70.869    0.295    0.439    4.047
  386.060   72.785    0.297    0.443    4.062
  386.310   74.281    0.297    0.464    4.063
  386.560   74.124    0.296    0.479    4.055
  386.810   72.892    0.292    0.456    4.027
  387.060   74.811    0.289    0.431    4.004
  387.310   74.231    0.289    0.424    3.965
  387.560   71.980    0.294    0.417    3.938
  387.810   69.661    0.295    0.411    3.917
  388.060   67.832    0.293    0.408    3.905
  388.310   66.737    0.288    0.404    3.866
  388.560   67.549    0.288    0.405    3.883
  388.810   68.777    0.279    0.421    3.933
  389.060   69.418    0.242    0.438    4.003
  389.310   68.880    0.199    0.434    4.328
  389.560   66.538    0.137    0.411    4.829
  389.810   65.713    0.089    0.337    6.280
  390.060   63.056    0.054    0.221    8.017
  390.310   59.144    0.029    0.199   10.630
  390.560   55.994    0.016    0.185   13.141
  390.810   55.114    0.014    0.179   14.356
  391.060   58.012    0.028    0.178   15.229
  391.310   61.745    0.057    0.189   15.132
  391.560   65.004    0.099    0.236   13.381
  391.810   68.101    0.139    0.283   11.577
  392.060   70.832    0.169    0.317    9.021
  392.310   72.595    0.198    0.358    7.078
  392.560   73.609    0.239    0.400    6.045
  392.810   73.920    0.269    0.428    5.121
  393.060   72.884    0.284    0.438    4.483
  393.310   71.651    0.283    0.437    4.177
  393.560   71.059    0.281    0.431    4.018
  393.810   72.277    0.277    0.441    3.958
  394.060   74.165    0.277    0.444    3.888
  394.310   76.186    0.287    0.435    3.822
  394.560   77.275    0.292    0.429    3.796
  394.810   76.526    0.297    0.426    3.790
  395.060   75.438    0.296    0.427    3.793
  395.310   75.153    0.293    0.431    3.786
  395.560   75.321    0.293    0.438    3.775
  395.810   76.369    0.294    0.431    3.803
  396.060   77.526    0.293    0.427    3.831
  396.310   78.442    0.288    0.435    3.918
  396.560   77.353    0.282    0.448    4.024
  396.810   76.073    0.274    0.457    4.121
  397.060   75.456    0.268    0.447    4.227
  397.310   76.691    0.262    0.448    4.325
  397.560   78.433    0.254    0.435    4.350
  397.810   81.249    0.249    0.423    4.307
  398.060   85.461    0.251    0.417    4.080
  398.310   89.180    0.252    0.413    3.754
  398.560   94.064    0.244    0.411    3.344
  398.810   98.955    0.232    0.421    2.940
  399.060  102.350    0.219    0.456    2.596
  399.310  105.839    0.226    0.492    2.341
  399.560  106.810    0.237    0.517    2.288
  399.810  107.466    0.227    0.504    2.405
  400.060  107.621    0.214    0.477    2.622
  400.310  107.658    0.206    0.474    2.860
  400.560  105.992    0.202    0.475    3.196
  400.810  103.174    0.205    0.463    3.616
  401.060   97.017    0.208    0.442    4.021
  401.310   98.957    0.211    0.432    4.396
  401.560  101.509    0.203    0.433    4.656
  401.810  101.287    0.192    0.431    4.820
  402.060   98.462    0.186    0.433    4.950
  402.310   97.265    0.183    0.442    5.047
  402.560  100.731    0.181    0.451    5.144
  402.810  103.266    0.181    0.446    5.189
  403.060  104.529    0.185    0.444    5.236
  403.310  103.307    0.188    0.447    5.270
  403.560  101.615    0.185    0.448    5.299
  403.810   97.461    0.181    0.429    5.297
  404.060   94.745    0.175    0.408    5.290
  404.310   91.777    0.173    0.392    5.251
  404.560   90.291    0.178    0.384    5.186
  404.810   91.771    0.197    0.396    5.104
  405.060   92.401    0.213    0.408    5.046
  405.310   91.609    0.206    0.420    4.985
  405.560   91.640    0.198    0.418    4.922
  405.810   92.765    0.194    0.416    4.920
  406.060   94.332    0.196    0.420    4.943
  406.310   94.410    0.200    0.414    5.006
  406.560   92.895    0.201    0.416    5.073
  406.810   91.923    0.197    0.426    5.112
  407.060   90.975    0.197    0.438    5.052
  407.310   90.344    0.205    0.445    4.931
  407.560   88.674    0.204    0.448    4.851
  407.810   87.700    0.196    0.448    4.770
  408.060   86.568    0.188    0.446    4.785
  408.310   84.594    0.179    0.425    5.096
  408.560   78.679    0.158    0.386    5.651
  408.810   72.585    0.111    0.334    6.232
  409.060   69.769    0.106    0.316    6.745
  409.310   69.127    0.115    0.319    7.064
  409.560   72.069    0.136    0.342    6.860
  409.810   73.880    0.180    0.365    6.112
  410.060   74.451    0.207    0.389    5.402
  410.310   72.409    0.236    0.405    4.943
  410.560   72.150    0.244    0.404    4.583
  410.810   72.041    0.247    0.403    4.510
  411.060   71.701    0.240    0.408    4.594
  411.310   71.341    0.228    0.355    4.918
  411.560   71.154    0.205    0.332    5.514
  411.810   70.957    0.179    0.322    6.236
  412.060   70.578    0.157    0.317    7.027
  412.310   70.434    0.146    0.320    7.444
  412.560   70.302    0.137    0.328    8.010
  412.810   70.386    0.138    0.333    8.239
  413.060   70.569    0.158    0.343    7.571
  413.310   70.908    0.182    0.353    6.592
  413.560   71.732    0.215    0.381    5.792
  413.810   72.682    0.228    0.401    5.248
  414.060   73.206    0.231    0.400    4.875
  414.310   73.192    0.225    0.387    4.730
  414.560   73.015    0.193    0.374    5.043
  414.810   72.802    0.151    0.359    5.506
  415.060   72.692    0.137    0.346    5.820
  415.310   72.582    0.129    0.357    5.864
  415.560   72.421    0.175    0.375    5.786
  415.810   72.043    0.200    0.405    5.577
  416.060   71.218    0.215    0.414    5.288
  416.310   71.010    0.222    0.414    5.102
  416.560   71.996    0.228    0.415    4.963
  416.810   73.863    0.225    0.418    4.865
  417.060   75.362    0.214    0.414    4.833
  417.310   73.896    0.217    0.410    4.821
  417.560   72.827    0.220    0.408    4.814
  417.810   74.309    0.216    0.406    4.820
  418.060   77.012    0.215    0.405    4.825
  418.310   78.113    0.219    0.408    4.812
  418.560   78.188    0.224    0.413    4.818
  418.810   77.101    0.228    0.412    4.911
  419.060   75.965    0.230    0.405    5.054
  419.310   75.617    0.229    0.398    5.270
  419.560   75.737    0.226    0.393    5.422
  419.810   76.316    0.221    0.392    5.517
