~VERSION INFORMATION
 VERS.                 2.0:   CWLS LOG ASCII STANDARD -VERSION 2.0
 WRAP.                  NO:   ONE LINE PER DEPTH STEP
~WELL INFORMATION BLOCK
#MNEM.UNIT           DATA                    DESCRIPTION OF MNEMONIC
#---------    -------------------            -------------------------------
# Generated from Intellog Unique Number	CW_70_72/WELL/3009
NULL.         -999.25                        : NULL_VALUE
WELL.         BRASCAN AMOCO MEYER 06-22      : Well_name    - WELL              
LOC .         06-22-070-25W4                 : Location     - LOCATION          
UWI .         00/06-22-070-25W4/0            : Uwi          - UNIQUE WELL ID    
ENTR.         J                              : Entered      - ENTERED BY        
SRVC.         SCHLUMBERGER                   : Scn          - SERVICE COMPANY   
DATE.         10 MAR 73                      : Date         - LOG DATE          
STRT.M        478.536                        : top_depth    - START DEPTH       
STOP.M        701.036                        : bot_depth    - STOP DEPTH        
STEP.M        0.25                           : increment    - STEP LENGTH       
~CURVE INFORMATION BLOCK
#MNEM UNIT       ERCB CURVE CODE    CURVE DESCRIPTION
#-----------   ------------------   ----------------------------------
DEPT.M        00 001 00 00         : DEPTH        - DEPTH                       
ILD .OHMM     00 120 00 00         : RESD         - DEEP RESISTIVITY (DIL)      
CALI.MM       00 280 01 00         : CAL          - CALIPER                     
GR  .API      00 310 00 00         : GR           - GAMMA RAY                   
NPHI.V/V      00 330 00 00         : PHIN         - NEUTRON POROSITY (SANDSTONE)
DPHI.V/V      00 890 00 00         : PHID         - DENSITY POROSITY (SANDSTONE)
~PARAMETER INFORMATION       
#MNEM.UNIT           DATA             DESCRIPTION OF MNEMONIC
#---------         -----------     ------------------------------
GL  .M        643.433              : gl           - GROUND LEVEL ELEVATION      
EREF.M        647.243              : kb           - ELEVATION OF DEPTH REFERENCE
DATM.M        643.433              : datum        - DATUM ELEVATION             
TDD .M        729.996              : tdd          - TOTAL DEPTH DRILLER         
RUN .         ONE                  : Run          - RUN NUMBER                  
ENG .         MACIJUK              : Engineer     - RECORDING ENGINEER          
WIT .         JAMES                : Witness      - WITNESSED BY                
BASE.         EDMONTON             : Branch       - HOME BASE OF LOGGING UNIT   
MUD .         GEL                  : Mud_type     - MUD TYPE                    
MATR.         SANDSTONE            : Logunit      - NEUTRON MATRIX              
TMAX.C        27.7778              : BHT          - MAXIMUM RECORDED TEMPERATURE
BHTD.M        729.996              : BHTDEP       - MAXIMUM RECORDED TEMPERATURE
RMT .C        16.6667              : MDTP         - TEMPERATURE OF MUD          
MUDD.KG/M     1104                 : MWT          - MUD DENSITY                 
NEUT.         1                    : NEUTRON      - NEUTRON TYPE                
RESI.         0                    : RESIST       - RESISTIVITY TYPE            
RM  .OHMM     3.38                 : RM           - RESISTIVITY OF MUD          
RMC .OHMM     0                    : RMC          - RESISTIVITY OF MUD CAKE     
RMF .OHMM     0                    : RMF          - RESISTIVITY OF MUD FILTRATE 
SUFT.C        -17.7778             : SUFT         - SURFACE TEMPERATURE         
~A  DEPTH     RESD      CAL       GR     PHIN     PHID
# ...
  551.536    2.731  160.774   60.610    0.448    0.276
  551.786    3.435  161.761   59.977    0.412    0.240
  552.036    4.134  164.602   59.888    0.390    0.226
  552.286    4.583  166.104   60.655    0.350    0.141
  552.536    3.882  166.982   63.913    0.314    0.113
  552.786    3.194  166.528   67.475    0.352    0.142
  553.036    2.726  164.425   71.640    0.427    0.208
  553.286    2.284  163.051   71.132    0.392    0.254
  553.536    2.074  163.008   72.140    0.470    0.259
  553.786    1.943  165.328   76.310    0.537    0.277
  554.036    1.891  177.743   82.664    0.579    0.299
  554.286    1.959  193.242   85.865    0.589    0.317
  554.536    2.160  206.786   87.662    0.576    0.376
  554.786    2.399  199.641   87.088    0.475    0.313
  555.036    2.582  175.825   84.085    0.448    0.265
  555.286    2.806  162.398   82.176    0.426    0.237
  555.536    2.999  161.115   81.908    0.417    0.228
  555.786    3.129  161.182   82.241    0.446    0.216
  556.036    3.224  161.649   82.644    0.465    0.196
  556.286    3.279  162.019   83.534    0.459    0.208
  556.536    3.336  162.182   87.036    0.448    0.210
  556.786    3.368  162.249   87.192    0.453    0.200
  557.036    3.407  162.407   87.531    0.444    0.204
  557.286    3.479  162.678   91.578    0.430    0.189
  557.536    3.512  163.554   91.610    0.427    0.166
  557.786    3.593  164.743   90.546    0.420    0.165
  558.036    3.648  165.727   90.222    0.387    0.149
  558.286    3.697  165.904   90.260    0.470    0.168
  558.536    3.726  166.887   90.719    0.485    0.181
  558.786    3.749  167.866   95.497    0.491    0.180
  559.036    3.779  168.450   96.446    0.491    0.169
  559.286    3.822  168.819   95.390    0.495    0.179
  559.536    3.832  169.088   95.244    0.504    0.179
  559.786    3.834  169.252   95.821    0.485    0.167
  560.036    3.843  169.718   94.099    0.465    0.154
  560.286    3.860  169.364   92.001    0.474    0.146
  560.536    3.861  168.291   93.074    0.492    0.161
  560.786    3.857  167.432   90.983    0.491    0.161
  561.036    3.859  165.638   89.194    0.459    0.160
  561.286    3.868  163.334   89.105    0.462    0.158
  561.536    3.856  164.832   90.787    0.488    0.154
  561.786    3.823  166.733   93.253    0.478    0.151
  562.036    3.847  167.732   93.712    0.468    0.159
  562.286    3.862  169.027   94.785    0.483    0.177
  562.536    3.858  169.707   95.548    0.454    0.174
  562.786    3.755  169.658   92.603    0.420    0.160
  563.036    3.551  169.419   89.481    0.382    0.150
  563.286    3.363  168.235   90.365    0.453    0.152
  563.536    3.049  167.674   90.768    0.468    0.168
  563.786    2.898  166.914   90.194    0.483    0.151
  564.036    2.719  165.436   87.619    0.475    0.149
  564.286    2.543  163.537   74.160    0.437    0.228
  564.536    2.404  162.368   73.345    0.438    0.232
  564.786    2.294  160.677   74.289    0.461    0.230
  565.036    2.237  159.295   75.361    0.448    0.228
  565.286    2.202  158.223   76.849    0.454    0.228
  565.536    2.207  157.356   77.437    0.471    0.237
  565.786    2.274  156.183   74.615    0.486    0.229
  566.036    2.386  155.109   70.214    0.460    0.230
  566.286    2.611  153.932   66.723    0.439    0.232
  566.536    2.775  152.558   69.552    0.447    0.228
  566.786    2.928  151.171   73.604    0.483    0.222
  567.036    2.989  149.798   78.016    0.456    0.211
  567.286    2.879  148.926   82.240    0.419    0.199
  567.536    2.687  148.580   83.740    0.383    0.204
  567.786    2.485  150.799   78.790    0.368    0.204
  568.036    2.298  156.830   74.322    0.453    0.213
  568.286    2.242  161.319   73.568    0.438    0.226
  568.536    2.243  153.147   73.488    0.434    0.227
  568.786    2.290  149.191   73.460    0.435    0.227
  569.036    2.241  148.841   71.794    0.439    0.239
  569.286    2.099  149.919   70.554    0.444    0.229
  569.536    1.953  151.733   69.860    0.449    0.230
  569.786    1.887  154.472   70.135    0.454    0.185
  570.036    1.885  157.612   70.056    0.463    0.190
  570.286    2.074  159.221   69.538    0.457    0.184
  570.536    2.796  160.313   68.969    0.442    0.166
  570.786    3.674  160.686   64.081    0.393    0.119
  571.036    4.846  160.748   56.763    0.348    0.051
  571.286    5.800  160.494   49.321    0.326    0.012
  571.536    8.081  160.355   45.166    0.343   -0.007
  571.786   10.351  159.891   41.550    0.302   -0.002
  572.036   11.968  161.191   49.305    0.260    0.008
  572.286   11.460  164.031   53.230    0.224    0.035
  572.536    8.651  164.807   54.851    0.202    0.038
  572.786    7.249  164.051   56.772    0.226    0.036
  573.036    6.062  163.288   59.053    0.229    0.049
  573.286    4.969  162.217   62.371    0.239    0.046
  573.536    4.007  158.671   65.996    0.265    0.037
  573.786    3.413  153.796   69.373    0.303    0.063
  574.036    2.891  151.177   60.353    0.336    0.130
  574.286    2.769  154.635   63.788    0.358    0.121
  574.536    2.760  156.442   64.434    0.395    0.176
  574.786    2.818  152.999   62.397    0.393    0.223
  575.036    2.904  151.625   60.313    0.390    0.225
  575.286    2.997  150.240   61.077    0.421    0.212
  575.536    3.116  148.344   60.081    0.428    0.211
  575.786    3.251  147.166   57.802    0.419    0.188
  576.036    3.400  146.607   57.537    0.405    0.103
  576.286    3.470  148.216   59.695    0.393    0.086
  576.536    3.498  152.496   62.650    0.374    0.146
  576.786    3.468  159.039   65.606    0.342    0.175
  577.036    3.364  158.697   68.741    0.431    0.184
  577.286    3.251  153.505   69.387    0.422    0.198
  577.536    3.073  150.270   66.866    0.399    0.179
  577.786    2.843  147.958   69.456    0.418    0.149
  578.036    2.692  147.608   74.414    0.442    0.194
  578.286    2.611  149.007   75.547    0.440    0.232
  578.536    2.589  150.719   74.428    0.445    0.215
  578.786    2.648  152.630   75.010    0.454    0.207
  579.036    3.000  154.857   77.533    0.459    0.227
  579.286    3.266  156.144   78.481    0.455    0.218
  579.536    3.334  157.440   77.059    0.424    0.214
  579.786    3.293  158.537   75.579    0.390    0.206
  580.036    3.195  160.338   75.248    0.364    0.183
  580.286    3.093  159.683   76.982    0.397    0.187
  580.536    3.027  152.849   79.576    0.423    0.212
  580.786    2.958  154.853   81.919    0.438    0.201
  581.036    2.933  156.977   81.957    0.426    0.200
  581.286    2.913  157.964   82.479    0.426    0.202
  581.536    2.904  157.824   80.931    0.389    0.197
  581.786    2.885  157.257   81.271    0.441    0.202
  582.036    2.897  156.917   81.612    0.492    0.193
  582.286    2.888  156.554   79.823    0.484    0.198
  582.536    2.874  155.281   78.701    0.471    0.198
  582.786    2.875  154.312   79.348    0.444    0.170
  583.036    2.898  153.758   80.659    0.426    0.164
  583.286    2.975  153.408   79.965    0.412    0.179
  583.536    3.167  153.257   79.817    0.419    0.164
  583.786    4.140  153.631   80.582    0.420    0.180
  584.036    4.140  154.307   82.078    0.396    0.149
  584.286    9.036  155.708   82.478    0.373    0.151
  584.536   12.315  157.823   78.322    0.289    0.172
  584.786   16.664  159.228   70.760    0.249    0.138
  585.036   20.427  160.113   63.744    0.194    0.087
  585.286   20.930  161.819   58.672    0.184    0.027
  585.536   13.700  163.619   53.969    0.194   -0.013
  585.786    9.284  163.894   51.086    0.210   -0.003
  586.036    6.088  163.851   51.059    0.230    0.019
  586.286    4.846  163.603   53.892    0.283    0.050
  586.536    4.548  163.147   59.153    0.330    0.082
  586.786    4.959  163.006   63.811    0.376    0.152
  587.036    5.438  162.752   70.960    0.414    0.199
  587.286    5.951  162.195   73.912    0.398    0.128
  587.536    5.803  161.742   69.143    0.370    0.119
  587.786    4.971  161.180   66.689    0.333    0.122
