~VERSION INFORMATION
 VERS.                 2.0:   CWLS LOG ASCII STANDARD -VERSION 2.0
 WRAP.                  NO:   ONE LINE PER DEPTH STEP
~WELL INFORMATION BLOCK
#MNEM.UNIT           DATA                    DESCRIPTION OF MNEMONIC
#---------    -------------------            -------------------------------
# Generated from Intellog Unique Number	CC_84_87/WELL/1149
NULL.         -999.25                        : NULL_VALUE
WELL.         PEX PCEJ HANGST OV             : Well_name    - WELL              
LOC .         07-20-084-09W4                 : Location     - LOCATION          
UWI .         00/07-20-084-09W400            : Uwi          - UNIQUE WELL ID    
ENTR.         JHS                            : Entered      - ENTERED BY        
SRVC.         DRESSER ATLAS                  : Scn          - SERVICE COMPANY   
DATE.         06 FEB 80                      : Date         - LOG DATE
STRT.M        220                            : top_depth    - START DEPTH       
STOP.M        459.992                        : bot_depth    - STOP DEPTH        
STEP.M        0.3                            : increment    - STEP LENGTH       
~CURVE INFORMATION BLOCK
#MNEM UNIT       ERCB CURVE CODE    CURVE DESCRIPTION
#-----------   ------------------   ----------------------------------
DEPT.M        00 001 00 00         : DEPTH        - DEPTH                       
DPHI.V/V      00 890 00 00         : PHID         - DENSITY POROSITY (LIMESTONE)
NPHI.V/V      00 330 00 00         : PHIN         - NEUTRON POROSITY (LIMESTONE)
GR  .API      00 310 00 00         : GR           - GAMMA RAY                   
ILD .OHMM     00 120 00 00         : RESD         - DEEP RESISTIVITY (DIL)      
~PARAMETER INFORMATION       
#MNEM.UNIT           DATA             DESCRIPTION OF MNEMONIC
#---------         -----------     ------------------------------
GL  .M        698.35               : gl           - GROUND LEVEL ELEVATION      
EREF.M        701.95               : kb           - ELEVATION OF DEPTH REFERENCE
DATM.M        701.95               : datum        - DATUM ELEVATION             
TDD .M        477                  : tdd          - TOTAL DEPTH DRILLER         
RUN .         ONE                  : Run          - RUN NUMBER                  
ENG .         BILL                 : Engineer     - RECORDING ENGINEER          
WIT .         JIM                  : Witness      - WITNESSED BY                
MUD .         GEL                  : Mud_type     - MUD TYPE                    
MATR.         LIMESTONE            : Logunit      - NEUTRON MATRIX              
TMAX.C        17                   : BHT          - MAXIMUM RECORDED TEMPERATURE
BHTD.M        477                  : BHTDEP       - MAXIMUM RECORDED TEMPERATURE
MATR.         1                    : LOGUNIT      - NEUTRON MATRIX              
RMT .C        25                   : MDTP         - TEMPERATURE OF MUD          
NEUT.         1                    : NEUTRON      - NEUTRON TYPE                
RESI.         0                    : RESIST       - RESISTIVITY TYPE            
RMC .OHMM     0.25                 : RMC          - RESISTIVITY OF MUD CAKE     
RMF .OHMM     0.25                 : RMF          - RESISTIVITY OF MUD FILTRATE 
SUFT.C        15                   : SUFT         - SURFACE TEMPERATURE         
~A  DEPTH     PHID     PHIN       GR     RESD
  220.000    0.253    0.579  119.642    4.028
  220.300    0.251    0.555  126.957    4.187
  220.600    0.256    0.550  123.950    4.268
  220.900    0.267    0.557  120.337    4.606
  221.200    0.280    0.553  120.972    4.611
  221.500    0.286    0.551  128.288    4.532
  221.800    0.294    0.571  121.642    4.372
  222.100    0.288    0.581  115.595    4.218
  222.400    0.276    0.577  109.550    3.779
  222.700    0.274    0.549  121.117    3.448
  223.000    0.280    0.512  122.973    3.206
  223.300    0.299    0.478  120.570    3.211
  223.600    0.334    0.435  103.594    3.399
  223.900    0.354    0.386   65.971    4.023
  224.200    0.325    0.351   48.389    4.849
  224.500    0.216    0.340   52.670    7.443
  224.800    0.243    0.325   89.135    8.489
  225.100    0.222    0.387   93.416    8.499
  225.400    0.189    0.445   69.156    7.615
  225.700    0.246    0.480   48.537    7.346
  226.000    0.257    0.509  103.829    6.225
  226.300    0.256    0.552  125.113    5.273
  226.600    0.258    0.520  122.714    4.552
  226.900    0.264    0.495  117.280    4.078
  227.200    0.268    0.477  109.411    3.791
  227.500    0.265    0.495  111.262    3.796
  227.800    0.252    0.521  131.944    4.251
  228.100    0.242    0.493  128.327    4.501
  228.400    0.242    0.481  117.428    4.764
  228.700    0.242    0.481  115.634    5.045
  229.000    0.248    0.487  122.343    5.146
  229.300    0.252    0.539  125.415    5.154
  229.600    0.243    0.567  121.796    5.066
  229.900    0.238    0.575  123.646    4.979
  230.200    0.236    0.534  127.930    4.715
  230.500    0.237    0.546  124.918    4.465
  230.800    0.238    0.496  120.695    4.388
  231.100    0.236    0.473  121.941    4.396
  231.400    0.238    0.500  123.188    4.741
  231.700    0.242    0.490  125.033    4.834
  232.000    0.250    0.528  115.955    5.025
  232.300    0.278    0.489  106.875    5.032
  232.600    0.285    0.454   99.009    4.945
  232.900    0.250    0.439  114.831    4.864
  233.200    0.233    0.421  121.536    4.960
  233.500    0.227    0.423  118.532    5.252
  233.800    0.234    0.403  102.767    5.456
  234.100    0.317    0.416   92.474    6.338
  234.400    0.321    0.401  109.508    7.363
  234.700    0.296    0.406  101.036    9.046
  235.000    0.299    0.429   78.593   11.108
  235.300    0.293    0.421   76.197   17.052
  235.600    0.293    0.412   86.552   20.942
  235.900    0.288    0.398   84.149   24.334
  236.200    0.269    0.383   92.680   24.824
  236.500    0.252    0.372  110.929   23.946
  236.800    0.248    0.356  112.785   19.192
  237.100    0.252    0.357  104.913   15.668
  237.400    0.247    0.380  103.123   14.565
  237.700    0.247    0.394   95.863   14.858
  238.000    0.237    0.392  101.964   16.330
  238.300    0.224    0.404  114.748   16.049
  238.600    0.221    0.427  129.352   14.111
  238.900    0.245    0.449  128.773   11.957
  239.200    0.297    0.489  122.730    9.942
  239.500    0.354    0.503   93.000    8.908
  239.800    0.419    0.463  105.178   10.157
  240.100    0.427    0.432  105.206   13.190
  240.400    0.339    0.438  102.198   19.147
  240.700    0.354    0.462  110.730   28.845
  241.000    0.320    0.456  100.434   33.509
  241.300    0.292    0.415   85.283   35.480
  241.600    0.270    0.390   75.594   34.889
  241.900    0.267    0.352   71.982   33.658
  242.200    0.270    0.341   84.763   31.875
  242.500    0.273    0.350   81.151   29.633
  242.800    0.276    0.373   90.287   27.551
  243.100    0.264    0.371   91.530   25.614
  243.400    0.261    0.373   98.241   24.262
  243.700    0.257    0.378  101.913   23.405
  244.000    0.230    0.389  103.767   22.579
  244.300    0.242    0.380   95.291   22.194
  244.600    0.289    0.379  103.215   22.646
  244.900    0.287    0.380  108.104   23.967
  245.200    0.289    0.380   96.596   27.339
  245.500    0.297    0.382   89.944   30.602
  245.800    0.291    0.381   84.506   33.004
  246.100    0.294    0.385   93.645   35.599
  246.400    0.296    0.390   90.032   34.992
  246.700    0.295    0.394   90.670   31.941
  247.000    0.281    0.389   95.557   29.680
  247.300    0.284    0.372   80.404   27.087
  247.600    0.263    0.371   74.358   26.626
  247.900    0.245    0.382   86.536   26.681
  248.200    0.229    0.375   95.673   26.217
  248.500    0.206    0.375   93.886   24.369
  248.800    0.222    0.388   94.522   22.236
  249.100    0.252    0.391   90.296   19.916
  249.400    0.287    0.411   86.074   18.176
  249.700    0.310    0.385   76.993   18.889
  250.000    0.305    0.379   84.916   21.943
  250.300    0.303    0.367   95.879   30.694
  250.600    0.293    0.373  108.054   41.372
  250.900    0.275    0.381   98.976   42.203
  251.200    0.220    0.387   89.897   40.716
  251.500    0.269    0.392   72.916   39.311
  251.800    0.285    0.396   77.807   39.355
  252.100    0.274    0.397   92.409   39.403
  252.400    0.268    0.403   99.119   38.015
  252.700    0.273    0.407  103.403   36.003
  253.000    0.271    0.407  108.897   34.098
  253.300    0.265    0.411  107.711   30.547
  253.600    0.257    0.389  112.597   27.871
  253.900    0.249    0.388  104.126   24.061
  254.200    0.254    0.404   99.297   20.386
  254.500    0.257    0.421  107.220   17.593
  254.800    0.251    0.432  109.680   15.760
  255.100    0.203    0.444  120.640   14.386
  255.400    0.174    0.453  142.531   13.371
  255.700    0.172    0.489  146.815   11.977
  256.000    0.178    0.475  147.449   10.147
  256.300    0.201    0.493  146.874    8.133
  256.600    0.212    0.481  145.686    6.639
  256.900    0.227    0.482  150.573    5.419
  257.200    0.253    0.460  142.707    4.855
  257.500    0.293    0.420  119.660    4.862
  257.800    0.305    0.374  102.685    5.243
  258.100    0.294    0.368   97.249    6.207
  258.400    0.281    0.379  100.927    7.209
  258.700    0.279    0.369   94.879    9.716
  259.000    0.281    0.381   91.267   17.955
  259.300    0.273    0.388   96.152   35.085
  259.600    0.261    0.377  114.398   34.493
  259.900    0.262    0.361  105.319   30.892
  260.200    0.289    0.353   96.847   26.176
  260.500    0.294    0.360  102.946   27.204
  260.800    0.303    0.364  107.839   30.450
  261.100    0.299    0.371  121.226   33.452
  261.400    0.299    0.381  115.182   39.598
  261.700    0.296    0.372  100.028   45.155
  262.000    0.276    0.383  108.558   46.058
  262.300    0.258    0.382  107.373   42.029
  262.600    0.244    0.378  101.937   36.958
  262.900    0.236    0.393  105.003   30.742
  263.200    0.229    0.393  114.142   25.092
  263.500    0.217    0.395  119.638   19.738
  263.800    0.233    0.389  131.811   15.819
  264.100    0.270    0.367  131.236   12.912
  264.400    0.290    0.350  121.547   12.931
  264.700    0.293    0.367  107.000   14.748
  265.000    0.293    0.391  108.246   18.115
  265.300    0.295    0.395  114.353   22.664
  265.600    0.295    0.397  124.699   28.888
  265.900    0.289    0.390  123.516   34.844
  266.200    0.291    0.357   84.069   36.883
  266.500    0.294    0.367   82.888   36.933
  266.800    0.291    0.380   78.662   35.643
  267.100    0.285    0.377   86.589   33.748
  267.400    0.280    0.386   93.908   29.677
  267.700    0.312    0.377  103.043   25.141
  268.000    0.293    0.357  104.288   22.109
  268.300    0.249    0.364  114.641   19.801
  268.600    0.250    0.359  110.419   17.739
  268.900    0.244    0.346  123.807   16.491
  269.200    0.220    0.330  100.764   15.911
  269.500    0.220    0.320   92.288   17.162
  269.800    0.234    0.333   75.918   19.212
  270.100    0.242    0.356   75.949   20.343
  270.400    0.237    0.366   96.019   18.909
  270.700    0.234    0.389  109.409   16.624
  271.000    0.235    0.391  117.939   14.620
  271.300    0.241    0.383  119.185   12.854
  271.600    0.242    0.396  112.535   12.174
  271.900    0.232    0.385  114.991   11.319
