~VERSION INFORMATION
 VERS.                 2.0:   CWLS LOG ASCII STANDARD -VERSION 2.0
 WRAP.                  NO:   ONE LINE PER DEPTH STEP
~WELL INFORMATION BLOCK
#MNEM.UNIT           DATA                    DESCRIPTION OF MNEMONIC
#---------    -------------------            -------------------------------
# Generated from Intellog Unique Number	CW_82_90/WELL/620
WELL.         ANDEX WABASCA 07-27            : Well_name    - WELL
LOC .         00/07-27-082-21W4/0            : Location     - LOCATION
UWI .         00/07-27-082-21W4/0            : Uwi          - UNIQUE WELL ID
ENTR.         JAYE                           : Entered      - ENTERED BY
SRVC.         SCHLUMBERGER                   : Scn          - SERVICE COMPANY
DATE.         13 FEB 74                      : Date         - LOG DATE
STRT.M        228.6                          : top_depth    - START DEPTH
STOP.M        460.35                         : bot_depth    - STOP DEPTH
STEP.M        0.25                           : increment    - STEP LENGTH
 NULL. -999.2500:NULL Value
~CURVE INFORMATION BLOCK
#MNEM UNIT       ERCB CURVE CODE    CURVE DESCRIPTION
#-----------   ------------------   ----------------------------------
DEPT.M        00 001 00 00         : DEPTH        - DEPTH
CALI.MM       00 280 01 00         : CAL          - CALIPER
GR  .API      00 310 00 00         : GR           - GAMMA RAY
NPHI.V/V      00 330 00 00         : PHIN         - NEUTRON POROSITY (SANDSTONE)
DPHI.V/V      00 890 00 00         : PHID         - DENSITY POROSITY (SANDSTONE)
ILD .OHMM     00 120 00 00         : RESD         - DEEP RESISTIVITY (DIL)
~PARAMETER INFORMATION
#MNEM.UNIT           DATA             DESCRIPTION OF MNEMONIC
#---------         -----------     ------------------------------
GL  .M        623.621              : gl           - GROUND LEVEL ELEVATION
EREF.M        627.278              : kb           - ELEVATION OF DEPTH REFERENCE
DATM.M        623.621              : datum        - DATUM ELEVATION
TDD .M        467.868              : tdd          - TOTAL DEPTH DRILLER
RUN .         ONE                  : Run          - RUN NUMBER
ENG .         WOON                 : Engineer     - RECORDING ENGINEER
WIT .         McARTHUR             : Witness      - WITNESSED BY
BASE.         EDMONTON             : Branch       - HOME BASE OF LOGGING UNIT
MUD .         GEL                  : Mud_type     - MUD TYPE
MATR.         SANDSTONE            : Logunit      - NEUTRON MATRIX
TMAX.C        30.5556              : BHT          - MAXIMUM RECORDED TEMPERATURE
BHTD.M        467.868              : BHTDEP       - MAXIMUM RECORDED TEMPERATURE
RMT .C        15.5556              : MDTP         - TEMPERATURE OF MUD
MUDD.KG/M     9500                 : MWT          - MUD DENSITY
NEUT.         1                    : NEUTRON      - NEUTRON TYPE
RESI.         0                    : RESIST       - RESISTIVITY TYPE
RM  .OHMM     0.25                 : RM           - RESISTIVITY OF MUD
RMC .OHMM     0.25                 : RMC          - RESISTIVITY OF MUD CAKE
RMF .OHMM     2.23                 : RMF          - RESISTIVITY OF MUD FILTRATE
SUFT.C        4                    : SUFT         - SURFACE TEMPERATURE
~A  DEPTH      CAL       GR     PHIN     PHID     RESD
# ...
  374.600  158.342   87.519    0.456    0.212    9.194
  374.850  159.590   87.524    0.456    0.184    9.210
  375.100  157.953   87.772    0.459    0.192    9.381
  375.350  156.519   88.143    0.463    0.194    9.699
  375.600  155.292   88.211    0.455    0.190    9.934
  375.850  153.860   88.581    0.452    0.204   10.309
  376.100  153.462   89.196    0.457    0.211   10.442
  376.350  153.779   91.090    0.463    0.212   10.538
  376.600  154.717   91.886    0.453    0.214   10.497
  376.850  156.375   90.981    0.451    0.215   10.534
  377.100  157.316   89.890    0.452    0.209   10.592
  377.350  157.738   90.445    0.452    0.207   10.668
  377.600  157.334   91.546    0.458    0.192   10.707
  377.850  157.036   92.403    0.451    0.172   10.665
  378.100  156.530   94.722    0.442    0.167   10.665
  378.350  158.192   94.546    0.439    0.173   10.623
  378.600  160.158   93.517    0.452    0.189   10.621
  378.850  157.283   93.281    0.447    0.198   10.659
  379.100  158.015   93.957    0.436    0.193   10.717
  379.350  158.334   95.179    0.446    0.183   10.897
  379.600  157.418   95.976    0.466    0.195   10.955
  379.850  156.606   95.923    0.476    0.186   10.913
  380.100  156.203   95.624    0.463    0.213   10.892
  380.350  156.934   95.873    0.450    0.197   10.890
  380.600  156.737   95.515    0.442    0.194   10.888
  380.850  153.142   94.608    0.442    0.184   10.886
  381.100  153.668   94.493    0.448    0.203   10.925
  381.350  154.709   94.680    0.470    0.218   10.943
  381.600  155.543   93.897    0.471    0.204   11.003
  381.850  157.614   92.320    0.456    0.192   11.043
  382.100  161.334   92.084    0.466    0.206   10.638
  382.350  163.611   93.245    0.480    0.196   10.210
  382.600  165.787   94.224    0.470    0.194   10.133
  382.850  163.324   94.048    0.457    0.189   10.094
  383.100  160.036   93.081    0.446    0.165    9.869
  383.350  160.769   93.391    0.448    0.170    9.704
  383.600  164.282   94.676    0.461    0.189    9.667
  383.850  166.044   95.716    0.481    0.211    9.630
  384.100  165.851   97.001    0.461    0.189    9.575
  384.350  166.066   97.736    0.459    0.176    9.609
  384.600  166.078   98.229    0.459    0.182    9.697
  384.850  165.983   97.992    0.464    0.191    9.768
  385.100  165.891   99.885    0.459    0.183    9.766
  385.350  169.199  100.379    0.455    0.168    9.693
  385.600  169.416   99.532    0.454    0.163    9.655
  385.850  167.469   99.296    0.441    0.176    9.564
  386.100  166.656   99.788    0.424    0.188    9.352
  386.350  165.427   97.847    0.422    0.190    8.827
  386.600  158.947   90.734    0.435    0.175    8.761
  386.850  157.206   89.279    0.436    0.169    9.176
  387.100  159.277   91.841    0.396    0.171    9.682
  387.350  161.349   93.915    0.397    0.165   10.312
  387.600  163.522   96.357    0.408    0.185   10.582
  387.850  163.843   97.823    0.421    0.207   10.640
  388.100  163.338   96.978    0.430    0.196   10.462
  388.350  163.039   91.081    0.435    0.172   10.210
  388.600  159.649   89.017    0.434    0.190   10.209
  388.850  156.670   87.076    0.431    0.199   10.226
  389.100  155.343   84.284    0.410    0.198   10.651
  389.350  154.425   81.369    0.389    0.195   11.905
  389.600  155.568   77.176    0.366    0.178   13.482
  389.850  155.889   73.957    0.350    0.157   15.153
  390.100  155.178   69.825    0.343    0.127   16.782
  390.350  155.497   64.050    0.329    0.142   18.550
  390.600  157.260   62.900    0.307    0.121   20.277
  390.850  158.608   64.307    0.303    0.101   22.000
  391.100  157.486   65.347    0.373    0.116   22.788
  391.350  153.374   65.048    0.375    0.135   24.089
  391.600  155.962   64.689    0.341    0.096   24.312
  391.850  158.651   64.271    0.284    0.068   25.275
  392.100  160.619   64.763    0.284    0.069   26.326
  392.350  160.422   66.535    0.293    0.111   27.624
  392.600  156.929   67.635    0.330    0.139   27.774
  392.850  155.086   69.407    0.362    0.161   25.590
  393.100  154.479   70.752    0.390    0.179   19.616
  393.350  153.874   70.576    0.417    0.195   16.841
  393.600  153.881   69.730    0.429    0.203   15.402
  393.850  154.096   69.249    0.424    0.214   14.033
  394.100  154.931   69.376    0.421    0.206   13.074
  394.350  155.355   70.417    0.405    0.208   12.880
  394.600  156.601   71.093    0.411    0.203   12.878
  394.850  157.230   71.403    0.403    0.187   13.338
  395.100  157.858   72.383    0.363    0.164   13.713
  395.350  158.901   73.119    0.369    0.154   13.916
  395.600  160.147   72.151    0.396    0.169   13.760
  395.850  161.188   72.584    0.416    0.196   13.330
  396.100  162.745   75.207    0.408    0.192   12.986
  396.350  163.784   77.221    0.405    0.207   15.719
  396.600  161.756   74.924    0.425    0.196   15.216
  396.850  162.963   75.765    0.434    0.210   14.421
  397.100  163.655   77.027    0.439    0.218   13.482
  397.350  162.497   75.434    0.420    0.216   12.950
  397.600  157.012   73.895    0.415    0.215   12.389
  397.850  158.015   73.150    0.413    0.210   12.073
  398.100  160.766   71.068    0.401    0.215   12.113
  398.350  162.591   62.464    0.341    0.167   12.233
  398.600  163.179   58.003    0.256    0.074   12.931
  398.850  162.535   56.402    0.217    0.020   16.539
  399.100  162.504   59.377    0.223   -0.000   19.340
  399.350  162.790   70.331    0.323    0.088   21.439
  399.600  161.109   81.711    0.374    0.141   21.933
  399.850  159.030   82.061    0.422    0.186   21.147
  400.100  159.713   80.710    0.444    0.169   18.209
  400.350  160.416   76.553    0.446    0.160   15.833
  400.600  160.490   76.783    0.423    0.167   12.926
  400.850  162.933   82.679    0.419    0.151   12.087
  401.100  163.420   84.311    0.420    0.190   12.100
  401.350  162.156   84.177    0.429    0.210   12.334
  401.600  162.232   85.198    0.433    0.218   12.239
  401.850  164.260   84.575    0.431    0.208   11.971
  402.100  164.235   86.025    0.431    0.193   11.858
  402.350  163.686   88.205    0.424    0.162   11.879
  402.600  164.282   88.680    0.426    0.181   11.872
  402.850  164.352   87.935    0.439    0.182   11.828
  403.100  164.226   87.677    0.430    0.167   11.600
  403.350  163.677   83.948    0.422    0.154   11.419
  403.600  163.039   80.827    0.393    0.108   11.418
  403.850  161.152   83.126    0.381    0.075   11.670
  404.100  161.748   86.162    0.383    0.081   12.051
  404.350  163.780   88.221    0.398    0.141   12.081
  404.600  163.646   87.597    0.397    0.126   11.940
  404.850  162.077   92.093    0.398    0.107   12.027
  405.100  164.827   96.040    0.423    0.153   12.162
  405.350  165.311   95.903    0.449    0.168   11.771
  405.600  165.489   96.561    0.451    0.185   11.345
  405.850  165.774   99.473    0.453    0.184   11.068
  406.100  167.391   98.363    0.461    0.175   10.648
  406.350  169.420   97.251    0.465    0.164   10.185
  406.600  170.321   96.995    0.450    0.157    9.839
  406.850  165.560   97.653    0.438    0.165    9.541
  407.100  166.352  102.209    0.434    0.135    9.306
  407.350  168.592  105.240    0.433    0.176    9.072
  407.600  166.814  106.386    0.433    0.183    8.969
  407.850  165.550  105.581    0.423    0.184    8.994
  408.100  167.683  105.382    0.420    0.162    9.045
  408.350  170.128  105.980    0.422    0.149    8.992
  408.600  170.306  101.885    0.432    0.158    9.027
  408.850  166.983   97.973    0.432    0.165    9.110
  409.100  162.427   92.902    0.423    0.168    9.284
  409.350  161.371   86.308    0.403    0.168   10.526
  409.600  162.061   86.113    0.400    0.131   12.078
  409.850  162.238   89.754    0.404    0.124   14.989
  410.100  162.622   90.534    0.418    0.206   18.669
  410.350  163.006   90.032    0.416    0.212   20.256
  410.600  162.263   89.471    0.405    0.208   21.286
  410.850  160.074   88.422    0.400    0.213   21.981
