~VERSION INFORMATION
 VERS.                 2.0:   CWLS LOG ASCII STANDARD -VERSION 2.0
 WRAP.                  NO:   ONE LINE PER DEPTH STEP
~WELL INFORMATION BLOCK
#MNEM.UNIT           DATA                    DESCRIPTION OF MNEMONIC
#---------    -------------------            -------------------------------
# Generated from Intellog Unique Number	CS_73_76/WELL/2914
WELL.         HOME HB LEISMER                : Well_name    - WELL
LOC .         00/07-35-075-08W4/0            : Location     - LOCATION
UWI .         00/07-35-075-08W4/0            : Uwi          - UNIQUE WELL ID
ENTR.         SP                             : Entered      - ENTERED BY
SRVC.         SCHLUMBERGER                   : Scn          - SERVICE COMPANY
STRT.M        235                            : top_depth    - START DEPTH
STOP.M        465                            : bot_depth    - STOP DEPTH
STEP.M        0.25                           : increment    - STEP LENGTH
 NULL. -999.2500:NULL Value
~CURVE INFORMATION BLOCK
#MNEM UNIT       ERCB CURVE CODE    CURVE DESCRIPTION
#-----------   ------------------   ----------------------------------
DEPT.M        00 001 00 00         : DEPTH        - DEPTH
ILD .OHMM     00 120 00 00         : RESD         - DEEP RESISTIVITY (DIL)
DPHI.V/V      00 890 00 00         : PHID         - DENSITY POROSITY (LIMESTONE)
NPHI.V/V      00 330 00 00         : PHIN         - NEUTRON POROSITY (LIMESTONE)
GR  .API      00 310 00 00         : GR           - GAMMA RAY
~PARAMETER INFORMATION
#MNEM.UNIT           DATA             DESCRIPTION OF MNEMONIC
#---------         -----------     ------------------------------
GL  .M        637.83               : gl           - GROUND LEVEL ELEVATION
EREF.M        641.29               : kb           - ELEVATION OF DEPTH REFERENCE
DATM.M        637.83               : datum        - DATUM ELEVATION
TDD .M        407                  : tdd          - TOTAL DEPTH DRILLER
RUN .         ONE                  : Run          - RUN NUMBER
ENG .         BILL                 : Engineer     - RECORDING ENGINEER
WIT .         JIM                  : Witness      - WITNESSED BY
MUD .         GEL                  : Mud_type     - MUD TYPE
MATR.         LIMESTONE            : Logunit      - NEUTRON MATRIX
TMAX.C        21                   : BHT          - MAXIMUM RECORDED TEMPERATURE
BHTD.M        407                  : BHTDEP       - MAXIMUM RECORDED TEMPERATURE
MATR.         1                    : LOGUNIT      - NEUTRON MATRIX
RMT .C        25                   : MDTP         - TEMPERATURE OF MUD
NEUT.         1                    : NEUTRON      - NEUTRON TYPE
RESI.         0                    : RESIST       - RESISTIVITY TYPE
RMC .OHMM     0.25                 : RMC          - RESISTIVITY OF MUD CAKE
RMF .OHMM     0.25                 : RMF          - RESISTIVITY OF MUD FILTRATE
SUFT.C        15                   : SUFT         - SURFACE TEMPERATURE
~A  DEPTH     RESD     PHID     PHIN       GR
  235.000    2.999    0.242    0.493   87.807
  235.250    3.055    0.156    0.477  107.932
  235.500    3.054    0.046    0.430  122.569
  235.750    3.110    0.086    0.402  125.011
  236.000    3.110    0.168    0.420  121.356
  236.250    3.167    0.242    0.478  118.919
  236.500    3.166    0.236    0.470  117.093
  236.750    3.224    0.235    0.484  112.218
  237.000    3.345    0.238    0.459  109.172
  237.250    3.408    0.233    0.383  109.784
  237.500    3.602    0.236    0.405  114.055
  237.750    3.808    0.234    0.422  112.838
  238.000    3.951    0.234    0.442  112.232
  238.250    4.100    0.224    0.371  114.064
  238.500    4.175    0.220    0.339  109.189
  238.750    4.097    0.215    0.392  104.923
  239.000    3.946    0.220    0.425  100.048
  239.250    3.801    0.220    0.427  103.709
  239.500    3.800    0.218    0.370  114.078
  239.750    3.870    0.218    0.412  116.520
  240.000    3.869    0.223    0.433  111.644
  240.250    3.941    0.217    0.420  111.037
  240.500    3.867    0.228    0.392  103.723
  240.750    3.866    0.227    0.371  103.726
  241.000    3.865    0.224    0.353  111.046
  241.250    3.863    0.225    0.386  113.488
  241.500    3.862    0.229    0.414  105.564
  241.750    3.861    0.231    0.447  106.787
  242.000    3.932    0.235    0.417  106.789
  242.250    4.005    0.242    0.391  106.182
  242.500    4.156    0.230    0.373  107.404
  242.750    4.559    0.217    0.375   91.553
  243.000    5.290    0.210    0.414   98.264
  243.250    6.737    0.152    0.411  104.974
  243.500    9.243    0.045    0.355  104.976
  243.750   13.162    0.115    0.321  114.736
  244.000   16.147    0.252    0.359  106.812
  244.250   17.390    0.272    0.335  101.326
  244.500   18.046    0.284    0.320  103.159
  244.750   17.706    0.296    0.352  109.260
  245.000   16.738    0.281    0.371  122.677
  245.250   16.733    0.248    0.343  122.070
  245.500   16.421    0.226    0.334  116.585
  245.750   16.417    0.212    0.354  113.539
  246.000   16.410    0.224    0.373  114.761
  246.250   16.713    0.223    0.356  107.447
  246.500   17.670    0.235    0.369  100.132
  246.750   19.386    0.248    0.378   80.623
  247.000   21.671    0.256    0.393   69.040
  247.250   24.682    0.240    0.349   70.262
  247.500   30.282    0.262    0.325   62.338
  247.750   35.795    0.271    0.342   53.804
  248.000   39.276    0.281    0.388   51.368
  248.250   37.131    0.242    0.283   52.590
  248.500   34.456    0.175    0.203   60.520
  248.750   30.232    0.000    0.156   74.547
  249.000   28.584    0.000    0.256   81.868
  249.250   26.036    0.269    0.301   80.651
  249.500   22.423    0.276    0.326   89.800
  249.750   21.200    0.273    0.339   94.681
  250.000   20.045    0.266    0.347   93.465
  250.250   18.601    0.253    0.358   91.028
  250.500   16.940    0.251    0.366   96.519
  250.750   17.255    0.257    0.321   79.449
  251.000   19.288    0.272    0.366   70.915
  251.250   23.665    0.308    0.478   67.868
  251.500   28.498    0.325    0.533   73.359
  251.750   29.572    0.299    0.340   87.996
  252.000   29.018    0.285    0.303   91.658
  252.250   26.925    0.293    0.310   86.783
  252.500   24.987    0.292    0.328   87.395
  252.750   23.623    0.292    0.341   91.057
  253.000   22.332    0.297    0.361   77.644
  253.250   24.962    0.280    0.350   63.013
  253.500   28.429    0.270    0.348   61.796
  253.750   30.620    0.296    0.359   59.360
  254.000   35.526    0.332    0.349   55.705
  254.250   36.183    0.338    0.346   52.658
  254.500   36.171    0.352    0.400   49.002
  254.750   34.835    0.346    0.424   58.762
  255.000   34.188    0.333    0.445   62.423
  255.250   32.318    0.333    0.406   64.255
  255.500   31.126    0.332    0.360   62.429
  255.750   30.544    0.325    0.366   60.603
  256.000   29.972    0.328    0.379   59.995
  256.250   29.413    0.336    0.370   65.487
  256.500   28.328    0.337    0.350   70.367
  256.750   23.073    0.332    0.329   75.248
  257.000   20.247    0.326    0.296   80.739
  257.250   16.494    0.323    0.317   86.229
  257.500   13.946    0.322    0.337   95.379
  257.750   11.360    0.318    0.361  111.845
  258.000    9.081    0.314    0.377  120.994
  258.250    8.272    0.242    0.354  119.778
  258.500    7.125    0.201    0.333  117.951
  258.750    6.490    0.192    0.356  120.393
  259.000    6.136    0.110    0.380  127.104
  259.250    5.588    0.118    0.346  133.814
  259.500    5.383    0.166    0.348  136.866
  259.750    5.089    0.200    0.373  141.137
  260.000    4.811    0.200    0.405  137.481
  260.250    4.634    0.184    0.449  124.679
  260.500    4.220    0.209    0.483  133.218
  260.750    4.065    0.218    0.446  135.660
  261.000    4.544    0.216    0.408  122.858
  261.250    5.272    0.203    0.426  108.836
  261.500    7.939    0.219    0.441   91.156
  261.750   12.879    0.240    0.449   75.304
  262.000   16.708    0.269    0.425   90.552
  262.250   17.995    0.266    0.278   97.872
  262.500   16.697    0.156    0.270   93.606
  262.750   15.784    0.241    0.290   94.829
  263.000   15.782    0.260    0.329   92.392
  263.250   16.996    0.263    0.327   86.907
  263.500   18.304    0.260    0.322   89.349
  263.750   19.350    0.258    0.317   91.181
  264.000   19.345    0.263    0.342   85.087
  264.250   18.982    0.278    0.354   82.040
  264.500   17.613    0.291    0.364   75.336
  264.750   16.346    0.298    0.354   78.387
  265.000   13.817    0.300    0.348   92.415
  265.250   12.586    0.299    0.349   98.515
  265.500   11.464    0.289    0.356  114.982
  265.750    9.513    0.256    0.365  123.521
  266.000    8.666    0.209    0.344  119.256
  266.250    7.325    0.148    0.326  132.064
  266.500    6.926    0.170    0.342  143.043
  266.750    6.671    0.200    0.363  139.996
  267.000    6.426    0.192    0.376  138.780
  267.250    6.189    0.178    0.369  133.904
  267.500    6.073    0.175    0.389  135.128
  267.750    6.185    0.176    0.416  140.008
  268.000    6.661    0.176    0.435  144.889
  268.250    7.874    0.185    0.411  147.331
  268.500    9.842    0.175    0.398  140.626
  268.750   11.209    0.189    0.384  125.995
  269.000   14.542    0.243    0.372  112.583
  269.250   17.514    0.270    0.370   98.560
  269.500   19.215    0.297    0.348  102.222
  269.750   18.507    0.313    0.333  107.713
  270.000   17.174    0.303    0.376  108.325
  270.250   15.937    0.293    0.391  111.377
  270.500   15.067    0.279    0.374  120.527
  270.750   13.980    0.264    0.368  122.968
  271.000   13.218    0.257    0.361  123.581
  271.250   12.731    0.255    0.369  130.901
  271.500   13.210    0.258    0.372  129.074
  271.750   16.821    0.245    0.356  105.297
  272.000   21.026    0.225    0.352   85.787
  272.250   26.283    0.227    0.365   71.155
  272.500   31.651    0.249    0.381   56.523
  272.750   33.460    0.270    0.364   54.697
  273.000   34.078    0.294    0.330   65.066
  273.250   34.706    0.313    0.318   58.972
  273.500   34.700    0.314    0.317   46.779
  273.750   36.000    0.307    0.318   47.391
  274.000   36.671    0.303    0.325   55.931
  274.250   37.347    0.311    0.331   60.812
  274.500   36.648    0.308    0.343   58.986
  274.750   34.005    0.319    0.362   55.329
  275.000   32.151    0.319    0.342   55.333
  275.250   24.764    0.309    0.333   65.701
  275.500   20.173    0.300    0.340   69.972
  275.750   15.540    0.296    0.342   81.561
  276.000   12.194    0.300    0.356  102.905
  276.250   10.701    0.301    0.361  137.665
  276.500    9.931    0.191    0.326  135.839
  276.750    9.565    0.202    0.322  132.792
  277.000    9.562    0.207    0.349  118.771
  277.250   11.514    0.196    0.389  105.968
  277.500   12.402    0.205    0.428  110.850
  277.750   14.123    0.229    0.446  110.852
  278.000   14.656    0.255    0.381  116.343
  278.250   13.347    0.240    0.337  120.614
