~VERSION INFORMATION
 VERS.                 2.0:   CWLS LOG ASCII STANDARD -VERSION 2.0
 WRAP.                  NO:   ONE LINE PER DEPTH STEP
~WELL INFORMATION BLOCK
#MNEM.UNIT           DATA                    DESCRIPTION OF MNEMONIC
#---------    -------------------            -------------------------------
# Generated from Intellog Unique Number	CS_73_76/WELL/2105
WELL.         PEX KIRBY                      : Well_name    - WELL
LOC .         00/07-09-075-06W4/0            : Location     - LOCATION
UWI .         00/07-09-075-06W4/0            : Uwi          - UNIQUE WELL ID
ENTR.         SP                             : Entered      - ENTERED BY
SRVC.         SCHLUMBERGER                   : Scn          - SERVICE COMPANY
STRT.M        250                            : top_depth    - START DEPTH
STOP.M        490                            : bot_depth    - STOP DEPTH
STEP.M        0.25                           : increment    - STEP LENGTH
 NULL. -999.2500:NULL Value
~CURVE INFORMATION BLOCK
#MNEM UNIT       ERCB CURVE CODE    CURVE DESCRIPTION
#-----------   ------------------   ----------------------------------
DEPT.M        00 001 00 00         : DEPTH        - DEPTH
ILD .OHMM     00 120 00 00         : RESD         - DEEP RESISTIVITY (DIL)
DPHI.V/V      00 890 00 00         : PHID         - DENSITY POROSITY (LIMESTONE)
NPHI.V/V      00 330 00 00         : PHIN         - NEUTRON POROSITY (LIMESTONE)
GR  .API      00 310 00 00         : GR           - GAMMA RAY
~PARAMETER INFORMATION
#MNEM.UNIT           DATA             DESCRIPTION OF MNEMONIC
#---------         -----------     ------------------------------
GL  .M        648.36               : gl           - GROUND LEVEL ELEVATION
EREF.M        651.64               : kb           - ELEVATION OF DEPTH REFERENCE
DATM.M        648.36               : datum        - DATUM ELEVATION
TDD .M        497                  : tdd          - TOTAL DEPTH DRILLER
RUN .         ONE                  : Run          - RUN NUMBER
ENG .         BILL                 : Engineer     - RECORDING ENGINEER
WIT .         JIM                  : Witness      - WITNESSED BY
MUD .         GEL                  : Mud_type     - MUD TYPE
MATR.         LIMESTONE            : Logunit      - NEUTRON MATRIX
TMAX.C        21                   : BHT          - MAXIMUM RECORDED TEMPERATURE
BHTD.M        497                  : BHTDEP       - MAXIMUM RECORDED TEMPERATURE
MATR.         1                    : LOGUNIT      - NEUTRON MATRIX
RMT .C        25                   : MDTP         - TEMPERATURE OF MUD
NEUT.         1                    : NEUTRON      - NEUTRON TYPE
RESI.         0                    : RESIST       - RESISTIVITY TYPE
RMC .OHMM     0.25                 : RMC          - RESISTIVITY OF MUD CAKE
RMF .OHMM     0.25                 : RMF          - RESISTIVITY OF MUD FILTRATE
SUFT.C        15                   : SUFT         - SURFACE TEMPERATURE
~A  DEPTH     RESD     PHID     PHIN       GR
# ...
  467.500   45.155    0.301    0.379  119.384
  467.750   45.150    0.291    0.364  129.186
  468.000   42.668    0.291    0.354  115.723
  468.250   39.572    0.325    0.351   63.079
  468.500   28.742    0.286    0.346   60.634
  468.750   23.814    0.265    0.342   61.255
  469.000   20.486    0.295    0.353   61.262
  469.250   17.295    0.346    0.374   54.532
  469.500   14.601    0.451    0.380   42.295
  469.750   12.799    0.387    0.387   37.403
  470.000    9.836    0.349    0.385   33.125
  470.250    7.419    0.360    0.364   30.681
  470.500    6.146    0.351    0.355   33.750
  470.750    5.388    0.322    0.359   35.594
  471.000    5.091    0.306    0.369   35.600
  471.250    4.995    0.302    0.369   33.771
  471.500    4.995    0.306    0.359   29.491
  471.750    5.089    0.290    0.358   36.845
  472.000    5.088    0.280    0.368   39.302
  472.250    5.088    0.286    0.374   38.085
  472.500    5.086    0.317    0.365   38.091
  472.750    4.991    0.331    0.355   39.321
  473.000    4.898    0.303    0.352   39.328
  473.250    4.806    0.328    0.366   36.889
  473.500    4.541    0.336    0.379   36.283
  473.750    4.373    0.350    0.360   36.288
  474.000    4.211    0.362    0.354   38.132
  474.250    4.132    0.367    0.345   36.915
  474.500    4.131    0.363    0.342   36.307
  474.750    4.209    0.363    0.337   32.642
  475.000    4.370    0.358    0.336   33.259
  475.250    4.622    0.357    0.339   41.839
  475.500    4.799    0.337    0.344   43.682
  475.750    4.982    0.317    0.340   44.300
  476.000    5.076    0.302    0.336   51.657
  476.250    5.369    0.321    0.329   55.946
  476.500    5.470    0.281    0.327   60.852
  476.750    5.469    0.263    0.328   55.960
  477.000    5.572    0.242    0.332   58.416
  477.250    5.571    0.247    0.343   60.260
  477.500    5.571    0.260    0.349   53.535
  477.750    5.570    0.266    0.355   49.254
  478.000    5.568    0.254    0.359   52.932
  478.250    5.568    0.234    0.324   63.961
  478.500    5.673    0.250    0.337   67.640
  478.750    5.672    0.267    0.346   58.464
  479.000    5.671    0.269    0.346   51.735
  479.250    5.887    0.232    0.342   63.989
  479.500    6.112    0.245    0.337   68.893
  479.750    6.466    0.251    0.335   69.512
  480.000    6.712    0.216    0.337   82.989
  480.250    6.711    0.172    0.345   89.729
  480.500    6.585    0.183    0.351   87.287
  480.750    6.107    0.160    0.356   89.742
  481.000    5.992    0.182    0.354   74.443
  481.250    5.880    0.242    0.352   57.307
  481.500    5.557    0.281    0.357   48.743
  481.750    5.351    0.256    0.354   51.811
  482.000    5.250    0.222    0.346   59.776
  482.250    5.250    0.235    0.338   65.293
  482.500    5.349    0.234    0.341   58.566
  482.750    5.552    0.262    0.335   50.003
  483.000    5.657    0.276    0.330   48.782
  483.250    5.873    0.250    0.327   70.220
  483.500    6.330    0.201    0.324   79.409
  483.750    6.696    0.169    0.329   91.660
  484.000    7.084    0.161    0.325   93.504
  484.250    7.928    0.204    0.313   88.612
  484.500    8.231    0.233    0.306   80.048
  484.750    9.746    0.244    0.303   78.219
  485.000   11.759    0.060    0.287   72.716
  485.250   13.925    0.000    0.267   64.764
  485.500   18.114    0.001    0.254   58.035
  485.750   19.896    0.019    0.242   51.918
  486.000   21.446    0.015    0.232   47.641
  486.250   22.687    0.011    0.220   46.421
  486.500   23.551    0.030    0.213   48.266
  486.750   23.995    0.007    0.210   48.885
  487.000   24.447    0.000    0.209   45.218
  487.250   25.379    0.000    0.214   44.000
  487.500   25.375    0.000    0.220   45.233
  487.750   25.370    0.000    0.213   45.239
  488.000   26.339    0.000    0.215   42.797
  488.250   27.863    0.000    0.213   44.029
  488.500   30.604    0.000    0.202   44.647
  488.750   34.903    0.000    0.193   44.654
  489.000   40.559    0.000    0.180   40.986
  489.250   48.938    0.011    0.163   34.258
  489.500   54.772    0.033    0.155   25.693
  489.750   62.465    0.051    0.156   20.190
  490.000   66.079    0.039    0.154   19.584
