~VERSION INFORMATION
 VERS.                 2.0:   CWLS LOG ASCII STANDARD -VERSION 2.0
 WRAP.                  NO:   ONE LINE PER DEPTH STEP
~WELL INFORMATION BLOCK
#MNEM.UNIT           DATA                    DESCRIPTION OF MNEMONIC
#---------    -------------------            -------------------------------
# Generated from Intellog Unique Number	CC_84_87/WELL/1149
NULL.         -999.25                        : NULL_VALUE
WELL.         PEX PCEJ HANGST OV             : Well_name    - WELL              
LOC .         07-20-084-09W4                 : Location     - LOCATION          
UWI .         00/07-20-084-09W400            : Uwi          - UNIQUE WELL ID    
ENTR.         JHS                            : Entered      - ENTERED BY        
SRVC.         DRESSER ATLAS                  : Scn          - SERVICE COMPANY   
DATE.         06 FEB 80                      : Date         - LOG DATE
STRT.M        220                            : top_depth    - START DEPTH       
STOP.M        459.992                        : bot_depth    - STOP DEPTH        
STEP.M        0.3                            : increment    - STEP LENGTH       
~CURVE INFORMATION BLOCK
#MNEM UNIT       ERCB CURVE CODE    CURVE DESCRIPTION
#-----------   ------------------   ----------------------------------
DEPT.M        00 001 00 00         : DEPTH        - DEPTH                       
DPHI.V/V      00 890 00 00         : PHID         - DENSITY POROSITY (LIMESTONE)
NPHI.V/V      00 330 00 00         : PHIN         - NEUTRON POROSITY (LIMESTONE)
GR  .API      00 310 00 00         : GR           - GAMMA RAY                   
ILD .OHMM     00 120 00 00         : RESD         - DEEP RESISTIVITY (DIL)      
~PARAMETER INFORMATION       
#MNEM.UNIT           DATA             DESCRIPTION OF MNEMONIC
#---------         -----------     ------------------------------
GL  .M        698.35               : gl           - GROUND LEVEL ELEVATION      
EREF.M        701.95               : kb           - ELEVATION OF DEPTH REFERENCE
DATM.M        701.95               : datum        - DATUM ELEVATION             
TDD .M        477                  : tdd          - TOTAL DEPTH DRILLER         
RUN .         ONE                  : Run          - RUN NUMBER                  
ENG .         BILL                 : Engineer     - RECORDING ENGINEER          
WIT .         JIM                  : Witness      - WITNESSED BY                
MUD .         GEL                  : Mud_type     - MUD TYPE                    
MATR.         LIMESTONE            : Logunit      - NEUTRON MATRIX              
TMAX.C        17                   : BHT          - MAXIMUM RECORDED TEMPERATURE
BHTD.M        477                  : BHTDEP       - MAXIMUM RECORDED TEMPERATURE
MATR.         1                    : LOGUNIT      - NEUTRON MATRIX              
RMT .C        25                   : MDTP         - TEMPERATURE OF MUD          
NEUT.         1                    : NEUTRON      - NEUTRON TYPE                
RESI.         0                    : RESIST       - RESISTIVITY TYPE            
RMC .OHMM     0.25                 : RMC          - RESISTIVITY OF MUD CAKE     
RMF .OHMM     0.25                 : RMF          - RESISTIVITY OF MUD FILTRATE 
SUFT.C        15                   : SUFT         - SURFACE TEMPERATURE         
~A  DEPTH     PHID     PHIN       GR     RESD
# ...
  324.398    0.243    0.433  109.186    6.834
  324.698    0.253    0.429  117.720    6.715
  324.998    0.263    0.413  101.958    7.245
  325.298    0.251    0.419  104.416    7.960
  325.598    0.235    0.460  104.446    7.970
  325.898    0.233    0.506  103.264    7.690
  326.198    0.230    0.536  130.618    6.397
  326.497    0.223    0.501  130.042    5.623
  326.797    0.219    0.507  122.175    3.957
  327.097    0.224    0.527  125.244    3.354
  327.397    0.231    0.491  122.842    3.358
  327.697    0.235    0.495  122.873    3.554
  327.997    0.234    0.503  120.472    3.763
  328.297    0.235    0.507  125.968    3.566
  328.597    0.238    0.517  130.245    3.376
  328.897    0.237    0.500  127.845    3.199
  329.197    0.243    0.487  132.734    3.201
  329.497    0.249    0.473  130.942    3.206
  329.797    0.250    0.429  120.647    3.394
  330.097    0.248    0.402  113.394    3.944
  330.397    0.237    0.362  110.381    4.581
  330.697    0.215    0.308  106.158    5.733
  330.997    0.231    0.271  102.545    7.443
  331.297    0.307    0.222  101.965   10.412
  331.597    0.303    0.218   93.494   16.584
  331.897    0.316    0.204   90.489   20.369
  332.197    0.352    0.180   76.548   33.054
  332.497    0.361    0.186   69.897   45.389
  332.797    0.350    0.196   71.143   62.323
  333.097    0.350    0.202   74.209   76.539
  333.397    0.350    0.204   74.844   82.572
  333.697    0.348    0.216   82.767   81.162
  333.997    0.346    0.227   73.688   76.862
  334.297    0.341    0.233   70.077   71.450
  334.597    0.339    0.244   76.781   65.216
  334.897    0.339    0.248   85.315   57.354
  335.197    0.340    0.253   77.448   49.493
  335.497    0.344    0.267   74.446   44.344
  335.797    0.347    0.279   74.469   41.992
  336.097    0.347    0.303   81.179   36.244
  336.397    0.335    0.316   83.640   29.582
  336.697    0.319    0.338   75.775   24.151
  336.997    0.303    0.386   73.983   20.085
  337.297    0.303    0.385   75.227   17.337
  337.597    0.307    0.367   75.860   16.128
  337.897    0.303    0.350   77.104   16.754
  338.197    0.270    0.297   71.670   20.197
  338.497    0.159    0.197   65.016   24.810
  338.797    0.215    0.211   58.368   31.630
  339.097    0.267    0.271   61.431   32.860
  339.397    0.289    0.370   69.358   26.835
  339.697    0.285    0.382   74.850   22.733
  339.997    0.283    0.382   72.455   18.903
  340.297    0.284    0.367   77.946   16.021
  340.597    0.288    0.375   76.153   14.897
  340.897    0.286    0.374   79.221   14.370
  341.197    0.275    0.358   81.678   14.125
  341.497    0.282    0.288   75.635   14.141
  341.797    0.284    0.259   70.811   14.702
  342.097    0.275    0.222   73.265   15.558
  342.397    0.236    0.180   68.436   18.079
  342.697    0.114    0.147   60.568   21.391
  342.997    0.005    0.084   52.095   30.481
  343.297    0.016    0.095   53.341   45.082
  343.597    0.053    0.131   51.551   59.640
  343.897    0.138    0.223   59.473   65.538
  344.197    0.220    0.265   66.184   44.433
  344.497    0.273    0.294   77.142   21.972
  344.797    0.274    0.377   85.064   16.656
  345.097    0.268    0.395   86.922   15.197
  345.397    0.262    0.399   79.050   14.397
  345.697    0.274    0.408   76.656   14.414
  345.997    0.270    0.411   78.503   14.983
  346.297    0.273    0.417   83.392   15.280
  346.597    0.269    0.403   77.345   15.586
  346.897    0.260    0.386   79.204   15.327
  347.197    0.269    0.404   76.194   15.064
  347.497    0.269    0.410   78.046   15.082
  347.797    0.266    0.399   78.682   14.824
  348.097    0.265    0.416   76.885   14.849
  348.397    0.260    0.411   81.773   14.869
  348.697    0.258    0.403   81.801   15.165
  348.997    0.268    0.396   80.014   15.468
  349.297    0.277    0.384   80.042   15.783
  349.597    0.272    0.387   80.682   15.800
  349.897    0.270    0.405   84.960   15.250
  350.197    0.272    0.418   91.666   14.177
  350.497    0.273    0.415   93.517   12.936
  350.797    0.272    0.428   93.546   11.805
  351.096    0.267    0.436   95.398   10.190
  351.396    0.255    0.460  104.540    8.794
  351.696    0.247    0.439  110.030    7.451
  351.996    0.234    0.415   93.664    6.927
  352.296    0.238    0.385   96.125    6.938
  352.596    0.239    0.390  105.263    7.621
  352.896    0.206    0.399   96.183    8.854
  353.196    0.166    0.384   88.315   10.676
  353.496    0.194    0.402  110.209   10.496
  353.796    0.234    0.421  112.064    9.939
  354.096    0.237    0.428  115.735    8.906
  354.396    0.237    0.418  116.368    8.278
  354.696    0.235    0.426  115.792    7.277
  354.996    0.234    0.440  115.818    6.052
  355.296    0.249    0.442  114.029    5.627
  355.596    0.254    0.431  108.592    5.429
  355.896    0.247    0.428  111.053    5.540
  356.196    0.238    0.427  116.546    5.863
  356.496    0.227    0.406  108.679    6.811
  356.796    0.216    0.383  105.070    8.062
  357.096    0.208    0.371  111.170    9.024
  357.396    0.222    0.360  102.085   10.103
  357.696    0.263    0.366  106.976   10.699
  357.996    0.242    0.381  107.002   10.708
  358.296    0.202    0.397  114.928    9.774
  358.596    0.196    0.409  109.490    9.085
  358.896    0.216    0.425  111.950    8.605
  359.196    0.208    0.427  117.443    8.000
  359.496    0.211    0.436  126.583    7.437
  359.796    0.218    0.453  122.371    6.788
  360.096    0.218    0.458  119.961    6.081
  360.396    0.225    0.442  119.385    5.549
  360.696    0.237    0.475  126.092    4.970
  360.996    0.237    0.521  130.374    4.452
  361.296    0.236    0.539  124.938    3.988
  361.596    0.237    0.520  134.076    3.507
  361.896    0.240    0.511  141.395    3.142
  362.196    0.240    0.499  145.675    3.031
  362.496    0.236    0.479  142.061    3.269
  362.796    0.233    0.469  126.297    3.660
  363.096    0.229    0.454  124.507    4.332
  363.396    0.216    0.412  125.749    5.222
  363.696    0.210    0.405  130.637    5.956
  363.996    0.207    0.409  131.274    6.667
  364.296    0.198    0.398  122.192    7.324
  364.596    0.182    0.409  122.225    8.050
  364.896    0.194    0.389  121.039    8.365
  365.196    0.219    0.378  125.322    8.694
  365.496    0.208    0.391  131.420    9.201
  365.796    0.199    0.389  125.375   10.111
  366.096    0.202    0.373  128.446   11.112
  366.396    0.205    0.379  127.866   11.985
  366.696    0.194    0.376  127.896   12.688
  366.996    0.180    0.371  120.634   13.430
  367.296    0.186    0.375  113.984   13.448
  367.596    0.184    0.383  124.337   12.981
  367.896    0.186    0.365  130.441   12.294
  368.196    0.196    0.352  132.897   11.859
  368.496    0.196    0.371  120.783   11.024
  368.796    0.189    0.382  118.381   10.064
  369.096    0.191    0.392  125.091    9.353
  369.396    0.206    0.401  117.833    8.695
  369.696    0.212    0.378  125.758    8.235
  369.996    0.213    0.353  127.615    8.094
  370.296    0.215    0.330  127.031    8.414
  370.596    0.221    0.317  120.992    9.419
  370.896    0.236    0.330  114.944   11.145
  371.196    0.236    0.351  113.161   13.192
  371.496    0.227    0.360  111.969   13.461
  371.796    0.211    0.367  112.602   12.745
  372.096    0.203    0.384  116.274   11.848
  372.396    0.203    0.381  122.381   10.618
  372.696    0.206    0.381  124.838    9.869
  372.996    0.200    0.396  118.186    9.175
  373.296    0.182    0.405  102.423    8.527
  373.596    0.177    0.399  109.135    7.784
  373.896    0.198    0.396  118.275    7.650
  374.196    0.206    0.394  118.914    7.660
  374.496    0.213    0.385  112.866    7.813
  374.796    0.224    0.386  117.146    8.588
  375.096    0.224    0.381  117.175    9.264
  375.396    0.222    0.380  121.459    9.450
  375.695    0.232    0.373  113.594    9.637
  375.995    0.241    0.360  103.901    9.833
  376.295    0.243    0.354  106.368   10.410
