~VERSION INFORMATION
 VERS.                 2.0:   CWLS LOG ASCII STANDARD -VERSION 2.0
 WRAP.                  NO:   ONE LINE PER DEPTH STEP
~WELL INFORMATION BLOCK
#MNEM.UNIT           DATA                    DESCRIPTION OF MNEMONIC
#---------    -------------------            -------------------------------
# Generated from Intellog Unique Number	CS_69_70/WELL/771
NULL.         -999.25                        : NULL_VALUE
WELL.         SULPETRO LIMITED               : Well_name    - WELL              
LOC .         00/06-16-070-09W4/0            : Location     - LOCATION          
UWI .         00/06-16-070-09W4/0            : Uwi          - UNIQUE WELL ID    
ENTR.         SP                             : Entered      - ENTERED BY        
SRVC.         SCHLUMBERGER                   : Scn          - SERVICE COMPANY   
STRT.M        260                            : top_depth    - START DEPTH       
STOP.M        480                            : bot_depth    - STOP DEPTH        
STEP.M        0.25                           : increment    - STEP LENGTH       
~CURVE INFORMATION BLOCK
#MNEM UNIT       ERCB CURVE CODE    CURVE DESCRIPTION
#-----------   ------------------   ----------------------------------
DEPT.M        00 001 00 00         : DEPTH        - DEPTH                       
ILD .OHMM     00 120 00 00         : RESD         - DEEP RESISTIVITY (DIL)      
DPHI.V/V      00 890 00 00         : PHID         - DENSITY POROSITY (LIMESTONE)
NPHI.V/V      00 330 00 00         : PHIN         - NEUTRON POROSITY (LIMESTONE)
GR  .API      00 310 00 00         : GR           - GAMMA RAY                   
~PARAMETER INFORMATION       
#MNEM.UNIT           DATA             DESCRIPTION OF MNEMONIC
#---------         -----------     ------------------------------
GL  .M        600.87               : gl           - GROUND LEVEL ELEVATION      
EREF.M        603.87               : kb           - ELEVATION OF DEPTH REFERENCE
DATM.M        600.87               : datum        - DATUM ELEVATION             
TDD .M        489                  : tdd          - TOTAL DEPTH DRILLER         
RUN .         ONE                  : Run          - RUN NUMBER                  
ENG .         BILL                 : Engineer     - RECORDING ENGINEER          
WIT .         JIM                  : Witness      - WITNESSED BY                
MUD .         GEL                  : Mud_type     - MUD TYPE                    
MATR.         LIMESTONE            : Logunit      - NEUTRON MATRIX              
TMAX.C        22                   : BHT          - MAXIMUM RECORDED TEMPERATURE
BHTD.M        489                  : BHTDEP       - MAXIMUM RECORDED TEMPERATURE
MATR.         1                    : LOGUNIT      - NEUTRON MATRIX              
RMT .C        25                   : MDTP         - TEMPERATURE OF MUD          
NEUT.         1                    : NEUTRON      - NEUTRON TYPE                
RESI.         0                    : RESIST       - RESISTIVITY TYPE            
RMC .OHMM     0.25                 : RMC          - RESISTIVITY OF MUD CAKE     
RMF .OHMM     0.25                 : RMF          - RESISTIVITY OF MUD FILTRATE 
SUFT.C        15                   : SUFT         - SURFACE TEMPERATURE         
~A  DEPTH     RESD     PHID     PHIN       GR
# ...
  434.000    7.225    0.258    0.398  106.643
  434.250    7.119    0.245    0.416   91.644
  434.500    7.094    0.197    0.311   81.522
  434.750    7.190    0.177    0.275   79.311
  435.000    7.166    0.178    0.303   88.344
  435.250    7.100    0.198    0.339   97.500
  435.500    6.725    0.231    0.370   93.065
  435.750    6.662    0.266    0.367   88.074
  436.000    6.394    0.274    0.384   86.788
  436.250    6.324    0.254    0.381   83.403
  436.500    6.277    0.234    0.319   79.091
  436.750    6.388    0.222    0.293   76.139
  437.000    6.438    0.210    0.308   78.930
  437.250    6.586    0.195    0.322   83.391
  437.500    6.791    0.185    0.310   89.150
  437.750    7.107    0.174    0.285  100.531
  438.000    7.162    0.167    0.294  112.098
  438.250    7.247    0.169    0.308  115.507
  438.500    7.249    0.169    0.312  117.003
  438.750    7.129    0.171    0.326  112.443
  439.000    7.023    0.174    0.325  106.587
  439.250    6.816    0.176    0.300  102.707
  439.500    6.616    0.169    0.286   99.445
  439.750    6.506    0.166    0.284   94.763
  440.000    6.279    0.173    0.311   87.424
  440.250    6.151    0.188    0.296   85.519
  440.500    5.914    0.194    0.273   87.509
  440.750    5.718    0.193    0.298   88.325
  441.000    5.466    0.201    0.308   85.311
  441.250    5.255    0.201    0.309   81.863
  441.500    4.995    0.199    0.305   85.460
  441.750    4.848    0.198    0.311   92.268
  442.000    4.696    0.143    0.322  106.429
  442.250    4.523    0.117    0.353  120.342
  442.500    4.415    0.100    0.388  130.055
  442.750    4.237    0.084    0.396  135.011
  443.000    4.190    0.073    0.394  132.058
  443.250    4.044    0.069    0.440  130.772
  443.500    3.954    0.130    0.468  128.006
  443.750    3.874    0.251    0.461  110.657
  444.000    3.724    0.275    0.385   92.134
  444.250    3.554    0.285    0.389   60.081
  444.500    3.410    0.292    0.367   41.066
  444.750    3.260    0.293    0.350   37.618
  445.000    3.134    0.297    0.339   40.167
  445.250    3.042    0.300    0.350   42.340
  445.500    2.958    0.302    0.359   45.441
  445.750    2.930    0.296    0.370   48.358
  446.000    2.931    0.290    0.376   51.274
  446.250    2.971    0.288    0.385   54.066
  446.500    3.075    0.296    0.390   56.303
  446.750    3.249    0.297    0.367   57.798
  447.000    3.400    0.293    0.333   56.823
  447.250    3.897    0.285    0.315   58.319
  447.500    3.972    0.275    0.300   62.717
  447.750    4.285    0.262    0.301   68.723
  448.000    4.409    0.253    0.318   74.666
  448.250    4.554    0.245    0.311   80.301
  448.500    4.677    0.234    0.300   85.318
  448.750    4.768    0.224    0.295   87.431
  449.000    4.778    0.217    0.321   87.691
  449.250    4.871    0.252    0.340   83.687
  449.500    4.974    0.241    0.334   82.280
  449.750    5.089    0.230    0.317   84.888
  450.000    5.470    0.225    0.319   88.607
  450.250    5.692    0.215    0.321   93.996
  450.500    5.879    0.202    0.315   98.148
  450.750    6.142    0.184    0.306  102.423
  451.000    6.368    0.161    0.299  106.328
  451.250    6.516    0.151    0.294  110.358
  451.500    6.617    0.149    0.303  113.583
  451.750    6.669    0.149    0.305  117.303
  452.000    6.671    0.150    0.329  122.012
  452.250    6.711    0.153    0.349  126.101
  452.500    6.675    0.158    0.366  129.077
  452.750    6.576    0.159    0.385  118.216
  453.000    6.123    0.160    0.264   85.793
  453.250    5.489    0.077    0.220   69.432
  453.500    4.894    0.141    0.280   55.049
  453.750    4.471    0.196    0.317   48.328
  454.000    4.210    0.245    0.332   52.480
  454.250    4.156    0.253    0.347   56.077
  454.500    4.285    0.266    0.353   52.690
  454.750    4.442    0.280    0.311   55.792
  455.000    4.588    0.274    0.325   68.038
  455.250    4.749    0.251    0.325   87.699
  455.500    4.840    0.229    0.282  101.364
  455.750    4.897    0.197    0.258  113.424
  456.000    4.690    0.165    0.257  123.014
  456.250    4.391    0.161    0.277  130.502
  456.500    4.151    0.162    0.304  135.396
  456.750    3.998    0.169    0.355  137.324
  457.000    4.068    0.174    0.371  139.746
  457.250    4.258    0.173    0.414  138.646
  457.500    4.456    0.175    0.452  133.964
  457.750    4.717    0.173    0.480  128.480
  458.000    5.022    0.145    0.457  123.487
  458.250    5.266    0.128    0.437  118.926
  458.500    5.480    0.147    0.415  113.131
  458.750    5.682    0.163    0.354  108.818
  459.000    5.836    0.165    0.272  107.904
  459.250    6.051    0.153    0.337  126.946
  459.500    6.417    0.141    0.401  134.867
  459.750    6.832    0.146    0.461  134.385
  460.000    7.328    0.154    0.488  120.991
  460.250    7.656    0.121    0.410   92.769
  460.500    7.848    0.071    0.260   73.938
  460.750    7.488    0.112    0.277   53.994
  461.000    6.428    0.203    0.303   59.938
  461.250    5.655    0.211    0.298   67.860
  461.500    4.818    0.211    0.295   74.484
  461.750    4.344    0.224    0.318   73.569
  462.000    3.859    0.258    0.339   62.583
  462.250    3.695    0.271    0.316   55.491
  462.500    3.473    0.258    0.316   56.926
  462.750    3.314    0.260    0.339   57.988
  463.000    3.247    0.270    0.351   50.648
  463.250    3.278    0.280    0.352   50.537
  463.500    3.286    0.270    0.313   56.048
  463.750    3.293    0.241    0.304   61.870
  464.000    3.306    0.227    0.321   59.410
  464.250    3.332    0.281    0.348   47.251
  464.500    3.371    0.262    0.324   43.804
  464.750    3.391    0.243    0.306   51.910
  465.000    3.323    0.233    0.336   59.214
  465.250    3.194    0.275    0.352   47.425
  465.500    3.077    0.305    0.340   40.394
  465.750    3.031    0.318    0.330   34.353
  466.000    3.032    0.320    0.325   32.203
  466.250    3.079    0.286    0.318   39.879
  466.500    3.156    0.262    0.310   47.365
  466.750    3.218    0.239    0.364   57.016
  467.000    3.206    0.232    0.394   53.260
  467.250    3.123    0.272    0.400   48.330
  467.500    3.049    0.277    0.371   44.820
  467.750    3.021    0.273    0.350   43.721
  468.000    2.983    0.267    0.342   43.487
  468.250    2.983    0.253    0.338   44.178
  468.500    2.984    0.250    0.351   45.737
  468.750    2.979    0.264    0.379   45.811
  469.000    2.958    0.271    0.371   43.043
  469.250    2.920    0.263    0.339   40.522
  469.500    2.893    0.253    0.324   45.233
  469.750    2.861    0.259    0.338   48.209
  470.000    2.808    0.277    0.359   44.514
  470.250    2.777    0.297    0.378   38.102
  470.500    2.752    0.296    0.344   35.642
  470.750    2.722    0.285    0.325   35.038
  471.000    2.707    0.276    0.313   35.853
  471.250    2.688    0.272    0.329   40.131
  471.500    2.673    0.272    0.325   41.994
  471.750    2.669    0.273    0.343   40.401
  472.000    2.670    0.291    0.359   38.313
  472.250    2.701    0.298    0.354   36.657
  472.500    2.748    0.294    0.344   36.794
  472.750    2.812    0.288    0.333   37.857
  473.000    2.904    0.272    0.315   40.897
  473.250    3.022    0.254    0.330   46.840
  473.500    3.373    0.241    0.353   54.020
  473.750    4.208    0.250    0.293   54.774
  474.000    8.528    0.243    0.206   53.056
  474.250   11.365    0.125    0.113   47.755
  474.500   14.641    0.028    0.106   39.181
  474.750   18.059   -0.004    0.103   32.213
  475.000   21.941   -0.012    0.099   28.640
  475.250   23.052   -0.013    0.095   26.862
  475.500   23.278   -0.008    0.091   21.376
  475.750   23.373    0.000    0.089   19.040
  476.000   23.423    0.010    0.101   21.401
  476.250   23.298    0.012    0.111   25.616
  476.500   23.303    0.009    0.118   30.139
  476.750   23.623    0.002    0.123   33.796
  477.000   23.718    0.008    0.134   35.786
  477.250   23.906    0.019    0.142   36.354
