~VERSION INFORMATION
 VERS.                 2.0:   CWLS LOG ASCII STANDARD -VERSION 2.0
 WRAP.                  NO:   ONE LINE PER DEPTH STEP
~WELL INFORMATION BLOCK
#MNEM.UNIT           DATA                    DESCRIPTION OF MNEMONIC
#---------    -------------------            -------------------------------
# Generated from Intellog Unique Number	CX_WELLS/WELL/3707
WELL.         HANGINGSTONE                   : Well_name    - WELL
LOC .         00/06-23-085-11W4/0            : Location     - LOCATION
UWI .         00/06-23-085-11W400            : Uwi          - UNIQUE WELL ID
ENTR.         T                              : Entered      - ENTERED BY
SRVC.         SCHLUMBERGER                   : Scn          - SERVICE COMPANY
DATE.         03/04/92                       : Date         - LOG DATE
STRT.M        100                            : top_depth    - START DEPTH
STOP.M        275                            : bot_depth    - STOP DEPTH
STEP.M        0.25                           : increment    - STEP LENGTH
 NULL. -999.2500:NULL Value
~CURVE INFORMATION BLOCK
#MNEM UNIT       ERCB CURVE CODE    CURVE DESCRIPTION
#-----------   ------------------   ----------------------------------
DEPT.M        00 001 00 00         : DEPTH        - DEPTH
GR  .API      00 310 00 00         : GR           - GAMMA RAY
NPHI.V/V      00 330 00 00         : PHIN         - NEUTRON POROSITY (SANDSTONE)
DPHI.V/V      00 890 00 00         : PHID         - DENSITY POROSITY (SANDSTONE)
ILD .OHMM     00 120 00 00         : RESD         - DEEP RESISTIVITY (DIL)
~PARAMETER INFORMATION
#MNEM.UNIT           DATA             DESCRIPTION OF MNEMONIC
#---------         -----------     ------------------------------
GL  .M        520                  : gl           - GROUND LEVEL ELEVATION
EREF.M        524.9                : kb           - ELEVATION OF DEPTH REFERENCE
DATM.M        524.9                : datum        - DATUM ELEVATION
TDD .M        281                  : tdd          - TOTAL DEPTH DRILLER
RUN .         ONE                  : Run          - RUN NUMBER
ENG .         JO                   : Engineer     - RECORDING ENGINEER
WIT .         TIM                  : Witness      - WITNESSED BY
MUD .         GEL                  : Mud_type     - MUD TYPE
MATR.         SANDSTONE            : Logunit      - NEUTRON MATRIX
TMAX.C        26                   : BHT          - MAXIMUM RECORDED TEMPERATURE
BHTD.M        283                  : BHTDEP       - MAXIMUM RECORDED TEMPERATURE
RMT .C        18                   : MDTP         - TEMPERATURE OF MUD
MUDD.KG/M     1                    : MWT          - MUD DENSITY
NEUT.         1                    : NEUTRON      - NEUTRON TYPE
RESI.         0                    : RESIST       - RESISTIVITY TYPE
RM  .OHMM     3.7                  : RM           - RESISTIVITY OF MUD
RMC .OHMM     2.9                  : RMC          - RESISTIVITY OF MUD CAKE
RMF .OHMM     3.4                  : RMF          - RESISTIVITY OF MUD FILTRATE
SUFT.C        4                    : SUFT         - SURFACE TEMPERATURE
~A  DEPTH       GR     PHIN     PHID     RESD
# ...
  143.500   85.472    0.415    0.307    8.316
  143.750   89.081    0.428    0.316    6.655
  144.000   92.096    0.439    0.326    5.426
  144.250   91.545    0.442    0.331    4.857
  144.500   87.439    0.446    0.345    4.599
  144.750   86.293    0.447    0.370    4.603
  145.000   86.336    0.435    0.314    5.356
  145.250   85.785    0.426    0.293    7.364
  145.500   85.234    0.423    0.320    7.949
  145.750   84.683    0.425    0.326    8.415
  146.000   84.132    0.424    0.320    9.083
  146.250   82.986    0.414    0.309    9.095
  146.500   83.029    0.411    0.300    9.107
  146.750   84.251    0.408    0.283    9.288
  147.000   85.483    0.404    0.202   10.025
  147.250   86.736    0.410    0.209   11.236
  147.500   85.590    0.415    0.255   11.679
  147.750   84.423    0.415    0.263   11.907
  148.000   79.128    0.404    0.266   12.147
  148.250   77.377    0.385    0.125   12.397
  148.500   73.260    0.358    0.075   12.647
  148.750   66.171    0.327    0.072   13.150
  149.000   66.809    0.296    0.134   13.411
  149.250   73.390    0.320    0.189   14.203
  149.500   77.594    0.371    0.238   14.222
  149.750   78.253    0.423    0.286   12.966
  150.000   75.918    0.421    0.289   11.396
  150.250   74.178    0.429    0.274   10.012
  150.500   73.011    0.445    0.272    9.301
  150.750   75.454    0.438    0.319    9.144
  151.000   79.052    0.428    0.325    9.156
  151.250   83.850    0.425    0.330    8.829
  151.500   86.876    0.430    0.331    7.903
  151.750   85.136    0.430    0.340    7.213
  152.000   83.990    0.431    0.361    6.955
  152.250   85.233    0.431    0.347    6.962
  152.500   86.444    0.432    0.329    6.720
  152.750   88.270    0.434    0.347    6.482
  153.000   90.690    0.437    0.368    6.366
  153.250   90.150    0.433    0.399    5.701
  153.500   87.816    0.422    0.436    5.397
  153.750   85.471    0.413    0.459    5.204
  154.000   87.891    0.402    0.500    4.929
  154.250   93.294    0.407    0.513    5.028
  154.500   95.715    0.414    0.498    5.128
  154.750   94.570    0.407    0.234    5.640
  155.000   94.613    0.394    0.252    6.085
  155.250   92.873    0.396    0.296    6.442
  155.500   89.944    0.405    0.314    6.822
  155.750   89.987    0.423    0.337    6.707
  156.000   94.796    0.436    0.380    6.119
  156.250   96.028    0.442    0.406    5.577
  156.500   97.260    0.435    0.394    4.902
  156.750   99.076    0.425    0.373    4.307
  157.000  100.913    0.419    0.360    3.784
  157.250   99.767    0.420    0.356    3.582
  157.500   98.016    0.431    0.366    3.455
  157.750   93.305    0.446    0.458    3.460
  158.000   93.348    0.463    0.545    3.465
  158.250   95.174    0.447    0.551    3.740
  158.500   96.406    0.424    0.331    3.959
  158.750   98.838    0.398    0.323    4.115
  159.000  100.653    0.406    0.311    4.277
  159.250  101.301    0.418    0.289    4.530
  159.500  100.167    0.439    0.261    4.621
  159.750   97.811    0.465    0.217    4.713
  160.000   92.505    0.457    0.197    4.902
  160.250   86.605    0.451    0.171    4.905
  160.500   87.836    0.453    0.262    5.099
  160.750   90.862    0.446    0.288    5.403
  161.000   93.283    0.437    0.333    5.616
  161.250   92.137    0.440    0.358    5.728
  161.500   88.614    0.453    0.387    5.954
  161.750   85.081    0.484    0.417    5.745
  162.000   83.946    0.490    0.261    5.540
  162.250   83.989    0.478    0.297    5.345
  162.500   83.438    0.453    0.323    5.556
  162.750   84.065    0.425    0.375    5.995
  163.000   87.101    0.440    0.417    6.114
  163.250   84.162    0.465    0.456    5.902
  163.500   86.593    0.423    0.439    5.691
  163.750   91.380    0.420    0.341    5.591
  164.000   89.641    0.435    0.275    5.497
  164.250   84.929    0.455    0.249    5.504
  164.500   80.217    0.445    0.261    5.939
  164.750   81.449    0.437    0.288    6.526
  165.000   88.030    0.443    0.304    7.591
  165.250   91.045    0.448    0.319    8.665
  165.500   88.117    0.456    0.319    9.177
  165.750   84.615    0.457    0.319    9.539
  166.000   84.043    0.454    0.318    9.728
  166.250   83.491    0.450    0.315    9.925
  166.500   82.951    0.448    0.313   10.128
  166.750   81.795    0.440    0.306   10.329
  167.000   80.055    0.435    0.301   10.538
  167.250   83.091    0.429    0.298   10.754
  167.500   84.907    0.417    0.279   10.968
  167.750   84.950    0.399    0.224   10.982
  168.000   82.627    0.348    0.151   11.208
  168.250   81.460    0.333    0.131   11.219
  168.500   79.125    0.337    0.171   11.234
  168.750   80.951    0.369    0.214   11.461
  169.000   82.194    0.429    0.260   11.479
  169.250   79.255    0.442    0.291   11.491
  169.500   75.743    0.435    0.293   11.293
  169.750   78.163    0.436    0.297   10.897
  170.000   80.573    0.438    0.304   10.706
  170.250   81.211    0.439    0.307   10.521
  170.500   83.653    0.441    0.304   10.340
  170.750   85.479    0.443    0.301   10.354
  171.000   85.522    0.444    0.296   10.374
  171.250   84.971    0.445    0.291   10.385
  171.500   85.014    0.443    0.290   10.203
  171.750   85.047    0.435    0.290   10.223
  172.000   84.517    0.434    0.290   10.236
  172.250   83.944    0.434    0.287   10.440
  172.500   81.632    0.434    0.279   10.654
  172.750   79.881    0.425    0.262   10.665
  173.000   74.575    0.396    0.192   10.682
  173.250   64.504    0.385    0.108   10.693
  173.500   57.998    0.340    0.059   10.512
  173.750   51.504    0.211    0.022   10.334
  174.000   53.330    0.257   -0.002   10.150
  174.250   59.911    0.299    0.030    9.794
  174.500   74.823    0.437    0.045    9.447
  174.750   82.010    0.449    0.315    9.116
  175.000   82.647    0.454    0.371    8.953
  175.250   83.285    0.447    0.386    8.802
  175.500   85.111    0.430    0.374    8.333
  175.750   85.143    0.419    0.368    7.459
  176.000   84.592    0.421    0.379    7.193
  176.250   84.041    0.430    0.387    6.443
  176.500   84.084    0.444    0.387    6.213
  176.750   84.722    0.442    0.390    6.104
  177.000   85.359    0.441    0.396    5.781
  177.250   86.008    0.469    0.412    5.372
  177.500   86.645    0.505    0.498    4.990
  177.750   89.660    0.531    0.534    4.724
  178.000   91.486    0.492    0.483    4.820
  178.250   91.530    0.452    0.436    5.104
  178.500   90.384    0.453    0.403    5.307
  178.750   89.855    0.453    0.387    5.620
  179.000   89.876    0.448    0.311    5.734
  179.250   89.325    0.438    0.276    5.958
  179.500   87.596    0.423    0.269    6.193
  179.750   86.440    0.415    0.278    6.563
  180.000   84.116    0.425    0.284    6.693
  180.250   84.754    0.436    0.277    6.959
  180.500   85.975    0.445    0.275    7.100
  180.750   87.801    0.451    0.269    7.105
  181.000   87.844    0.447    0.264    7.248
  181.250   87.293    0.442    0.275    7.258
  181.500   84.970    0.436    0.272    7.404
  181.750   83.230    0.428    0.273    7.414
  182.000   83.273    0.422    0.278    7.286
  182.250   85.694    0.413    0.283    7.161
  182.500   86.331    0.407    0.314    7.173
  182.750   84.591    0.407    0.340    6.921
  183.000   82.851    0.413    0.277    6.802
  183.250   82.300    0.419    0.304    6.683
  183.500   82.938    0.422    0.399    6.446
  183.750   82.387    0.423    0.476    6.218
  184.000   81.835    0.421    0.529    5.998
  184.250   81.879    0.419    0.416    5.895
  184.500   81.922    0.419    0.349    5.686
  184.750   84.332    0.419    0.319    5.381
  185.000   90.329    0.420    0.317    5.095
  185.250   89.789    0.419    0.386    4.736
  185.500   88.643    0.417    0.430    4.567
  185.750   89.281    0.417    0.412    4.244
  186.000   90.513    0.416    0.365    4.093
  186.250   92.933    0.415    0.361    3.877
  186.500   97.721    0.411    0.370    3.810
  186.750  104.302    0.408    0.330    3.743
