~VERSION INFORMATION
 VERS.                 2.0:   CWLS LOG ASCII STANDARD -VERSION 2.0
 WRAP.                  NO:   ONE LINE PER DEPTH STEP
~WELL INFORMATION BLOCK
#MNEM.UNIT           DATA                    DESCRIPTION OF MNEMONIC
#---------    -------------------            -------------------------------
# Generated from Intellog Unique Number	CS_71_72/WELL/834
WELL.         KISSINGER ET AL TWEEDIE        : Well_name    - WELL
LOC .         00/08-01-072-12W4/0            : Location     - LOCATION
UWI .         00/08-01-072-12W4/0            : Uwi          - UNIQUE WELL ID
ENTR.         SP                             : Entered      - ENTERED BY
SRVC.         SCHLUMBERGER                   : Scn          - SERVICE COMPANY
STRT.M        290                            : top_depth    - START DEPTH
STOP.M        510                            : bot_depth    - STOP DEPTH
STEP.M        0.25                           : increment    - STEP LENGTH
 NULL. -999.2500:NULL Value
~CURVE INFORMATION BLOCK
#MNEM UNIT       ERCB CURVE CODE    CURVE DESCRIPTION
#-----------   ------------------   ----------------------------------
DEPT.M        00 001 00 00         : DEPTH        - DEPTH
GR  .API      00 310 00 00         : GR           - GAMMA RAY
NPHI.V/V      00 330 00 00         : PHIN         - NEUTRON POROSITY (LIMESTONE)
DPHI.V/V      00 890 00 00         : PHID         - DENSITY POROSITY (LIMESTONE)
ILD .OHMM     00 120 00 00         : RESD         - DEEP RESISTIVITY (DIL)
~PARAMETER INFORMATION
#MNEM.UNIT           DATA             DESCRIPTION OF MNEMONIC
#---------         -----------     ------------------------------
GL  .M        626.5                : gl           - GROUND LEVEL ELEVATION
EREF.M        630                  : kb           - ELEVATION OF DEPTH REFERENCE
DATM.M        626.5                : datum        - DATUM ELEVATION
TDD .M        522.6                : tdd          - TOTAL DEPTH DRILLER
RUN .         ONE                  : Run          - RUN NUMBER
ENG .         BILL                 : Engineer     - RECORDING ENGINEER
WIT .         JIM                  : Witness      - WITNESSED BY
MUD .         GEL                  : Mud_type     - MUD TYPE
MATR.         LIMESTONE            : Logunit      - NEUTRON MATRIX
TMAX.C        20                   : BHT          - MAXIMUM RECORDED TEMPERATURE
BHTD.M        522.6                : BHTDEP       - MAXIMUM RECORDED TEMPERATURE
MATR.         1                    : LOGUNIT      - NEUTRON MATRIX
RMT .C        25                   : MDTP         - TEMPERATURE OF MUD
NEUT.         1                    : NEUTRON      - NEUTRON TYPE
RESI.         0                    : RESIST       - RESISTIVITY TYPE
RMC .OHMM     0.25                 : RMC          - RESISTIVITY OF MUD CAKE
RMF .OHMM     0.25                 : RMF          - RESISTIVITY OF MUD FILTRATE
SUFT.C        15                   : SUFT         - SURFACE TEMPERATURE
~A  DEPTH       GR     PHIN     PHID     RESD
# ...
  464.000   90.484    0.359    0.209    8.814
  464.250   91.709    0.367    0.222    8.241
  464.500   91.710    0.370    0.242    8.160
  464.750   94.159    0.367    0.250    8.078
  465.000   97.833    0.375    0.241    7.587
  465.250  103.345    0.392    0.210    7.342
  465.500  105.794    0.384    0.199    6.933
  465.750  109.468    0.375    0.196    6.687
  466.000  111.306    0.385    0.203    6.278
  466.250  113.143    0.383    0.219    6.279
  466.500  113.756    0.368    0.233    6.607
  466.750  103.961    0.358    0.236    7.018
  467.000  102.737    0.386    0.213    7.182
  467.250  108.860    0.390    0.202    7.347
  467.500  116.208    0.379    0.192    7.594
  467.750  120.494    0.367    0.226    8.086
  468.000  113.760    0.338    0.250    8.742
  468.250  105.802    0.315    0.263    9.891
  468.500   92.945    0.337    0.256   10.219
  468.750   80.089    0.362    0.241   10.548
  469.000   66.008    0.363    0.230   10.303
  469.250   73.356    0.359    0.233    9.975
  469.500   77.030    0.357    0.229    9.156
  469.750   78.867    0.346    0.208    8.747
  470.000   80.704    0.335    0.244    8.666
  470.250   81.317    0.321    0.247    9.158
  470.500   81.318    0.309    0.229   10.470
  470.750   77.645    0.303    0.254   10.881
  471.000   70.911    0.298    0.273   11.619
  471.250   66.014    0.300    0.251   12.112
  471.500   67.239    0.314    0.224   12.276
  471.750   71.526    0.342    0.214   12.277
  472.000   69.689    0.337    0.231   11.868
  472.250   68.466    0.332    0.236   11.540
  472.500   73.365    0.324    0.224   11.049
  472.750   75.202    0.319    0.213   10.722
  473.000   77.039    0.321    0.219   10.231
  473.250   75.816    0.325    0.214    9.576
  473.500   81.326    0.326    0.201    9.330
  473.750   86.225    0.326    0.194    9.003
  474.000   87.450    0.308    0.202    8.922
  474.250   73.369    0.281    0.239   10.808
  474.500   59.901    0.278    0.273   12.366
  474.750   48.269    0.295    0.289   13.514
  475.000   42.759    0.308    0.268   13.843
  475.250   48.270    0.341    0.254   13.270
  475.500   54.393    0.336    0.235   12.123
  475.750   66.027    0.331    0.235   10.976
  476.000   76.435    0.351    0.180    9.501
  476.250   85.620    0.416    0.158    7.534
  476.500   94.804    0.421    0.141    6.060
  476.750  102.764    0.440    0.130    5.159
  477.000  110.112    0.450    0.107    4.586
  477.250  101.541    0.459    0.047    4.258
  477.500  110.725    0.525    0.012    4.177
  477.750  119.298    0.501    0.061    4.588
  478.000  126.645    0.408    0.146    5.818
  478.250  131.544    0.338    0.178    7.212
  478.500  115.626    0.218    0.278   10.819
  478.750   88.688    0.206    0.353   12.377
  479.000   63.587    0.194    0.357   13.115
  479.250   56.240    0.258    0.339   11.477
  479.500   61.139    0.293    0.315    6.641
  479.750   64.201    0.322    0.291    4.920
  480.000   61.753    0.342    0.282    4.019
  480.250   56.243    0.348    0.268    3.364
  480.500   59.917    0.347    0.244    3.283
  480.750   62.367    0.351    0.222    3.366
  481.000   62.980    0.352    0.213    3.695
  481.250   69.715    0.349    0.228    3.941
  481.500   74.614    0.347    0.240    4.105
  481.750   77.676    0.353    0.252    4.188
  482.000   72.779    0.344    0.265    4.189
  482.250   66.045    0.340    0.252    4.189
  482.500   68.494    0.332    0.222    4.436
  482.750   77.067    0.335    0.202    4.929
  483.000   83.190    0.341    0.188    5.175
  483.250   86.251    0.348    0.176    5.503
  483.500   89.926    0.336    0.166    5.996
  483.750   92.376    0.327    0.188    6.242
  484.000   94.825    0.322    0.203    6.489
  484.250   99.112    0.341    0.213    6.572
  484.500  102.786    0.357    0.191    6.409
  484.750  108.909    0.375    0.192    6.327
  485.000  115.032    0.363    0.180    6.328
  485.250  115.645    0.358    0.169    6.574
  485.500  107.687    0.354    0.208    7.067
  485.750   99.116    0.351    0.231    7.477
  486.000   88.708    0.330    0.259    8.380
  486.250   77.688    0.317    0.215    9.118
  486.500   70.954    0.299    0.175    9.610
  486.750   85.649    0.273    0.049    9.693
  487.000   83.813    0.290    0.001    9.530
  487.250   79.528    0.325    0.037    9.120
  487.500   77.692    0.341    0.192    8.711
  487.750   83.203    0.332    0.167    9.614
  488.000   88.101    0.344    0.195   11.254
  488.250   74.633    0.320    0.275   13.221
  488.500   54.429    0.328    0.317   15.681
  488.750   37.899    0.353    0.307   16.747
  489.000   30.553    0.369    0.286   16.174
  489.250   28.717    0.370    0.278   12.076
  489.500   32.391    0.359    0.261   10.028
  489.750   39.739    0.358    0.257    9.045
  490.000   54.434    0.355    0.248    8.308
  490.250   61.781    0.362    0.256    8.145
  490.500   64.231    0.360    0.265    7.981
  490.750   64.231    0.346    0.260    7.900
  491.000   61.783    0.332    0.254    7.491
  491.250   53.212    0.337    0.267    7.000
  491.500   42.805    0.344    0.272    6.509
  491.750   34.847    0.352    0.275    5.853
  492.000   31.786    0.342    0.280    5.280
  492.250   29.950    0.337    0.284    4.871
  492.500   34.849    0.335    0.272    4.462
  492.750   44.033    0.346    0.266    4.299
  493.000   58.727    0.335    0.259    4.381
  493.250   69.749    0.335    0.249    4.628
  493.500   72.811    0.325    0.235    4.875
  493.750   70.975    0.306    0.222    4.957
  494.000   70.975    0.296    0.209    4.958
  494.250   72.813    0.303    0.201    4.549
  494.500   72.813    0.325    0.241    4.221
  494.750   64.243    0.344    0.256    3.648
  495.000   54.447    0.359    0.277    3.403
  495.250   42.815    0.349    0.298    3.076
  495.500   37.306    0.348    0.289    2.994
  495.750   30.572    0.355    0.277    2.913
  496.000   26.899    0.354    0.289    2.914
  496.250   27.512    0.347    0.281    3.078
  496.500   35.472    0.363    0.283    3.079
  496.750   45.881    0.373    0.288    3.326
  497.000   53.841    0.375    0.254    3.408
  497.250   63.637    0.376    0.264    3.655
  497.500   70.373    0.370    0.278    4.066
  497.750   76.496    0.354    0.288    4.312
  498.000   81.394    0.333    0.276    4.640
  498.250   86.293    0.326    0.216    4.969
  498.500   91.804    0.321    0.159    5.297
  498.750   97.315    0.326    0.148    5.626
  499.000  102.214    0.339    0.139    5.790
  499.250  105.888    0.353    0.179    5.627
  499.500  106.501    0.353    0.208    5.546
  499.750   93.644    0.359    0.236    5.547
  500.000   82.012    0.358    0.251    5.629
  500.250   77.115    0.353    0.265    5.630
  500.500   74.667    0.352    0.276    5.548
  500.750   74.055    0.350    0.264    5.303
  501.000   73.444    0.353    0.244    5.058
  501.250   73.445    0.344    0.239    4.813
  501.500   73.445    0.337    0.217    4.649
  501.750   70.997    0.325    0.188    4.486
  502.000   69.773    0.316    0.186    4.159
  502.250   65.488    0.311    0.198    4.078
  502.500   63.040    0.343    0.216    3.832
  502.750   62.428    0.343    0.250    3.505
  503.000   62.429    0.337    0.249    3.424
  503.250   66.715    0.331    0.238    3.342
  503.500   67.940    0.337    0.273    3.179
  503.750   66.105    0.339    0.291    3.180
  504.000   64.268    0.350    0.276    3.180
  504.250   59.371    0.348    0.270    3.263
  504.500   59.984    0.325    0.275    3.346
  504.750   62.434    0.274    0.273    3.674
  505.000   63.659    0.236    0.234    4.249
  505.250   64.884    0.213    0.004    6.134
  505.500   64.885    0.210   -0.000   22.863
  505.750   42.232    0.205   -0.000   26.987
  506.000   39.172    0.215    0.006   36.010
  506.250   40.397    0.223    0.009   44.214
  506.500   40.398    0.187    0.016   49.154
  506.750   38.562    0.167    0.010   50.011
  507.000   22.032    0.161    0.002   48.429
  507.250   16.522    0.149    0.022   44.405
