~VERSION INFORMATION
 VERS.                 2.0:   CWLS LOG ASCII STANDARD -VERSION 2.0
 WRAP.                  NO:   ONE LINE PER DEPTH STEP
~WELL INFORMATION BLOCK
#MNEM.UNIT           DATA                    DESCRIPTION OF MNEMONIC
#---------    -------------------            -------------------------------
# Generated from Intellog Unique Number	CS_77_79/WELL/899
WELL.         BRALORNE RESOURCES LIMITED     : Well_name    - WELL
LOC .         00/07-16-077-14W4/0            : Location     - LOCATION
UWI .         00/07-16-077-14W4/0            : Uwi          - UNIQUE WELL ID
ENTR.         SP                             : Entered      - ENTERED BY
SRVC.         SCHLUMBERGER                   : Scn          - SERVICE COMPANY
STRT.M        280                            : top_depth    - START DEPTH
STOP.M        530                            : bot_depth    - STOP DEPTH
STEP.M        0.25                           : increment    - STEP LENGTH
 NULL. -999.2500:NULL Value
~CURVE INFORMATION BLOCK
#MNEM UNIT       ERCB CURVE CODE    CURVE DESCRIPTION
#-----------   ------------------   ----------------------------------
DEPT.M        00 001 00 00         : DEPTH        - DEPTH
ILD .OHMM     00 120 00 00         : RESD         - DEEP RESISTIVITY (DIL)
DPHI.V/V      00 890 00 00         : PHID         - DENSITY POROSITY (LIMESTONE)
NPHI.V/V      00 330 00 00         : PHIN         - NEUTRON POROSITY (LIMESTONE)
GR  .API      00 310 00 00         : GR           - GAMMA RAY
~PARAMETER INFORMATION
#MNEM.UNIT           DATA             DESCRIPTION OF MNEMONIC
#---------         -----------     ------------------------------
GL  .M        683.2                : gl           - GROUND LEVEL ELEVATION
EREF.M        686.9                : kb           - ELEVATION OF DEPTH REFERENCE
DATM.M        683.2                : datum        - DATUM ELEVATION
TDD .M        530                  : tdd          - TOTAL DEPTH DRILLER
RUN .         ONE                  : Run          - RUN NUMBER
ENG .         BILL                 : Engineer     - RECORDING ENGINEER
WIT .         JIM                  : Witness      - WITNESSED BY
MUD .         GEL                  : Mud_type     - MUD TYPE
MATR.         LIMESTONE            : Logunit      - NEUTRON MATRIX
TMAX.C        30                   : BHT          - MAXIMUM RECORDED TEMPERATURE
BHTD.M        530                  : BHTDEP       - MAXIMUM RECORDED TEMPERATURE
MATR.         1                    : LOGUNIT      - NEUTRON MATRIX
RMT .C        25                   : MDTP         - TEMPERATURE OF MUD
NEUT.         1                    : NEUTRON      - NEUTRON TYPE
RESI.         0                    : RESIST       - RESISTIVITY TYPE
RMC .OHMM     0.25                 : RMC          - RESISTIVITY OF MUD CAKE
RMF .OHMM     0.25                 : RMF          - RESISTIVITY OF MUD FILTRATE
SUFT.C        15                   : SUFT         - SURFACE TEMPERATURE
~A  DEPTH     RESD     PHID     PHIN       GR
# ...
  367.000   18.767    0.343    0.380   39.992
  367.250   18.771    0.365    0.374   40.005
  367.500   18.782    0.357    0.352   40.631
  367.750   18.434    0.361    0.346   42.479
  368.000   18.093    0.362    0.349   43.712
  368.250   17.760    0.362    0.353   44.335
  368.500   17.431    0.359    0.360   43.120
  368.750   17.113    0.357    0.384   45.582
  369.000   16.795    0.359    0.393   49.271
  369.250   16.802    0.363    0.386   51.112
  369.500   16.806    0.364    0.381   52.349
  369.750   16.498    0.365    0.379   49.304
  370.000   16.193    0.365    0.367   48.697
  370.250   16.197    0.364    0.365   49.326
  370.500   16.204    0.362    0.370   49.947
  370.750   15.907    0.360    0.372   51.792
  371.000   15.614    0.360    0.377   51.803
  371.250   15.617    0.360    0.386   51.202
  371.500   15.330    0.359    0.388   52.438
  371.750   15.333    0.358    0.394   54.290
  372.000   15.052    0.356    0.399   53.073
  372.250   15.056    0.355    0.399   50.025
  372.500   15.062    0.355    0.391   48.811
  372.750   14.784    0.356    0.398   49.433
  373.000   15.071    0.359    0.398   51.280
  373.250   15.075    0.361    0.394   53.745
  373.500   15.368    0.363    0.394   54.977
  373.750   15.372    0.364    0.400   56.827
  374.000   15.381    0.364    0.404   55.610
  374.250   15.385    0.365    0.406   55.011
  374.500   15.389    0.359    0.393   57.472
  374.750   15.394    0.311    0.386   59.320
  375.000   15.399    0.275    0.383   59.940
  375.250   15.698    0.259    0.381   57.504
  375.500   15.702    0.276    0.379   52.005
  375.750   16.007    0.308    0.384   50.180
  376.000   16.014    0.335    0.390   51.415
  376.250   16.018    0.349    0.405   53.872
  376.500   15.430    0.352    0.407   58.786
  376.750   14.861    0.350    0.390   60.019
  377.000   14.586    0.341    0.374   63.706
  377.250   14.317    0.336    0.368   68.616
  377.500   14.052    0.331    0.371   71.684
  377.750   13.536    0.333    0.388   78.433
  378.000   13.285    0.334    0.411   81.503
  378.250   12.321    0.321    0.407   79.066
  378.500   12.093    0.314    0.406   74.792
  378.750   12.097    0.290    0.407   74.805
  379.000   12.101    0.277    0.379   77.265
  379.250   12.574    0.288    0.367   76.659
  379.500   13.566    0.303    0.379   79.127
  379.750   13.830    0.314    0.391   80.968
  380.000   13.835    0.321    0.400   84.656
  380.250   13.838    0.317    0.396   85.276
  380.500   13.329    0.311    0.386   77.328
  380.750   12.837    0.304    0.373   78.563
  381.000   12.134    0.296    0.368   79.187
  381.250   11.909    0.280    0.378   84.708
  381.500   11.472    0.270    0.381   85.335
  381.750   11.259    0.269    0.375   83.505
  382.000   10.845    0.272    0.371   81.683
  382.250   10.446    0.263    0.368   82.306
  382.500   10.252    0.241    0.363   82.316
  382.750    9.155    0.223    0.366   83.550
  383.000    8.331    0.193    0.370   85.398
  383.250    7.300    0.206    0.380   91.536
  383.500    7.030    0.217    0.388   95.831
  383.750    6.160    0.230    0.402   98.289
  384.000    5.933    0.237    0.403   97.076
  384.250    5.936    0.236    0.399   92.801
  384.500    6.051    0.231    0.392   96.487
  384.750    6.053    0.228    0.386   94.050
  385.000    5.941    0.234    0.386   92.834
  385.250    5.723    0.232    0.397   93.458
  385.500    5.617    0.223    0.401   98.983
  385.750    5.514    0.220    0.412  103.895
  386.000    5.412    0.212    0.414  106.350
  386.250    5.518    0.211    0.410  103.915
  386.500    5.732    0.212    0.407  101.477
  386.750    6.069    0.214    0.404   98.425
  387.000    6.304    0.217    0.410   94.764
  387.250    6.675    0.218    0.418   92.936
  387.500    6.805    0.218    0.420   89.888
  387.750    6.554    0.217    0.414   89.284
  388.000    6.313    0.217    0.418   91.132
  388.250    5.854    0.216    0.418   92.979
  388.500    5.638    0.218    0.415   91.768
  388.750    5.535    0.233    0.408   97.291
  389.000    5.537    0.244    0.409  103.421
  389.250    5.538    0.256    0.431  107.717
  389.500    5.646    0.264    0.438  103.443
  389.750    6.092    0.273    0.424   99.168
  390.000    6.573    0.286    0.411   94.284
  390.250    7.507    0.302    0.411   89.400
  390.500    8.254    0.313    0.411   87.571
  390.750    8.414    0.313    0.405   83.301
  391.000    6.459    0.298    0.366   82.081
  391.250    5.989    0.278    0.376   85.153
  391.500    5.348    0.265    0.391   93.736
  391.750    4.183    0.256    0.434  106.607
  392.000    3.735    0.256    0.455  107.842
  392.250    3.212    0.260    0.476  106.019
  392.500    2.922    0.258    0.506  107.865
  392.750    2.710    0.255    0.527  110.937
  393.000    2.562    0.255    0.529  112.171
  393.250    2.562    0.262    0.514  109.121
  393.500    2.563    0.268    0.497  106.071
  393.750    2.613    0.266    0.487  105.470
  394.000    2.664    0.268    0.464  109.769
  394.250    2.716    0.271    0.501  112.226
  394.500    2.768    0.276    0.539  115.302
  394.750    2.876    0.272    0.552  115.310
  395.000    3.104    0.264    0.545  111.649
  395.250    3.286    0.259    0.520  107.984
  395.500    3.753    0.258    0.440  100.649
  395.750    3.973    0.271    0.405   96.986
  396.000    4.624    0.282    0.406  100.059
  396.250    4.988    0.296    0.395   98.236
  396.500    5.917    0.296    0.410   94.570
  396.750    7.018    0.296    0.419   91.520
  397.000    8.324    0.299    0.412   89.082
  397.250    8.981    0.302    0.397   90.930
  397.500    9.330    0.300    0.390   87.268
  397.750    8.988    0.290    0.404   81.773
  398.000    8.494    0.274    0.418   81.171
  398.250    8.181    0.265    0.406   82.405
  398.500    8.185    0.264    0.376   86.092
  398.750    8.344    0.271    0.374   90.999
  399.000    8.506    0.274    0.382   94.682
  399.250    8.670    0.271    0.397   95.306
  399.500    9.008    0.265    0.415   90.421
  399.750    9.010    0.264    0.413   86.756
  400.000    9.187    0.265    0.404   85.545
  400.250    9.189    0.273    0.406   85.554
  400.500    9.019    0.274    0.407   87.402
  400.750    8.853    0.273    0.393   86.189
  401.000    8.690    0.270    0.380   84.362
  401.250    8.693    0.274    0.373   81.925
  401.500    8.696    0.269    0.359   84.999
  401.750    8.864    0.259    0.353   89.912
  402.000    9.036    0.254    0.344   90.535
  402.250    9.389    0.243    0.340   90.543
  402.500    9.572    0.242    0.346   88.105
  402.750    9.574    0.275    0.359   80.154
  403.000    9.759    0.298    0.379   72.206
  403.250    9.763    0.316    0.378   73.442
  403.500    9.403    0.306    0.356   79.575
  403.750    9.057    0.304    0.352   85.098
  404.000    9.060    0.304    0.370   87.558
  404.250    9.062    0.311    0.388   86.956
  404.500    9.240    0.313    0.387   85.130
  404.750    9.243    0.314    0.372   85.141
  405.000    9.422    0.317    0.367   86.992
  405.250    9.606    0.317    0.384   85.164
  405.500    9.608    0.312    0.395   82.725
  405.750    9.611    0.298    0.411   80.901
  406.000    9.434    0.291    0.411   80.912
  406.250    9.437    0.284    0.401   80.926
  406.500    9.441    0.277    0.407   79.712
  406.750    9.266    0.286    0.410   76.049
  407.000    9.095    0.299    0.391   73.610
  407.250    8.761    0.302    0.374   72.395
  407.500    8.599    0.292    0.386   74.857
  407.750    8.440    0.281    0.437   79.154
  408.000    7.978    0.272    0.437   82.229
  408.250    7.683    0.276    0.433   82.847
  408.500    6.991    0.287    0.433   84.085
  408.750    6.362    0.298    0.442   86.544
  409.000    6.128    0.310    0.455   88.391
  409.250    6.015    0.306    0.458   87.180
  409.500    5.905    0.285    0.448   85.353
  409.750    5.795    0.269    0.438   84.142
  410.000    5.908    0.258    0.423   85.377
  410.250    6.023    0.252    0.399   89.062
