~VERSION INFORMATION
 VERS.                 2.0:   CWLS LOG ASCII STANDARD -VERSION 2.0
 WRAP.                  NO:   ONE LINE PER DEPTH STEP
~WELL INFORMATION BLOCK
#MNEM.UNIT           DATA                    DESCRIPTION OF MNEMONIC
#---------    -------------------            -------------------------------
# Generated from Intellog Unique Number	CS_71_72/WELL/819
WELL.         AMOCO AEC IPIATIK              : Well_name    - WELL
LOC .         00/07-28-072-04W4/0            : Location     - LOCATION
UWI .         00/07-28-072-04W4/0            : Uwi          - UNIQUE WELL ID
ENTR.         SP                             : Entered      - ENTERED BY
SRVC.         SCHLUMBERGER                   : Scn          - SERVICE COMPANY
STRT.M        315                            : top_depth    - START DEPTH
STOP.M        510                            : bot_depth    - STOP DEPTH
STEP.M        0.25                           : increment    - STEP LENGTH
 NULL. -999.2500:NULL Value
~CURVE INFORMATION BLOCK
#MNEM UNIT       ERCB CURVE CODE    CURVE DESCRIPTION
#-----------   ------------------   ----------------------------------
DEPT.M        00 001 00 00         : DEPTH        - DEPTH
ILD .OHMM     00 120 00 00         : RESD         - DEEP RESISTIVITY (DIL)
DPHI.V/V      00 890 00 00         : PHID         - DENSITY POROSITY (LIMESTONE)
NPHI.V/V      00 330 00 00         : PHIN         - NEUTRON POROSITY (LIMESTONE)
GR  .API      00 310 00 00         : GR           - GAMMA RAY
~PARAMETER INFORMATION
#MNEM.UNIT           DATA             DESCRIPTION OF MNEMONIC
#---------         -----------     ------------------------------
GL  .M        697.26               : gl           - GROUND LEVEL ELEVATION
EREF.M        701.51               : kb           - ELEVATION OF DEPTH REFERENCE
DATM.M        697.26               : datum        - DATUM ELEVATION
TDD .M        529.8                : tdd          - TOTAL DEPTH DRILLER
RUN .         ONE                  : Run          - RUN NUMBER
ENG .         BILL                 : Engineer     - RECORDING ENGINEER
WIT .         JIM                  : Witness      - WITNESSED BY
MUD .         GEL                  : Mud_type     - MUD TYPE
MATR.         LIMESTONE            : Logunit      - NEUTRON MATRIX
TMAX.C        21                   : BHT          - MAXIMUM RECORDED TEMPERATURE
BHTD.M        529.8                : BHTDEP       - MAXIMUM RECORDED TEMPERATURE
MATR.         1                    : LOGUNIT      - NEUTRON MATRIX
RMT .C        25                   : MDTP         - TEMPERATURE OF MUD
NEUT.         1                    : NEUTRON      - NEUTRON TYPE
RESI.         0                    : RESIST       - RESISTIVITY TYPE
RMC .OHMM     0.25                 : RMC          - RESISTIVITY OF MUD CAKE
RMF .OHMM     0.25                 : RMF          - RESISTIVITY OF MUD FILTRATE
SUFT.C        15                   : SUFT         - SURFACE TEMPERATURE
~A  DEPTH     RESD     PHID     PHIN       GR
# ...
  358.500    4.909    0.273    0.447   73.757
  358.750    4.647    0.268    0.464   78.019
  359.000    4.399    0.263    0.483   76.204
  359.250    4.164    0.247    0.500   71.961
  359.500    3.943    0.216    0.469   67.720
  359.750    3.873    0.192    0.447   65.907
  360.000    3.734    0.190    0.443   70.168
  360.250    3.737    0.210    0.458   75.037
  360.500    3.741    0.228    0.464   76.257
  360.750    3.813    0.238    0.488   78.697
  361.000    3.745    0.244    0.494   79.308
  361.250    3.680    0.259    0.479   81.746
  361.500    3.548    0.256    0.475   84.793
  361.750    3.422    0.262    0.494   88.450
  362.000    3.424    0.247    0.501   90.278
  362.250    3.556    0.225    0.502   90.890
  362.500    3.625    0.228    0.500   87.255
  362.750    3.765    0.263    0.488   80.584
  363.000    3.838    0.271    0.478   78.162
  363.250    3.913    0.274    0.468   77.565
  363.500    3.915    0.271    0.456   82.431
  363.750    3.919    0.276    0.452   85.476
  364.000    3.850    0.269    0.449   86.091
  364.250    3.712    0.263    0.445   84.888
  364.500    3.450    0.271    0.441   84.893
  364.750    3.326    0.255    0.459   84.300
  365.000    3.455    0.249    0.462   84.305
  365.250    3.655    0.245    0.472   83.102
  365.500    3.939    0.253    0.486   81.892
  365.750    4.166    0.243    0.495   79.475
  366.000    4.408    0.231    0.478   78.267
  366.250    4.577    0.230    0.467   72.808
  366.500    4.414    0.254    0.465   63.099
  366.750    3.537    0.276    0.461   59.467
  367.000    2.834    0.269    0.446   57.653
  367.250    2.492    0.232    0.430   54.625
  367.500    2.315    0.206    0.399   52.809
  367.750    2.275    0.167    0.370   54.642
  368.000    2.363    0.140    0.358   58.902
  368.250    2.454    0.259    0.394   63.162
  368.500    2.501    0.288    0.473   66.814
  368.750    2.503    0.313    0.498   66.213
  369.000    2.369    0.310    0.484   69.260
  369.250    2.202    0.295    0.477   72.309
  369.500    1.971    0.289    0.472   73.530
  369.750    1.733    0.300    0.468   74.751
  370.000    1.611    0.297    0.473   75.369
  370.250    1.553    0.287    0.476   75.375
  370.500    1.554    0.284    0.476   72.347
  370.750    1.556    0.274    0.476   65.067
  371.000    1.528    0.289    0.475   59.002
  371.250    1.529    0.314    0.467   52.939
  371.500    1.502    0.338    0.463   51.125
  371.750    1.503    0.331    0.476   51.135
  372.000    1.477    0.326    0.484   51.141
  372.250    1.478    0.319    0.473   51.154
  372.500    1.479    0.306    0.471   51.766
  372.750    1.480    0.303    0.474   52.382
  373.000    1.481    0.294    0.476   53.607
  373.250    1.510    0.315    0.471   54.830
  373.500    1.539    0.330    0.461   56.664
  373.750    1.569    0.317    0.451   57.276
  374.000    1.630    0.303    0.452   57.891
  374.250    1.661    0.291    0.458   56.077
  374.500    1.693    0.291    0.464   56.088
  374.750    1.695    0.301    0.474   57.312
  375.000    1.696    0.303    0.481   59.141
  375.250    1.666    0.304    0.468   60.970
  375.500    1.637    0.302    0.450   62.801
  375.750    1.668    0.303    0.449   64.631
  376.000    1.670    0.301    0.462   67.072
  376.250    1.640    0.292    0.457   67.076
  376.500    1.553    0.297    0.452   64.656
  376.750    1.470    0.287    0.459   53.125
  377.000    1.366    0.285    0.458   46.456
  377.250    1.317    0.288    0.455   45.856
  377.500    1.247    0.280    0.465   46.471
  377.750    1.225    0.274    0.458   49.522
  378.000    1.204    0.274    0.443   50.136
  378.250    1.204    0.284    0.432   51.357
  378.500    1.205    0.290    0.431   52.582
  378.750    1.206    0.302    0.443   52.587
  379.000    1.207    0.309    0.450   52.598
  379.250    1.208    0.311    0.455   52.604
  379.500    1.231    0.313    0.473   52.012
  379.750    1.232    0.320    0.482   52.018
  380.000    1.256    0.326    0.483   51.416
  380.250    1.281    0.333    0.484   52.035
  380.500    1.330    0.334    0.485   52.649
  380.750    1.381    0.325    0.489   56.303
  381.000    1.382    0.322    0.501   58.737
  381.250    1.383    0.325    0.522   60.567
  381.500    1.334    0.326    0.516   60.579
  381.750    1.263    0.316    0.500   59.979
  382.000    1.218    0.321    0.493   58.771
  382.250    1.174    0.329    0.494   55.135
  382.500    1.154    0.327    0.505   50.287
  382.750    1.112    0.312    0.479   47.258
  383.000    1.113    0.295    0.457   44.231
  383.250    1.135    0.289    0.442   42.416
  383.500    1.223    0.304    0.433   43.639
  383.750    1.318    0.322    0.443   46.077
  384.000    1.447    0.311    0.442   48.517
  384.250    1.711    0.300    0.451   49.135
  384.500    2.099    0.307    0.443   49.749
  384.750    2.347    0.319    0.444   50.970
  385.000    2.483    0.333    0.449   54.017
  385.250    2.485    0.323    0.457   59.493
  385.500    2.352    0.310    0.471   61.927
  385.750    2.398    0.278    0.479   65.580
  386.000    2.491    0.260    0.481   69.234
  386.250    2.586    0.246    0.491   70.455
  386.500    2.588    0.232    0.485   69.857
  386.750    2.361    0.229    0.473   68.043
  387.000    1.725    0.245    0.502   65.624
  387.250    1.382    0.267    0.490   63.809
  387.500    1.171    0.221    0.479   58.960
  387.750    1.068    0.204    0.433   51.076
  388.000    1.049    0.225    0.392   48.047
  388.250    1.069    0.216    0.392   46.233
  388.500    1.131    0.221    0.415   47.457
  388.750    1.266    0.295    0.433   51.110
  389.000    1.339    0.324    0.467   53.546
  389.250    1.443    0.328    0.485   57.809
  389.500    1.498    0.324    0.498   59.637
  389.750    1.527    0.315    0.496   60.862
  390.000    1.557    0.305    0.479   62.085
  390.250    1.529    0.285    0.470   62.700
  390.500    1.503    0.279    0.469   62.708
  390.750    1.449    0.272    0.473   62.108
  391.000    1.423    0.265    0.470   62.115
  391.250    1.398    0.274    0.467   61.519
  391.500    1.348    0.280    0.471   60.918
  391.750    1.301    0.281    0.486   59.716
  392.000    1.254    0.283    0.492   59.117
  392.250    1.210    0.286    0.482   59.123
  392.500    1.188    0.295    0.474   58.529
  392.750    1.146    0.307    0.457   58.536
  393.000    1.105    0.308    0.463   57.935
  393.250    1.065    0.301    0.466   58.550
  393.500    1.028    0.285    0.468   59.164
  393.750    1.009    0.276    0.474   60.390
  394.000    0.973    0.280    0.478   62.221
  394.250    0.956    0.286    0.478   62.231
  394.500    0.905    0.289    0.475   61.628
  394.750    0.889    0.284    0.477   60.422
  395.000    0.858    0.286    0.488   58.611
  395.250    0.843    0.292    0.495   56.797
  395.500    0.812    0.304    0.499   53.770
  395.750    0.798    0.310    0.483   52.560
  396.000    0.784    0.314    0.476   50.747
  396.250    0.770    0.320    0.467   48.934
  396.500    0.757    0.307    0.471   48.337
  396.750    0.757    0.298    0.465   47.736
  397.000    0.758    0.294    0.460   47.748
  397.250    0.758    0.305    0.466   48.361
  397.500    0.787    0.309    0.471   48.979
  397.750    0.864    0.333    0.473   50.811
  398.000    0.949    0.340    0.478   51.424
  398.250    1.061    0.327    0.488   54.471
  398.500    1.144    0.332    0.495   56.298
  398.750    1.210    0.338    0.488   59.952
  399.000    1.257    0.326    0.462   63.000
  399.250    1.305    0.311    0.445   64.219
  399.500    1.331    0.315    0.439   65.442
  399.750    1.356    0.288    0.464   66.669
  400.000    1.357    0.281    0.471   67.281
  400.250    1.358    0.276    0.480   69.114
  400.500    1.334    0.269    0.483   70.943
  400.750    1.335    0.274    0.488   73.385
  401.000    1.361    0.274    0.473   73.388
  401.250    1.363    0.264    0.461   71.576
  401.500    1.338    0.267    0.494   75.230
  401.750    1.267    0.269    0.511   77.058
