~VERSION INFORMATION
 VERS.                 2.0:   CWLS LOG ASCII STANDARD -VERSION 2.0
 WRAP.                  NO:   ONE LINE PER DEPTH STEP
~WELL INFORMATION BLOCK
#MNEM.UNIT           DATA                    DESCRIPTION OF MNEMONIC
#---------    -------------------            -------------------------------
# Generated from Intellog Unique Number	CX_WELLS/WELL/2722
WELL.         MAYNARD CLAREN                 : Well_name    - WELL
LOC .         00/06-06-080-12W4/0            : Location     - LOCATION
UWI .         00/06-06-080-12W4/0            : Uwi          - UNIQUE WELL ID
ENTR.         T                              : Entered      - ENTERED BY
SRVC.         SCHLUMBERGER                   : Scn          - SERVICE COMPANY
STRT.M        265                            : top_depth    - START DEPTH
STOP.M        488                            : bot_depth    - STOP DEPTH
STEP.M        0.25                           : increment    - STEP LENGTH
 NULL. -999.2500:NULL Value
~CURVE INFORMATION BLOCK
#MNEM UNIT       ERCB CURVE CODE    CURVE DESCRIPTION
#-----------   ------------------   ----------------------------------
DEPT.M        00 001 00 00         : DEPTH        - DEPTH
GR  .API      00 310 00 00         : GR           - GAMMA RAY
NPHI.V/V      00 330 00 00         : PHIN         - NEUTRON POROSITY (SANDSTONE)
DPHI.V/V      00 890 00 00         : PHID         - DENSITY POROSITY (SANDSTONE)
ILD .OHMM     00 120 00 00         : RESD         - DEEP RESISTIVITY (DIL)
~PARAMETER INFORMATION
#MNEM.UNIT           DATA             DESCRIPTION OF MNEMONIC
#---------         -----------     ------------------------------
GL  .M        683.5                : gl           - GROUND LEVEL ELEVATION
EREF.M        686.8                : kb           - ELEVATION OF DEPTH REFERENCE
DATM.M        686.8                : datum        - DATUM ELEVATION
TDD .M        497                  : tdd          - TOTAL DEPTH DRILLER
RUN .         ONE                  : Run          - RUN NUMBER
ENG .         BILL                 : Engineer     - RECORDING ENGINEER
WIT .         JIM                  : Witness      - WITNESSED BY
MUD .         GEL                  : Mud_type     - MUD TYPE
MATR.         SANDSTONE            : Logunit      - NEUTRON MATRIX
TMAX.C        20                   : BHT          - MAXIMUM RECORDED TEMPERATURE
BHTD.M        497                  : BHTDEP       - MAXIMUM RECORDED TEMPERATURE
MATR.         1                    : LOGUNIT      - NEUTRON MATRIX
RMT .C        20                   : MDTP         - TEMPERATURE OF MUD
NEUT.         1                    : NEUTRON      - NEUTRON TYPE
RESI.         5.13                 : RESIST       - RESISTIVITY TYPE
RMC .OHMM     3.4                  : RMC          - RESISTIVITY OF MUD CAKE
RMF .OHMM     4.4                  : RMF          - RESISTIVITY OF MUD FILTRATE
SUFT.C        3                    : SUFT         - SURFACE TEMPERATURE
~A  DEPTH       GR     PHIN     PHID     RESD
# ...
  439.000   79.424    0.301    0.233   15.651
  439.250   76.251    0.288    0.245   16.764
  439.500   75.613    0.255    0.244   18.196
  439.750   71.183    0.236    0.243   20.504
  440.000   68.011    0.222    0.241   22.732
  440.250   64.212    0.203    0.248   23.607
  440.500   61.678    0.182    0.283   24.561
  440.750   59.140    0.155    0.308   26.073
  441.000   56.602    0.138    0.319   28.222
  441.250   54.694    0.127    0.336   29.813
  441.500   52.152    0.126    0.354   32.041
  441.750   51.502    0.130    0.362   32.995
  442.000   51.489    0.136    0.356   33.472
  442.250   50.843    0.144    0.351   33.869
  442.500   50.827    0.160    0.346   34.028
  442.750   50.815    0.177    0.338   34.026
  443.000   51.429    0.183    0.329   33.946
  443.250   52.673    0.174    0.334   33.786
  443.500   52.657    0.164    0.344   33.705
  443.750   52.007    0.159    0.359   33.704
  444.000   49.461    0.163    0.370   33.783
  444.250   48.184    0.173    0.384   33.862
  444.500   47.545    0.190    0.398   34.020
  444.750   46.894    0.210    0.405   34.258
  445.000   46.882    0.228    0.412   34.416
  445.250   46.862    0.246    0.404   34.494
  445.500   46.850    0.271    0.380   34.573
  445.750   46.834    0.297    0.335   34.572
  446.000   45.552    0.312    0.307   34.651
  446.250   44.910    0.314    0.301   34.650
  446.500   41.733    0.307    0.296   34.569
  446.750   41.095    0.303    0.293   34.409
  447.000   39.809    0.302    0.290   34.090
  447.250   39.797    0.300    0.295   33.850
  447.500   39.781    0.298    0.306   33.610
  447.750   39.765    0.295    0.312   33.211
  448.000   40.383    0.296    0.320   32.971
  448.250   40.367    0.300    0.326   32.652
  448.500   39.721    0.302    0.331   32.173
  448.750   39.700    0.302    0.333   31.615
  449.000   40.319    0.303    0.336   31.296
  449.250   40.929    0.306    0.336   31.136
  449.500   42.804    0.307    0.317   31.134
  449.750   43.422    0.308    0.307   31.134
  450.000   44.667    0.312    0.302   31.212
  450.250   45.277    0.316    0.307   31.211
  450.500   44.627    0.326    0.321   31.131
  450.750   42.723    0.338    0.332   30.811
  451.000   40.816    0.344    0.339   30.492
  451.250   38.278    0.344    0.340   29.774
  451.500   36.370    0.343    0.338   28.659
  451.750   35.093    0.335    0.334   27.305
  452.000   35.703    0.326    0.331   26.269
  452.250   37.578    0.322    0.326   25.631
  452.500   38.827    0.320    0.321   25.152
  452.750   41.333    0.319    0.317   24.912
  453.000   43.839    0.320    0.311   24.752
  453.250   46.971    0.325    0.308   24.433
  453.500   50.107    0.330    0.300   23.795
  453.750   52.616    0.335    0.296   22.839
  454.000   57.644    0.342    0.271   21.803
  454.250   65.824    0.349    0.241   20.130
  454.500   80.938    0.359    0.205   18.696
  454.750  102.988    0.359    0.186   17.501
  455.000  106.128    0.354    0.191   15.589
  455.250  114.308    0.346    0.202   14.314
  455.500  121.227    0.342    0.213   13.437
  455.750  121.833    0.345    0.224   13.436
  456.000  118.673    0.349    0.222   13.913
  456.250  112.979    0.352    0.217   14.310
  456.500  107.288    0.353    0.210   15.026
  456.750  102.851    0.353    0.200   15.344
  457.000  102.212    0.356    0.181   15.183
  457.250  102.196    0.356    0.160   14.864
  457.500  102.806    0.356    0.151   13.987
  457.750  102.160    0.355    0.162   13.428
  458.000  100.256    0.349    0.198   13.746
  458.250   97.718    0.341    0.198   13.825
  458.500   95.176    0.330    0.197   14.143
  458.750   93.903    0.328    0.205   14.460
  459.000   93.903    0.329    0.217   14.618
  459.250   95.754    0.330    0.227   14.936
  459.500   91.963    0.333    0.221   15.333
  459.750   89.421    0.334    0.210   16.048
  460.000   87.509    0.340    0.205   16.605
  460.250   86.867    0.346    0.210   17.241
  460.500   85.590    0.350    0.236   17.558
  460.750   84.947    0.348    0.266   18.353
  461.000   83.031    0.331    0.297   18.910
  461.250   81.758    0.321    0.309   20.103
  461.500   78.590    0.317    0.300   22.012
  461.750   76.052    0.322    0.224   23.365
  462.000   76.666    0.330    0.206   23.603
  462.250   78.537    0.336    0.206   23.920
  462.500   79.156    0.337    0.229   23.840
  462.750   77.875    0.329    0.258   23.441
  463.000   76.602    0.315    0.254   23.042
  463.250   74.694    0.280    0.263   22.961
  463.500   73.417    0.280    0.279   23.119
  463.750   70.879    0.289    0.316   23.278
  464.000   67.702    0.306    0.324   23.515
  464.250   67.064    0.312    0.292   23.515
  464.500   66.409    0.315    0.274   23.036
  464.750   66.401    0.319    0.264   22.398
  465.000   67.646    0.325    0.272   19.451
  465.250   65.738    0.328    0.279   17.540
  465.500   62.570    0.330    0.291   16.106
  465.750   59.397    0.327    0.300   14.990
  466.000   56.859    0.320    0.292   13.954
  466.250   53.691    0.318    0.275   12.998
  466.500   51.779    0.316    0.269   12.838
  466.750   50.502    0.317    0.276   13.315
  467.000   50.490    0.321    0.278   14.587
  467.250   51.730    0.325    0.285   16.577
  467.500   52.349    0.329    0.305   22.308
  467.750   51.068    0.333    0.323   23.422
  468.000   50.425    0.334    0.321   24.137
  468.250   48.509    0.332    0.318   25.012
  468.500   48.497    0.333    0.316   26.046
  468.750   47.855    0.335    0.311   27.398
  469.000   47.204    0.337    0.303   28.114
  469.250   46.553    0.337    0.293   29.148
  469.500   47.176    0.336    0.286   29.704
  469.750   47.790    0.333    0.284   29.863
  470.000   50.918    0.331    0.282   29.145
  470.250   51.540    0.328    0.276   27.711
  470.500   52.785    0.327    0.277   23.570
  470.750   54.030    0.327    0.285   23.330
  471.000   54.644    0.330    0.293   23.090
  471.250   54.624    0.335    0.299   23.328
  471.500   54.612    0.342    0.307   23.486
  471.750   53.961    0.337    0.309   23.724
  472.000   53.319    0.335    0.314   23.883
  472.250   53.302    0.336    0.314   25.395
  472.500   52.656    0.329    0.310   26.269
  472.750   52.009    0.325    0.304   26.746
  473.000   52.623    0.329    0.302   26.984
  473.250   55.129    0.334    0.297   26.665
  473.500   60.783    0.342    0.308   26.106
  473.750   62.662    0.354    0.314   26.026
  474.000   62.011    0.356    0.318   26.264
  474.250   58.204    0.350    0.319   26.501
  474.500   56.935    0.347    0.317   26.182
  474.750   54.397    0.350    0.307   25.067
  475.000   51.855    0.353    0.296   23.473
  475.250   52.470    0.356    0.265   21.800
  475.500   54.975    0.359    0.250   19.332
  475.750   58.115    0.363    0.243   15.668
  476.000   62.513    0.367    0.238   13.438
  476.250   65.649    0.369    0.236   11.925
  476.500   70.041    0.369    0.240   10.729
  476.750   71.290    0.369    0.245    9.773
  477.000   73.165    0.362    0.249    9.454
  477.250   75.037    0.357    0.250    9.055
  477.500   76.281    0.350    0.253    8.815
  477.750   76.265    0.345    0.258    8.655
  478.000   74.362    0.336    0.280    8.415
  478.250   69.298    0.328    0.305    8.334
  478.500   66.133    0.336    0.312    8.413
  478.750   61.700    0.339    0.291    8.571
  479.000   61.688    0.343    0.277    8.650
  479.250   62.298    0.345    0.264    8.410
  479.500   63.547    0.348    0.255    8.011
  479.750   66.049    0.350    0.257    7.692
  480.000   67.924    0.350    0.260    7.532
  480.250   67.277    0.350    0.268    7.451
  480.500   66.004    0.350    0.280    7.450
  480.750   64.096    0.350    0.291    7.528
  481.000   66.602    0.349    0.299    7.687
  481.250   70.995    0.347    0.297    7.924
  481.500   72.874    0.343    0.286    8.321
  481.750   74.111    0.335    0.263    8.560
  482.000   73.472    0.318    0.241    9.036
  482.250   70.930    0.281    0.242   10.070
