~VERSION INFORMATION
 VERS.                 2.0:   CWLS LOG ASCII STANDARD -VERSION 2.0
 WRAP.                  NO:   ONE LINE PER DEPTH STEP
~WELL INFORMATION BLOCK
#MNEM.UNIT           DATA                    DESCRIPTION OF MNEMONIC
#---------    -------------------            -------------------------------
# Generated from Intellog Unique Number	CS_73_76/WELL/2807
WELL.         EAGLE RESOURCES LTD.           : Well_name    - WELL
LOC .         00/02-15-076-18W4/0            : Location     - LOCATION
UWI .         00/02-15-076-18W4/0            : Uwi          - UNIQUE WELL ID
ENTR.         JO                             : Entered      - ENTERED BY
SRVC.         COMPUTALOG                     : Scn          - SERVICE COMPANY
DATE.         05/22/92                       : Date         - LOG DATE
STRT.M        210                            : top_depth    - START DEPTH
STOP.M        440                            : bot_depth    - STOP DEPTH
STEP.M        0.25                           : increment    - STEP LENGTH
 NULL. -999.2500:NULL Value
~CURVE INFORMATION BLOCK
#MNEM UNIT       ERCB CURVE CODE    CURVE DESCRIPTION
#-----------   ------------------   ----------------------------------
DEPT.M        00 001 00 00         : DEPTH        - DEPTH
ILD .OHMM     00 120 00 00         : RESD         - DEEP RESISTIVITY (DIL)
DPHI.V/V      00 890 00 00         : PHID         - DENSITY POROSITY (SANDSTONE)
NPHI.V/V      00 330 00 00         : PHIN         - NEUTRON POROSITY (SANDSTONE)
GR  .API      00 310 00 00         : GR           - GAMMA RAY
~PARAMETER INFORMATION
#MNEM.UNIT           DATA             DESCRIPTION OF MNEMONIC
#---------         -----------     ------------------------------
GL  .M        610.59               : gl           - GROUND LEVEL ELEVATION
EREF.M        614.26               : kb           - ELEVATION OF DEPTH REFERENCE
DATM.M        614.26               : datum        - DATUM ELEVATION
TDD .M        446.6                : tdd          - TOTAL DEPTH DRILLER
RUN .         ONE                  : Run          - RUN NUMBER
ENG .         BILL                 : Engineer     - RECORDING ENGINEER
WIT .         JIM                  : Witness      - WITNESSED BY
MUD .         GEL                  : Mud_type     - MUD TYPE
MATR.         SANDSTONE            : Logunit      - NEUTRON MATRIX
TMAX.C        28                   : BHT          - MAXIMUM RECORDED TEMPERATURE
BHTD.M        446.6                : BHTDEP       - MAXIMUM RECORDED TEMPERATURE
RMT .C        16.7                 : MDTP         - TEMPERATURE OF MUD
MUDD.KG/M     1140                 : MWT          - MUD DENSITY
NEUT.         1                    : NEUTRON      - NEUTRON TYPE
RESI.         0                    : RESIST       - RESISTIVITY TYPE
RM  .OHMM     3.4                  : RM           - RESISTIVITY OF MUD
RMC .OHMM     3.4                  : RMC          - RESISTIVITY OF MUD CAKE
RMF .OHMM     3.4                  : RMF          - RESISTIVITY OF MUD FILTRATE
SUFT.C        4                    : SUFT         - SURFACE TEMPERATURE
~A  DEPTH     RESD     PHID     PHIN       GR
# ...
  340.500   10.747    0.285    0.420   52.615
  340.750   10.361    0.276    0.431   50.330
  341.000    9.986    0.285    0.428   48.616
  341.250    9.634    0.301    0.423   48.097
  341.500    9.459    0.317    0.416   51.072
  341.750    9.301    0.312    0.414   58.151
  342.000    9.136    0.282    0.415   60.528
  342.250    8.651    0.252    0.418   62.334
  342.500    8.655    0.239    0.424   62.984
  342.750    8.190    0.298    0.434   63.621
  343.000    8.044    0.308    0.436   64.855
  343.250    7.615    0.272    0.445   67.246
  343.500    7.198    0.267    0.442   73.714
  343.750    6.559    0.268    0.436   74.364
  344.000    6.319    0.275    0.429   80.261
  344.250    5.540    0.265    0.434   79.729
  344.500    4.952    0.258    0.428   82.119
  344.750    5.453    0.246    0.423   90.354
  345.000    6.003    0.212    0.431  102.109
  345.250    6.612    0.183    0.445   92.226
  345.500    7.289    0.160    0.451   82.342
  345.750    7.437    0.179    0.450   78.875
  346.000    7.445    0.209    0.456   82.447
  346.250    7.456    0.228    0.465   91.851
  346.500    7.469    0.239    0.464   94.241
  346.750    7.342    0.245    0.455   94.320
  347.000    7.211    0.239    0.433   94.346
  347.250    6.819    0.232    0.429   96.763
  347.500    6.450    0.213    0.428   98.569
  347.750    5.659    0.208    0.430   99.790
  348.000    5.454    0.205    0.435   99.843
  348.250    5.258    0.198    0.425  100.493
  348.500    5.264    0.199    0.431   99.947
  348.750    5.479    0.205    0.462   99.402
  349.000    5.809    0.214    0.473   97.117
  349.250    5.927    0.227    0.462   94.832
  349.500    5.824    0.238    0.444   91.962
  349.750    5.617    0.242    0.453   92.014
  350.000    5.415    0.235    0.463   94.431
  350.250    5.221    0.228    0.475   92.145
  350.500    5.128    0.228    0.470   91.029
  350.750    5.039    0.230    0.462   94.004
  351.000    5.342    0.230    0.452   96.965
  351.250    6.472    0.226    0.451  100.538
  351.500    6.993    0.230    0.458   98.824
  351.750    7.275    0.262    0.457   94.200
  352.000    7.290    0.267    0.448   90.746
  352.250    7.298    0.281    0.439   82.032
  352.500    7.036    0.294    0.443   76.240
  352.750    6.285    0.296    0.440   72.201
  353.000    4.823    0.264    0.433   75.760
  353.250    3.062    0.240    0.434   80.488
  353.500    2.788    0.213    0.443   88.165
  353.750    2.491    0.200    0.458   93.477
  354.000    2.184    0.213    0.483   97.608
  354.250    2.187    0.229    0.508  101.752
  354.500    2.190    0.252    0.551  108.844
  354.750    2.505    0.252    0.544  110.663
  355.000    3.151    0.244    0.534  108.936
  355.250    3.891    0.234    0.532  105.481
  355.500    4.369    0.227    0.533  103.794
  355.750    4.811    0.222    0.521  106.184
  356.000    4.728    0.219    0.491  106.236
  356.250    3.914    0.223    0.460  100.431
  356.500    2.731    0.229    0.450   92.886
  356.750    1.801    0.237    0.452   88.275
  357.000    1.735    0.234    0.463   90.081
  357.250    1.492    0.230    0.494   93.043
  357.500    1.236    0.232    0.501   94.862
  357.750    1.170    0.232    0.506   96.083
  358.000    1.288    0.226    0.508   97.889
  358.250    1.446    0.221    0.477  100.864
  358.500    2.038    0.216    0.449  101.514
  358.750    2.332    0.270    0.440  101.566
  359.000    3.416    0.265    0.435  101.606
  359.250    5.505    0.239    0.425   91.138
  359.500    7.331    0.234    0.412   83.593
  359.750    8.390    0.234    0.410   83.061
  360.000    8.563    0.247    0.417   84.282
  360.250    8.100    0.252    0.428   86.088
  360.500    7.662    0.251    0.427   87.907
  360.750    7.676    0.255    0.422   88.544
  361.000    7.681    0.261    0.422   88.025
  361.250    7.999    0.237    0.426   85.739
  361.500    8.162    0.230    0.429   84.610
  361.750    8.170    0.264    0.423   80.584
  362.000    8.185    0.282    0.423   79.455
  362.250    7.891    0.288    0.435   77.169
  362.500    7.464    0.282    0.448   77.222
  362.750    7.061    0.278    0.440   79.028
  363.000    6.679    0.279    0.438   79.080
  363.250    6.560    0.280    0.443   81.470
  363.500    6.575    0.278    0.443   82.107
  363.750    6.708    0.248    0.436   79.835
  364.000    6.983    0.244    0.431   84.550
  364.250    7.125    0.260    0.430   90.460
  364.500    7.412    0.256    0.439   91.681
  364.750    7.565    0.228    0.444   90.565
  365.000    7.872    0.219    0.437   89.449
  365.250    8.032    0.250    0.435   90.085
  365.500    8.352    0.285    0.435   87.229
  365.750    8.528    0.285    0.437   83.761
  366.000    7.333    0.280    0.438   79.723
  366.250    6.936    0.273    0.443   79.204
  366.500    6.951    0.265    0.449   80.996
  366.750    7.095    0.258    0.452   85.153
  367.000    7.383    0.274    0.437   86.959
  367.250    7.530    0.292    0.423   85.271
  367.500    7.833    0.297    0.410   82.388
  367.750    8.633    0.303    0.412   81.272
  368.000    9.149    0.315    0.413   83.091
  368.250   11.956    0.262    0.424   81.988
  368.500   19.626    0.214    0.432   79.676
  368.750   22.036    0.189    0.362   75.066
  369.000   25.209    0.138    0.262   72.781
  369.250   22.956    0.107    0.216   72.833
  369.500   16.642   -0.038    0.185   69.366
  369.750   14.309   -0.042    0.166   54.807
  370.000   10.779   -0.014    0.154   51.339
  370.250   10.001    0.003    0.166   51.989
  370.500    8.936    0.067    0.206   58.471
  370.750    8.456    0.184    0.335   77.823
  371.000    8.305    0.221    0.394   87.227
  371.250    8.013    0.214    0.434   96.060
  371.500    7.870    0.200    0.424  102.541
  371.750    7.588    0.179    0.416  111.361
  372.000    7.602    0.184    0.412  105.568
  372.250    7.472    0.201    0.424   98.036
  372.500    7.472    0.210    0.444   93.984
  372.750    7.781    0.214    0.445   90.543
  373.000    7.358    0.213    0.443   88.258
  373.250    7.101    0.207    0.445   88.881
  373.500    7.101    0.202    0.454   91.856
  373.750    7.122    0.197    0.465   95.428
  374.000    7.127    0.219    0.469   96.079
  374.250    7.000    0.215    0.470   95.533
  374.500    7.010    0.205    0.475   93.832
  374.750    6.891    0.185    0.480   95.067
  375.000    6.905    0.197    0.452   98.613
  375.250    6.910    0.206    0.449  103.354
  375.500    6.793    0.206    0.454  101.069
  375.750    6.800    0.203    0.450   98.186
  376.000    6.812    0.202    0.454   95.914
  376.250    6.691    0.199    0.459   97.733
  376.500    6.691    0.197    0.452   98.357
  376.750    5.989    0.197    0.442   99.020
  377.000    6.348    0.199    0.440   98.462
  377.250    6.239    0.200    0.441   98.514
  377.500    6.248    0.202    0.435   97.411
  377.750    6.140    0.204    0.431   95.125
  378.000    5.810    0.208    0.431   95.749
  378.250    5.498    0.211    0.447   96.970
  378.500    5.400    0.211    0.453   98.776
  378.750    5.408    0.211    0.449  102.375
  379.000    5.521    0.212    0.447  103.570
  379.250    5.525    0.212    0.447  104.791
  379.500    5.535    0.211    0.452  104.259
  379.750    5.541    0.211    0.466  101.987
  380.000    5.549    0.211    0.479  102.026
  380.250    5.557    0.210    0.473  102.079
  380.500    6.005    0.206    0.468  102.158
  380.750    6.491    0.206    0.466  103.353
  381.000    6.630    0.211    0.455  105.769
  381.250    6.512    0.208    0.440  103.471
  381.500    6.399    0.191    0.423   98.848
  381.750    6.169    0.192    0.422   94.211
  382.000    5.947    0.205    0.423   95.472
  382.250    5.954    0.214    0.434   97.252
  382.500    5.965    0.213    0.458   99.642
  382.750    6.088    0.216    0.447   97.954
  383.000    6.211    0.216    0.451   98.604
  383.250    6.464    0.209    0.457   99.799
  383.500    6.855    0.206    0.448  104.541
  383.750    7.134    0.208    0.440  102.840
