~VERSION INFORMATION
 VERS.                 2.0:   CWLS LOG ASCII STANDARD -VERSION 2.0
 WRAP.                  NO:   ONE LINE PER DEPTH STEP
~WELL INFORMATION BLOCK
#MNEM.UNIT           DATA                    DESCRIPTION OF MNEMONIC
#---------    -------------------            -------------------------------
# Generated from Intellog Unique Number	CS_77_79/WELL/3294
WELL.         LOGAN RESOURCES LTD.           : Well_name    - WELL
LOC .         00/06-25-078-14W4/0            : Location     - LOCATION
UWI .         00/06-25-078-14W4/0            : Uwi          - UNIQUE WELL ID
ENTR.         JOETTE                         : Entered      - ENTERED BY
SRVC.         SCHLUMBERGER                   : Scn          - SERVICE COMPANY
DATE.         08-14-92                       : Date         - LOG DATE
STRT.M        275                            : top_depth    - START DEPTH
STOP.M        510                            : bot_depth    - STOP DEPTH
STEP.M        0.25                           : increment    - STEP LENGTH
 NULL. -999.2500:NULL Value
~CURVE INFORMATION BLOCK
#MNEM UNIT       ERCB CURVE CODE    CURVE DESCRIPTION
#-----------   ------------------   ----------------------------------
DEPT.M        00 001 00 00         : DEPTH        - DEPTH
GR  .API      00 310 00 00         : GR           - GAMMA RAY
NPHI.V/V      00 330 00 00         : PHIN         - NEUTRON POROSITY (SANDSTONE)
DPHI.V/V      00 890 00 00         : PHID         - DENSITY POROSITY (SANDSTONE)
ILD .OHMM     00 120 00 00         : RESD         - DEEP RESISTIVITY (DIL)
~PARAMETER INFORMATION
#MNEM.UNIT           DATA             DESCRIPTION OF MNEMONIC
#---------         -----------     ------------------------------
GL  .M        678.2                : gl           - GROUND LEVEL ELEVATION
EREF.M        681.7                : kb           - ELEVATION OF DEPTH REFERENCE
DATM.M        681.7                : datum        - DATUM ELEVATION
TDD .M        515                  : tdd          - TOTAL DEPTH DRILLER
RUN .         ONE                  : Run          - RUN NUMBER
ENG .         BILL                 : Engineer     - RECORDING ENGINEER
WIT .         JIM                  : Witness      - WITNESSED BY
MUD .         GEL                  : Mud_type     - MUD TYPE
MATR.         SANDSTONE            : Logunit      - NEUTRON MATRIX
TMAX.C        30                   : BHT          - MAXIMUM RECORDED TEMPERATURE
BHTD.M        515                  : BHTDEP       - MAXIMUM RECORDED TEMPERATURE
MATR.         0                    : LOGUNIT      - NEUTRON MATRIX
RMT .C        11                   : MDTP         - TEMPERATURE OF MUD
NEUT.         1                    : NEUTRON      - NEUTRON TYPE
RESI.         0                    : RESIST       - RESISTIVITY TYPE
RM  .OHMM     2.242                : RM           - RESISTIVITY OF MUD
RMC .OHMM     1.969                : RMC          - RESISTIVITY OF MUD CAKE
RMF .OHMM     2.472                : RMF          - RESISTIVITY OF MUD FILTRATE
SUFT.C        5                    : SUFT         - SURFACE TEMPERATURE
~A  DEPTH       GR     PHIN     PHID     RESD
  275.000  101.591    0.379    0.220    4.086
  275.250  105.852    0.391    0.226    4.246
  275.500  110.162    0.405    0.213    4.257
  275.750  116.268    0.412    0.209    4.264
  276.000  116.333    0.396    0.222    4.197
  276.250  119.435    0.389    0.229    4.130
  276.500  115.256    0.397    0.223    4.135
  276.750  104.449    0.404    0.222    4.069
  277.000  110.571    0.398    0.227    4.156
  277.250  102.768    0.389    0.224    4.160
  277.500  100.417    0.385    0.219    4.409
  277.750   89.594    0.367    0.215    4.670
  278.000  115.649    0.332    0.219    5.136
  278.250   96.369    0.277    0.237    5.645
  278.500   78.918    0.302    0.270    6.204
  278.750   64.471    0.317    0.184    6.691
  279.000   85.089    0.342    0.206    7.358
  279.250   77.906    0.353    0.221    7.947
  279.500   82.200    0.355    0.225    8.259
  279.750   89.530    0.357    0.213    8.426
  280.000   87.767    0.348    0.202    8.444
  280.250   89.677    0.332    0.204    7.580
  280.500   89.727    0.339    0.213    7.182
  280.750  100.665    0.354    0.220    6.558
  281.000  104.354    0.352    0.209    6.103
  281.250  114.101    0.361    0.199    5.786
  281.500  114.770    0.385    0.202    5.485
  281.750  106.395    0.392    0.200    5.294
  282.000  102.804    0.389    0.206    5.021
  282.250  127.063    0.400    0.220    4.846
  282.500  129.545    0.395    0.235    4.510
  282.750  119.326    0.410    0.232    4.358
  283.000  114.559    0.417    0.228    4.450
  283.250  109.792    0.406    0.233    4.538
  283.500  111.670    0.383    0.250    5.278
  283.750   96.635    0.343    0.274    5.591
  284.000   94.888    0.345    0.307    5.919
  284.250   92.537    0.348    0.303    6.637
  284.500   90.791    0.356    0.293    7.026
  284.750   95.101    0.353    0.302    7.298
  285.000   92.130    0.343    0.271    8.030
  285.250   89.795    0.342    0.225    8.346
  285.500   93.485    0.344    0.206    9.019
  285.750  101.991    0.347    0.206    9.023
  286.000  111.737    0.351    0.219    9.211
  286.250  108.782    0.354    0.230    9.230
  286.500  107.036    0.349    0.234    9.084
  286.750  100.440    0.358    0.237    9.103
  287.000  116.227    0.359    0.232    8.950
  287.250  111.460    0.351    0.233    9.136
  287.500  107.297    0.353    0.245    9.330
  287.750   94.058    0.349    0.260    9.702
  288.000   85.063    0.355    0.272   10.088
  288.250   79.088    0.348    0.221   10.495
  288.500  106.955    0.352    0.162   11.116
  288.750   91.316    0.358    0.191   11.559
  289.000   96.834    0.365    0.273   12.243
  289.250   92.639    0.369    0.286   13.210
  289.500   81.832    0.354    0.289   13.729
  289.750   78.877    0.344    0.298   14.542
  290.000   79.547    0.352    0.307   15.412
  290.250   79.612    0.368    0.307   16.025
  290.500   84.510    0.369    0.301   16.358
  290.750   82.175    0.346    0.292   16.392
  291.000   80.412    0.342    0.287   15.829
  291.250  102.843    0.344    0.286   15.286
  291.500   96.264    0.341    0.280   15.037
  291.750  104.182    0.338    0.272   14.792
  292.000  104.264    0.343    0.280   14.558
  292.250   97.065    0.363    0.296   14.596
  292.500   88.674    0.357    0.302   14.626
  292.750  103.253    0.363    0.282   14.380
  293.000  103.922    0.364    0.281   14.153
  293.250   95.515    0.353    0.266   14.168
  293.500   90.748    0.344    0.242   13.944
  293.750  107.139    0.349    0.236   13.226
  294.000  110.828    0.339    0.247   12.765
  294.250   76.448    0.333    0.261   11.880
  294.500   62.604    0.341    0.271   11.055
  294.750   60.254    0.338    0.267   10.283
  295.000   63.356    0.328    0.250    9.565
  295.250   56.157    0.334    0.233    8.743
  295.500   57.430    0.336    0.218    7.845
  295.750   64.140    0.335    0.228    7.568
  296.000   70.262    0.337    0.226    7.174
  296.250   78.180    0.332    0.216    6.801
  296.500   86.114    0.337    0.204    6.451
  296.750   79.535    0.350    0.188    6.003
  297.000   86.245    0.363    0.167    5.694
  297.250   98.391    0.368    0.169    5.595
  297.500  121.426    0.382    0.194    5.304
  297.750  133.588    0.390    0.203    5.122
  298.000  133.066    0.372    0.197    5.039
  298.250  136.756    0.371    0.187    4.866
  298.500  126.536    0.382    0.187    4.787
  298.750  133.246    0.387    0.193    4.709
  299.000  130.291    0.389    0.187    4.809
  299.250  115.844    0.394    0.183    5.094
  299.500  112.889    0.384    0.183    5.496
  299.750  122.031    0.373    0.144    5.821
  300.000  112.416    0.374    0.115    5.830
  300.250  110.670    0.386    0.122    5.332
  300.500  128.268    0.393    0.200    4.959
  300.750  127.730    0.412    0.202    4.615
  301.000  130.815    0.413    0.207    4.455
  301.250  138.145    0.421    0.224    4.072
  301.500  137.003    0.435    0.222    3.789
  301.750  135.860    0.424    0.222    3.726
  302.000  128.073    0.369    0.233    4.839
  302.250  128.139    0.345    0.242    7.283
  302.500  123.356    0.343    0.251   10.574
  302.750  118.589    0.351    0.252   10.788
  303.000  121.087    0.352    0.240   11.218
  303.250  116.304    0.348    0.229   11.241
  303.500  106.101    0.342    0.231   10.477
  303.750  113.431    0.343    0.239   10.102
  304.000  108.648    0.350    0.251    9.401
  304.250   95.425    0.351    0.232    8.125
  304.500  107.571    0.358    0.178    7.699
  304.750  115.505    0.375    0.161    7.033
  305.000  107.098    0.400    0.189    7.052
  305.250  138.605    0.375    0.201    7.750
  305.500  132.027    0.370    0.215    8.519
  305.750  128.451    0.351    0.221    9.201
  306.000  127.913    0.334    0.227    9.558
  306.250  130.395    0.339    0.236    9.938
  306.500  123.212    0.351    0.246   10.334
  306.750  119.653    0.359    0.263   10.951
  307.000  130.003    0.368    0.280   11.179
  307.250  116.160    0.354    0.293   11.202
  307.500   99.296    0.336    0.237   11.225
  307.750   99.966    0.356    0.246   11.042
  308.000  104.880    0.364    0.252   10.862
  308.250  106.757    0.351    0.239   10.879
  308.500  115.295    0.347    0.231   10.912
  308.750  109.925    0.345    0.231   11.145
  309.000  109.386    0.337    0.234   11.156
  309.250  104.603    0.332    0.236   11.606
  309.500   84.719    0.329    0.235   12.075
  309.750   75.741    0.321    0.229   12.087
  310.000   72.770    0.325    0.203   12.345
  310.250   66.778    0.331    0.201   12.376
  310.500   80.769    0.334    0.230   12.162
  310.750   81.439    0.330    0.236   11.964
  311.000   80.900    0.332    0.248   11.553
  311.250   88.818    0.341    0.257   10.560
  311.500   81.015    0.348    0.244   10.006
  311.750   81.684    0.358    0.231    9.141
  312.000   85.994    0.357    0.232    8.507
  312.250  118.694    0.348    0.229    7.917
  312.500  117.551    0.356    0.215    7.368
  312.750  118.221    0.373    0.186    6.607
  313.000  138.839    0.385    0.189    6.264
  313.250  139.509    0.389    0.199    7.144
  313.500  134.138    0.389    0.212    8.148
  313.750  117.275    0.367    0.213    8.792
  314.000   96.183    0.369    0.211    8.819
  314.250   90.812    0.377    0.217    8.828
  314.500   93.293    0.387    0.221    8.851
  314.750  105.456    0.400    0.223    8.711
  315.000   98.877    0.404    0.222    8.720
  315.250   98.943    0.373    0.222    8.742
  315.500  109.276    0.367    0.222    8.600
  315.750  105.734    0.363    0.228    8.618
  316.000  104.575    0.368    0.238    8.482
  316.250  113.717    0.368    0.228    8.339
  316.500  110.763    0.359    0.217    8.356
  316.750  105.392    0.367    0.224    8.525
  317.000   98.193    0.376    0.235    9.204
  317.250   98.895    0.350    0.252   10.126
  317.500   97.132    0.349    0.279   10.720
  317.750   84.497    0.351    0.287   11.783
  318.000   66.425    0.355    0.291   12.487
  318.250   64.678    0.362    0.296   12.500
