~VERSION INFORMATION
 VERS.                 2.0:   CWLS LOG ASCII STANDARD -VERSION 2.0
 WRAP.                  NO:   ONE LINE PER DEPTH STEP
~WELL INFORMATION BLOCK
#MNEM.UNIT           DATA                    DESCRIPTION OF MNEMONIC
#---------    -------------------            -------------------------------
# Generated from Intellog Unique Number	CW_76_78/WELL/693
WELL.         ASHLAND PCP TOTAL PELICAN 07-3 : Well_name    - WELL
LOC .         00/07-36-076-19W4/0            : Location     - LOCATION
UWI .         00/07-36-076-19W4/0            : Uwi          - UNIQUE WELL ID
ENTR.         JAYE                           : Entered      - ENTERED BY
SRVC.         SCHLUMBERGER                   : Scn          - SERVICE COMPANY
DATE.         25 FEB 75                      : Date         - LOG DATE
STRT.M        210.312                        : top_depth    - START DEPTH
STOP.M        387.062                        : bot_depth    - STOP DEPTH
STEP.M        0.25                           : increment    - STEP LENGTH
 NULL. -999.2500:NULL Value
~CURVE INFORMATION BLOCK
#MNEM UNIT       ERCB CURVE CODE    CURVE DESCRIPTION
#-----------   ------------------   ----------------------------------
DEPT.M        00 001 00 00         : DEPTH        - DEPTH
ILD .OHMM     00 120 00 00         : RESD         - DEEP RESISTIVITY (DIL)
NPHI.V/V      00 330 00 00         : PHIN         - NEUTRON POROSITY (SANDSTONE)
DPHI.V/V      00 890 00 00         : PHID         - DENSITY POROSITY (SANDSTONE)
GR  .API      00 310 00 00         : GR           - GAMMA RAY
CALI.MM       00 280 01 00         : CAL          - CALIPER
~PARAMETER INFORMATION
#MNEM.UNIT           DATA             DESCRIPTION OF MNEMONIC
#---------         -----------     ------------------------------
GL  .M        565.099              : gl           - GROUND LEVEL ELEVATION
EREF.M        568.757              : kb           - ELEVATION OF DEPTH REFERENCE
DATM.M        565.099              : datum        - DATUM ELEVATION
TDD .M        406.908              : tdd          - TOTAL DEPTH DRILLER
RUN .         ONE                  : Run          - RUN NUMBER
ENG .         LAVERCIERE           : Engineer     - RECORDING ENGINEER
WIT .         GARDINER             : Witness      - WITNESSED BY
BASE.         EDM                  : Branch       - HOME BASE OF LOGGING UNIT
MUD .         GEL                  : Mud_type     - MUD TYPE
MATR.         SANDSTONE            : Logunit      - NEUTRON MATRIX
TMAX.C        20                   : BHT          - MAXIMUM RECORDED TEMPERATURE
BHTD.M        406.298              : BHTDEP       - MAXIMUM RECORDED TEMPERATURE
RMT .C        10                   : MDTP         - TEMPERATURE OF MUD
MUDD.KG/M     1056                 : MWT          - MUD DENSITY
NEUT.         1                    : NEUTRON      - NEUTRON TYPE
RESI.         0                    : RESIST       - RESISTIVITY TYPE
RM  .OHMM     1.8                  : RM           - RESISTIVITY OF MUD
RMC .OHMM     0                    : RMC          - RESISTIVITY OF MUD CAKE
RMF .OHMM     1.94                 : RMF          - RESISTIVITY OF MUD FILTRATE
SUFT.C        -17.7778             : SUFT         - SURFACE TEMPERATURE
~A  DEPTH     RESD     PHIN     PHID       GR      CAL
# ...
  319.812   11.037    0.424    0.276   79.290  160.662
  320.062   11.108    0.415    0.255   76.924  161.028
  320.312   11.360    0.362    0.217   76.155  161.046
  320.562   11.850    0.433    0.213   80.807  160.783
  320.812   13.080    0.443    0.237   82.350  160.467
  321.062   15.249    0.378    0.217   68.263  159.688
  321.312   17.457    0.341    0.119   64.317  159.195
  321.562   19.487    0.243    0.064   59.813  158.829
  321.812   21.256    0.229    0.117   71.739  158.743
  322.062   18.091    0.322    0.139   81.407  158.984
  322.312   15.044    0.362    0.158   84.177  159.524
  322.562   12.938    0.409    0.182   84.920  162.654
  322.812   11.751    0.464    0.232   87.934  164.856
  323.062   11.382    0.455    0.243   90.272  165.707
  323.312   11.573    0.444    0.223   88.641  165.547
  323.562   11.783    0.429    0.253   85.732  165.164
  323.812   11.815    0.416    0.246   84.339  164.472
  324.062   11.647    0.421    0.235   85.154  163.783
  324.312   11.178    0.434    0.221   87.860  163.174
  324.562   10.691    0.447    0.225   88.122  162.517
  324.812   10.221    0.454    0.235   88.755  161.912
  325.062    9.774    0.462    0.249   89.569  161.423
  325.312    9.425    0.481    0.261   90.257  161.124
  325.562    9.075    0.473    0.245   91.187  160.861
  325.812    8.789    0.459    0.224   92.244  160.685
  326.062    8.598    0.455    0.229   93.173  160.612
  326.312    8.473    0.496    0.236   93.437  160.756
  326.562    8.561    0.483    0.245   92.971  160.767
  326.812    8.771    0.464    0.256   91.277  160.904
  327.062    9.183    0.484    0.257   93.552  160.831
  327.312    9.455    0.475    0.238   95.585  160.888
  327.562    9.585    0.457    0.230   96.703  161.218
  327.812    9.677    0.457    0.231   95.257  161.542
  328.062    9.687    0.467    0.228   96.562  162.293
  328.312    9.679    0.459    0.249   98.528  163.153
  328.562    9.570    0.455    0.254  100.073  164.329
  328.812    9.360    0.480    0.241   95.571  165.293
  329.062    9.214    0.469    0.241   95.408  166.869
  329.312    9.124    0.470    0.244   97.510  168.033
  329.562    9.035    0.494    0.245   95.810  168.373
  329.812    8.967    0.503    0.245   93.760  168.624
  330.062    8.857    0.496    0.238   92.487  168.744
  330.312    8.630    0.518    0.220   91.712  168.981
  330.562    8.521    0.508    0.210   93.816  169.341
  330.812    8.351    0.489    0.219   97.675  169.588
  331.062    8.102    0.498    0.216   98.307  169.693
  331.312    7.914    0.490    0.226   98.626  170.137
  331.562    7.765    0.471    0.237   99.744  170.210
  331.812    7.516    0.485    0.216  100.614  170.094
  332.062    7.288    0.495    0.216  100.754  169.928
  332.312    7.139    0.503    0.231  101.018  169.868
  332.562    7.371    0.516    0.228  101.892  169.779
  332.812    7.701    0.506    0.219  102.701  169.507
  333.062    8.152    0.506    0.216  101.499  169.440
  333.312    8.602    0.491    0.219   98.646  169.248
  333.562    9.073    0.474    0.245   93.171  169.088
  333.812    9.424    0.458    0.259   92.520  168.796
  334.062    9.574    0.445    0.241   95.531  168.203
  334.312    9.466    0.452    0.258   95.978  167.121
  334.562    9.418    0.438    0.251   90.555  166.108
  334.812    9.449    0.460    0.244   90.331  165.306
  335.062    9.460    0.489    0.242   95.668  164.614
  335.312    9.432    0.504    0.231   97.699  164.234
  335.562    9.442    0.505    0.251   97.355  164.252
  335.812    9.453    0.489    0.239   97.376  164.382
  336.062    9.545    0.479    0.210   98.733  164.523
  336.312    9.555    0.468    0.229  101.494  164.360
  336.562    9.327    0.458    0.231   97.785  164.280
  336.812    9.118    0.438    0.219   95.727  164.321
  337.062    9.090    0.450    0.232   95.383  164.232
  337.312    9.180    0.467    0.239   95.767  164.485
  337.562    9.332    0.464    0.240   97.369  164.819
  337.812    9.482    0.455    0.218   99.951  165.382
  338.062    9.353    0.453    0.212   97.897  166.326
  338.312    9.066    0.459    0.222   96.205  167.486
  338.562    8.657    0.451    0.225   98.421  168.450
  338.812    8.229    0.448    0.230  101.125  169.407
  339.062    7.920    0.463    0.227  102.121  173.572
  339.312    7.632    0.479    0.221   98.656  179.290
  339.562    7.083    0.485    0.233   97.820  178.704
  339.812    7.134    0.478    0.269   98.875  172.218
  340.062    8.044    0.462    0.247   92.971  167.490
  340.312    8.954    0.439    0.241   86.458  164.439
  340.562   10.305    0.374    0.213   79.696  163.007
  340.812   11.334    0.331    0.158   74.775  162.631
  341.062   11.586    0.324    0.136   74.974  162.761
  341.312   11.137    0.403    0.214   77.432  163.338
  341.562   10.290    0.486    0.250   78.611  163.645
  341.812    9.680    0.478    0.281   79.307  164.322
  342.062    9.032    0.466    0.302   80.418  164.879
  342.312    8.405    0.457    0.290   77.809  165.206
  342.562    8.115    0.456    0.291   79.604  165.559
  342.812    7.829    0.476    0.293   83.100  165.764
  343.062    7.700    0.471    0.296   83.366  165.804
  343.312    7.671    0.477    0.299   82.650  166.164
  343.562    7.623    0.519    0.261   82.183  166.485
  343.812    7.632    0.524    0.302   81.772  166.735
  344.062    7.683    0.509    0.312   82.037  166.869
  344.312    7.634    0.510    0.296   81.930  166.896
  344.562    7.547    0.507    0.300   81.521  166.811
  344.812    7.516    0.497    0.310   81.903  166.525
  345.062    7.489    0.486    0.295   81.370  166.685
  345.312    7.480    0.476    0.287   79.684  166.709
  345.562    7.512    0.476    0.282   77.925  166.423
  345.812    7.523    0.487    0.278   74.888  165.927
  346.062    7.513    0.504    0.274   74.113  165.567
  346.312    7.504    0.515    0.321   76.763  165.368
  346.562    7.518    0.497    0.312   80.445  165.115
  346.812    7.489    0.482    0.301   81.006  164.952
  347.062    7.537    0.476    0.299   78.098  164.957
  347.312    7.590    0.466    0.293   76.342  164.794
  347.562    7.600    0.454    0.313   75.506  164.928
  347.812    7.652    0.456    0.300   74.126  165.055
  348.062    7.703    0.474    0.293   73.037  165.072
  348.312    7.792    0.488    0.289   71.957  165.219
  348.562    7.865    0.492    0.272   70.023  165.133
  348.812    7.897    0.477    0.267   71.261  165.174
  349.062    7.907    0.473    0.270   72.570  165.091
  349.312    7.918    0.482    0.277   73.747  165.012
  349.562    8.028    0.468    0.281   74.005  165.075
  349.812    8.200    0.457    0.289   73.596  165.009
  350.062    8.311    0.442    0.300   73.980  164.830
  350.312    8.361    0.419    0.306   73.390  164.857
  350.562    8.353    0.439    0.296   71.450  165.075
  350.812    8.423    0.460    0.296   68.537  165.108
  351.062    8.694    0.476    0.311   67.275  165.252
  351.312    9.305    0.483    0.313   63.571  165.056
  351.562   10.035    0.462    0.283   56.440  164.777
  351.812   11.385    0.430    0.221   48.765  164.604
  352.062   13.614    0.397    0.143   45.613  164.674
  352.312   17.002    0.190    0.102   45.275  164.688
  352.562   19.570    0.177    0.074   44.116  164.606
  352.812   20.741    0.176    0.074   44.689  164.517
  353.062   18.274    0.210    0.077   48.371  164.660
  353.312   15.529    0.250    0.093   55.898  164.994
  353.562   12.941    0.304    0.194   62.143  164.711
  353.812   10.695    0.457    0.226   67.777  163.819
  354.062    9.168    0.455    0.276   67.433  161.257
  354.312    8.759    0.441    0.279   65.493  159.435
  354.562    8.651    0.420    0.263   62.402  157.610
  354.812    8.861    0.418    0.253   61.749  156.698
  355.062    9.213    0.445    0.293   63.723  156.438
  355.312    9.583    0.437    0.283   65.209  156.359
  355.562    9.834    0.435    0.264   64.922  155.986
  355.812    9.985    0.452    0.260   64.870  155.710
  356.062   10.037    0.433    0.266   66.231  155.514
