~VERSION INFORMATION
 VERS.                 2.0:   CWLS LOG ASCII STANDARD -VERSION 2.0
 WRAP.                  NO:   ONE LINE PER DEPTH STEP
~WELL INFORMATION BLOCK
#MNEM.UNIT           DATA                    DESCRIPTION OF MNEMONIC
#---------    -------------------            -------------------------------
# Generated from Intellog Unique Number	CS_73_76/WELL/1043
WELL.         BOW VALLEY EXPLORATION         : Well_name    - WELL
LOC .         00/06-18-076-13W4/0            : Location     - LOCATION
UWI .         00/06-18-076-13W4/0            : Uwi          - UNIQUE WELL ID
ENTR.         SP                             : Entered      - ENTERED BY
SRVC.         SCHLUMBERGER                   : Scn          - SERVICE COMPANY
STRT.M        300                            : top_depth    - START DEPTH
STOP.M        540                            : bot_depth    - STOP DEPTH
STEP.M        0.25                           : increment    - STEP LENGTH
 NULL. -999.2500:NULL Value
~CURVE INFORMATION BLOCK
#MNEM UNIT       ERCB CURVE CODE    CURVE DESCRIPTION
#-----------   ------------------   ----------------------------------
DEPT.M        00 001 00 00         : DEPTH        - DEPTH
ILD .OHMM     00 120 00 00         : RESD         - DEEP RESISTIVITY (DIL)
DPHI.V/V      00 890 00 00         : PHID         - DENSITY POROSITY (LIMESTONE)
NPHI.V/V      00 330 00 00         : PHIN         - NEUTRON POROSITY (LIMESTONE)
GR  .API      00 310 00 00         : GR           - GAMMA RAY
~PARAMETER INFORMATION
#MNEM.UNIT           DATA             DESCRIPTION OF MNEMONIC
#---------         -----------     ------------------------------
GL  .M        674.43               : gl           - GROUND LEVEL ELEVATION
EREF.M        677.88               : kb           - ELEVATION OF DEPTH REFERENCE
DATM.M        674.43               : datum        - DATUM ELEVATION
TDD .M        547                  : tdd          - TOTAL DEPTH DRILLER
RUN .         ONE                  : Run          - RUN NUMBER
ENG .         BILL                 : Engineer     - RECORDING ENGINEER
WIT .         JIM                  : Witness      - WITNESSED BY
MUD .         GEL                  : Mud_type     - MUD TYPE
MATR.         LIMESTONE            : Logunit      - NEUTRON MATRIX
TMAX.C        23                   : BHT          - MAXIMUM RECORDED TEMPERATURE
BHTD.M        547                  : BHTDEP       - MAXIMUM RECORDED TEMPERATURE
MATR.         1                    : LOGUNIT      - NEUTRON MATRIX
RMT .C        25                   : MDTP         - TEMPERATURE OF MUD
NEUT.         1                    : NEUTRON      - NEUTRON TYPE
RESI.         0                    : RESIST       - RESISTIVITY TYPE
RMC .OHMM     0.25                 : RMC          - RESISTIVITY OF MUD CAKE
RMF .OHMM     0.25                 : RMF          - RESISTIVITY OF MUD FILTRATE
SUFT.C        15                   : SUFT         - SURFACE TEMPERATURE
~A  DEPTH     RESD     PHID     PHIN       GR
# ...
  387.000    6.673    0.335    0.464   75.146
  387.250    5.744    0.333    0.477   77.599
  387.500    4.675    0.297    0.504   80.051
  387.750    4.256    0.270    0.516   81.278
  388.000    4.501    0.237    0.525   78.832
  388.250    5.131    0.221    0.492   73.937
  388.500    5.959    0.171    0.445   71.491
  388.750    7.744    0.237    0.465   71.494
  389.000    9.513    0.305    0.482   73.333
  389.250   10.844    0.317    0.478   75.787
  389.500   11.685    0.336    0.476   76.402
  389.750   11.683    0.329    0.477   77.631
  390.000   10.838    0.327    0.461   78.245
  390.250    9.869    0.329    0.463   78.859
  390.500    8.819    0.325    0.477   79.475
  390.750    7.592    0.314    0.485   79.478
  391.000    6.063    0.313    0.478   80.705
  391.250    5.731    0.320    0.464   84.995
  391.500    5.417    0.308    0.466   89.283
  391.750    5.417    0.279    0.474   97.245
  392.000    5.729    0.243    0.459  100.922
  392.250    6.059    0.242    0.454  102.149
  392.500    5.945    0.243    0.460   98.480
  392.750    5.727    0.233    0.470   97.257
  393.000    5.117    0.243    0.462   96.037
  393.250    4.573    0.231    0.460   97.264
  393.500    4.087    0.218    0.466   97.879
  393.750    3.791    0.208    0.476  100.332
  394.000    3.584    0.224    0.471   99.722
  394.250    3.517    0.226    0.481   98.501
  394.500    3.387    0.232    0.499   98.503
  394.750    3.516    0.222    0.509   99.731
  395.000    3.582    0.226    0.503  100.346
  395.250    3.932    0.220    0.478   97.900
  395.500    4.159    0.227    0.475   99.128
  395.750    4.317    0.243    0.475  100.356
  396.000    4.481    0.251    0.477  102.195
  396.250    4.652    0.240    0.487   99.749
  396.500    5.302    0.243    0.497   97.304
  396.750    5.608    0.265    0.504   94.858
  397.000    6.392    0.299    0.536   92.412
  397.250    6.888    0.319    0.513   86.292
  397.500    7.017    0.304    0.497   81.397
  397.750    6.633    0.282    0.464   75.277
  398.000    6.039    0.287    0.454   72.832
  398.250    5.397    0.298    0.438   72.223
  398.500    4.734    0.304    0.432   76.511
  398.750    3.574    0.313    0.426   78.351
  399.000    3.077    0.329    0.428   82.030
  399.250    2.749    0.317    0.439   83.868
  399.500    2.551    0.269    0.478   93.054
  399.750    2.322    0.269    0.514  102.241
  400.000    2.195    0.282    0.579  107.142
  400.250    2.075    0.277    0.598  111.431
  400.500    2.036    0.280    0.591  115.719
  400.750    2.154    0.280    0.583  116.948
  401.000    2.236    0.274    0.572  115.725
  401.250    2.548    0.281    0.554  110.831
  401.500    2.851    0.285    0.568  107.161
  401.750    3.846    0.281    0.571  105.327
  402.000    5.188    0.282    0.564  101.044
  402.250    6.139    0.303    0.537   94.925
  402.500    6.615    0.297    0.504   90.642
  402.750    6.866    0.277    0.467   86.972
  403.000    7.127    0.267    0.450   86.362
  403.250    7.262    0.248    0.444   89.427
  403.500    7.397    0.258    0.450   90.654
  403.750    7.536    0.288    0.471   88.820
  404.000    7.677    0.302    0.462   86.375
  404.250    7.821    0.297    0.456   83.929
  404.500    7.821    0.287    0.447   83.321
  404.750    7.819    0.288    0.446   82.711
  405.000    7.818    0.303    0.449   81.489
  405.250    7.530    0.292    0.454   80.268
  405.500    7.389    0.285    0.463   80.270
  405.750    7.388    0.267    0.457   80.885
  406.000    7.527    0.269    0.453   82.726
  406.250    7.668    0.269    0.444   85.791
  406.500    8.110    0.289    0.436   87.019
  406.750    8.576    0.276    0.428   87.021
  407.000    8.738    0.264    0.444   84.575
  407.250    8.902    0.231    0.455   80.292
  407.500    8.735    0.194    0.357   76.009
  407.750    7.954    0.147    0.321   71.726
  408.000    7.242    0.122    0.358   68.055
  408.250    6.845    0.294    0.396   71.732
  408.500    6.717    0.284    0.452   79.083
  408.750    6.717    0.277    0.437   86.433
  409.000    6.716    0.270    0.445   90.722
  409.250    6.715    0.272    0.452   93.174
  409.500    6.714    0.259    0.474   91.340
  409.750    6.713    0.253    0.479   87.669
  410.000    6.712    0.265    0.479   88.896
  410.250    6.838    0.260    0.474   91.350
  410.500    6.837    0.262    0.466   92.577
  410.750    6.836    0.267    0.466   93.192
  411.000    6.964    0.267    0.448   93.194
  411.250    7.095    0.272    0.444   93.198
  411.500    7.228    0.272    0.462   91.976
  411.750    7.363    0.271    0.462   90.144
  412.000    7.643    0.259    0.473   88.923
  412.250    7.786    0.246    0.473   88.924
  412.500    7.786    0.245    0.462   87.091
  412.750    7.931    0.252    0.424   84.033
  413.000    7.783    0.244    0.409   83.424
  413.250    7.638    0.230    0.404   83.427
  413.500    7.356    0.211    0.398   83.429
  413.750    6.824    0.205    0.385   80.984
  414.000    6.214    0.240    0.435   83.435
  414.250    5.874    0.256    0.453   87.112
  414.500    5.764    0.245    0.462   89.564
  414.750    5.763    0.241    0.462   92.016
  415.000    6.095    0.246    0.445   92.631
  415.250    6.568    0.239    0.436   90.185
  415.500    6.692    0.257    0.426   89.576
  415.750    6.817    0.265    0.415   90.805
  416.000    6.944    0.257    0.405   90.807
  416.250    6.943    0.261    0.408   88.973
  416.500    6.814    0.276    0.413   85.915
  416.750    6.813    0.284    0.431   85.918
  417.000    6.686    0.294    0.445   86.533
  417.250    6.811    0.289    0.438   85.312
  417.500    6.810    0.284    0.436   84.703
  417.750    6.938    0.271    0.440   84.707
  418.000    6.937    0.255    0.447   85.323
  418.250    7.066    0.260    0.446   85.324
  418.500    7.066    0.262    0.449   85.940
  418.750    7.065    0.262    0.454   86.555
  419.000    6.933    0.263    0.453   86.559
  419.250    6.804    0.268    0.448   86.561
  419.500    6.676    0.271    0.445   81.666
  419.750    6.430    0.261    0.443   82.894
  420.000    6.078    0.251    0.442   84.733
  420.250    5.854    0.253    0.442   88.410
  420.500    5.533    0.252    0.447   91.474
  420.750    5.038    0.263    0.448   92.703
  421.000    4.503    0.247    0.447   93.317
  421.250    4.024    0.239    0.453   95.157
  421.500    3.733    0.250    0.473   97.609
  421.750    3.595    0.252    0.507   98.224
  422.000    3.663    0.260    0.537   98.227
  422.250    3.731    0.278    0.520   92.720
  422.500    3.873    0.250    0.479   92.111
  422.750    3.946    0.217    0.466   95.175
  423.000    4.020    0.241    0.469   96.403
  423.250    4.172    0.251    0.488   97.020
  423.500    4.413    0.251    0.507   97.022
  423.750    4.581    0.250    0.496   95.800
  424.000    5.029    0.235    0.487   93.968
  424.250    5.123    0.217    0.465   94.582
  424.500    5.318    0.217    0.448   96.421
  424.750    5.418    0.233    0.457  100.098
  425.000    5.519    0.237    0.454  101.325
  425.250    5.519    0.242    0.446  102.554
  425.500    5.622    0.250    0.432   96.434
  425.750    5.836    0.232    0.435   93.987
  426.000    6.057    0.234    0.432   87.256
  426.250    6.288    0.192    0.430   82.361
  426.500    6.650    0.262    0.427   76.241
  426.750    6.775    0.270    0.417   72.570
  427.000    6.902    0.275    0.404   67.676
  427.250    6.901    0.297    0.406   65.844
  427.500    6.900    0.305    0.406   65.233
  427.750    6.771    0.306    0.403   67.686
  428.000    6.770    0.303    0.408   68.300
  428.250    6.769    0.303    0.414   67.691
  428.500    6.768    0.312    0.416   66.470
  428.750    6.768    0.321    0.416   65.860
  429.000    6.766    0.316    0.414   64.640
  429.250    6.766    0.311    0.410   63.418
  429.500    6.764    0.317    0.407   62.809
  429.750    6.637    0.323    0.407   61.587
  430.000    6.637    0.330    0.409   60.366
  430.250    6.889    0.321    0.416   60.369
