~VERSION INFORMATION
 VERS.                 2.0:   CWLS LOG ASCII STANDARD -VERSION 2.0
 WRAP.                  NO:   ONE LINE PER DEPTH STEP
~WELL INFORMATION BLOCK
#MNEM.UNIT           DATA                    DESCRIPTION OF MNEMONIC
#---------    -------------------            -------------------------------
# Generated from Intellog Unique Number	CW_73_75/WELL/2735
WELL.         BRENDA ET AL MARTEN HILLS 09-1 : Well_name    - WELL
LOC .         00/09-10-073-25W4/0            : Location     - LOCATION
UWI .         00/09-10-073-25W4/0            : Uwi          - UNIQUE WELL ID
ENTR.         JAYE                           : Entered      - ENTERED BY
SRVC.         SCHLUMBERGER                   : Scn          - SERVICE COMPANY
DATE.         16 FEB 82                      : Date         - LOG DATE
STRT.M        390                            : top_depth    - START DEPTH
STOP.M        620                            : bot_depth    - STOP DEPTH
STEP.M        0.25                           : increment    - STEP LENGTH
 NULL. -999.2500:NULL Value
~CURVE INFORMATION BLOCK
#MNEM UNIT       ERCB CURVE CODE    CURVE DESCRIPTION
#-----------   ------------------   ----------------------------------
DEPT.M        00 001 00 00         : DEPTH        - DEPTH
DPHI.V/V      00 890 00 00         : PHID         - DENSITY POROSITY (SANDSTONE)
NPHI.V/V      00 330 00 00         : PHIN         - NEUTRON POROSITY (SANDSTONE)
GR  .API      00 310 00 00         : GR           - GAMMA RAY
CALI.MM       00 280 01 00         : CAL          - CALIPER
ILD .OHMM     00 120 00 00         : RESD         - DEEP RESISTIVITY (DIL)
~PARAMETER INFORMATION
#MNEM.UNIT           DATA             DESCRIPTION OF MNEMONIC
#---------         -----------     ------------------------------
GL  .M        633.6                : gl           - GROUND LEVEL ELEVATION
EREF.M        637.3                : kb           - ELEVATION OF DEPTH REFERENCE
DATM.M        633.6                : datum        - DATUM ELEVATION
TDD .M        628                  : tdd          - TOTAL DEPTH DRILLER
RUN .         ONE                  : Run          - RUN NUMBER
ENG .         SMYTHE               : Engineer     - RECORDING ENGINEER
WIT .         SAY                  : Witness      - WITNESSED BY
BASE.         EDM                  : Branch       - HOME BASE OF LOGGING UNIT
MUD .         GEL MUDM             : Mud_type     - MUD TYPE
MATR.         SANDSTONE            : Logunit      - NEUTRON MATRIX
TMAX.C        28                   : BHT          - MAXIMUM RECORDED TEMPERATURE
BHTD.M        627.5                : BHTDEP       - MAXIMUM RECORDED TEMPERATURE
RMT .C        12.7                 : MDTP         - TEMPERATURE OF MUD
MUDD.KG/M     1110                 : MWT          - MUD DENSITY
NEUT.         1                    : NEUTRON      - NEUTRON TYPE
RESI.         0                    : RESIST       - RESISTIVITY TYPE
RM  .OHMM     4.32                 : RM           - RESISTIVITY OF MUD
RMC .OHMM     0                    : RMC          - RESISTIVITY OF MUD CAKE
RMF .OHMM     4.55                 : RMF          - RESISTIVITY OF MUD FILTRATE
SUFT.C        0                    : SUFT         - SURFACE TEMPERATURE
~A  DEPTH     PHID     PHIN       GR      CAL     RESD
# ...
  426.500    0.278    0.458   76.652  158.930    3.202
  426.750    0.271    0.459   81.648  156.379    2.781
  427.000    0.254    0.533   90.413  160.525    2.378
  427.250    0.275    0.569   95.911  166.550    2.341
  427.500    0.338    0.588   97.580  174.144    2.459
  427.750    0.355    0.582   89.334  181.744    2.708
  428.000    0.357    0.502   66.781  167.899    3.016
  428.250    0.353    0.447   54.017  158.963    3.186
  428.500    0.347    0.438   47.779  153.279    3.314
  428.750    0.347    0.433   47.381  155.021    3.447
  429.000    0.345    0.416   50.681  156.128    3.559
  429.250    0.316    0.407   61.014  157.035    3.731
  429.500    0.288    0.410   69.837  158.041    3.866
  429.750    0.280    0.419   80.044  158.622    4.060
  430.000    0.280    0.430   87.993  158.898    4.232
  430.250    0.276    0.439   94.055  158.959    4.478
  430.500    0.283    0.447   97.858  158.918    4.649
  430.750    0.301    0.458   92.311  158.885    4.791
  431.000    0.309    0.453   84.004  158.631    4.825
  431.250    0.291    0.440   85.551  158.806    4.796
  431.500    0.272    0.439   87.472  160.437    4.721
  431.750    0.245    0.460   88.639  162.486    4.300
  432.000    0.235    0.482   88.867  166.317    4.029
  432.250    0.245    0.458   89.407  166.797    4.004
  432.500    0.252    0.448   91.203  164.249    4.049
  432.750    0.271    0.453   86.348  159.711    4.148
  433.000    0.282    0.433   83.876  157.997    4.282
  433.250    0.273    0.415   82.346  158.064    4.438
  433.500    0.281    0.427   83.200  158.449    4.582
  433.750    0.281    0.456   87.132  158.931    4.820
  434.000    0.256    0.456   91.625  159.409    5.014
  434.250    0.222    0.450   96.620  159.797    5.216
  434.500    0.225    0.442   95.342  159.849    5.355
  434.750    0.241    0.435   91.302  159.914    5.496
  435.000    0.233    0.427   92.533  160.086    5.557
  435.250    0.211    0.417   95.521  160.466    5.587
  435.500    0.192    0.421   97.695  160.846    5.659
  435.750    0.195    0.451   97.671  161.326    5.678
  436.000    0.208    0.451   96.454  161.394    5.665
  436.250    0.189    0.437   95.678  162.501    5.641
  436.500    0.162    0.455   98.793  164.558    5.606
  436.750    0.145    0.458  103.100  167.549    5.551
  437.000    0.226    0.446  105.708  170.960    5.424
  437.250    0.326    0.449  106.753  173.533    5.239
  437.500    0.356    0.525   95.808  170.772    5.128
  437.750    0.311    0.489   92.019  168.224    5.058
  438.000    0.280    0.453   88.732  169.545    5.212
  438.250    0.350    0.527   83.122  170.234    5.381
  438.500    0.345    0.513   80.840  170.091    5.565
  438.750    0.259    0.460   87.970  169.527    5.768
  439.000    0.265    0.471   97.044  167.401    6.173
  439.250    0.284    0.474   88.674  161.503    6.734
  439.500    0.304    0.464   77.102  157.483    7.374
  439.750    0.231    0.423   67.665  156.197    8.729
  440.000    0.214    0.314   62.369  155.843   11.646
  440.250    0.204    0.308   63.350  155.587   14.874
  440.500    0.208    0.331   70.356  155.441   18.673
  440.750    0.236    0.361   77.236  155.513   17.665
  441.000    0.264    0.382   84.240  155.594   15.429
  441.250    0.285    0.410   84.842  155.755   13.349
  441.500    0.301    0.431   79.672  155.919   11.550
  441.750    0.307    0.446   80.216  155.876   10.126
  442.000    0.305    0.455   83.517  156.039    8.946
  442.250    0.300    0.458   81.987  156.219    8.210
  442.500    0.317    0.451   78.762  156.392    7.620
  442.750    0.324    0.437   75.662  156.655    7.319
  443.000    0.323    0.423   72.502  156.520    7.029
  443.250    0.321    0.433   69.905  156.279    6.726
  443.500    0.325    0.429   66.930  156.117    6.547
  443.750    0.331    0.426   62.891  155.977    6.372
  444.000    0.337    0.442   60.041  156.039    6.238
  444.250    0.328    0.444   61.838  156.214    6.002
  444.500    0.290    0.437   70.726  156.493    5.909
  444.750    0.273    0.431   78.358  156.442    5.784
  445.000    0.286    0.439   79.276  156.515    5.695
  445.250    0.308    0.443   74.988  156.470    5.585
  445.500    0.283    0.431   75.963  156.531    5.530
  445.750    0.251    0.423   82.216  156.696    5.549
  446.000    0.229    0.419   87.024  156.868    5.578
  446.250    0.262    0.454   85.370  157.353    5.650
  446.500    0.265    0.442   80.576  157.415    5.691
  446.750    0.256    0.429   80.367  157.174    5.775
  447.000    0.259    0.438   80.718  156.915    5.918
  447.250    0.258    0.432   77.116  156.458    6.028
  447.500    0.229    0.412   80.543  160.395    6.037
  447.750    0.213    0.415   84.849  163.387    6.000
  448.000    0.194    0.410   84.260  164.182    5.930
  448.250    0.208    0.392   85.495  164.570    5.749
  448.500    0.212    0.412   87.603  164.633    5.628
  448.750    0.207    0.435   89.838  164.797    5.406
  449.000    0.206    0.431   89.938  165.086    5.192
  449.250    0.209    0.433   91.358  164.723    4.977
  449.500    0.214    0.447   93.467  163.738    4.845
  449.750    0.219    0.458   93.319  160.038    4.880
  450.000    0.222    0.467   88.594  156.750    5.076
  450.250    0.241    0.461   83.165  155.771    5.341
  450.500    0.267    0.446   74.921  155.839    5.673
  450.750    0.287    0.416   68.748  156.003    5.780
  451.000    0.313    0.429   62.636  156.083    5.799
  451.250    0.327    0.456   55.958  156.138    5.698
  451.500    0.331    0.470   50.287  156.098    5.536
  451.750    0.327    0.457   48.949  156.161    5.367
  452.000    0.318    0.449   48.293  156.338    5.264
  452.250    0.305    0.453   45.635  156.086    5.282
  452.500    0.290    0.444   43.542  155.835    5.632
  452.750    0.277    0.422   42.573  155.799    6.017
  453.000    0.263    0.405   41.547  155.653    6.295
  453.250    0.266    0.414   40.270  155.518    6.461
  453.500    0.289    0.416   39.301  155.050    6.337
  453.750    0.295    0.410   38.463  154.796    5.927
  454.000    0.304    0.412   37.813  154.755    5.617
  454.250    0.322    0.421   37.726  154.511    5.355
  454.500    0.339    0.435   38.891  154.271    5.172
  454.750    0.345    0.451   39.557  154.142    5.025
  455.000    0.344    0.431   39.094  154.087    4.966
  455.250    0.320    0.426   38.195  154.157    5.059
  455.500    0.303    0.431   36.975  154.016    5.232
  455.750    0.295    0.424   36.515  153.956    5.392
  456.000    0.296    0.429   38.374  153.519    5.641
  456.250    0.290    0.440   41.736  153.560    5.935
  456.500    0.283    0.428   43.722  153.431    6.162
  456.750    0.281    0.409   41.814  153.712    6.350
  457.000    0.284    0.393   40.724  153.649    6.395
  457.250    0.288    0.393   43.278  154.039    6.380
  457.500    0.291    0.403   44.694  154.728    6.293
  457.750    0.293    0.404   44.484  155.740    6.090
  458.000    0.285    0.409   44.086  156.115    5.861
  458.250    0.283    0.418   43.993  155.958    5.608
  458.500    0.292    0.416   44.283  155.510    5.255
  458.750    0.290    0.416   47.776  154.937    4.990
  459.000    0.288    0.419   49.945  154.595    4.838
  459.250    0.290    0.407   50.552  154.236    4.719
  459.500    0.300    0.403   50.091  153.992    4.558
  459.750    0.309    0.412   49.000  153.961    4.286
  460.000    0.309    0.404   47.973  153.591    4.384
  460.250    0.299    0.419   47.632  153.657    4.500
  460.500    0.304    0.436   50.682  153.521    4.559
  460.750    0.312    0.429   52.853  153.573    4.531
  461.000    0.302    0.425   53.521  153.743    4.520
  461.250    0.308    0.427   52.994  153.926    4.466
  461.500    0.313    0.429   52.279  153.986    4.440
  461.750    0.317    0.419   52.260  154.045    4.396
  462.000    0.314    0.418   53.424  154.109    4.311
  462.250    0.313    0.427   55.911  154.172    4.310
  462.500    0.313    0.438   56.641  154.243    4.357
  462.750    0.314    0.444   53.540  154.314    4.413
