~VERSION INFORMATION
 VERS.                 2.0:   CWLS LOG ASCII STANDARD -VERSION 2.0
 WRAP.                  NO:   ONE LINE PER DEPTH STEP
~WELL INFORMATION BLOCK
#MNEM.UNIT           DATA                    DESCRIPTION OF MNEMONIC
#---------    -------------------            -------------------------------
# Generated from Intellog Unique Number	CW_82_90/WELL/3424
WELL.         PARA ET AL LIEGE               : Well_name    - WELL
LOC .         00/06-35-090-19W4/0            : Location     - LOCATION
UWI .         00/06-35-090-19W4/0            : Uwi          - UNIQUE WELL ID
ENTR.         MAX                            : Entered      - ENTERED BY
SRVC.         WESTERN ATLAS                  : Scn          - SERVICE COMPANY
STRT.M        70                             : top_depth    - START DEPTH
STOP.M        227                            : bot_depth    - STOP DEPTH
STEP.M        0.25                           : increment    - STEP LENGTH
 NULL. -999.2500:NULL Value
~CURVE INFORMATION BLOCK
#MNEM UNIT       ERCB CURVE CODE    CURVE DESCRIPTION
#-----------   ------------------   ----------------------------------
DEPT.M        00 001 00 00         : DEPTH        - DEPTH
ILD .OHMM     00 120 00 00         : RESD         - DEEP RESISTIVITY (DIL)
CALI.MM       00 280 01 00         : CAL          - CALIPER
DPHI.V/V      00 890 00 00         : PHID         - DENSITY POROSITY (SANDSTONE)
NPHI.V/V      00 330 00 00         : PHIN         - NEUTRON POROSITY (SANDSTONE)
GR  .API      00 310 00 00         : GR           - GAMMA RAY
~PARAMETER INFORMATION
#MNEM.UNIT           DATA             DESCRIPTION OF MNEMONIC
#---------         -----------     ------------------------------
GL  .M        515.5                : gl           - GROUND LEVEL ELEVATION
EREF.M        519.3                : kb           - ELEVATION OF DEPTH REFERENCE
DATM.M        515.5                : datum        - DATUM ELEVATION
TDD .M        227                  : tdd          - TOTAL DEPTH DRILLER
RUN .         ONE                  : Run          - RUN NUMBER
ENG .         BILL                 : Engineer     - RECORDING ENGINEER
WIT .         JIM                  : Witness      - WITNESSED BY
MUD .         GEL                  : Mud_type     - MUD TYPE
MATR.         SANDSTONE            : Logunit      - NEUTRON MATRIX
TMAX.C        20                   : BHT          - MAXIMUM RECORDED TEMPERATURE
BHTD.M        226                  : BHTDEP       - MAXIMUM RECORDED TEMPERATURE
MATR.         1                    : LOGUNIT      - NEUTRON MATRIX
RMT .C        17                   : MDTP         - TEMPERATURE OF MUD
NEUT.         1                    : NEUTRON      - NEUTRON TYPE
RESI.         0                    : RESIST       - RESISTIVITY TYPE
RMC .OHMM     3                    : RMC          - RESISTIVITY OF MUD CAKE
RMF .OHMM     3                    : RMF          - RESISTIVITY OF MUD FILTRATE
SUFT.C        -15                  : SUFT         - SURFACE TEMPERATURE
~A  DEPTH     RESD      CAL     PHID     PHIN       GR
# ...
  106.500   30.462  208.896    0.346    0.420   32.289
  106.750   30.736  209.289    0.345    0.419   30.433
  107.000   30.725  209.725    0.346    0.422   33.087
  107.250   30.999  212.144    0.356    0.431   37.238
  107.500   31.276  214.062    0.363    0.437   34.179
  107.750   31.554  216.971    0.342    0.411   34.127
  108.000   31.836  218.900    0.334    0.413   33.768
  108.250   31.826  221.286    0.346    0.404   33.715
  108.500   31.814  222.735    0.358    0.393   35.461
  108.750   31.802  224.653    0.356    0.412   36.919
  109.000   31.793  225.067    0.354    0.419   35.069
  109.250   31.782  224.980    0.351    0.428   32.905
  109.500   32.063  222.377    0.350    0.440   36.161
  109.750   32.054  207.255    0.346    0.449   37.920
  110.000   32.340  206.133    0.333    0.390   38.168
  110.250   32.327  208.051    0.326    0.381   37.508
  110.500   32.019  209.979    0.319    0.405   35.652
  110.750   31.421  211.407    0.318    0.439   35.900
  111.000   30.833  209.816    0.341    0.453   36.750
  111.250   30.259  195.697    0.374    0.448   36.698
  111.500   30.247  183.571    0.384    0.420   36.639
  111.750   30.236  179.453    0.379    0.435   36.587
  112.000   30.789  172.360    0.332    0.460   38.045
  112.250   31.352  173.276    0.337    0.413   38.895
  112.500   31.343  176.686    0.347    0.405   40.046
  112.750   30.194  179.105    0.370    0.405   40.589
  113.000   28.029  182.036    0.372    0.409   39.634
  113.250   28.018  186.950    0.367    0.436   37.772
  113.500   28.534  188.367    0.356    0.463   37.719
  113.750   29.054  188.291    0.330    0.470   39.177
  114.000   29.045  186.188    0.353    0.448   41.531
  114.250   27.213  179.586    0.385    0.437   43.577
  114.500   24.800  171.982    0.351    0.446   46.538
  114.750   19.493  172.374    0.318    0.447   54.010
  115.000   11.716  171.285    0.279    0.436   65.084
  115.250    9.123  170.207    0.210    0.477   78.269
  115.500    8.953  169.629    0.240    0.451   92.056
  115.750    8.705  169.532    0.262    0.466  101.332
  116.000    8.542  169.935    0.263    0.489  101.280
  116.250    6.839  168.846    0.254    0.485  105.431
  116.500    6.774  167.255    0.246    0.466  100.568
  116.750    7.092  166.667    0.250    0.476  100.215
  117.000    7.357  166.079    0.267    0.476  101.967
  117.250    7.491  166.003    0.267    0.471  104.314
  117.500    7.628  165.916    0.270    0.466  107.269
  117.750    7.768  166.320    0.267    0.469  106.014
  118.000    7.838  166.734    0.254    0.475  104.151
  118.250    7.908  167.137    0.253    0.463  103.504
  118.500    7.904  167.050    0.250    0.455  104.655
  118.750    7.902  166.953    0.251    0.449  105.197
  119.000    7.827  166.877    0.258    0.453   99.739
  119.250    7.824  167.291    0.259    0.477   91.267
  119.500    7.749  167.705    0.257    0.490   91.803
  119.750    7.746  167.128    0.256    0.498   94.163
  120.000    7.743  167.531    0.254    0.501   99.531
  120.250    7.740  167.946    0.250    0.496   99.478
  120.500    7.737  168.327    0.252    0.476   96.700
  120.750    7.806  168.774    0.256    0.457   96.949
  121.000    7.804  169.188    0.254    0.444   99.917
  121.250    7.874  169.101    0.248    0.427   98.061
  121.500    8.093  169.505    0.251    0.433   86.575
  121.750    8.394  169.429    0.259    0.460   76.293
  122.000    8.628  169.342    0.165    0.458   67.821
  122.250    9.032  168.743    0.197    0.435   72.580
  122.500    9.284  168.144    0.250    0.421   83.360
  122.750    9.630  168.558    0.268    0.441   84.504
  123.000    9.898  168.983    0.263    0.440   84.144
  123.250   10.172  168.886    0.272    0.420   77.483
  123.500   10.264  168.298    0.280    0.417   75.928
  123.750   10.452  168.211    0.287    0.436   78.876
  124.000   10.642  168.625    0.288    0.439   91.754
  124.250   10.443  168.538    0.270    0.439   89.002
  124.500    9.877  168.462    0.093    0.445   78.720
  124.750    8.206  168.364    0.117    0.460   86.192
  125.000    7.009  168.266    0.233    0.484   99.677
  125.250    6.878  168.190    0.284    0.509  102.626
  125.500    6.876  168.104    0.285    0.520  103.776
  125.750    5.208  168.006    0.273    0.531  105.221
  126.000    4.925  167.418    0.273    0.539  104.875
  126.250    4.701  166.819    0.282    0.539   98.809
  126.500    4.404  166.754    0.286    0.542  100.254
  126.750    4.243  167.658    0.294    0.550  103.509
  127.000    4.049  167.550    0.297    0.547   98.646
  127.250    3.937  167.473    0.295    0.549   94.985
  127.500    3.936  167.397    0.293    0.552   91.024
  127.750    3.934  167.311    0.287    0.554   86.762
  128.000    3.970  167.725    0.260    0.529   88.514
  128.250    3.932  167.126    0.191    0.467   92.672
  128.500    3.787  168.542    0.273    0.511   98.928
  128.750    3.717  169.447    0.308    0.560   95.575
  129.000    3.750  169.371    0.302    0.542   90.698
  129.250    3.890  169.284    0.289    0.521   93.359
  129.500    4.187  169.677    0.273    0.504   96.314
  129.750    4.549  170.113    0.262    0.488   94.758
  130.000    5.081  170.015    0.254    0.468   89.588
  130.250    6.168  170.440    0.246    0.451   90.137
  130.500    6.827  170.342    0.237    0.445   90.091
  130.750    7.913  170.244    0.235    0.433   83.417
  131.000    9.430  170.179    0.235    0.401   78.246
  131.250   11.554  170.081    0.232    0.386   71.278
  131.500   14.026  170.507    0.209    0.386   68.513
  131.750   15.813  170.899    0.150    0.381   68.454
  132.000   15.662  170.823    0.233    0.385   69.906
  132.250   14.539  169.712    0.269    0.403   71.063
  132.500   13.497  169.625    0.265    0.412   73.717
  132.750   12.764  170.562    0.253    0.407   77.881
  133.000   11.959  171.456    0.239    0.398   84.445
  133.250   11.310  171.391    0.236    0.398   87.393
  133.500   10.795  171.783    0.244    0.421   84.635
  133.750   10.496  171.217    0.255    0.444   79.771
  134.000   10.394  169.104    0.258    0.453   76.111
  134.250   10.683  169.518    0.249    0.436   72.751
  134.500   11.607  169.932    0.220    0.417   69.986
  134.750   12.728  170.336    0.222    0.398   67.822
  135.000   14.217  170.750    0.244    0.414   69.882
  135.250   13.444  171.175    0.259    0.442   69.829
  135.500   12.833  171.589    0.266    0.460   66.764
  135.750   13.188  171.492    0.264    0.454   61.600
  136.000   14.195  171.917    0.257    0.433   62.142
  136.250   15.423  171.841    0.242    0.408   61.188
  136.500   16.756  171.732    0.227    0.396   59.031
  136.750   18.716  172.135    0.217    0.390   58.672
  137.000   19.778  172.059    0.205    0.385   61.038
  137.250   19.770  171.962    0.212    0.380   69.105
  137.500   18.354  171.886    0.223    0.384   72.361
  137.750   17.039  171.810    0.232    0.398   79.532
  138.000   14.420  171.723    0.237    0.415   87.599
  138.250   12.318  170.623    0.222    0.387   89.351
  138.500   11.435  170.536    0.208    0.400   85.991
  138.750   10.914  169.948    0.184    0.409   87.442
  139.000   10.321  168.848    0.175    0.410   78.362
  139.250    9.582  168.270    0.202    0.403   81.017
  139.500    7.743  167.181    0.223    0.408   85.776
  139.750    7.322  166.593    0.244    0.424   90.535
  140.000    7.053  165.994    0.253    0.436   92.895
  140.250    6.986  165.918    0.245    0.452   85.619
  140.500    6.856  165.820    0.138    0.496   76.540
  140.750    6.853  166.736    0.161    0.484   82.207
  141.000    6.979  167.150    0.200    0.486   83.051
  141.250    7.582  167.052    0.235    0.466   81.789
  141.500    8.469  166.954    0.238    0.447   79.939
  141.750    9.726  166.878    0.229    0.404   79.881
  142.000   10.965  167.293    0.206    0.390   77.423
  142.250   12.023  167.206    0.221    0.393   76.763
  142.500   12.942  167.620    0.231    0.391   74.913
  142.750   13.179  167.533    0.234    0.385   71.854
