~VERSION INFORMATION
 VERS.                 2.0:   CWLS LOG ASCII STANDARD -VERSION 2.0
 WRAP.                  NO:   ONE LINE PER DEPTH STEP
~WELL INFORMATION BLOCK
#MNEM.UNIT           DATA                    DESCRIPTION OF MNEMONIC
#---------    -------------------            -------------------------------
# Generated from Intellog Unique Number	CS_71_72/WELL/772
WELL.         KIRBY                          : Well_name    - WELL
LOC .         00/06-20-071-05W4/0            : Location     - LOCATION
UWI .         00/06-20-071-05W4/0            : Uwi          - UNIQUE WELL ID
ENTR.         SP                             : Entered      - ENTERED BY
SRVC.         SCHLUMBERGER                   : Scn          - SERVICE COMPANY
STRT.M        310                            : top_depth    - START DEPTH
STOP.M        555                            : bot_depth    - STOP DEPTH
STEP.M        0.25                           : increment    - STEP LENGTH
 NULL. -999.2500:NULL Value
~CURVE INFORMATION BLOCK
#MNEM UNIT       ERCB CURVE CODE    CURVE DESCRIPTION
#-----------   ------------------   ----------------------------------
DEPT.M        00 001 00 00         : DEPTH        - DEPTH
ILD .OHMM     00 120 00 00         : RESD         - DEEP RESISTIVITY (DIL)
DPHI.V/V      00 890 00 00         : PHID         - DENSITY POROSITY (LIMESTONE)
NPHI.V/V      00 330 00 00         : PHIN         - NEUTRON POROSITY (LIMESTONE)
GR  .API      00 310 00 00         : GR           - GAMMA RAY
~PARAMETER INFORMATION
#MNEM.UNIT           DATA             DESCRIPTION OF MNEMONIC
#---------         -----------     ------------------------------
GL  .M        678.2                : gl           - GROUND LEVEL ELEVATION
EREF.M        681.5                : kb           - ELEVATION OF DEPTH REFERENCE
DATM.M        678.2                : datum        - DATUM ELEVATION
TDD .M        555                  : tdd          - TOTAL DEPTH DRILLER
RUN .         ONE                  : Run          - RUN NUMBER
ENG .         BILL                 : Engineer     - RECORDING ENGINEER
WIT .         JIM                  : Witness      - WITNESSED BY
MUD .         GEL                  : Mud_type     - MUD TYPE
MATR.         LIMESTONE            : Logunit      - NEUTRON MATRIX
TMAX.C        20.5                 : BHT          - MAXIMUM RECORDED TEMPERATURE
BHTD.M        555                  : BHTDEP       - MAXIMUM RECORDED TEMPERATURE
MATR.         1                    : LOGUNIT      - NEUTRON MATRIX
RMT .C        25                   : MDTP         - TEMPERATURE OF MUD
NEUT.         1                    : NEUTRON      - NEUTRON TYPE
RESI.         0                    : RESIST       - RESISTIVITY TYPE
RMC .OHMM     0.25                 : RMC          - RESISTIVITY OF MUD CAKE
RMF .OHMM     0.25                 : RMF          - RESISTIVITY OF MUD FILTRATE
SUFT.C        15                   : SUFT         - SURFACE TEMPERATURE
~A  DEPTH     RESD     PHID     PHIN       GR
# ...
  440.500    2.644    0.255    0.532   88.424
  440.750    2.778    0.256    0.534   86.800
  441.000    2.930    0.252    0.541   86.936
  441.250    3.130    0.247    0.532   83.548
  441.500    3.357    0.246    0.505   79.488
  441.750    3.675    0.241    0.531   77.435
  442.000    4.077    0.236    0.552   75.507
  442.250    4.364    0.248    0.537   73.272
  442.500    4.831    0.268    0.491   67.449
  442.750    5.240    0.284    0.497   62.295
  443.000    5.474    0.293    0.482   59.268
  443.250    5.720    0.283    0.450   64.822
  443.500    5.967    0.277    0.445   70.860
  443.750    6.050    0.283    0.449   73.615
  444.000    6.134    0.285    0.454   74.302
  444.250    6.208    0.236    0.462   74.865
  444.500    6.225    0.213    0.444   76.102
  444.750    6.172    0.187    0.403   76.543
  445.000    6.030    0.196    0.409   74.793
  445.250    5.879    0.222    0.420   75.785
  445.500    5.733    0.243    0.433   77.871
  445.750    5.653    0.233    0.446   79.894
  446.000    5.625    0.214    0.455   81.552
  446.250    5.654    0.233    0.467   78.711
  446.500    5.709    0.252    0.458   75.929
  446.750    5.843    0.255    0.453   75.643
  447.000    6.105    0.249    0.470   76.692
  447.250    6.499    0.253    0.481   77.197
  447.500    7.483    0.259    0.494   76.361
  447.750    9.912    0.162    0.529   65.063
  448.000   11.693    0.131    0.320   56.987
  448.250   12.493   -0.013    0.166   48.791
  448.500   12.860   -0.003    0.150   45.644
  448.750   12.680    0.042    0.225   51.197
  449.000   10.807    0.086    0.336   58.454
  449.250    7.025    0.171    0.392   64.615
  449.500    5.988    0.211    0.415   68.524
  449.750    5.438    0.231    0.425   74.990
  450.000    5.302    0.244    0.433   80.177
  450.250    5.317    0.250    0.447   84.636
  450.500    5.381    0.236    0.446   86.294
  450.750    5.426    0.227    0.440   86.189
  451.000    5.301    0.265    0.451   80.001
  451.250    5.150    0.280    0.440   79.958
  451.500    4.930    0.262    0.430   81.799
  451.750    4.824    0.246    0.439   81.999
  452.000    4.738    0.244    0.415   80.311
  452.250    4.637    0.253    0.401   75.344
  452.500    4.588    0.272    0.434   72.984
  452.750    4.653    0.292    0.466   69.048
  453.000    4.861    0.302    0.479   64.927
  453.250    5.322    0.257    0.477   61.475
  453.500    6.174    0.155    0.394   58.145
  453.750    6.572    0.048    0.265   58.165
  454.000    6.777    0.064    0.264   62.925
  454.250    6.030    0.123    0.379   67.566
  454.500    4.796    0.263    0.420   71.598
  454.750    3.829    0.267    0.442   74.657
  455.000    3.227    0.262    0.456   75.767
  455.250    2.920    0.262    0.488   75.053
  455.500    2.647    0.283    0.534   73.003
  455.750    2.509    0.284    0.549   76.608
  456.000    2.479    0.269    0.542   80.031
  456.250    2.609    0.256    0.530   82.724
  456.500    2.878    0.249    0.523   83.228
  456.750    3.308    0.253    0.519   78.864
  457.000    3.788    0.266    0.486   77.727
  457.250    4.272    0.268    0.456   78.414
  457.500    4.625    0.249    0.443   78.976
  457.750    4.743    0.232    0.433   79.239
  458.000    4.616    0.224    0.437   79.018
  458.250    4.492    0.223    0.444   78.789
  458.500    4.496    0.225    0.426   78.373
  458.750    4.559    0.222    0.435   75.654
  459.000    4.563    0.222    0.458   77.068
  459.250    4.358    0.224    0.474   79.217
  459.500    4.210    0.225    0.477   79.781
  459.750    4.143    0.226    0.479   77.667
  460.000    4.202    0.229    0.466   73.183
  460.250    4.349    0.245    0.419   69.547
  460.500    4.544    0.259    0.409   67.009
  460.750    4.704    0.274    0.422   69.217
  461.000    4.476    0.264    0.435   72.885
  461.250    4.149    0.245    0.442   76.613
  461.500    3.919    0.231    0.457   81.134
  461.750    3.751    0.219    0.475   83.583
  462.000    3.657    0.216    0.468   84.510
  462.250    3.605    0.218    0.462   84.100
  462.500    3.622    0.223    0.476   82.474
  462.750    4.010    0.236    0.489   77.320
  463.000    4.902    0.258    0.497   67.846
  463.250    5.560    0.272    0.478   61.415
  463.500    6.378    0.287    0.448   56.381
  463.750    7.357    0.280    0.435   53.235
  464.000    8.777    0.234    0.424   51.731
  464.250   10.491    0.155    0.303   51.382
  464.500   11.789    0.142    0.300   50.243
  464.750   12.643    0.150    0.310   49.896
  465.000   12.702    0.209    0.366   51.557
  465.250   12.431    0.244    0.415   54.371
  465.500   11.503    0.270    0.436   56.576
  465.750   10.216    0.294    0.433   56.289
  466.000    9.721    0.313    0.431   54.055
  466.250    9.640    0.321    0.436   55.653
  466.500    9.037    0.319    0.424   60.964
  466.750    7.337    0.318    0.408   65.237
  467.000    5.847    0.312    0.408   70.123
  467.250    5.058    0.274    0.428   73.787
  467.500    4.475    0.239    0.453   73.622
  467.750    4.965    0.242    0.457   65.063
  468.000    5.727    0.250    0.435   61.366
  468.250    6.532    0.250    0.424   61.627
  468.500    7.395    0.238    0.436   65.659
  468.750    8.388    0.179    0.457   64.763
  469.000    9.393    0.143    0.429   59.547
  469.250    9.794    0.097    0.303   55.184
  469.500    8.394    0.112    0.317   57.939
  469.750    5.296    0.159    0.353   64.587
  470.000    4.197    0.202    0.376   71.052
  470.250    4.344    0.237    0.392   75.449
  470.500    5.281    0.228    0.460   77.898
  470.750    5.967    0.234    0.442   73.292
  471.000    7.186    0.245    0.422   68.078
  471.250    8.227    0.258    0.425   64.323
  471.500    9.298    0.268    0.423   61.361
  471.750    9.750    0.266    0.414   61.375
  472.000    9.980    0.263    0.410   61.942
  472.250   10.027    0.260    0.412   63.053
  472.500   10.301    0.255    0.408   63.191
  472.750   11.172    0.241    0.356   61.684
  473.000   11.716    0.076    0.327   59.328
  473.250   11.509    0.095    0.356   59.347
  473.500   10.830    0.142    0.382   61.130
  473.750   10.521    0.199    0.399   63.702
  474.000   10.412    0.241    0.393   66.702
  474.250   10.305    0.244    0.387   68.906
  474.500   10.200    0.238    0.402   71.353
  474.750   10.303    0.249    0.409   73.012
  475.000   11.052    0.240    0.402   65.972
  475.250   11.810    0.237    0.391   66.782
  475.500   12.383    0.260    0.393   67.529
  475.750   13.163    0.282    0.409   65.657
  476.000   13.343    0.298    0.418   67.198
  476.250   13.558    0.306    0.408   68.916
  476.500   13.464    0.298    0.415   70.027
  476.750   12.959    0.291    0.408   67.488
  477.000   12.034    0.286    0.405   69.575
  477.250   10.297    0.277    0.405   72.084
  477.500    9.041    0.271    0.371   74.171
  477.750    8.524    0.259    0.351   75.098
  478.000    8.824    0.250    0.358   75.237
  478.250    9.184    0.246    0.363   74.587
  478.500    9.261    0.252    0.354   75.149
  478.750    9.012    0.256    0.368   77.112
  479.000    8.546    0.251    0.381   79.683
  479.250    8.072    0.218    0.388   82.987
  479.500    7.670    0.197    0.384   84.950
  479.750    7.546    0.186    0.388   82.350
  480.000    7.609    0.188    0.396   82.915
  480.250    7.905    0.189    0.397   84.393
  480.500    8.338    0.184    0.372   85.629
  480.750    8.712    0.178    0.353   86.251
  481.000    9.016    0.174    0.351   86.391
  481.250    9.331    0.177    0.380   82.573
  481.500    9.897    0.195    0.398   71.213
  481.750   10.399    0.219    0.385   64.355
  482.000   10.804    0.233    0.356   64.006
  482.250   11.395    0.218    0.346   68.099
  482.500   12.064    0.220    0.356   69.455
  482.750   12.438    0.234    0.354   64.118
  483.000   12.379    0.246    0.361   59.758
  483.250   11.518    0.249    0.366   59.771
  483.500   10.580    0.232    0.360   62.160
  483.750   10.470    0.214    0.363   65.098
