~VERSION INFORMATION
 VERS.                 2.0:   CWLS LOG ASCII STANDARD -VERSION 2.0
 WRAP.                  NO:   ONE LINE PER DEPTH STEP
~WELL INFORMATION BLOCK
#MNEM.UNIT           DATA                    DESCRIPTION OF MNEMONIC
#---------    -------------------            -------------------------------
# Generated from Intellog Unique Number	CW_79_81/WELL/642
WELL.         07-36-079-21W4                 : Well_name    - WELL
LOC .         00/07-36-079-21W4/0            : Location     - LOCATION
UWI .         00/07-36-079-21W4/0            : Uwi          - UNIQUE WELL ID
ENTR.         MAX                            : Entered      - ENTERED BY
SRVC.         SCHLUMBERGER                   : Scn          - SERVICE COMPANY
STRT.M        215                            : top_depth    - START DEPTH
STOP.M        417                            : bot_depth    - STOP DEPTH
STEP.M        0.25                           : increment    - STEP LENGTH
 NULL. -999.2500:NULL Value
~CURVE INFORMATION BLOCK
#MNEM UNIT       ERCB CURVE CODE    CURVE DESCRIPTION
#-----------   ------------------   ----------------------------------
DEPT.M        00 001 00 00         : DEPTH        - DEPTH
ILD .OHMM     00 120 00 00         : RESD         - DEEP RESISTIVITY (DIL)
NPHI.V/V      00 330 00 00         : PHIN         - NEUTRON POROSITY (SANDSTONE)
DPHI.V/V      00 890 00 00         : PHID         - DENSITY POROSITY (SANDSTONE)
CALI.MM       00 280 01 00         : CAL          - CALIPER
GR  .API      00 310 00 00         : GR           - GAMMA RAY
~PARAMETER INFORMATION
#MNEM.UNIT           DATA             DESCRIPTION OF MNEMONIC
#---------         -----------     ------------------------------
GL  .M        572.05               : gl           - GROUND LEVEL ELEVATION
EREF.M        575.35               : kb           - ELEVATION OF DEPTH REFERENCE
DATM.M        572.05               : datum        - DATUM ELEVATION
TDD .M        420                  : tdd          - TOTAL DEPTH DRILLER
RUN .         ONE                  : Run          - RUN NUMBER
ENG .         BILL                 : Engineer     - RECORDING ENGINEER
WIT .         JIM                  : Witness      - WITNESSED BY
MUD .         GEL                  : Mud_type     - MUD TYPE
MATR.         SANDSTONE            : Logunit      - NEUTRON MATRIX
TMAX.C        29.4                 : BHT          - MAXIMUM RECORDED TEMPERATURE
BHTD.M        420                  : BHTDEP       - MAXIMUM RECORDED TEMPERATURE
RMT .C        23                   : MDTP         - TEMPERATURE OF MUD
MUDD.KG/M     1130                 : MWT          - MUD DENSITY
NEUT.         1                    : NEUTRON      - NEUTRON TYPE
RESI.         0                    : RESIST       - RESISTIVITY TYPE
RM  .OHMM     6.08                 : RM           - RESISTIVITY OF MUD
RMC .OHMM     0.25                 : RMC          - RESISTIVITY OF MUD CAKE
RMF .OHMM     5.02                 : RMF          - RESISTIVITY OF MUD FILTRATE
SUFT.C        -10                  : SUFT         - SURFACE TEMPERATURE
~A  DEPTH     RESD     PHIN     PHID      CAL       GR
# ...
  324.500   10.795    0.486    0.205  155.933   85.330
  324.750   10.802    0.481    0.210  155.933   87.152
  325.000   10.808    0.467    0.213  155.992   88.067
  325.250   10.816    0.480    0.218  156.025   86.890
  325.500   10.824    0.495    0.225  155.069   86.610
  325.750   10.831    0.504    0.234  155.102   86.633
  326.000   10.831    0.484    0.237  155.135   86.051
  326.250   10.559    0.484    0.208  155.169   88.467
  326.500   10.278    0.496    0.221  155.697   89.086
  326.750   10.473    0.489    0.233  156.233   90.009
  327.000   10.672    0.497    0.217  156.267   88.529
  327.250   10.680    0.478    0.214  156.799   87.659
  327.500   10.687    0.475    0.183  157.335   87.970
  327.750   10.502    0.470    0.212  157.868   88.889
  328.000   10.414    0.464    0.214  158.404   88.911
  328.250   10.327    0.467    0.208  158.932   88.934
  328.500   10.334    0.478    0.204  158.966   89.555
  328.750   10.156    0.504    0.208  159.498   90.171
  329.000    9.980    0.492    0.208  159.536   90.793
  329.250    9.980    0.497    0.202  160.068   92.609
  329.500    9.641    0.507    0.201  160.604   92.931
  329.750    9.469    0.507    0.210  160.638   92.048
  330.000    9.221    0.520    0.200  161.166   93.570
  330.250    9.145    0.491    0.194  161.199   95.084
  330.500    8.985    0.489    0.200  161.740   95.104
  330.750    8.911    0.487    0.205  162.767   93.333
  331.000    8.916    0.480    0.189  162.306   90.658
  331.250    8.842    0.464    0.174  160.842   89.176
  331.500    8.848    0.481    0.184  160.875   89.500
  331.750    8.694    0.498    0.200  161.408   91.614
  332.000    8.544    0.493    0.161  163.944   94.628
  332.250    8.245    0.493    0.174  163.973   96.450
  332.500    8.029    0.507    0.186  165.001   96.165
  332.750    7.471    0.517    0.187  167.034   96.786
  333.000    6.704    0.514    0.213  168.569   97.705
  333.250    6.296    0.512    0.218  166.602   96.529
  333.500    6.533    0.518    0.200  162.152   92.355
  333.750    7.839    0.503    0.097  160.680   80.398
  334.000   11.281    0.377    0.072  160.219   70.538
  334.250   16.233    0.299    0.048  160.277   64.270
  334.500   21.140    0.250    0.028  159.790   60.697
  334.750   20.775    0.236    0.011  159.325   58.621
  335.000   18.984    0.263    0.042  158.360   59.839
  335.250   17.189    0.370    0.087  157.391   69.143
  335.500   17.189    0.389    0.101  156.930   73.355
  335.750   14.889    0.351    0.081  157.965   73.375
  336.000   12.765    0.303    0.078  158.493   73.694
  336.250   11.559    0.337    0.125  158.032   80.304
  336.500   10.278    0.392    0.152  158.568   85.716
  336.750    9.565    0.439    0.206  159.101   85.736
  337.000    9.231    0.457    0.207  160.128   87.552
  337.250    9.153    0.468    0.202  160.169   89.970
  337.500    9.327    0.484    0.203  159.704   89.993
  337.750    9.679    0.485    0.211  159.733   89.711
  338.000   10.136    0.461    0.206  158.273   89.431
  338.250   10.517    0.450    0.204  157.313   89.456
  338.500   10.914    0.432    0.186  156.839   89.771
  338.750   11.020    0.404    0.194  156.872   91.592
  339.000   10.929    0.430    0.214  156.905   93.706
  339.250   10.937    0.443    0.204  156.939   93.726
  339.500   10.944    0.455    0.223  156.976   94.045
  339.750   10.952    0.466    0.210  157.009   94.367
  340.000   11.059    0.472    0.210  157.051   93.791
  340.250   11.166    0.468    0.218  157.080   93.209
  340.500   11.276    0.467    0.210  157.118   92.628
  340.750   11.596    0.464    0.217  157.155   92.655
  341.000   11.605    0.450    0.220  156.694   92.670
  341.250   11.612    0.440    0.216  156.714   92.992
  341.500   11.725    0.443    0.186  156.253   92.413
  341.750   11.841    0.459    0.181  156.286   93.332
  342.000   11.741    0.478    0.204  155.825   94.250
  342.250   11.645    0.477    0.215  155.854   93.372
  342.500   11.547    0.469    0.225  155.891   94.290
  342.750   11.556    0.475    0.202  155.426   94.312
  343.000   11.563    0.471    0.181  155.455   93.135
  343.250   11.570    0.459    0.196  155.496   92.858
  343.500   11.577    0.483    0.206  156.029   92.878
  343.750   11.585    0.491    0.199  156.058   94.096
  344.000   11.593    0.494    0.198  156.091   94.113
  344.250   11.394    0.466    0.198  156.129   93.235
  344.500   11.400    0.463    0.182  156.166   90.864
  344.750   11.408    0.477    0.158  155.696   86.690
  345.000   11.417    0.489    0.131  155.730   79.823
  345.250   12.174    0.336    0.079  155.763   76.550
  345.500   12.634    0.321    0.082  155.800   84.654
  345.750   12.303    0.375    0.122  155.842   89.165
  346.000   12.088    0.417    0.183  156.366   91.286
  346.250   12.207    0.451    0.178  156.404   86.812
  346.500   12.783    0.427    0.109  156.936   81.144
  346.750   13.264    0.374    0.059  156.965   72.480
  347.000   13.516    0.323    0.060  157.007   69.207
  347.250   13.162    0.325    0.072  157.036   81.503
  347.500   12.587    0.362    0.150  157.069   90.209
  347.750   11.929    0.402    0.185  157.107   95.022
  348.000   11.510    0.428    0.193  157.136   93.841
  348.250   11.415    0.440    0.169  157.677   89.373
  348.500   11.845    0.448    0.171  157.710   85.800
  348.750   12.290    0.448    0.159  158.242   83.726
  349.000   12.872    0.409    0.171  158.770   85.540
  349.250   13.235    0.419    0.155  159.303   86.758
  349.500   13.008    0.414    0.141  159.340   88.874
  349.750   12.437    0.405    0.199  159.378   91.893
  350.000   11.783    0.476    0.198  156.933   98.491
  350.250   12.933    0.491    0.192  155.965   95.513
  350.500   13.552    0.494    0.121  155.004   91.040
  350.750   13.814    0.452    0.085  153.529   85.072
  351.000   13.954    0.386    0.020  153.067   74.313
  351.250   13.461    0.330    0.075  153.588   77.624
  351.500   12.403    0.437    0.124  156.619   90.812
  351.750   11.427    0.455    0.163  158.145  103.105
  352.000   10.824    0.452    0.180  158.670  103.422
  352.250   10.735    0.453    0.180  158.703  101.346
  352.500   10.742    0.456    0.193  158.736  104.060
  352.750   10.653    0.464    0.191  158.758  104.074
  353.000   10.566    0.478    0.184  158.795  103.495
  353.250   10.575    0.486    0.184  158.795  102.914
  353.500   10.583    0.491    0.177  158.858  104.131
  353.750   10.692    0.488    0.181  158.381  107.741
  354.000   10.899    0.475    0.181  157.912  106.262
  354.250   11.010    0.485    0.157  157.945  103.883
  354.500   10.720    0.491    0.163  158.473  103.901
  354.750   10.341    0.475    0.175  159.002  104.816
  355.000   10.162    0.471    0.159  159.530  103.938
  355.250   10.455    0.469    0.171  159.556  105.156
  355.500   10.562    0.471    0.188  160.088  106.373
  355.750   10.378    0.445    0.198  160.620  106.688
  356.000    9.739    0.439    0.177  160.654  107.606
  356.250    8.974    0.446    0.131  160.679  110.016
  356.500    8.657    0.451    0.099  160.705  112.426
  356.750    8.583    0.460    0.120  160.735  114.541
  357.000    8.832    0.481    0.148  161.766  113.659
  357.250    9.342    0.479    0.176  164.789  111.282
  357.500   10.064    0.463    0.180  166.315  106.211
  357.750   10.548    0.450    0.162  165.853  101.439
  358.000   10.556    0.425    0.147  163.384  100.259
  358.250    9.907    0.421    0.124  160.919  105.069
  358.500    9.469    0.464    0.137  160.949  106.286
  358.750    9.306    0.450    0.178  161.972  106.302
  359.000    9.485    0.437    0.174  162.002  104.525
  359.250   10.218    0.452    0.184  166.522  101.849
  359.500   12.523    0.460    0.171  167.549   98.871
  359.750   15.206    0.463    0.156  165.084   91.106
  360.000   18.299    0.414    0.138  168.114   80.947
  360.250   19.177    0.356    0.076  167.146   81.266
  360.500   18.841    0.363    0.082  163.181   76.492
  360.750   17.359    0.370    0.106  160.221   74.117
