~VERSION INFORMATION
 VERS.                 2.0:   CWLS LOG ASCII STANDARD -VERSION 2.0
 WRAP.                  NO:   ONE LINE PER DEPTH STEP
~WELL INFORMATION BLOCK
#MNEM.UNIT           DATA                    DESCRIPTION OF MNEMONIC
#---------    -------------------            -------------------------------
# Generated from Intellog Unique Number	CW_76_78/WELL/549
WELL.         07-04-077-04W5                 : Well_name    - WELL
LOC .         00/07-04-077-04W5/0            : Location     - LOCATION
UWI .         00/07-04-077-04W5/0            : Uwi          - UNIQUE WELL ID
ENTR.         JAYE                           : Entered      - ENTERED BY
SRVC.         SCHLUMBERGER                   : Scn          - SERVICE COMPANY
DATE.         11 MAR 75                      : Date         - LOG DATE
STRT.M        432.816                        : top_depth    - START DEPTH
STOP.M        658.316                        : bot_depth    - STOP DEPTH
STEP.M        0.25                           : increment    - STEP LENGTH
 NULL. -999.2500:NULL Value
~CURVE INFORMATION BLOCK
#MNEM UNIT       ERCB CURVE CODE    CURVE DESCRIPTION
#-----------   ------------------   ----------------------------------
DEPT.M        00 001 00 00         : DEPTH        - DEPTH
DPHI.V/V      00 890 00 00         : PHID         - DENSITY POROSITY (SANDSTONE)
NPHI.V/V      00 330 00 00         : PHIN         - NEUTRON POROSITY (SANDSTONE)
GR  .API      00 310 00 00         : GR           - GAMMA RAY
CALI.MM       00 280 01 00         : CAL          - CALIPER
ILD .OHMM     00 120 00 00         : RESD         - DEEP RESISTIVITY (DIL)
~PARAMETER INFORMATION
#MNEM.UNIT           DATA             DESCRIPTION OF MNEMONIC
#---------         -----------     ------------------------------
GL  .M        726.338              : gl           - GROUND LEVEL ELEVATION
EREF.M        729.905              : kb           - ELEVATION OF DEPTH REFERENCE
DATM.M        726.338              : datum        - DATUM ELEVATION
TDD .M        670.255              : tdd          - TOTAL DEPTH DRILLER
RUN .         ONE                  : Run          - RUN NUMBER
ENG .         SMILEY               : Engineer     - RECORDING ENGINEER
WIT .         KIS/STEIDEL          : Witness      - WITNESSED BY
BASE.         EDMONTON             : Branch       - HOME BASE OF LOGGING UNIT
MUD .         GEL CHEM             : Mud_type     - MUD TYPE
MATR.         SANDSTONE            : Logunit      - NEUTRON MATRIX
TMAX.C        26.1111              : BHT          - MAXIMUM RECORDED TEMPERATURE
BHTD.M        670.865              : BHTDEP       - MAXIMUM RECORDED TEMPERATURE
RMT .C        16.1111              : MDTP         - TEMPERATURE OF MUD
MUDD.KG/M     1128                 : MWT          - MUD DENSITY
NEUT.         1                    : NEUTRON      - NEUTRON TYPE
RESI.         0                    : RESIST       - RESISTIVITY TYPE
RM  .OHMM     3.16                 : RM           - RESISTIVITY OF MUD
RMC .OHMM     5.23                 : RMC          - RESISTIVITY OF MUD CAKE
RMF .OHMM     4.07                 : RMF          - RESISTIVITY OF MUD FILTRATE
SUFT.C        4.5                  : SUFT         - SURFACE TEMPERATURE
~A  DEPTH     PHID     PHIN       GR      CAL     RESD
# ...
  542.316    0.225    0.490   94.224  160.022    4.403
  542.566    0.252    0.477   97.139  159.458    4.531
  542.816    0.263    0.468   86.939  159.825    4.681
  543.066    0.262    0.476   81.147  161.134    4.907
  543.316    0.258    0.487   77.258  161.811    5.277
  543.566    0.260    0.495   75.698  161.872    5.645
  543.816    0.277    0.485   74.751  161.304    6.059
  544.066    0.277    0.454   75.951  160.845    6.329
  544.316    0.269    0.463   78.252  160.069    6.683
  544.566    0.269    0.473   79.264  159.497    6.980
  544.816    0.273    0.456   78.869  160.292    7.157
  545.066    0.271    0.446   78.228  161.068    7.101
  545.316    0.271    0.475   80.407  161.749    6.790
  545.566    0.262    0.482   82.953  162.324    6.530
  545.816    0.260    0.473   82.129  162.792    6.349
  546.066    0.268    0.467   77.939  162.954    6.162
  546.316    0.286    0.473   75.698  162.078    6.035
  546.566    0.300    0.471   73.530  161.100    5.900
  546.816    0.297    0.454   71.904  160.327    5.789
  547.066    0.288    0.446   70.466  160.384    5.701
  547.316    0.294    0.445   71.182  160.437    5.594
  547.566    0.291    0.447   72.313  159.878    5.499
  547.816    0.294    0.453   74.250  159.520    5.327
  548.066    0.288    0.456   76.363  159.465    5.189
  548.316    0.304    0.462   80.013  159.425    5.082
  548.566    0.301    0.471   83.663  159.681    4.951
  548.816    0.286    0.466   87.007  159.638    4.848
  549.066    0.299    0.458   90.106  159.276    4.873
  549.316    0.308    0.453   85.663  159.129    4.941
  549.566    0.308    0.448   76.811  158.774    4.993
  549.816    0.303    0.444   72.125  158.938    5.018
  550.066    0.295    0.459   68.908  159.090    5.033
  550.316    0.283    0.462   68.576  159.254    5.095
  550.566    0.273    0.455   69.713  159.308    5.121
  550.816    0.283    0.454   70.606  159.576    5.164
  551.066    0.285    0.458   70.334  159.528    5.209
  551.316    0.278    0.459   71.224  159.170    5.215
  551.566    0.286    0.459   73.033  159.118    5.155
  551.816    0.285    0.455   74.355  159.285    5.086
  552.066    0.275    0.449   73.101  159.449    5.009
  552.316    0.263    0.442   70.989  159.706    5.024
  552.566    0.235    0.418   69.856  160.383    5.133
  552.816    0.199    0.360   67.749  161.688    5.441
  553.066    0.134    0.309   67.718  162.477    6.414
  553.316    0.119    0.278   68.553  162.011    7.757
  553.566    0.103    0.282   69.378  161.136    8.117
  553.816    0.138    0.298   70.948  161.709    7.469
  554.066    0.177    0.432   73.494  162.386    6.650
  554.316    0.222    0.465   77.080  162.860    6.019
  554.566    0.275    0.465   80.795  163.018    5.242
  554.816    0.283    0.473   81.748  162.666    4.360
  555.066    0.292    0.467   81.045  162.827    4.042
  555.316    0.283    0.454   78.077  163.503    3.923
  555.566    0.268    0.447   77.555  164.497    3.849
  555.816    0.262    0.444   77.466  164.348    3.854
  556.066    0.272    0.459   75.907  163.572    3.938
  556.316    0.282    0.471   74.100  163.110    3.978
  556.566    0.293    0.464   73.648  162.652    4.013
  556.816    0.299    0.458   74.169  162.600    4.040
  557.066    0.287    0.452   75.366  162.661    4.038
  557.316    0.267    0.449   76.564  163.545    3.998
  557.566    0.230    0.475   76.597  164.534    3.967
  557.816    0.210    0.469   74.547  164.902    4.038
  558.066    0.138    0.357   69.618  165.166    4.965
  558.316    0.120    0.302   70.262  165.124    6.334
  558.566    0.167    0.322   75.568  164.142    6.079
  558.816    0.208    0.482   80.444  163.987    5.227
  559.066    0.251    0.505   84.093  164.254    4.679
  559.316    0.231    0.489   84.928  164.416    4.290
  559.566    0.240    0.468   85.448  163.434    3.969
  559.816    0.255    0.454   80.580  162.557    3.810
  560.066    0.246    0.460   79.386  164.067    3.691
  560.316    0.280    0.473   78.806  164.640    3.628
  560.566    0.279    0.479   78.538  163.763    3.593
  560.816    0.280    0.470   80.837  162.995    3.591
  561.066    0.268    0.465   83.383  162.943    3.589
  561.316    0.253    0.469   86.910  163.214    3.580
  561.566    0.235    0.479   90.010  164.302    3.571
  561.816    0.234    0.506   91.822  165.294    3.569
  562.066    0.226    0.508   92.467  164.628    3.554
  562.316    0.235    0.497   90.540  163.644    3.552
  562.566    0.259    0.487   89.714  162.250    3.563
  562.816    0.252    0.478   89.503  162.099    3.574
  563.066    0.232    0.467   90.825  163.296    3.585
  563.316    0.214    0.465   91.530  163.454    3.629
  563.566    0.218    0.466   92.240  163.517    3.653
  563.816    0.218    0.462   92.639  163.468    3.665
  564.066    0.207    0.462   94.574  162.796    3.689
  564.316    0.219    0.465   96.694  161.916    3.680
  564.566    0.233    0.462   98.076  161.248    3.699
  564.816    0.223    0.465   98.597  161.828    3.772
  565.066    0.209    0.464   93.972  163.023    3.861
  565.316    0.196    0.428   87.631  164.228    3.980
  565.566    0.177    0.389   90.120  165.213    4.059
  565.816    0.169    0.415   91.564  165.997    4.132
  566.066    0.215    0.476   92.574  165.431    4.152
  566.316    0.211    0.494   92.368  164.349    4.142
  566.566    0.201    0.497   93.930  163.678    4.109
  566.816    0.200    0.499   93.781  163.215    4.099
  567.066    0.203    0.493   90.565  163.067    4.134
  567.316    0.211    0.496   87.719  163.120    4.186
  567.566    0.236    0.489   85.910  163.180    4.307
  567.816    0.250    0.482   83.802  163.130    4.507
  568.066    0.259    0.480   83.038  162.980    5.179
  568.316    0.269    0.474   83.624  162.941    6.229
  568.566    0.275    0.456   83.963  162.889    6.434
  568.816    0.264    0.440   85.896  163.047    6.291
  569.066    0.244    0.455   92.246  162.795    5.917
  569.316    0.220    0.465   95.404  162.751    5.617
  569.566    0.196    0.468   96.785  162.491    5.402
  569.816    0.191    0.478   92.406  161.196    5.195
  570.066    0.185    0.481   91.951  160.117    5.051
  570.316    0.196    0.447   93.271  159.549    4.947
  570.566    0.198    0.438   98.573  159.404    4.845
  570.816    0.202    0.446  101.979  160.285    4.807
  571.066    0.203    0.452  103.547  161.905    4.778
  571.316    0.194    0.457  100.698  161.234    4.818
  571.566    0.203    0.451   98.098  159.526    4.842
  571.816    0.209    0.438   98.312  160.095    4.884
  572.066    0.201    0.422   98.715  160.984    4.908
  572.316    0.200    0.407   97.461  160.729    4.860
  572.566    0.176    0.416   99.210  160.997    4.786
  572.816    0.187    0.440  102.496  161.880    4.688
  573.066    0.188    0.461  104.857  162.666    4.608
  573.316    0.174    0.464  106.795  162.824    4.581
  573.566    0.161    0.446  108.480  163.090    4.561
  573.816    0.173    0.454  110.721  163.464    4.542
  574.066    0.190    0.459  112.407  163.932    4.464
  574.316    0.197    0.452  113.792  164.199    4.421
  574.566    0.186    0.443  113.394  164.463    4.451
  574.816    0.176    0.452  106.071  164.936    4.514
  575.066    0.179    0.460  102.062  165.302    4.620
  575.316    0.195    0.452   98.845  165.564    4.816
  575.566    0.203    0.445   98.023  165.725    4.948
  575.816    0.195    0.447   99.594  165.579    5.083
  576.066    0.204    0.462  100.050  165.535    4.942
  576.316    0.214    0.474  100.207  165.792    4.141
  576.566    0.255    0.490  100.793  166.057    3.776
  576.816    0.250    0.486  101.073  166.219    3.658
  577.066    0.229    0.479  101.291  166.177    3.557
  577.316    0.208    0.475  100.955  165.709    3.554
  577.566    0.219    0.479   99.331  164.105    3.645
  577.816    0.209    0.472   95.503  162.608    3.786
  578.066    0.218    0.468   91.797  162.660    3.925
  578.316    0.221    0.468   90.912  163.143    3.973
  578.566    0.235    0.473   94.011  163.508    3.978
