~VERSION INFORMATION
 VERS.                 2.0:   CWLS LOG ASCII STANDARD -VERSION 2.0
 WRAP.                  NO:   ONE LINE PER DEPTH STEP
~WELL INFORMATION BLOCK
#MNEM.UNIT           DATA                    DESCRIPTION OF MNEMONIC
#---------    -------------------            -------------------------------
# Generated from Intellog Unique Number	CS_69_70/WELL/844
WELL.         ICG RESOURCES LTD.             : Well_name    - WELL
LOC .         00/07-31-069-12W4/0            : Location     - LOCATION
UWI .         00/07-31-069-12W4/0            : Uwi          - UNIQUE WELL ID
ENTR.         SP                             : Entered      - ENTERED BY
SRVC.         SCHLUMBERGER                   : Scn          - SERVICE COMPANY
STRT.M        270                            : top_depth    - START DEPTH
STOP.M        482                            : bot_depth    - STOP DEPTH
STEP.M        0.25                           : increment    - STEP LENGTH
 NULL. -999.2500:NULL Value
~CURVE INFORMATION BLOCK
#MNEM UNIT       ERCB CURVE CODE    CURVE DESCRIPTION
#-----------   ------------------   ----------------------------------
DEPT.M        00 001 00 00         : DEPTH        - DEPTH
ILD .OHMM     00 120 00 00         : RESD         - DEEP RESISTIVITY (DIL)
DPHI.V/V      00 890 00 00         : PHID         - DENSITY POROSITY (LIMESTONE)
NPHI.V/V      00 330 00 00         : PHIN         - NEUTRON POROSITY (LIMESTONE)
GR  .API      00 310 00 00         : GR           - GAMMA RAY
~PARAMETER INFORMATION
#MNEM.UNIT           DATA             DESCRIPTION OF MNEMONIC
#---------         -----------     ------------------------------
GL  .M        582                  : gl           - GROUND LEVEL ELEVATION
EREF.M        585.8                : kb           - ELEVATION OF DEPTH REFERENCE
DATM.M        582                  : datum        - DATUM ELEVATION
TDD .M        488                  : tdd          - TOTAL DEPTH DRILLER
RUN .         ONE                  : Run          - RUN NUMBER
ENG .         BILL                 : Engineer     - RECORDING ENGINEER
WIT .         JIM                  : Witness      - WITNESSED BY
MUD .         GEL                  : Mud_type     - MUD TYPE
MATR.         LIMESTONE            : Logunit      - NEUTRON MATRIX
TMAX.C        23                   : BHT          - MAXIMUM RECORDED TEMPERATURE
BHTD.M        488                  : BHTDEP       - MAXIMUM RECORDED TEMPERATURE
MATR.         1                    : LOGUNIT      - NEUTRON MATRIX
RMT .C        25                   : MDTP         - TEMPERATURE OF MUD
NEUT.         1                    : NEUTRON      - NEUTRON TYPE
RESI.         0                    : RESIST       - RESISTIVITY TYPE
RMC .OHMM     0.25                 : RMC          - RESISTIVITY OF MUD CAKE
RMF .OHMM     0.25                 : RMF          - RESISTIVITY OF MUD FILTRATE
SUFT.C        15                   : SUFT         - SURFACE TEMPERATURE
~A  DEPTH     RESD     PHID     PHIN       GR
# ...
  444.000    2.959    0.198    0.361  119.481
  444.250    3.276    0.192    0.364  122.254
  444.500    3.662    0.196    0.350  117.260
  444.750    3.926    0.205    0.342  114.592
  445.000    4.016    0.200    0.341  119.870
  445.250    4.085    0.198    0.353  124.290
  445.500    4.108    0.185    0.369  126.938
  445.750    4.162    0.153    0.382  115.590
  446.000    4.438    0.112    0.385  111.207
  446.250    4.804    0.120    0.367  116.424
  446.500    5.132    0.146    0.366  114.364
  446.750    5.597    0.176    0.354  105.032
  447.000    5.704    0.205    0.336   97.410
  447.250    5.682    0.225    0.322   94.067
  447.500    5.554    0.211    0.322   87.915
  447.750    5.481    0.217    0.326   88.056
  448.000    5.379    0.216    0.318   92.296
  448.250    5.268    0.190    0.313   94.759
  448.500    5.121    0.182    0.311   97.163
  448.750    4.968    0.178    0.305   85.325
  449.000    5.338    0.169    0.297   77.825
  449.250    5.745    0.180    0.289   73.138
  449.500    6.091    0.193    0.285   79.701
  449.750    6.149    0.190    0.293   84.794
  450.000    5.909    0.177    0.305   88.848
  450.250    5.701    0.167    0.315   87.830
  450.500    5.542    0.190    0.321   81.921
  450.750    5.563    0.210    0.317   78.456
  451.000    5.701    0.222    0.314   84.100
  451.250    5.787    0.213    0.314   89.926
  451.500    5.908    0.188    0.307   95.022
  451.750    5.998    0.171    0.302   94.246
  452.000    6.112    0.175    0.298   85.587
  452.250    6.228    0.201    0.311   79.308
  452.500    6.347    0.220    0.320   80.001
  452.750    6.395    0.212    0.319   85.156
  453.000    6.394    0.205    0.327   90.677
  453.250    6.275    0.215    0.345   87.153
  453.500    5.862    0.241    0.347   75.435
  453.750    5.539    0.253    0.334   74.355
  454.000    4.918    0.245    0.320   70.464
  454.250    4.560    0.228    0.314   66.753
  454.500    4.087    0.219    0.318   62.617
  454.750    3.855    0.238    0.323   67.282
  455.000    3.521    0.257    0.330  103.676
  455.250    3.240    0.124    0.352  115.800
  455.500    3.132    0.065    0.402  125.296
  455.750    3.108    0.034    0.432  132.774
  456.000    3.138    0.044    0.454  139.031
  456.250    3.264    0.095    0.448  141.800
  456.500    3.494    0.137    0.444  139.864
  456.750    3.761    0.151    0.437  135.177
  457.000    4.032    0.153    0.408  112.825
  457.250    4.243    0.205    0.368   97.377
  457.500    4.448    0.236    0.343   90.124
  457.750    4.507    0.265    0.333   83.846
  458.000    3.781    0.289    0.354   76.409
  458.250    3.131    0.294    0.363   72.760
  458.500    2.723    0.284    0.364   70.763
  458.750    2.359    0.279    0.355   69.987
  459.000    2.086    0.274    0.348   74.904
  459.250    1.990    0.267    0.341   77.672
  459.500    2.013    0.259    0.336   80.933
  459.750    2.098    0.263    0.338   83.884
  460.000    2.216    0.266    0.345   86.838
  460.250    2.426    0.262    0.352   86.433
  460.500    2.616    0.256    0.345   87.123
  460.750    2.795    0.263    0.337   95.154
  461.000    2.974    0.245    0.330  102.634
  461.250    3.112    0.217    0.322  106.440
  461.500    3.281    0.192    0.315  112.756
  461.750    3.538    0.181    0.311  123.535
  462.000    3.844    0.171    0.313  133.092
  462.250    4.200    0.159    0.323  137.574
  462.500    4.445    0.152    0.335  136.433
  462.750    4.748    0.161    0.352  129.853
  463.000    4.968    0.198    0.344  103.646
  463.250    5.188    0.236    0.331   91.806
  463.500    5.257    0.261    0.341   82.964
  463.750    5.130    0.239    0.358   87.567
  464.000    4.775    0.203    0.344   94.433
  464.250    4.512    0.172    0.330  104.113
  464.500    4.287    0.157    0.318  113.119
  464.750    4.287    0.156    0.316  109.350
  465.000    4.418    0.177    0.324  100.811
  465.250    4.667    0.194    0.328   92.212
  465.500    4.957    0.191    0.324   88.564
  465.750    5.296    0.163    0.319   87.302
  466.000    5.541    0.145    0.323   91.355
  466.250    5.668    0.171    0.329  100.607
  466.500    5.754    0.167    0.317  108.818
  466.750    5.315    0.157    0.309  111.956
  467.000    4.782    0.185    0.318  100.910
  467.250    4.459    0.255    0.346   76.296
  467.500    4.096    0.269    0.365   66.961
  467.750    3.475    0.281    0.350   58.851
  468.000    3.080    0.291    0.334   52.880
  468.250    2.719    0.305    0.324   58.708
  468.500    2.470    0.277    0.327   80.124
  468.750    2.888    0.191    0.319  108.386
  469.000    3.622    0.163    0.313  144.168
  469.250    4.325    0.137    0.351  120.103
  469.500    5.078    0.110    0.364  111.505
  469.750    5.740    0.103    0.323  116.353
  470.000    6.225    0.145    0.304  113.624
  470.250    6.404    0.216    0.315  103.983
  470.500    6.367    0.209    0.333   94.895
  470.750    6.213    0.176    0.322   91.124
  471.000    5.882    0.162    0.316   94.018
  471.250    5.537    0.146    0.316   94.958
  471.500    5.173    0.150    0.374   85.011
  471.750    4.815    0.198    0.373   68.158
  472.000    4.439    0.274    0.358   57.176
  472.250    4.017    0.302    0.339   56.463
  472.500    3.739    0.243    0.327   73.659
  472.750    3.559    0.201    0.326  143.002
  473.000    3.460    0.170    0.360  146.385
  473.250    3.453    0.114    0.388  145.977
  473.500    3.559    0.078    0.411  140.068
  473.750    3.682    0.070    0.415  130.185
  474.000    3.831    0.087    0.409  122.134
  474.250    3.963    0.092    0.412  118.120
  474.500    4.178    0.085    0.389  121.690
  474.750    4.322    0.094    0.336  124.396
  475.000    4.531    0.087    0.329  128.027
  475.250    4.723    0.083    0.343  129.818
  475.500    4.904    0.089    0.357  131.363
  475.750    4.979    0.089    0.365  133.524
  476.000    5.007    0.095    0.366  135.320
  476.250    4.941    0.103    0.369  136.254
  476.500    4.848    0.101    0.360  134.257
  476.750    4.740    0.090    0.348  127.370
  477.000    4.713    0.081    0.337  128.612
  477.250    4.784    0.092    0.343  131.688
  477.500    4.848    0.099    0.351  134.337
  477.750    4.912    0.098    0.359  133.013
  478.000    4.977    0.099    0.367  129.611
  478.250    4.968    0.086    0.363  129.814
  478.500    4.939    0.073    0.352  132.400
  478.750    4.893    0.066    0.355  135.907
  479.000    4.847    0.077    0.356  138.677
  479.250    4.810    0.095    0.349  140.285
  479.500    4.747    0.115    0.342  139.146
  479.750    4.711    0.108    0.345  138.859
  480.000    4.693    0.097    0.367  139.123
  480.250    4.737    0.096    0.368  139.998
  480.500    4.782    0.106    0.359  141.792
  480.750    4.846    0.105    0.345  142.056
  481.000    4.901    0.104    0.336  137.980
  481.250    4.928    0.111    0.335  134.823
  481.500    4.544    0.129    0.342  137.714
  481.750    4.484    0.124    0.346  140.607
  482.000    4.434    0.124    0.347  144.479
