~VERSION INFORMATION
 VERS.                 2.0:   CWLS LOG ASCII STANDARD -VERSION 2.0
 WRAP.                  NO:   ONE LINE PER DEPTH STEP
~WELL INFORMATION BLOCK
#MNEM.UNIT           DATA                    DESCRIPTION OF MNEMONIC
#---------    -------------------            -------------------------------
# Generated from Intellog Unique Number	CW_73_75/WELL/3523
WELL.         08-16-075-05W5                 : Well_name    - WELL
LOC .         00/08-16-075-05W5/0            : Location     - LOCATION
UWI .         00/08-16-075-05W5/0            : Uwi          - UNIQUE WELL ID
ENTR.         JOETTE                         : Entered      - ENTERED BY
SRVC.         SCHLUMBERGER                   : Scn          - SERVICE COMPANY
DATE.         05/25/92                       : Date         - LOG DATE
STRT.M        675                            : top_depth    - START DEPTH
STOP.M        925                            : bot_depth    - STOP DEPTH
STEP.M        0.25                           : increment    - STEP LENGTH
 NULL. -999.2500:NULL Value
~CURVE INFORMATION BLOCK
#MNEM UNIT       ERCB CURVE CODE    CURVE DESCRIPTION
#-----------   ------------------   ----------------------------------
DEPT.M        00 001 00 00         : DEPTH        - DEPTH
NPHI.V/V      00 330 00 00         : PHIN         - NEUTRON POROSITY (SANDSTONE)
GR  .API      00 310 00 00         : GR           - GAMMA RAY
DPHI.V/V      00 890 00 00         : PHID         - DENSITY POROSITY (SANDSTONE)
ILD .OHMM     00 120 00 00         : RESD         - DEEP RESISTIVITY (DIL)
~PARAMETER INFORMATION
#MNEM.UNIT           DATA             DESCRIPTION OF MNEMONIC
#---------         -----------     ------------------------------
GL  .M        964.66               : gl           - GROUND LEVEL ELEVATION
EREF.M        968.35               : kb           - ELEVATION OF DEPTH REFERENCE
DATM.M        968.35               : datum        - DATUM ELEVATION
TDD .M        1221.6               : tdd          - TOTAL DEPTH DRILLER
RUN .         ONE                  : Run          - RUN NUMBER
ENG .         BILL                 : Engineer     - RECORDING ENGINEER
WIT .         JIM                  : Witness      - WITNESSED BY
MUD .         GEL                  : Mud_type     - MUD TYPE
MATR.         SANDSTONE            : Logunit      - NEUTRON MATRIX
TMAX.C        49                   : BHT          - MAXIMUM RECORDED TEMPERATURE
BHTD.M        1221.8               : BHTDEP       - MAXIMUM RECORDED TEMPERATURE
RMT .C        19                   : MDTP         - TEMPERATURE OF MUD
MUDD.KG/M     1080                 : MWT          - MUD DENSITY
NEUT.         1                    : NEUTRON      - NEUTRON TYPE
RESI.         0                    : RESIST       - RESISTIVITY TYPE
RM  .OHMM     1.9                  : RM           - RESISTIVITY OF MUD
RMC .OHMM     2.1                  : RMC          - RESISTIVITY OF MUD CAKE
RMF .OHMM     4.3                  : RMF          - RESISTIVITY OF MUD FILTRATE
SUFT.C        4                    : SUFT         - SURFACE TEMPERATURE
~A  DEPTH     PHIN       GR     PHID     RESD
# ...
  849.000    0.555   70.599    0.277    2.874
  849.250    0.557   72.330    0.271    2.866
  849.500    0.543   71.705    0.261    2.863
  849.750    0.513   69.306    0.258    3.137
  850.000    0.501   66.315    0.269    3.437
  850.250    0.487   59.186    0.304    3.912
  850.500    0.471   59.152    0.306    4.368
  850.750    0.466   65.622    0.288    4.275
  851.000    0.472   69.135    0.268    3.880
  851.250    0.471   70.284    0.267    3.804
  851.500    0.467   69.650    0.270    3.724
  851.750    0.459   67.259    0.276    3.788
  852.000    0.460   64.860    0.281    3.851
  852.250    0.467   61.270    0.286    3.915
  852.500    0.477   62.427    0.277    4.211
  852.750    0.483   66.531    0.263    4.785
  853.000    0.478   70.045    0.261    4.962
  853.250    0.472   72.376    0.258    4.591
  853.500    0.465   73.525    0.252    4.331
  853.750    0.459   75.264    0.247    4.403
  854.000    0.461   77.004    0.248    4.561
  854.250    0.466   75.196    0.269    4.814
  854.500    0.467   68.067    0.280    4.990
  854.750    0.460   62.703    0.297    5.166
  855.000    0.462   57.339    0.303    5.158
  855.250    0.465   54.348    0.303    5.144
  855.500    0.468   56.088    0.306    5.133
  855.750    0.465   59.601    0.312    4.842
  856.000    0.468   60.758    0.308    4.400
  856.250    0.467   63.672    0.293    3.922
  856.500    0.467   66.594    0.273    3.841
  856.750    0.466   67.152    0.250    3.832
  857.000    0.462   60.622    0.196    3.894
  857.250    0.348   55.267    0.073    3.963
  857.500    0.268   45.755    0.042    4.106
  857.750    0.240   43.956    0.142    4.331
  858.000    0.350   48.052    0.184    4.242
  858.250    0.406   51.574    0.234    4.001
  858.500    0.428   56.861    0.248    3.705
  858.750    0.447   60.966    0.228    3.630
  859.000    0.439   65.080    0.227    3.618
  859.250    0.439   72.132    0.227    3.612
  859.500    0.438   75.055    0.228    3.606
  859.750    0.438   73.238    0.232    3.597
  860.000    0.438   72.038    0.237    3.657
  860.250    0.437   68.431    0.241    3.649
  860.500    0.433   67.232    0.242    3.710
  860.750    0.430   66.015    0.240    3.769
  861.000    0.479   69.520    0.231    3.832
  861.250    0.478   72.451    0.223    3.826
  861.500    0.478   76.556    0.213    3.888
  861.750    0.482   74.156    0.213    3.955
  862.000    0.488   70.566    0.209    4.019
  862.250    0.488   71.715    0.205    4.086
  862.500    0.483   72.272    0.216    4.079
  862.750    0.473   71.647    0.240    4.068
  863.000    0.469   71.021    0.254    3.984
  863.250    0.472   70.987    0.253    3.758
  863.500    0.469   71.544    0.244    3.417
  863.750    0.495   71.519    0.234    3.046
  864.000    0.536   70.893    0.239    3.096
  864.250    0.551   70.859    0.256    3.328
  864.500    0.533   75.555    0.266    3.451
  864.750    0.487   79.660    0.292    3.924
  865.000    0.454   81.391    0.293    4.461
  865.250    0.433   81.366    0.275    4.624
  865.500    0.436   74.828    0.262    4.880
  865.750    0.445   70.055    0.212    4.601
  866.000    0.458   70.604    0.218    4.427
  866.250    0.467   72.352    0.223    3.946
  866.500    0.478   74.674    0.226    3.519
  866.750    0.488   75.240    0.231    3.510
  867.000    0.499   77.563    0.235    3.504
  867.250    0.510   78.711    0.219    3.497
  867.500    0.513   79.277    0.223    3.622
  867.750    0.499   79.834    0.252    3.683
  868.000    0.483   76.844    0.263    3.813
  868.250    0.488   70.897    0.262    4.024
  868.500    0.493   70.271    0.260    4.018
  868.750    0.492   69.629    0.260    4.157
  869.000    0.487   69.595    0.267    4.229
  869.250    0.485   70.169    0.269    4.297
  869.500    0.487   67.770    0.271    4.371
  869.750    0.494   67.136    0.274    4.444
  870.000    0.492   68.284    0.280    4.437
  870.250    0.494   69.424    0.287    4.678
  870.500    0.495   70.581    0.291    4.759
  870.750    0.501   64.635    0.295    5.023
  871.000    0.496   62.818    0.298    5.500
  871.250    0.446   62.201    0.299    5.704
  871.500    0.400   61.576    0.304    6.134
  871.750    0.429   60.950    0.334    6.718
  872.000    0.436   58.551    0.339    6.700
  872.250    0.447   54.970    0.333    6.568
  872.500    0.464   55.518    0.321    6.081
  872.750    0.475   58.441    0.311    5.627
  873.000    0.476   60.772    0.301    5.308
  873.250    0.474   62.503    0.296    5.099
  873.500    0.469   63.660    0.291    5.091
  873.750    0.467   64.808    0.286    4.983
  874.000    0.466   66.556    0.280    4.970
  874.250    0.465   62.966    0.290    4.870
  874.500    0.466   64.115    0.299    4.856
  874.750    0.466   68.219    0.285    4.849
  875.000    0.466   73.516    0.267    4.751
  875.250    0.466   72.299    0.254    4.738
  875.500    0.466   65.752    0.263    4.643
  875.750    0.468   66.901    0.260    4.544
  876.000    0.469   72.180    0.250    4.448
  876.250    0.469   74.510    0.236    4.358
  876.500    0.465   72.711    0.233    4.346
  876.750    0.459   73.251    0.235    4.337
  877.000    0.456   75.008    0.237    4.328
  877.250    0.460   79.113    0.236    4.316
  877.500    0.467   80.853    0.233    4.153
  877.750    0.479   76.671    0.224    3.843
  878.000    0.484   74.272    0.223    3.765
  878.250    0.480   73.055    0.227    3.688
  878.500    0.470   72.430    0.231    3.749
  878.750    0.461   70.622    0.231    3.741
  879.000    0.464   69.997    0.226    3.803
  879.250    0.473   69.971    0.223    3.867
  879.500    0.481   69.928    0.222    3.929
  879.750    0.475   71.068    0.222    3.995
  880.000    0.470   72.225    0.222    4.064
  880.250    0.465   74.565    0.221    4.129
  880.500    0.467   79.844    0.217    4.198
  880.750    0.471   77.453    0.217    4.266
  881.000    0.464   74.454    0.244    4.339
  881.250    0.466   77.376    0.239    4.495
  881.500    0.460   80.290    0.233    4.570
  881.750    0.451   77.308    0.234    4.649
  882.000    0.446   73.127    0.235    4.724
  882.250    0.444   70.736    0.235    4.626
  882.500    0.444   68.928    0.230    4.447
  882.750    0.444   68.877    0.221    4.195
  883.000    0.444   68.852    0.213    3.957
  883.250    0.443   69.417    0.208    3.803
  883.500    0.442   71.148    0.210    3.865
  883.750    0.445   77.036    0.210    4.077
  884.000    0.446   83.506    0.206    4.149
  884.250    0.444   84.645    0.198    4.457
  884.500    0.440   79.890    0.193    4.623
  884.750    0.434   73.943    0.184    4.966
  885.000    0.427   68.579    0.150    5.054
  885.250    0.379   64.989    0.150    5.432
  885.500    0.407   63.780    0.180    5.127
  885.750    0.433   67.285    0.189    4.323
  886.000    0.452   70.216    0.207    4.078
  886.250    0.472   75.504    0.200    3.994
  886.500    0.478   80.791    0.204    3.981
  886.750    0.491   86.678    0.213    4.121
  887.000    0.480   93.740    0.212    4.195
  887.250    0.436   89.567    0.200    4.345
  887.500    0.423   81.837    0.186    4.097
  887.750    0.447   77.073    0.184    4.014
  888.000    0.475   81.169    0.199    4.482
  888.250    0.492   84.683    0.222    5.194
  888.500    0.494   87.614    0.234    5.799
  888.750    0.483   83.441    0.246    6.240
  889.000    0.462   71.581    0.257    6.967
  889.250    0.450   68.591    0.257    7.488
  889.500    0.441   69.739    0.255    7.472
  889.750    0.433   73.244    0.254    7.455
  890.000    0.424   72.619    0.261    8.022
  890.250    0.425   70.802    0.267    8.785
  890.500    0.430   69.003    0.271    8.766
  890.750    0.433   67.778    0.265    8.426
  891.000    0.432   67.752    0.255    8.103
  891.250    0.427   68.309    0.250    7.788
  891.500    0.419   68.275    0.258    7.905
  891.750    0.417   68.241    0.271    8.046
  892.000    0.411   68.790    0.269    8.653
  892.250    0.401   67.573    0.258    9.300
