~VERSION INFORMATION
 VERS.                 2.0:   CWLS LOG ASCII STANDARD -VERSION 2.0
 WRAP.                  NO:   ONE LINE PER DEPTH STEP
~WELL INFORMATION BLOCK
#MNEM.UNIT           DATA                    DESCRIPTION OF MNEMONIC
#---------    -------------------            -------------------------------
# Generated from Intellog Unique Number	CS_71_72/WELL/838
WELL.         AMOCO AEC IPIATIK              : Well_name    - WELL
LOC .         00/08-16-072-05W4/0            : Location     - LOCATION
UWI .         00/08-16-072-05W4/0            : Uwi          - UNIQUE WELL ID
ENTR.         SP                             : Entered      - ENTERED BY
SRVC.         SCHLUMBERGER                   : Scn          - SERVICE COMPANY
STRT.M        320                            : top_depth    - START DEPTH
STOP.M        560                            : bot_depth    - STOP DEPTH
STEP.M        0.25                           : increment    - STEP LENGTH
 NULL. -999.2500:NULL Value
~CURVE INFORMATION BLOCK
#MNEM UNIT       ERCB CURVE CODE    CURVE DESCRIPTION
#-----------   ------------------   ----------------------------------
DEPT.M        00 001 00 00         : DEPTH        - DEPTH
GR  .API      00 310 00 00         : GR           - GAMMA RAY
NPHI.V/V      00 330 00 00         : PHIN         - NEUTRON POROSITY (LIMESTONE)
DPHI.V/V      00 890 00 00         : PHID         - DENSITY POROSITY (LIMESTONE)
ILD .OHMM     00 120 00 00         : RESD         - DEEP RESISTIVITY (DIL)
~PARAMETER INFORMATION
#MNEM.UNIT           DATA             DESCRIPTION OF MNEMONIC
#---------         -----------     ------------------------------
GL  .M        697.9                : gl           - GROUND LEVEL ELEVATION
EREF.M        702.17               : kb           - ELEVATION OF DEPTH REFERENCE
DATM.M        697.9                : datum        - DATUM ELEVATION
TDD .M        583                  : tdd          - TOTAL DEPTH DRILLER
RUN .         ONE                  : Run          - RUN NUMBER
ENG .         BILL                 : Engineer     - RECORDING ENGINEER
WIT .         JIM                  : Witness      - WITNESSED BY
MUD .         GEL                  : Mud_type     - MUD TYPE
MATR.         LIMESTONE            : Logunit      - NEUTRON MATRIX
TMAX.C        20                   : BHT          - MAXIMUM RECORDED TEMPERATURE
BHTD.M        583                  : BHTDEP       - MAXIMUM RECORDED TEMPERATURE
MATR.         1                    : LOGUNIT      - NEUTRON MATRIX
RMT .C        25                   : MDTP         - TEMPERATURE OF MUD
NEUT.         1                    : NEUTRON      - NEUTRON TYPE
RESI.         0                    : RESIST       - RESISTIVITY TYPE
RMC .OHMM     0.25                 : RMC          - RESISTIVITY OF MUD CAKE
RMF .OHMM     0.25                 : RMF          - RESISTIVITY OF MUD FILTRATE
SUFT.C        15                   : SUFT         - SURFACE TEMPERATURE
~A  DEPTH       GR     PHIN     PHID     RESD
  320.000   96.906    0.553    0.245    3.615
  320.250   96.998    0.541    0.244    3.614
  320.500   95.800    0.544    0.230    3.679
  320.750   97.615    0.548    0.223    3.613
  321.000   97.019    0.550    0.226    3.613
  321.250   95.820    0.553    0.238    3.548
  321.500   94.621    0.544    0.243    3.485
  321.750   94.628    0.533    0.239    3.485
  322.000   95.839    0.520    0.220    3.484
  322.250   97.654    0.502    0.220    3.546
  322.500   99.467    0.499    0.231    3.674
  322.750  101.885    0.511    0.238    3.807
  323.000  103.096    0.517    0.231    3.945
  323.250  103.703    0.530    0.220    4.162
  323.500  101.302    0.540    0.233    4.390
  323.750  100.705    0.510    0.241    4.468
  324.000  101.315    0.499    0.238    4.630
  324.250  101.321    0.492    0.230    4.713
  324.500   99.520    0.517    0.229    4.629
  324.750   96.515    0.532    0.205    4.546
  325.000   94.111    0.542    0.208    4.386
  325.250   94.720    0.579    0.217    4.308
  325.500   94.727    0.543    0.215    4.544
  325.750   93.530    0.522    0.200    4.708
  326.000   93.538    0.503    0.169    4.792
  326.250   93.542    0.488    0.215    4.878
  326.500   93.548    0.506    0.224    4.791
  326.750   95.363    0.513    0.216    4.381
  327.000   98.382    0.524    0.200    4.079
  327.250   99.592    0.521    0.196    3.865
  327.500  100.204    0.511    0.208    3.796
  327.750  100.208    0.507    0.212    3.729
  328.000  100.214    0.494    0.225    4.004
  328.250   99.016    0.499    0.216    4.224
  328.500   99.626    0.516    0.204    4.535
  328.750  100.836    0.525    0.198    4.617
  329.000  101.448    0.534    0.197    4.699
  329.250   98.442    0.516    0.220    4.615
  329.500   95.435    0.505    0.234    4.614
  329.750   93.031    0.498    0.250    4.614
  330.000   94.243    0.485    0.247    4.696
  330.250   95.455    0.500    0.239    4.866
  330.500   95.462    0.494    0.240    4.779
  330.750   94.865    0.480    0.217    4.611
  331.000   91.257    0.481    0.209    4.610
  331.250   86.446    0.504    0.220    4.692
  331.500   85.247    0.511    0.226    5.609
  331.750   78.628    0.501    0.269    7.073
  332.000   75.621    0.470    0.296    9.408
  332.250   70.807    0.449    0.344   11.046
  332.500   67.199    0.536    0.392   13.441
  332.750   65.400    0.573    0.419   16.648
  333.000   65.406    0.488    0.440   18.528
  333.250   63.605    0.426    0.329   20.619
  333.500   59.394    0.354    0.289   23.360
  333.750   54.583    0.258    0.330   27.919
  334.000   57.000    0.256    0.315   32.780
  334.250   61.223    0.257    0.311   36.479
  334.500   63.639    0.232    0.319   39.172
  334.750   60.633    0.221    0.337   41.322
  335.000   56.424    0.210    0.354   44.373
  335.250   54.019    0.210    0.359   42.810
  335.500   55.833    0.248    0.353   35.174
  335.750   58.851    0.272    0.324   25.053
  336.000   63.075    0.303    0.276   20.956
  336.250   68.504    0.339    0.238   17.526
  336.500   66.704    0.391    0.222   17.215
  336.750   63.699    0.357    0.190   18.158
  337.000   66.115    0.339    0.091   18.482
  337.250   70.338    0.367    0.197   19.152
  337.500   74.562    0.388    0.243   19.148
  337.750   78.787    0.400    0.264   18.473
  338.000   81.202    0.409    0.273   18.145
  338.250   83.619    0.418    0.276   17.505
  338.500   84.830    0.425    0.267   16.889
  338.750   85.440    0.419    0.267   16.294
  339.000   85.444    0.423    0.272   16.292
  339.250   85.451    0.431    0.275   16.582
  339.500   87.869    0.428    0.277   16.287
  339.750   89.078    0.425    0.282   14.894
  340.000   89.085    0.430    0.278   13.379
  340.250   91.504    0.435    0.265   12.019
  340.500   92.713    0.445    0.247   11.189
  340.750   90.913    0.441    0.233   10.795
  341.000   87.305    0.434    0.230   10.603
  341.250   85.503    0.433    0.230   10.791
  341.500   92.740    0.436    0.223   10.790
  341.750   94.554    0.437    0.216   10.983
  342.000   93.957    0.427    0.207   11.793
  342.250   93.964    0.432    0.236   12.440
  342.500   98.189    0.432    0.268   12.663
  342.750  103.618    0.434    0.267   13.357
  343.000  106.032    0.443    0.262   13.355
  343.250  110.257    0.444    0.247   13.117
  343.500  112.070    0.447    0.231   11.783
  343.750  110.871    0.450    0.210   10.585
  344.000  105.456    0.456    0.189    9.341
  344.250   99.440    0.456    0.149    8.542
  344.500  100.651    0.460    0.131    7.537
  344.750  104.873    0.479    0.134    7.017
  345.000  109.701    0.487    0.164    6.303
  345.250  112.118    0.501    0.187    5.868
  345.500  113.929    0.508    0.202    5.271
  345.750  113.335    0.515    0.194    4.907
  346.000  113.342    0.526    0.202    4.651
  346.250  114.554    0.534    0.208    4.487
  346.500  114.561    0.547    0.211    4.329
  346.750  114.566    0.558    0.212    4.103
  347.000  113.367    0.563    0.224    4.102
  347.250  110.964    0.545    0.229    4.405
  347.500  107.357    0.524    0.236    4.815
  347.750  101.941    0.475    0.233    5.264
  348.000   92.308    0.437    0.247    6.071
  348.250   80.266    0.397    0.262    7.387
  348.500   69.429    0.370    0.292    8.829
  348.750   62.206    0.346    0.315   10.936
  349.000   57.394    0.341    0.327   11.744
  349.250   57.400    0.352    0.338   12.611
  349.500   59.819    0.361    0.341   13.068
  349.750   63.442    0.375    0.334   12.833
  350.000   66.460    0.385    0.326   12.605
  350.250   67.669    0.415    0.318   12.380
  350.500   70.689    0.448    0.316   11.733
  350.750   71.900    0.449    0.310   11.119
  351.000   73.716    0.433    0.314   10.921
  351.250   74.322    0.427    0.316   10.350
  351.500   74.329    0.426    0.315   10.165
  351.750   74.334    0.431    0.325    9.984
  352.000   79.165    0.432    0.311    9.983
  352.250   80.374    0.432    0.311    9.805
  352.500   77.971    0.443    0.315    9.803
  352.750   74.965    0.448    0.307    9.628
  353.000   70.754    0.448    0.309    9.627
  353.250   64.737    0.443    0.305    9.625
  353.500   65.345    0.437    0.301    9.624
  353.750   69.573    0.433    0.293    9.452
  354.000   70.179    0.430    0.285    9.119
  354.250   70.184    0.422    0.281    8.957
  354.500   68.987    0.413    0.274    8.955
  354.750   65.379    0.396    0.288    9.115
  355.000   63.577    0.391    0.287    9.278
  355.250   63.584    0.398    0.281    9.613
  355.500   65.999    0.403    0.271    9.612
  355.750   70.828    0.407    0.279    9.784
  356.000   75.053    0.392    0.280    9.959
  356.250   75.056    0.389    0.267    9.781
  356.500   73.859    0.399    0.255    9.779
  356.750   72.659    0.402    0.244    9.605
  357.000   74.474    0.407    0.237    9.604
  357.250   75.685    0.420    0.244    9.432
  357.500   74.486    0.434    0.257    9.431
  357.750   73.892    0.426    0.234    9.261
  358.000   70.887    0.417    0.228    9.260
  358.250   69.086    0.410    0.225    9.259
  358.500   66.683    0.414    0.247    9.094
  358.750   64.881    0.414    0.253    9.093
  359.000   63.683    0.413    0.253    9.092
  359.250   63.690    0.411    0.265    9.091
  359.500   64.900    0.411    0.268    9.089
  359.750   66.716    0.421    0.264    9.251
  360.000   66.722    0.434    0.246    9.416
  360.250   62.512    0.440    0.238    9.415
  360.500   61.915    0.434    0.247    9.931
  360.750   62.525    0.427    0.258   10.109
  361.000   66.750    0.420    0.238   10.474
  361.250   69.766    0.427    0.217   10.661
  361.500   72.183    0.433    0.222   10.659
  361.750   70.384    0.434    0.232   10.658
  362.000   69.788    0.447    0.244   10.283
  362.250   70.396    0.459    0.248    9.745
  362.500   72.811    0.466    0.251    9.072
  362.750   77.036    0.463    0.263    8.910
  363.000   80.657    0.453    0.284    8.752
  363.250   84.277    0.440    0.289    8.595
