~VERSION INFORMATION
 VERS.                 2.0:   CWLS LOG ASCII STANDARD -VERSION 2.0
 WRAP.                  NO:   ONE LINE PER DEPTH STEP
~WELL INFORMATION BLOCK
#MNEM.UNIT           DATA                    DESCRIPTION OF MNEMONIC
#---------    -------------------            -------------------------------
# Generated from Intellog Unique Number	CN_94_101/WELL/2626
WELL.         PARAMOUNT RESOURCES LTD.       : Well_name    - WELL
LOC .         00/03-31-094-17W4/0            : Location     - LOCATION
UWI .         00/03-31-094-17W400            : Uwi          - UNIQUE WELL ID
ENTR.         JOETTE                         : Entered      - ENTERED BY
SRVC.         COMPUTALOG                     : Scn          - SERVICE COMPANY
DATE.         06/18/92                       : Date         - LOG DATE
STRT.M        90                             : top_depth    - START DEPTH
STOP.M        280                            : bot_depth    - STOP DEPTH
STEP.M        0.25                           : increment    - STEP LENGTH
 NULL. -999.2500:NULL Value
~CURVE INFORMATION BLOCK
#MNEM UNIT       ERCB CURVE CODE    CURVE DESCRIPTION
#-----------   ------------------   ----------------------------------
DEPT.M        00 001 00 00         : DEPTH        - DEPTH
CALI.MM       00 280 01 00         : CAL          - CALIPER
GR  .API      00 310 00 00         : GR           - GAMMA RAY
NPHI.V/V      00 330 00 00         : PHIN         - NEUTRON POROSITY (SANDSTONE)
DPHI.V/V      00 890 00 00         : PHID         - DENSITY POROSITY (SANDSTONE)
ILD .OHMM     00 120 00 00         : RESD         - DEEP RESISTIVITY (DIL)
~PARAMETER INFORMATION
#MNEM.UNIT           DATA             DESCRIPTION OF MNEMONIC
#---------         -----------     ------------------------------
GL  .M        538.3                : gl           - GROUND LEVEL ELEVATION
EREF.M        542.1                : kb           - ELEVATION OF DEPTH REFERENCE
DATM.M        542.1                : datum        - DATUM ELEVATION
TDD .M        281.4                : tdd          - TOTAL DEPTH DRILLER
RUN .         ONE                  : Run          - RUN NUMBER
ENG .         JO                   : Engineer     - RECORDING ENGINEER
WIT .         TIM                  : Witness      - WITNESSED BY
MUD .         GEL                  : Mud_type     - MUD TYPE
MATR.         SANDSTONE            : Logunit      - NEUTRON MATRIX
TMAX.C        25                   : BHT          - MAXIMUM RECORDED TEMPERATURE
BHTD.M        281.4                : BHTDEP       - MAXIMUM RECORDED TEMPERATURE
RMT .C        16                   : MDTP         - TEMPERATURE OF MUD
MUDD.KG/M     1100                 : MWT          - MUD DENSITY
NEUT.         1                    : NEUTRON      - NEUTRON TYPE
RESI.         0                    : RESIST       - RESISTIVITY TYPE
RM  .OHMM     4.1                  : RM           - RESISTIVITY OF MUD
RMC .OHMM     4.1                  : RMC          - RESISTIVITY OF MUD CAKE
RMF .OHMM     4.1                  : RMF          - RESISTIVITY OF MUD FILTRATE
SUFT.C        4                    : SUFT         - SURFACE TEMPERATURE
~A  DEPTH      CAL       GR     PHIN     PHID     RESD
# ...
  163.000  156.703  100.289    0.563    0.249    2.886
  163.250  155.755  100.345    0.566    0.256    2.836
  163.500  154.831  102.859    0.546    0.265    2.738
  163.750  154.901  103.498    0.557    0.276    2.692
  164.000  153.977  107.219    0.566    0.288    2.648
  164.250  154.094  107.886    0.570    0.297    2.702
  164.500  154.165  103.667    0.579    0.299    2.812
  164.750  155.276  103.112    0.584    0.299    3.038
  165.000  155.370  106.237    0.549    0.294    3.283
  165.250  155.511  108.722    0.526    0.285    3.615
  165.500  155.558  108.168    0.506    0.273    4.706
  165.750  155.699  105.170    0.503    0.258    4.898
  166.000  156.764   98.507    0.492    0.250    5.093
  166.250  156.857   90.012    0.478    0.257    5.715
  166.500  156.951   82.127    0.457    0.283    6.173
  166.750  156.027   76.672    0.442    0.307    7.061
  167.000  156.121   70.010    0.438    0.313    7.481
  167.250  156.238   69.455    0.433    0.314    7.779
  167.500  155.290   72.579    0.414    0.303    7.799
  167.750  155.384   75.065    0.401    0.280    7.523
  168.000  155.501   76.343    0.424    0.242    6.997
  168.250  155.595   77.024    0.438    0.206    6.628
  168.500  155.713   80.759    0.450    0.186    6.896
  168.750  155.759   85.077    0.476    0.212    7.037
  169.000  155.877   91.853    0.447    0.228    7.460
  169.250  155.994   88.244    0.432    0.236    7.475
  169.500  156.041   82.192    0.413    0.251    7.215
  169.750  156.158   82.859    0.415    0.248    6.589
  170.000  156.252   89.635    0.434    0.232    6.353
  170.250  156.346   92.745    0.449    0.234    6.018
  170.500  156.440   90.358    0.455    0.279    6.030
  170.750  155.539   84.306    0.477    0.300    6.644
  171.000  154.591   70.314    0.480    0.269    7.039
  171.250  151.678   66.080    0.468    0.234    7.603
  171.500  150.754   65.525    0.456    0.250    8.372
  171.750  149.806   64.374    0.462    0.307    8.706
  172.000  147.840   63.209    0.465    0.327    9.418
  172.250  145.922   65.708    0.463    0.318    9.428
  172.500  144.974   67.000    0.445    0.319    9.095
  172.750  147.151   67.057    0.434    0.331    8.147
  173.000  147.198   64.670    0.418    0.301    8.004
  173.250  149.327   66.544    0.438    0.247    6.775
  173.500  152.499   73.320    0.454    0.230    5.843
  173.750  156.688   83.149    0.470    0.235    4.763
  174.000  158.771   87.481    0.467    0.249    4.033
  174.250  159.907   92.452    0.469    0.257    3.965
  174.500  160.000   94.938    0.478    0.258    4.284
  174.750  160.094   99.284    0.490    0.260    4.540
  175.000  159.147  101.158    0.504    0.257    4.903
  175.250  157.228   96.328    0.499    0.251    5.296
  175.500  155.309   95.774    0.489    0.243    5.510
  175.750  155.356   97.052    0.474    0.236    5.735
  176.000  154.479   94.054    0.461    0.228    5.750
  176.250  153.507   94.138    0.439    0.227    5.759
  176.500  153.625   97.845    0.470    0.234    5.771
  176.750  152.724  100.942    0.467    0.239    5.672
  177.000  151.776  100.998    0.477    0.235    5.684
  177.250  151.847   98.625    0.505    0.152    5.593
  177.500  149.975   95.613    0.519    0.112    5.601
  177.750  149.998   79.177    0.339    0.107    5.941
  178.000  150.139   76.790    0.373    0.129    6.178
  178.250  151.204   81.747    0.402    0.180    6.676
  178.500  156.411   79.957    0.474    0.235    6.946
  178.750  160.577   81.235    0.455    0.261    7.363
  179.000  159.653   83.138    0.465    0.270    7.664
  179.250  158.705   83.194    0.472    0.264    7.825
  179.500  157.781   83.861    0.462    0.257    7.986
  179.750  156.857   86.986    0.453    0.252    8.006
  180.000  156.951   89.457    0.456    0.250    7.870
  180.250  156.074   92.567    0.458    0.251    7.890
  180.500  156.120   93.249    0.459    0.251    7.906
  180.750  155.243   85.961    0.454    0.253    8.072
  181.000  154.295   82.352    0.446    0.262    8.085
  181.250  153.371   82.409    0.435    0.269    7.959
  181.500  153.465   81.243    0.426    0.274    7.823
  181.750  152.541   77.635    0.425    0.269    7.551
  182.000  151.640   75.859    0.424    0.266    7.422
  182.250  151.710   77.747    0.405    0.266    7.167
  182.500  151.828   80.247    0.389    0.266    7.045
  182.750  152.963   81.525    0.395    0.261    7.059
  183.000  154.051   82.831    0.419    0.253    7.211
  183.250  155.140   84.081    0.451    0.256    7.222
  183.500  156.252   82.915    0.420    0.262    7.103
  183.750  156.369   79.321    0.412    0.263    6.735
  184.000  156.510   85.471    0.418    0.251    6.497
  184.250  156.557   92.261    0.426    0.249    5.817
  184.500  156.627   96.607    0.441    0.255    5.209
  184.750  157.786   99.092    0.471    0.266    4.750
  185.000  157.856   98.538    0.514    0.271    4.415
  185.250  157.926   92.500    0.509    0.274    4.342
  185.500  158.044   89.488    0.473    0.287    4.515
  185.750  157.120   85.865    0.411    0.299    5.162
  186.000  157.190   78.592    0.394    0.267    5.899
  186.250  155.248   65.224    0.403    0.243    6.868
  186.500  154.323   65.877    0.426    0.227    7.848
  186.750  152.405   67.169    0.430    0.285    8.169
  187.000  151.457   67.822    0.427    0.332    7.594
  187.250  150.556   68.489    0.419    0.333    7.325
  187.500  149.609   70.989    0.410    0.307    6.813
  187.750  148.708   76.543    0.408    0.299    6.697
  188.000  147.760   82.721    0.412    0.274    6.347
  188.250  147.854   85.846    0.419    0.269    6.012
  188.500  147.948   87.109    0.439    0.258    5.485
  188.750  148.065   87.791    0.454    0.255    5.294
  189.000  149.200   87.222    0.455    0.259    5.305
  189.250  149.247   87.292    0.447    0.266    5.413
  189.500  151.424   86.738    0.442    0.265    5.742
  189.750  151.471   84.962    0.452    0.250    5.859
  190.000  152.630   83.796    0.453    0.231    6.096
  190.250  153.695   85.074    0.462    0.236    6.227
  190.500  153.812   86.949    0.468    0.263    6.355
  190.750  154.924   87.616    0.385    0.272    6.368
  191.000  156.012   85.243    0.381    0.233    6.269
  191.250  155.135   85.299    0.391    0.186    6.276
  191.500  153.169   87.799    0.417    0.164    6.288
  191.750  151.204   91.520    0.430    0.175    6.546
  192.000  149.285   95.227    0.439    0.210    6.680
  192.250  149.379   95.298    0.431    0.224    6.960
  192.500  151.532   92.897    0.426    0.229    6.971
  192.750  152.644   88.066    0.418    0.222    6.849
  193.000  152.714   83.847    0.410    0.221    6.490
  193.250  152.831   78.420    0.379    0.227    6.034
  193.500  151.907   77.851    0.433    0.243    5.400
  193.750  150.983   81.573    0.432    0.242    4.837
  194.000  151.077   84.072    0.430    0.234    4.494
  194.250  151.171   85.961    0.435    0.233    4.182
  194.500  150.223   89.071    0.446    0.238    4.111
  194.750  150.317   94.028    0.499    0.241    4.195
  195.000  150.411  100.804    0.477    0.233    4.620
  195.250  150.504  109.411    0.481    0.231    5.181
  195.500  151.616  110.078    0.490    0.221    5.495
  195.750  152.728  103.416    0.356    0.188    5.503
  196.000  153.863   86.355    0.310    0.098    5.314
  196.250  154.999   60.132    0.306    0.091    5.124
  196.500  155.046   77.916    0.497    0.165    4.766
  196.750  156.181   99.976    0.513    0.219    4.778
  197.000  156.275  106.140    0.509    0.238    4.873
  197.250  156.392  103.143    0.476    0.238    5.264
  197.500  155.421   95.258    0.440    0.231    6.129
  197.750  155.515   94.718    0.414    0.225    7.143
  198.000  155.609   99.647    0.416    0.220    7.573
  198.250  155.702  105.811    0.425    0.217    8.023
  198.500  154.778  108.311    0.426    0.217    8.347
  198.750  154.872  101.051    0.417    0.220    8.523
  199.000  154.989   91.945    0.393    0.222    8.540
  199.250  155.060   90.766    0.384    0.222    8.558
