~VERSION INFORMATION
 VERS.                 2.0:   CWLS LOG ASCII STANDARD -VERSION 2.0
 WRAP.                  NO:   ONE LINE PER DEPTH STEP
~WELL INFORMATION BLOCK
#MNEM.UNIT           DATA                    DESCRIPTION OF MNEMONIC
#---------    -------------------            -------------------------------
# Generated from Intellog Unique Number	CS_71_72/WELL/799
WELL.         PEX PHILLIPS AEC GRIST         : Well_name    - WELL
LOC .         00/06-36-071-09W4/0            : Location     - LOCATION
UWI .         00/06-36-071-09W4/0            : Uwi          - UNIQUE WELL ID
ENTR.         SP                             : Entered      - ENTERED BY
SRVC.         SCHLUMBERGER                   : Scn          - SERVICE COMPANY
STRT.M        315                            : top_depth    - START DEPTH
STOP.M        540                            : bot_depth    - STOP DEPTH
STEP.M        0.25                           : increment    - STEP LENGTH
 NULL. -999.2500:NULL Value
~CURVE INFORMATION BLOCK
#MNEM UNIT       ERCB CURVE CODE    CURVE DESCRIPTION
#-----------   ------------------   ----------------------------------
DEPT.M        00 001 00 00         : DEPTH        - DEPTH
ILD .OHMM     00 120 00 00         : RESD         - DEEP RESISTIVITY (DIL)
DPHI.V/V      00 890 00 00         : PHID         - DENSITY POROSITY (LIMESTONE)
NPHI.V/V      00 330 00 00         : PHIN         - NEUTRON POROSITY (LIMESTONE)
GR  .API      00 310 00 00         : GR           - GAMMA RAY
~PARAMETER INFORMATION
#MNEM.UNIT           DATA             DESCRIPTION OF MNEMONIC
#---------         -----------     ------------------------------
GL  .M        679.91               : gl           - GROUND LEVEL ELEVATION
EREF.M        683.7                : kb           - ELEVATION OF DEPTH REFERENCE
DATM.M        679.91               : datum        - DATUM ELEVATION
TDD .M        544                  : tdd          - TOTAL DEPTH DRILLER
RUN .         ONE                  : Run          - RUN NUMBER
ENG .         BILL                 : Engineer     - RECORDING ENGINEER
WIT .         JIM                  : Witness      - WITNESSED BY
MUD .         GEL                  : Mud_type     - MUD TYPE
MATR.         LIMESTONE            : Logunit      - NEUTRON MATRIX
TMAX.C        24                   : BHT          - MAXIMUM RECORDED TEMPERATURE
BHTD.M        544                  : BHTDEP       - MAXIMUM RECORDED TEMPERATURE
MATR.         1                    : LOGUNIT      - NEUTRON MATRIX
RMT .C        25                   : MDTP         - TEMPERATURE OF MUD
NEUT.         1                    : NEUTRON      - NEUTRON TYPE
RESI.         0                    : RESIST       - RESISTIVITY TYPE
RMC .OHMM     0.25                 : RMC          - RESISTIVITY OF MUD CAKE
RMF .OHMM     0.25                 : RMF          - RESISTIVITY OF MUD FILTRATE
SUFT.C        15                   : SUFT         - SURFACE TEMPERATURE
~A  DEPTH     RESD     PHID     PHIN       GR
# ...
  358.500    8.056    0.226    0.394   96.008
  358.750    7.534    0.198    0.412  102.125
  359.000    6.763    0.223    0.429  105.192
  359.250    5.936    0.240    0.452  101.237
  359.500    5.469    0.258    0.469   97.831
  359.750    5.309    0.277    0.482   94.854
  360.000    5.420    0.288    0.495   93.461
  360.250    6.283    0.268    0.509   91.459
  360.500    7.134    0.248    0.493   88.543
  360.750    7.922    0.244    0.459   87.213
  361.000    8.458    0.247    0.438   86.861
  361.250    8.781    0.246    0.454   86.935
  361.500    9.032    0.244    0.471   87.195
  361.750    9.119    0.243    0.489   87.755
  362.000    9.020    0.241    0.480   89.478
  362.250    8.756    0.236    0.457   90.897
  362.500    8.067    0.231    0.464   91.887
  362.750    7.832    0.228    0.466   91.717
  363.000    8.146    0.237    0.448   90.755
  363.250    8.395    0.243    0.420   89.606
  363.500    8.475    0.245    0.398   88.338
  363.750    8.509    0.247    0.393   88.228
  364.000    8.511    0.252    0.404   92.089
  364.250    8.496    0.258    0.440   86.730
  364.500    8.466    0.253    0.458   81.736
  364.750    8.405    0.245    0.456   83.276
  365.000    8.329    0.235    0.450   88.175
  365.250    8.253    0.227    0.461   90.263
  365.500    8.042    0.225    0.470   89.055
  365.750    7.691    0.237    0.477   86.506
  366.000    7.439    0.242    0.480   84.627
  366.250    7.399    0.236    0.476   82.135
  366.500    7.400    0.241    0.474   79.157
  366.750    7.306    0.248    0.470   82.713
  367.000    7.079    0.247    0.462   86.633
  367.250    6.670    0.247    0.453   89.883
  367.500    6.261    0.271    0.468   91.546
  367.750    6.045    0.289    0.486   92.169
  368.000    6.057    0.284    0.477   87.603
  368.250    6.613    0.264    0.457   79.984
  368.500    7.752    0.245    0.486   75.601
  368.750    8.885    0.280    0.471   71.952
  369.000    9.811    0.294    0.460   70.255
  369.250   10.752    0.301    0.463   67.643
  369.500   11.653    0.316    0.446   61.552
  369.750   12.166    0.329    0.431   55.825
  370.000   12.585    0.338    0.424   49.734
  370.250   12.848    0.343    0.437   47.427
  370.500   12.923    0.340    0.442   46.891
  370.750   12.829    0.327    0.443   51.056
  371.000   12.548    0.295    0.440   55.346
  371.250   12.319    0.268    0.442   57.922
  371.500   11.959    0.254    0.443   59.889
  371.750   11.544    0.259    0.435   61.185
  372.000   11.021    0.263    0.427   64.251
  372.250   10.639    0.259    0.420   67.012
  372.500   10.347    0.256    0.415   69.531
  372.750   10.215    0.261    0.419   70.825
  373.000   10.198    0.268    0.420   68.945
  373.250   10.277    0.274    0.416   70.912
  373.500   10.433    0.281    0.417   73.184
  373.750   10.732    0.289    0.420   74.358
  374.000   11.247    0.293    0.422   74.861
  374.250   11.633    0.280    0.421   75.240
  374.500   12.011    0.268    0.419   74.094
  374.750   12.194    0.272    0.418   71.177
  375.000   12.265    0.274    0.417   73.449
  375.250   12.153    0.263    0.421   76.150
  375.500   11.931    0.253    0.431   79.276
  375.750   11.561    0.244    0.434   83.016
  376.000   11.119    0.235    0.420   85.594
  376.250   10.634    0.229    0.413   86.522
  376.500   10.323    0.246    0.406   84.764
  376.750   10.116    0.264    0.404   79.770
  377.000   10.118    0.274    0.398   79.784
  377.250    9.988    0.254    0.391   83.340
  377.500    9.678    0.233    0.405   85.733
  377.750    9.153    0.239    0.436   87.701
  378.000    8.528    0.257    0.460   86.250
  378.250    8.036    0.268    0.485   80.401
  378.500    7.978    0.283    0.477   73.882
  378.750    8.252    0.287    0.448   69.926
  379.000    8.536    0.285    0.438   68.475
  379.250    8.585    0.287    0.452   67.754
  379.500    8.571    0.286    0.465   64.900
  379.750    8.589    0.276    0.481   61.310
  380.000    8.818    0.268    0.489   58.088
  380.250    9.380    0.288    0.466   59.443
  380.500   10.493    0.300    0.426   56.955
  380.750   11.372    0.308    0.395   53.185
  381.000   12.074    0.312    0.383   50.572
  381.250   12.678    0.319    0.386   48.507
  381.500   12.967    0.312    0.394   54.078
  381.750   12.588    0.279    0.395   65.081
  382.000   11.469    0.244    0.379   75.047
  382.250   10.105    0.238    0.375   80.372
  382.500    8.721    0.255    0.407   86.308
  382.750    7.814    0.245    0.450   92.427
  383.000    7.146    0.210    0.456   95.677
  383.250    7.121    0.199    0.455   92.516
  383.500    7.297    0.215    0.414   88.988
  383.750    7.576    0.223    0.388   85.826
  384.000    7.969    0.230    0.402   85.291
  384.250    8.685    0.226    0.415   84.327
  384.500    9.716    0.260    0.425   75.242
  384.750   11.199    0.302    0.430   62.740
  385.000   12.552    0.321    0.416   54.510
  385.250   13.552    0.338    0.420   49.822
  385.500   14.605    0.351    0.419   47.515
  385.750   15.278    0.341    0.407   46.430
  386.000   15.714    0.337    0.410   46.260
  386.250   16.014    0.337    0.420   47.923
  386.500   16.138    0.336    0.413   48.303
  386.750   16.171    0.334    0.398   47.768
  387.000   16.054    0.333    0.401   46.072
  387.250   15.967    0.338    0.411   46.022
  387.500   15.822    0.349    0.418   48.723
  387.750   15.679    0.360    0.419   51.422
  388.000   15.652    0.369    0.424   54.124
  388.250   15.598    0.366    0.437   56.031
  388.500   15.601    0.357    0.445   57.451
  388.750   15.604    0.357    0.429   57.340
  389.000   15.607    0.359    0.419   56.743
  389.250   15.581    0.359    0.428   55.900
  389.500   15.585    0.352    0.436   54.509
  389.750   15.618    0.353    0.445   53.361
  390.000   15.591    0.361    0.451   52.397
  390.250   15.594    0.368    0.448   52.167
  390.500   15.568    0.371    0.441   52.303
  390.750   15.514    0.375    0.437   52.743
  391.000   15.431    0.371    0.439   52.880
  391.250   15.319    0.364    0.454   52.893
  391.500   15.235    0.358    0.452   52.845
  391.750   15.069    0.359    0.437   53.470
  392.000   14.904    0.364    0.425   51.651
  392.250   14.496    0.365    0.427   49.343
  392.500   14.125    0.361    0.440   52.717
  392.750   13.841    0.354    0.452   54.134
  393.000   13.664    0.348    0.447   54.207
  393.250   13.489    0.341    0.440   54.038
  393.500   13.670    0.337    0.443   56.189
  393.750   14.379    0.312    0.434   57.608
  394.000   15.554    0.170    0.334   56.276
  394.250   15.999    0.085    0.271   51.043
  394.500   15.677    0.091    0.248   46.595
  394.750   14.854    0.274    0.364   54.364
  395.000   13.789    0.312    0.404   62.375
  395.250   12.968    0.321    0.440   65.441
  395.500   12.566    0.325    0.463   60.082
  395.750   12.382    0.322    0.480   53.686
  396.000   12.571    0.334    0.490   50.950
  396.250   13.703    0.343    0.472   49.926
  396.500   13.703    0.341    0.447   47.441
  396.750   13.886    0.340    0.438   45.864
  397.000   14.177    0.339    0.429   43.739
  397.250   14.420    0.340    0.427   44.790
  397.500   14.558    0.343    0.432   48.530
  397.750   14.698    0.344    0.438   50.128
  398.000   14.783    0.344    0.439   51.425
  398.250   14.897    0.342    0.416   49.117
  398.500   14.956    0.342    0.410   46.017
  398.750   14.987    0.345    0.419   45.725
  399.000   14.962    0.349    0.426   47.389
  399.250   14.965    0.351    0.432   48.072
  399.500   14.940    0.352    0.435   49.003
  399.750   14.915    0.345    0.432   49.809
  400.000   14.836    0.342    0.427   50.689
  400.250   14.783    0.346    0.424   50.818
  400.500   14.758    0.350    0.433   51.012
  400.750   14.734    0.347    0.443   50.536
  401.000   14.709    0.335    0.431   48.596
  401.250   14.712    0.320    0.409   51.785
  401.500   14.715    0.320    0.428   53.689
  401.750   14.746    0.340    0.441   54.557
