~VERSION INFORMATION
 VERS.                 2.0:   CWLS LOG ASCII STANDARD -VERSION 2.0
 WRAP.                  NO:   ONE LINE PER DEPTH STEP
~WELL INFORMATION BLOCK
#MNEM.UNIT           DATA                    DESCRIPTION OF MNEMONIC
#---------    -------------------            -------------------------------
# Generated from Intellog Unique Number	CW_73_75/WELL/2725
WELL.         CANTERRA MARTEN H 04-25        : Well_name    - WELL
LOC .         00/04-25-073-25W4/0            : Location     - LOCATION
UWI .         00/04-25-073-25W4/0            : Uwi          - UNIQUE WELL ID
ENTR.         JAYE                           : Entered      - ENTERED BY
SRVC.         WESTERN ATLAS                  : Scn          - SERVICE COMPANY
DATE.         21 JAN 86                      : Date         - LOG DATE
STRT.M        385                            : top_depth    - START DEPTH
STOP.M        615                            : bot_depth    - STOP DEPTH
STEP.M        0.25                           : increment    - STEP LENGTH
 NULL. -999.2500:NULL Value
~CURVE INFORMATION BLOCK
#MNEM UNIT       ERCB CURVE CODE    CURVE DESCRIPTION
#-----------   ------------------   ----------------------------------
DEPT.M        00 001 00 00         : DEPTH        - DEPTH
RHOB.KG/M3    00 350 00 00         : DENS         - BULK DENSITY
DPHI.V/V      00 890 00 00         : PHID         - DENSITY POROSITY (SANDSTONE)
ILD .OHMM     00 120 00 00         : RESD         - DEEP RESISTIVITY (DLL)
CALI.MM       00 280 01 00         : CAL          - CALIPER
GR  .API      00 310 00 00         : GR           - GAMMA RAY
NPHI.V/V      00 330 00 00         : PHIN         - NEUTRON POROSITY (SANDSTONE)
~PARAMETER INFORMATION
#MNEM.UNIT           DATA             DESCRIPTION OF MNEMONIC
#---------         -----------     ------------------------------
GL  .M        637.6                : gl           - GROUND LEVEL ELEVATION
EREF.M        641                  : kb           - ELEVATION OF DEPTH REFERENCE
DATM.M        637.6                : datum        - DATUM ELEVATION
TDD .M        617                  : tdd          - TOTAL DEPTH DRILLER
RUN .         ONE                  : Run          - RUN NUMBER
ENG .         MASHON               : Engineer     - RECORDING ENGINEER
WIT .         HUDSON/REID          : Witness      - WITNESSED BY
BASE.         EDM                  : Branch       - HOME BASE OF LOGGING UNIT
MUD .         GEL CHEM             : Mud_type     - MUD TYPE
MATR.         SANDSTONE            : Logunit      - NEUTRON MATRIX
TMAX.C        42                   : BHT          - MAXIMUM RECORDED TEMPERATURE
BHTD.M        617                  : BHTDEP       - MAXIMUM RECORDED TEMPERATURE
RMT .C        22                   : MDTP         - TEMPERATURE OF MUD
MUDD.KG/M     1130                 : MWT          - MUD DENSITY
NEUT.         0                    : NEUTRON      - NEUTRON TYPE
RESI.         1                    : RESIST       - RESISTIVITY TYPE
RM  .OHMM     2.3                  : RM           - RESISTIVITY OF MUD
RMC .OHMM     3.5                  : RMC          - RESISTIVITY OF MUD CAKE
RMF .OHMM     3.2                  : RMF          - RESISTIVITY OF MUD FILTRATE
SUFT.C        0                    : SUFT         - SURFACE TEMPERATURE
~A  DEPTH     DENS     PHID     RESD      CAL       GR     PHIN
# ...
  416.250 2229.380    0.255    3.703  164.120   84.466    0.402
  416.500 2210.090    0.267    3.614  161.149   90.246    0.428
  416.750 2175.000    0.288    3.480  162.001   93.795    0.442
  417.000 2178.150    0.286    3.371  163.472   87.858    0.435
  417.250 2193.760    0.277    3.216  165.667   77.211    0.431
  417.500 2144.970    0.306    3.087  166.103   67.556    0.421
  417.750 2120.070    0.321    2.995  164.992   65.402    0.391
  418.000 2104.100    0.331    2.917  164.292   70.623    0.421
  418.250 2088.760    0.340    2.889  164.730   73.985    0.435
  418.500 2069.470    0.352    2.930  165.998   79.516    0.404
  418.750 2068.870    0.352    3.023  166.950   73.580    0.377
  419.000 2167.800    0.292    3.165  167.593   94.050    0.390
  419.250 2254.890    0.239    3.395  169.995  120.595    0.404
  419.500 2291.070    0.218    3.634  171.982  124.453    0.403
  419.750 2311.260    0.205    3.862  173.452  107.237    0.388
  420.000 2290.720    0.218    4.096  169.865  102.291    0.392
  420.250 2260.210    0.236    4.281  165.444   95.984    0.414
  420.500 2227.410    0.256    4.449  161.542   91.473    0.403
  420.750 2207.490    0.268    4.547  159.913   84.608    0.408
  421.000 2192.360    0.277    4.478  161.178   74.642    0.420
  421.250 2192.390    0.277    4.203  163.890   77.880    0.428
  421.500 2218.600    0.261    3.737  166.909   94.321    0.451
  421.750 2223.200    0.259    3.317  168.896  107.291    0.475
  422.000 2230.290    0.254    2.885  170.161  105.758    0.473
  422.250 2241.960    0.247    2.427  170.599  110.358    0.499
  422.500 2256.330    0.239    2.182  168.970  121.963    0.476
  422.750 2232.460    0.253    2.315  165.275  103.197    0.433
  423.000 2205.280    0.270    2.543  162.304   74.078    0.421
  423.250 2165.000    0.294    2.810  160.469   63.493    0.447
  423.500 2061.980    0.356    3.093  159.356   57.743    0.445
  423.750 2063.250    0.356    3.209  158.866   54.968    0.386
  424.000 2066.200    0.354    3.207  160.128   65.397    0.397
  424.250 2080.560    0.345    3.164  162.633   71.176    0.401
  424.500 2106.360    0.329    3.175  166.272   80.738    0.408
  424.750 2146.900    0.305    3.263  168.157   99.348    0.425
  425.000 2196.170    0.275    3.454  167.974  109.032    0.418
  425.250 2188.100    0.280    3.657  167.175  113.200    0.486
  425.500 2170.470    0.291    3.908  166.579  104.848    0.453
  425.750 2188.990    0.279    4.002  168.256   95.997    0.424
  426.000 2210.840    0.266    4.045  168.797   92.416    0.412
  426.250 2206.720    0.269    4.051  168.616   91.130    0.394
  426.500 2182.230    0.283    4.048  168.225   89.099    0.415
  426.750 2151.100    0.302    4.077  167.837   83.845    0.441
  427.000 2115.180    0.324    4.060  167.760   82.000    0.446
  427.250 2124.150    0.319    4.043  167.786   93.854    0.444
  427.500 2139.760    0.309    3.923  167.087   95.790    0.435
  427.750 2142.910    0.307    3.800  165.972   90.352    0.420
  428.000 2132.760    0.313    3.749  164.446   92.720    0.428
  428.250 2187.430    0.280    3.747  162.613   86.475    0.454
  428.500 2227.980    0.256    3.809  161.293   81.716    0.428
  428.750 2179.600    0.285    3.893  160.699   85.079    0.398
  429.000 2151.370    0.302    3.978  160.205   91.601    0.418
  429.250 2130.000    0.315    4.059  160.333   94.468    0.436
  429.500 2118.810    0.322    4.164  161.701   83.759    0.415
  429.750 2116.560    0.323    4.343  163.895   79.993    0.403
  430.000 2124.490    0.318    4.539  165.472   80.752    0.378
  430.250 2132.000    0.314    4.631  165.393   78.782    0.398
  430.500 2136.180    0.311    4.794  165.209   80.782    0.400
  430.750 2132.890    0.313    4.918  165.132   79.619    0.404
  431.000 2130.220    0.315    4.971  164.847   69.590    0.396
  431.250 2206.090    0.269    4.878  164.973   74.626    0.401
  431.500 2261.800    0.235    4.803  165.619   84.435    0.385
  431.750 2313.980    0.204    4.766  167.087   92.879    0.393
  432.000 2347.460    0.183    4.737  168.661  100.952    0.399
  432.250 2370.970    0.169    4.691  169.927  101.649    0.410
  432.500 2356.250    0.178    4.707  170.053   99.122    0.433
  432.750 2290.830    0.218    4.696  169.664  101.430    0.450
  433.000 2244.530    0.246    4.659  168.760  102.622    0.442
  433.250 2187.630    0.280    4.614  165.583   76.913    0.391
  433.500 2171.660    0.290    4.603  164.988   68.622    0.381
  433.750 2190.400    0.279    4.567  166.769   74.525    0.398
  434.000 2205.180    0.270    4.557  166.585   80.986    0.424
  434.250 2005.740    0.390    4.546  165.886   91.166    0.482
  434.500 1902.720    0.453    4.561  167.049   90.499    0.518
  434.750 1778.090    0.528    4.593  168.003   69.253    0.503
  435.000 1896.960    0.456    4.668  168.233   64.308    0.456
  435.250 2117.860    0.323    4.970  168.154   87.506    0.401
  435.500 2155.290    0.300    5.400  164.976   90.869    0.417
  435.750 2140.360    0.309    5.956  163.450   81.833    0.421
  436.000 2123.140    0.319    6.580  166.472   78.377    0.380
  436.250 2127.950    0.316    7.257  168.665   87.751    0.376
  436.500 2140.450    0.309    8.063  168.485   97.498    0.420
  436.750 2136.740    0.311    8.680  168.507   89.950    0.413
  437.000 2123.480    0.319    9.224  167.913   82.713    0.446
  437.250 2118.520    0.322    9.289  167.318   74.732    0.463
  437.500 2113.980    0.325    9.013  167.656   74.374    0.423
  437.750 2107.990    0.328    8.584  167.991   82.199    0.385
  438.000 2103.450    0.331    8.192  168.114   83.639    0.426
  438.250 2096.830    0.335    7.774  168.138   86.505    0.433
  438.500 2094.570    0.337    7.391  168.472   79.020    0.401
  438.750 2102.500    0.332    7.026  166.845   75.935    0.406
  439.000 2122.270    0.320    6.606  166.047   77.313    0.420
  439.250 2164.480    0.294    5.907  166.273   82.597    0.406
  439.500 2180.510    0.285    5.361  166.194   81.248    0.409
  439.750 2202.350    0.271    5.135  167.562   83.370    0.436
  440.000 2225.650    0.257    4.973  169.757   93.178    0.420
  440.250 2229.220    0.255    4.934  170.403   99.826    0.404
  440.500 2209.300    0.267    4.932  168.361   92.650    0.378
  440.750 2208.920    0.267    4.930  166.834   88.203    0.369
  441.000 2237.410    0.250    4.909  166.548   86.171    0.416
  441.250 2258.640    0.237    4.880  166.884   89.534    0.434
  441.500 2270.300    0.230    4.842  167.116   94.072    0.438
  441.750 2292.570    0.217    4.822  167.759  100.037    0.432
  442.000 2287.820    0.220    4.811  168.508   93.732    0.418
  442.250 2296.570    0.214    4.791  169.150   92.692    0.401
  442.500 2285.800    0.221    4.744  169.075   91.652    0.410
  442.750 2257.370    0.238    4.672  168.684   95.013    0.440
  443.000 2229.560    0.255    4.627  168.191   99.369    0.451
  443.250 2225.230    0.257    4.565  167.699   99.507    0.444
  443.500 2225.670    0.257    4.504  167.932   99.275    0.431
  443.750 2228.410    0.256    4.469  167.954   99.848    0.422
  444.000 2231.130    0.254    4.426  168.290  100.481    0.411
  444.250 2236.990    0.250    4.359  168.729  101.735    0.403
  444.500 2252.800    0.241    4.349  169.476  105.344    0.395
  444.750 2270.700    0.230    4.323  170.118  108.458    0.424
  445.000 2300.450    0.212    4.321  170.869  108.474    0.449
  445.250 2321.040    0.199    4.335  171.512  106.442    0.428
  445.500 2307.780    0.207    4.539  171.536  101.994    0.407
  445.750 2276.640    0.226    4.752  169.907  103.249    0.384
  446.000 2203.330    0.271    4.857  167.245   94.338    0.398
  446.250 2223.520    0.258    4.801  165.205   93.299    0.418
  446.500 2260.530    0.236    4.649  165.538  101.433    0.404
  446.750 2302.740    0.210    4.503  167.631  105.415    0.417
  447.000 2306.510    0.208    4.426  169.308   99.355    0.422
  447.250 2305.290    0.209    4.384  170.987   92.427    0.402
