~VERSION INFORMATION
 VERS.                 2.0:   CWLS LOG ASCII STANDARD -VERSION 2.0
 WRAP.                  NO:   ONE LINE PER DEPTH STEP
~WELL INFORMATION BLOCK
#MNEM.UNIT           DATA                    DESCRIPTION OF MNEMONIC
#---------    -------------------            -------------------------------
# Generated from Intellog Unique Number	CW_70_72/WELL/913
NULL.         -999.25                        : NULL_VALUE
WELL.         SUNDANCE CANAL 07-24           : Well_name    - WELL              
LOC .         07-24-071-23W4                 : Location     - LOCATION          
UWI .         00/07-24-071-23W4/0            : Uwi          - UNIQUE WELL ID    
ENTR.         JAYE                           : Entered      - ENTERED BY        
SRVC.         SCHLUMBERGER                   : Scn          - SERVICE COMPANY   
DATE.         21 FEB 77                      : Date         - LOG DATE          
STRT.M        432.816                        : top_depth    - START DEPTH       
STOP.M        658.316                        : bot_depth    - STOP DEPTH        
STEP.M        0.25                           : increment    - STEP LENGTH       
~CURVE INFORMATION BLOCK
#MNEM UNIT       ERCB CURVE CODE    CURVE DESCRIPTION
#-----------   ------------------   ----------------------------------
DEPT.M        00 001 00 00         : DEPTH        - DEPTH                       
DPHI.V/V      00 890 00 00         : PHID         - DENSITY POROSITY (SANDSTONE)
NPHI.V/V      00 330 00 00         : PHIN         - NEUTRON POROSITY (SANDSTONE)
GR  .API      00 310 00 00         : GR           - GAMMA RAY                   
CALI.MM       00 280 01 00         : CAL          - CALIPER                     
ILD .OHMM     00 120 00 00         : RESD         - DEEP RESISTIVITY (DIL)      
~PARAMETER INFORMATION       
#MNEM.UNIT           DATA             DESCRIPTION OF MNEMONIC
#---------         -----------     ------------------------------
GL  .M        641.909              : gl           - GROUND LEVEL ELEVATION      
EREF.M        645.566              : kb           - ELEVATION OF DEPTH REFERENCE
DATM.M        641.909              : datum        - DATUM ELEVATION             
TDD .M        669.036              : tdd          - TOTAL DEPTH DRILLER         
RUN .         ONE                  : Run          - RUN NUMBER                  
ENG .         BIGG/LEDUC           : Engineer     - RECORDING ENGINEER          
WIT .         CHRISTENSEN          : Witness      - WITNESSED BY                
BASE.         EDM                  : Branch       - HOME BASE OF LOGGING UNIT   
MUD .         GEL CHEN             : Mud_type     - MUD TYPE                    
MATR.         SANDSTONE            : Logunit      - NEUTRON MATRIX              
TMAX.C        -17.7778             : BHT          - MAXIMUM RECORDED TEMPERATURE
BHTD.M        669.95               : BHTDEP       - MAXIMUM RECORDED TEMPERATURE
RMT .C        15.5556              : MDTP         - TEMPERATURE OF MUD          
MUDD.KG/M     1104                 : MWT          - MUD DENSITY                 
NEUT.         1                    : NEUTRON      - NEUTRON TYPE                
RESI.         0                    : RESIST       - RESISTIVITY TYPE            
RM  .OHMM     2.18                 : RM           - RESISTIVITY OF MUD          
RMC .OHMM     0                    : RMC          - RESISTIVITY OF MUD CAKE     
RMF .OHMM     4.77                 : RMF          - RESISTIVITY OF MUD FILTRATE 
SUFT.C        0                    : SUFT         - SURFACE TEMPERATURE         
~A  DEPTH     PHID     PHIN       GR      CAL     RESD
  432.816    0.212    0.481  134.908  181.770    2.362
  433.066    0.219    0.493  129.154  184.814    2.334
  433.316    0.223    0.499  128.763  188.372    2.444
  433.566    0.231    0.502  126.114  188.123    2.724
  433.816    0.241    0.494  122.247  186.936    3.105
  434.066    0.249    0.459  118.566  184.206    3.373
  434.316    0.256    0.435  114.883  173.434    3.753
  434.566    0.266    0.424  111.081  165.751    4.092
  434.816    0.268    0.412  107.820  167.557    4.291
  435.066    0.250    0.397  110.473  169.988    3.894
  435.316    0.252    0.385  115.985  171.381    3.313
  435.566    0.252    0.380  122.473  174.636    3.244
  435.816    0.266    0.525  130.666  177.574    3.377
  436.066    0.279    0.511  127.166  180.206    3.601
  436.316    0.248    0.434  125.311  174.073    3.941
  436.566    0.219    0.411  123.333  162.379    4.401
  436.816    0.208    0.395  119.041  160.582    4.889
  437.066    0.241    0.383  112.738  160.940    5.231
  437.316    0.274    0.375  105.768  162.334    5.066
  437.566    0.280    0.383  110.732  164.032    4.539
  437.816    0.266    0.393  119.169  166.670    4.212
  438.066    0.237    0.401  126.023  170.953    4.087
  438.316    0.204    0.422  125.755  176.577    4.092
  438.566    0.210    0.436  119.997  183.440    4.143
  438.816    0.239    0.454  112.233  186.894    4.217
  439.066    0.255    0.457  106.053  184.369    4.414
  439.316    0.271    0.425   98.228  177.314    4.921
  439.566    0.268    0.428   91.502  171.896    5.286
  439.816    0.248    0.441   86.903  168.142    5.402
  440.066    0.214    0.431   88.949  166.855    5.408
  440.316    0.193    0.409   93.121  166.813    5.056
  440.566    0.222    0.435   98.451  166.559    4.745
  440.816    0.240    0.464  102.993  166.192    4.511
  441.066    0.279    0.448  105.765  165.835    4.328
  441.316    0.277    0.414  108.719  165.580    4.175
  441.566    0.251    0.421  113.505  164.905    4.021
  441.816    0.224    0.426  114.879  164.762    3.909
  442.066    0.239    0.417  115.393  166.565    3.820
  442.316    0.264    0.420  120.115  169.409    3.734
  442.566    0.255    0.420  122.827  171.623    3.684
  442.816    0.241    0.416  118.232  173.643    3.688
  443.066    0.228    0.402  114.182  174.008    3.712
  443.316    0.227    0.401  111.597  174.679    3.822
  443.566    0.224    0.423  115.404  175.660    4.045
  443.816    0.223    0.457  115.986  178.605    4.282
  444.066    0.240    0.448  112.179  180.514    4.729
  444.316    0.238    0.420  101.004  176.751    5.380
  444.566    0.256    0.392   87.698  172.580    6.593
  444.816    0.282    0.363   68.728  168.094    7.487
  445.066    0.304    0.314   58.529  164.330    7.707
  445.316    0.326    0.283   61.118  162.120    7.165
  445.566    0.316    0.319   66.334  161.140    6.163
  445.816    0.289    0.339   68.797  160.168    5.282
  446.066    0.260    0.352   70.232  159.718    4.811
  446.316    0.263    0.357   69.352  159.659    4.433
  446.566    0.285    0.366   65.304  160.023    4.276
  446.816    0.293    0.378   59.850  160.495    4.148
  447.066    0.315    0.361   52.455  160.750    4.161
  447.316    0.333    0.351   48.651  161.005    4.597
  447.566    0.330    0.359   48.868  161.895    5.249
  447.816    0.344    0.370   52.243  162.250    6.231
  448.066    0.331    0.383   59.100  162.616    7.343
  448.316    0.341    0.397   63.518  164.427    8.622
  448.566    0.337    0.394   68.727  166.023    9.756
  448.816    0.323    0.379   73.995  168.458   10.079
  449.066    0.310    0.378   83.467  169.959    9.529
  449.316    0.288    0.391   94.890  171.041    8.601
  449.566    0.261    0.390  104.910  171.403    7.734
  449.816    0.241    0.385  111.705  170.318    6.994
  450.066    0.234    0.379  115.937  168.102    6.335
  450.316    0.218    0.375  118.832  167.641    5.761
  450.566    0.202    0.374  118.322  168.217    5.336
  450.816    0.208    0.385  121.637  170.538    4.736
  451.066    0.211    0.392  115.519  174.306    4.494
  451.316    0.191    0.389  118.413  176.937    4.328
  451.566    0.190    0.388  117.959  178.852    4.168
  451.816    0.234    0.408  113.182  177.562    3.875
  452.066    0.269    0.410  112.480  165.657    3.537
  452.316    0.282    0.460  123.719  170.352    3.216
  452.566    0.267    0.505  130.329  176.802    2.952
  452.816    0.253    0.515  133.895  182.111    2.684
  453.066    0.297    0.519  137.642  184.849    2.504
  453.316    0.298    0.524  141.573  190.680    2.381
  453.566    0.315    0.529  145.319  194.550    2.460
  453.816    0.285    0.531  150.714  189.035    2.794
  454.066    0.296    0.537  156.773  195.896    3.269
  454.316    0.305    0.460  148.340  198.840    3.543
  454.566    0.328    0.413  144.596  197.245    3.906
  454.816    0.283    0.402  140.610  189.152    4.436
  455.066    0.250    0.416  140.640  184.255    4.872
  455.316    0.223    0.421  131.173  180.803    4.942
  455.566    0.238    0.425  124.869  178.803    4.777
  455.816    0.246    0.447  120.272  177.301    4.609
  456.066    0.237    0.440  117.685  176.537    4.430
  456.316    0.270    0.427  116.865  177.106    4.235
  456.566    0.276    0.451  122.319  179.428    4.209
  456.816    0.280    0.466  125.396  182.890    4.333
  457.066    0.300    0.450  119.337  181.602    4.502
  457.316    0.290    0.425  114.196  179.073    4.809
  457.566    0.260    0.416  112.095  176.651    5.244
  457.816    0.276    0.408  110.363  171.965    5.728
  458.066    0.290    0.395  108.323  166.551    6.314
  458.316    0.268    0.388  105.004  166.619    6.884
  458.566    0.267    0.403   98.945  167.598    7.847
  458.816    0.284    0.391   93.132  166.922    8.944
  459.066    0.332    0.362   86.402  164.606   10.482
  459.316    0.346    0.375   80.223  162.182   12.195
  459.566    0.338    0.372   75.263  159.976   13.001
  459.816    0.339    0.367   72.370  157.958   13.966
  460.066    0.339    0.360   70.452  157.601   15.255
  460.316    0.340    0.357   69.633  161.576   17.423
  460.566    0.325    0.355   70.096  163.181   19.604
  460.816    0.299    0.391   71.099  161.175   20.180
  461.066    0.284    0.400   72.285  159.378   19.834
  461.316    0.310    0.403   74.024  159.737   17.801
  461.566    0.333    0.412   76.498  160.817   13.803
  461.816    0.345    0.423   78.473  161.799   10.763
  462.066    0.334    0.423   79.420  162.786    8.757
  462.316    0.324    0.419   78.357  163.668    7.258
  462.566    0.309    0.418   81.188  164.648    5.818
  462.816    0.298    0.416   87.128  165.640    4.823
  463.066    0.274    0.405   94.837  165.995    4.369
  463.316    0.245    0.394  103.637  166.874    4.294
  463.566    0.246    0.412  117.070  167.241    4.331
  463.816    0.249    0.412  127.029  167.812    4.337
  464.066    0.233    0.409  133.399  167.971    4.286
  464.316    0.207    0.418  139.946  167.102    4.189
  464.566    0.227    0.408  145.887  166.941    4.126
  464.816    0.223    0.427  139.583  167.624    4.131
  465.066    0.211    0.441  130.906  169.525    4.175
  465.316    0.243    0.451  119.426  175.564    4.369
  465.566    0.274    0.441  107.096  178.810    4.853
  465.816    0.283    0.430   99.637  169.892    5.479
  466.066    0.295    0.425   95.223  162.837    6.422
  466.316    0.306    0.426   95.135  162.481    7.956
  466.566    0.293    0.423   93.034  162.225   10.343
  466.816    0.268    0.373   90.815  161.970   13.226
  467.066    0.196    0.333   88.713  162.124   15.529
  467.316    0.139    0.285   84.423  163.008   19.025
  467.566    0.074    0.168   80.983  163.066   24.279
  467.816    0.039    0.171   79.003  163.110   22.159
  468.066    0.035    0.213   83.364  163.279   15.719
  468.316    0.062    0.266   90.701  163.230    9.815
  468.566    0.137    0.301   99.137  163.285    7.388
  468.816    0.175    0.364  103.007  163.339    5.551
  469.066    0.241    0.437  100.239  163.197    4.695
