~VERSION INFORMATION
 VERS.                 2.0:   CWLS LOG ASCII STANDARD -VERSION 2.0
 WRAP.                  NO:   ONE LINE PER DEPTH STEP
~WELL INFORMATION BLOCK
#MNEM.UNIT           DATA                    DESCRIPTION OF MNEMONIC
#---------    -------------------            -------------------------------
# Generated from Intellog Unique Number	CX_WELLS/WELL/3156
WELL.         SURMONT                        : Well_name    - WELL
LOC .         00/06-27-083-09W4/0            : Location     - LOCATION
UWI .         00/06-27-083-09W400            : Uwi          - UNIQUE WELL ID
ENTR.         TIM                            : Entered      - ENTERED BY
SRVC.         SCHLUMBERGER                   : Scn          - SERVICE COMPANY
DATE.         03/04/92                       : Date         - LOG DATE
STRT.F        900                            : top_depth    - START DEPTH
STOP.F        1649.67                        : bot_depth    - STOP DEPTH
STEP.F        0.82                           : increment    - STEP LENGTH
 NULL. -999.2500:NULL Value
~CURVE INFORMATION BLOCK
#MNEM UNIT       ERCB CURVE CODE    CURVE DESCRIPTION
#-----------   ------------------   ----------------------------------
DEPT.F        00 001 00 00         : DEPTH        - DEPTH
GR  .API      00 310 00 00         : GR           - GAMMA RAY
NPHI.V/V      00 330 00 00         : PHIN         - NEUTRON POROSITY (SANDSTONE)
DPHI.V/V      00 890 00 00         : PHID         - DENSITY POROSITY (SANDSTONE)
ILD .OHMM     00 120 00 00         : RESD         - DEEP RESISTIVITY (OTHER)
~PARAMETER INFORMATION
#MNEM.UNIT           DATA             DESCRIPTION OF MNEMONIC
#---------         -----------     ------------------------------
GL  .F        2455.75              : gl           - GROUND LEVEL ELEVATION
EREF.F        2465.25              : kb           - ELEVATION OF DEPTH REFERENCE
DATM.F        2465.25              : datum        - DATUM ELEVATION
TDD .F        1694                 : tdd          - TOTAL DEPTH DRILLER
RUN .         ONE                  : Run          - RUN NUMBER
ENG .         JO                   : Engineer     - RECORDING ENGINEER
WIT .         TIM                  : Witness      - WITNESSED BY
MUD .         GEL                  : Mud_type     - MUD TYPE
MATR.         SANDSTONE            : Logunit      - NEUTRON MATRIX
TMAX.F        72                   : BHT          - MAXIMUM RECORDED TEMPERATURE
BHTD.F        1694                 : BHTDEP       - MAXIMUM RECORDED TEMPERATURE
RMT .F        72                   : MDTP         - TEMPERATURE OF MUD
MUDD.LB/G     1                    : MWT          - MUD DENSITY
NEUT.         1                    : NEUTRON      - NEUTRON TYPE
RESI.         8.35                 : RESIST       - RESISTIVITY TYPE
RM  .OHMM     7.8                  : RM           - RESISTIVITY OF MUD
RMC .OHMM     9.7                  : RMC          - RESISTIVITY OF MUD CAKE
RMF .OHMM     9.7                  : RMF          - RESISTIVITY OF MUD FILTRATE
SUFT.F        32                   : SUFT         - SURFACE TEMPERATURE
~A  DEPTH       GR     PHIN     PHID     RESD
# ...
 1185.430   80.729    0.451    0.293   18.683
 1186.250   83.278    0.451    0.292   18.704
 1187.070   83.924    0.452    0.291   18.757
 1187.890   86.456    0.455    0.288   18.451
 1188.710   87.119    0.458    0.286   18.159
 1189.530   89.634    0.464    0.281   17.842
 1190.350   92.166    0.479    0.277   16.282
 1191.170   94.052    0.490    0.271   14.851
 1191.990   95.955    0.500    0.263   12.340
 1192.810   96.635    0.492    0.254   10.063
 1193.640   96.720    0.486    0.243    9.178
 1194.460   96.177    0.482    0.239    8.067
 1195.280   95.650    0.475    0.243    7.510
 1196.100   95.090    0.471    0.249    7.246
 1196.920   93.339    0.469    0.253    6.995
 1197.740   92.779    0.464    0.255    6.877
 1198.560   92.218    0.461    0.261    6.764
 1199.380   91.080    0.462    0.268    7.312
 1200.200   89.941    0.463    0.272    7.748
 1201.020   89.381    0.469    0.271    8.690
 1201.840   88.225    0.475    0.268   10.130
 1202.660   86.458    0.469    0.263   11.368
 1203.480   82.873    0.461    0.259   12.046
 1204.300   81.683    0.460    0.260   12.528
 1205.120   79.305    0.459    0.267   12.801
 1205.940   81.208    0.456    0.277   12.591
 1206.760   83.111    0.462    0.288   12.162
 1207.580   85.015    0.471    0.287   11.950
 1208.400   87.547    0.472    0.284   11.984
 1209.220   88.821    0.476    0.277   11.781
 1210.040   90.742    0.478    0.266   11.162
 1210.860   92.016    0.481    0.264   10.192
 1211.680   94.582    0.483    0.266    9.651
 1212.500   95.840    0.484    0.266    9.317
 1213.320   97.148    0.486    0.266    8.994
 1214.140   99.069    0.487    0.266    8.526
 1214.960   99.732    0.487    0.263    8.226
 1215.780  100.411    0.489    0.262    7.794
 1216.600  101.686    0.490    0.259    7.113
 1217.420  102.366    0.492    0.258    6.743
 1218.240  104.286    0.495    0.258    6.502
 1219.060  105.578    0.496    0.255    6.167
 1219.880  104.456    0.491    0.254    6.060
 1220.700  103.250    0.483    0.255    5.850
 1221.520   97.812    0.474    0.257    5.761
 1222.340   94.210    0.467    0.256    5.767
 1223.160   97.949    0.472    0.250    5.679
 1223.980  101.076    0.475    0.240    5.689
 1224.800  107.261    0.492    0.232    5.702
 1225.620  112.852    0.496    0.224    5.608
 1226.440  116.590    0.499    0.225    5.215
 1227.260  115.452    0.505    0.226    5.029
 1228.080  114.297    0.509    0.227    4.592
 1228.900  114.382    0.515    0.230    4.270
 1229.720  114.416    0.520    0.238    4.124
 1230.540  113.872    0.526    0.243    3.977
 1231.360  113.329    0.530    0.247    3.841
 1232.190  112.819    0.534    0.251    3.642
 1233.010  112.275    0.536    0.250    3.578
 1233.830  111.715    0.535    0.250    3.523
 1234.650  111.766    0.531    0.250    3.462
 1235.470  111.239    0.528    0.252    3.405
 1236.290  110.695    0.521    0.254    3.350
 1237.110  110.152    0.517    0.256    3.295
 1237.930  109.591    0.510    0.257    3.241
 1238.750  109.048    0.501    0.257    3.250
 1239.570  107.892    0.483    0.258    3.257
 1240.390  107.349    0.468    0.261    3.267
 1241.210  105.564    0.454    0.265    3.270
 1242.030  102.608    0.437    0.269    3.278
 1242.850  101.436    0.423    0.273    3.347
 1243.670   98.428    0.411    0.285    3.485
 1244.490   94.826    0.374    0.304    3.765
 1245.310   90.000    0.327    0.338    4.142
 1246.130   83.339    0.263    0.359    4.914
 1246.950   77.272    0.243    0.390    7.037
 1247.770   74.911    0.247    0.406   10.861
 1248.590   74.367    0.250    0.414   15.255
 1249.410   73.806    0.254    0.413   21.844
 1250.230   73.874    0.257    0.409   27.935
 1251.050   73.942    0.260    0.403   35.102
 1251.870   72.787    0.263    0.398   37.920
 1252.690   71.037    0.268    0.395   39.458
 1253.510   69.253    0.270    0.395   38.813
 1254.330   68.098    0.279    0.394   37.469
 1255.150   68.166    0.286    0.393   34.841
 1255.970   70.069    0.288    0.386   31.795
 1256.790   71.972    0.292    0.377   28.999
 1257.610   73.281    0.309    0.301   27.460
 1258.430   72.737    0.367    0.287   23.275
 1259.250   70.359    0.407    0.290   22.027
 1260.070   67.980    0.412    0.284   20.482
 1260.890   67.436    0.416    0.284   19.056
 1261.710   67.504    0.423    0.286   17.067
 1262.530   68.779    0.429    0.287   15.852
 1263.350   69.475    0.432    0.290   14.748
 1264.170   69.527    0.437    0.289   14.237
 1264.990   69.595    0.443    0.288   14.261
 1265.810   69.663    0.445    0.287   13.768
 1266.630   68.507    0.447    0.287   13.543
 1267.450   66.146    0.450    0.289   12.593
 1268.270   64.395    0.445    0.292   11.931
 1269.090   64.430    0.441    0.294   11.964
 1269.910   65.755    0.434    0.293   11.985
 1270.730   66.401    0.429    0.290   12.253
 1271.560   67.693    0.421    0.288   12.499
 1272.380   67.761    0.409    0.281   13.006
 1273.200   67.846    0.392    0.277   13.541
 1274.020   67.285    0.347    0.261   14.090
 1274.840   66.130    0.293    0.211   14.381
 1275.660   63.751    0.269    0.128   14.964
 1276.480   60.760    0.248    0.081   15.884
 1277.300   59.605    0.215    0.091   16.509
 1278.120   62.120    0.224    0.118   17.845
 1278.940   65.893    0.246    0.150   18.931
 1279.760   67.762    0.272    0.180   19.322
 1280.580   69.699    0.305    0.236   19.366
 1281.400   69.733    0.372    0.287   18.706
 1282.220   70.413    0.410    0.293   17.733
 1283.040   70.498    0.437    0.293   17.099
 1283.860   69.938    0.439    0.294   16.498
 1284.680   69.411    0.439    0.295   15.358
 1285.500   68.867    0.437    0.296   15.090
 1286.320   68.953    0.436    0.296   14.567
 1287.140   69.598    0.435    0.294   14.071
 1287.960   70.907    0.435    0.293   13.833
 1288.780   71.604    0.435    0.293   13.607
 1289.600   71.043    0.433    0.292   13.384
 1290.420   70.517    0.432    0.290   13.165
 1291.240   70.551    0.430    0.289   13.195
 1292.060   70.653    0.430    0.290   12.979
 1292.880   70.704    0.435    0.296   12.781
 1293.700   70.177    0.437    0.299   12.803
 1294.520   69.617    0.440    0.299   12.587
 1295.340   69.702    0.442    0.299   12.381
 1296.160   70.365    0.443    0.298   12.178
 1296.980   71.061    0.443    0.296   11.993
 1297.800   71.112    0.443    0.295   12.013
 1298.620   72.404    0.443    0.294   12.034
 1299.440   73.713    0.443    0.292   11.850
 1300.260   74.392    0.441    0.291   11.870
 1301.080   75.701    0.439    0.290   11.669
 1301.900   75.752    0.437    0.287   11.702
 1302.720   75.837    0.436    0.285   11.736
 1303.540   75.277    0.435    0.287   11.530
 1304.360   74.716    0.434    0.290   11.570
 1305.180   72.983    0.436    0.298   11.589
 1306.000   72.422    0.437    0.304   11.393
 1306.820   71.879    0.439    0.303   11.419
 1307.640   71.947    0.442    0.301   11.232
 1308.460   71.998    0.445    0.297   11.258
 1309.280   72.066    0.450    0.291   11.283
 1310.100   72.763    0.453    0.288   11.309
 1310.930   72.814    0.454    0.286   11.130
 1311.750   73.511    0.457    0.283   11.155
 1312.570   73.579    0.456    0.279   11.180
 1313.390   73.647    0.456    0.279   10.991
 1314.210   73.732    0.454    0.281   11.016
 1315.030   73.783    0.449    0.283   11.041
 1315.850   73.257    0.445    0.280   11.066
 1316.670   72.696    0.437    0.273   11.091
 1317.490   72.135    0.432    0.265   11.122
 1318.310   69.790    0.424    0.252   11.148
 1319.130   68.601    0.413    0.232   11.166
 1319.950   66.834    0.403    0.199   11.403
 1320.770   63.860    0.392    0.174   12.097
 1321.590   62.076    0.361    0.125   12.581
 1322.410   60.921    0.329    0.142   13.864
 1323.230   63.453    0.319    0.168   14.410
 1324.050   64.728    0.343    0.192   16.162
 1324.870   67.888    0.373    0.209   17.470
 1325.690   69.163    0.394    0.243   18.523
 1326.510   71.049    0.446    0.255   18.220
 1327.330   72.953    0.469    0.257   17.262
