~VERSION INFORMATION
 VERS.                 2.0:   CWLS LOG ASCII STANDARD -VERSION 2.0
 WRAP.                  NO:   ONE LINE PER DEPTH STEP
~WELL INFORMATION BLOCK
#MNEM.UNIT           DATA                    DESCRIPTION OF MNEMONIC
#---------    -------------------            -------------------------------
# Generated from Intellog Unique Number	CS_73_76/WELL/619
WELL.         MATNARD EXPLORATION            : Well_name    - WELL
LOC .         00/06-07-073-11W4/0            : Location     - LOCATION
UWI .         00/06-07-073-11W4/0            : Uwi          - UNIQUE WELL ID
ENTR.         SP                             : Entered      - ENTERED BY
SRVC.         SCHLUMBERGER                   : Scn          - SERVICE COMPANY
STRT.M        295                            : top_depth    - START DEPTH
STOP.M        544                            : bot_depth    - STOP DEPTH
STEP.M        0.25                           : increment    - STEP LENGTH
 NULL. -999.2500:NULL Value
~CURVE INFORMATION BLOCK
#MNEM UNIT       ERCB CURVE CODE    CURVE DESCRIPTION
#-----------   ------------------   ----------------------------------
DEPT.M        00 001 00 00         : DEPTH        - DEPTH
ILD .OHMM     00 120 00 00         : RESD         - DEEP RESISTIVITY (DIL)
DPHI.V/V      00 890 00 00         : PHID         - DENSITY POROSITY (LIMESTONE)
NPHI.V/V      00 330 00 00         : PHIN         - NEUTRON POROSITY (LIMESTONE)
GR  .API      00 310 00 00         : GR           - GAMMA RAY
~PARAMETER INFORMATION
#MNEM.UNIT           DATA             DESCRIPTION OF MNEMONIC
#---------         -----------     ------------------------------
GL  .M        656.4                : gl           - GROUND LEVEL ELEVATION
EREF.M        659.2                : kb           - ELEVATION OF DEPTH REFERENCE
DATM.M        656.4                : datum        - DATUM ELEVATION
TDD .M        552.67               : tdd          - TOTAL DEPTH DRILLER
RUN .         ONE                  : Run          - RUN NUMBER
ENG .         BILL                 : Engineer     - RECORDING ENGINEER
WIT .         JIM                  : Witness      - WITNESSED BY
MUD .         GEL                  : Mud_type     - MUD TYPE
MATR.         LIMESTONE            : Logunit      - NEUTRON MATRIX
TMAX.C        19                   : BHT          - MAXIMUM RECORDED TEMPERATURE
BHTD.M        552.67               : BHTDEP       - MAXIMUM RECORDED TEMPERATURE
MATR.         1                    : LOGUNIT      - NEUTRON MATRIX
RMT .C        25                   : MDTP         - TEMPERATURE OF MUD
NEUT.         1                    : NEUTRON      - NEUTRON TYPE
RESI.         0                    : RESIST       - RESISTIVITY TYPE
RMC .OHMM     0.25                 : RMC          - RESISTIVITY OF MUD CAKE
RMF .OHMM     0.25                 : RMF          - RESISTIVITY OF MUD FILTRATE
SUFT.C        15                   : SUFT         - SURFACE TEMPERATURE
~A  DEPTH     RESD     PHID     PHIN       GR
# ...
  469.000    2.719    0.200    0.530  108.258
  469.250    2.797    0.205    0.537  108.855
  469.500    2.955    0.206    0.518  108.854
  469.750    3.112    0.203    0.507  105.268
  470.000    3.269    0.203    0.497  103.474
  470.250    3.426    0.204    0.499  101.083
  470.500    3.504    0.207    0.493   98.692
  470.750    3.503    0.210    0.490   99.289
  471.000    3.344    0.205    0.493  102.874
  471.250    3.185    0.199    0.503  103.471
  471.500    3.105    0.195    0.522  104.068
  471.750    3.024    0.194    0.510  106.457
  472.000    3.182    0.192    0.477  105.859
  472.250    3.576    0.187    0.458  101.675
  472.500    4.049    0.186    0.444   95.698
  472.750    4.681    0.179    0.437   91.514
  473.000    5.391    0.172    0.438   94.501
  473.250    6.260    0.162    0.440   95.696
  473.500    7.128    0.161    0.428   94.500
  473.750    7.523    0.160    0.395   87.328
  474.000    8.312    0.168    0.386   83.742
  474.250    9.339    0.178    0.373   80.753
  474.500   10.682    0.206    0.365   81.350
  474.750   12.262    0.228    0.365   80.751
  475.000   13.921    0.232    0.379   78.360
  475.250   15.738    0.237    0.389   77.164
  475.500   15.816    0.239    0.398   76.566
  475.750   15.657    0.241    0.409   75.968
  476.000   15.814    0.244    0.415   74.772
  476.250   16.367    0.250    0.422   72.380
  476.500   17.630    0.257    0.413   69.391
  476.750   22.925    0.264    0.387   66.403
  477.000   28.459    0.269    0.360   59.828
  477.250   33.992    0.271    0.342   49.668
  477.500   38.735    0.269    0.347   39.508
  477.750   40.316    0.262    0.348   37.715
  478.000   34.783    0.258    0.344   45.483
  478.250   29.249    0.256    0.345   56.837
  478.500   23.715    0.250    0.356   68.788
  478.750   21.344    0.247    0.374   77.154
  479.000   20.553    0.257    0.408   86.118
  479.250   20.553    0.262    0.437   84.922
  479.500   21.344    0.261    0.437   83.128
  479.750   23.715    0.257    0.438   85.518
  480.000   25.296    0.250    0.428   86.712
  480.250   24.506    0.242    0.420   84.918
  480.500   16.205    0.231    0.412   87.308
  480.750   15.097    0.228    0.407   92.686
  481.000   13.910    0.225    0.404   96.271
  481.250   12.723    0.222    0.402   98.063
  481.500   11.694    0.219    0.417   99.257
  481.750   10.744    0.217    0.423  102.245
  482.000   10.190    0.230    0.426  105.830
  482.250    9.240    0.229    0.430  107.622
  482.500    8.843    0.217    0.434  108.816
  482.750    8.447    0.222    0.447  110.609
  483.000    8.208    0.229    0.457  113.596
  483.250    8.128    0.220    0.464  114.790
  483.500    8.127    0.216    0.450  111.802
  483.750    8.442    0.212    0.441  104.630
  484.000    8.915    0.218    0.432  108.214
  484.250    9.546    0.218    0.420  110.604
  484.500   10.414    0.218    0.408  108.213
  484.750   11.599    0.232    0.399   91.479
  485.000   13.416    0.249    0.388   78.929
  485.250   16.023    0.261    0.384   66.976
  485.500   17.840    0.256    0.388   62.792
  485.750   19.973    0.255    0.399   72.950
  486.000   20.604    0.251    0.410   78.926
  486.250   20.761    0.245    0.416   86.096
  486.500   20.364    0.236    0.421   90.279
  486.750   17.201    0.224    0.420   93.864
  487.000   15.303    0.216    0.412   95.656
  487.250   14.274    0.206    0.408   95.058
  487.500   13.719    0.219    0.397   89.678
  487.750   13.244    0.234    0.384   84.299
  488.000   13.163    0.237    0.375   83.701
  488.250   13.557    0.230    0.369   82.505
  488.500   14.109    0.230    0.372   79.516
  488.750   14.503    0.230    0.382   80.113
  489.000   14.818    0.232    0.387   83.698
  489.250   14.975    0.239    0.391   84.892
  489.500   15.053    0.237    0.385   86.685
  489.750   14.893    0.235    0.377   88.477
  490.000   14.655    0.244    0.372   90.866
  490.250   14.575    0.245    0.367   89.671
  490.500   15.206    0.243    0.362   81.900
  490.750   16.785    0.242    0.361   74.729
  491.000   18.998    0.244    0.366   65.764
  491.250   20.498    0.238    0.380   71.141
  491.500   20.734    0.231    0.393   74.129
  491.750   20.180    0.225    0.398   77.116
  492.000   18.597    0.223    0.409   77.713
  492.250   17.569    0.215    0.422   75.322
  492.500   15.670    0.200    0.432   81.895
  492.750   13.218    0.183    0.458   91.456
  493.000   10.292    0.170    0.470   96.236
  493.250    8.789    0.165    0.485  104.004
  493.500    7.602    0.162    0.490  108.187
  493.750    6.652    0.164    0.496  106.991
  494.000    5.939    0.179    0.499  107.588
  494.250    5.147    0.198    0.490  109.977
  494.500    4.909    0.219    0.476  110.574
  494.750    5.065    0.237    0.466  107.586
  495.000    5.539    0.264    0.452   85.473
  495.250    5.775    0.283    0.437   61.568
  495.500    5.141    0.292    0.430   57.384
  495.750   25.294    0.298    0.435   57.981
  496.000   36.312    0.302    0.433   59.773
  496.250   40.218    0.296    0.431   60.370
  496.500   40.973    0.292    0.427   60.369
  496.750   42.497    0.282    0.422   59.771
  497.000   43.256    0.279    0.419   59.770
  497.250   43.991    0.276    0.419   59.172
  497.500   44.740    0.273    0.419   59.769
  497.750   46.283    0.270    0.418   60.365
  498.000   49.403    0.268    0.418   60.365
  498.250   52.525    0.266    0.416   58.571
  498.500   58.803    0.248    0.412   52.594
  498.750   63.504    0.240    0.407   48.410
  499.000   66.627    0.247    0.407   46.617
  499.250   64.210    0.248    0.412   48.409
  499.500   52.312    0.261    0.400   51.397
  499.750   40.416    0.277    0.386   54.981
  500.000    9.682    0.321    0.381   61.417
  500.250    7.300    0.325    0.383   62.019
  500.500    6.109    0.326    0.384   63.803
  500.750    5.314    0.323    0.384   65.582
  501.000    4.917    0.319    0.381   61.458
  501.250    4.519    0.309    0.384   60.882
  501.500    4.359    0.301    0.386   60.887
  501.750    4.200    0.295    0.386   66.214
  502.000    3.961    0.296    0.394   70.948
  502.250    3.881    0.303    0.408   73.911
  502.500    3.562    0.297    0.402   67.424
  502.750    3.402    0.290    0.399   60.942
  503.000    3.322    0.290    0.406   57.995
  503.250    3.322    0.279    0.412   54.461
  503.500    3.400    0.254    0.413   54.471
  503.750    3.558    0.237    0.411   63.933
  504.000    3.954    0.225    0.411   71.619
  504.250    4.588    0.218    0.406   81.667
  504.500    5.380    0.211    0.395   90.534
  504.750    6.332    0.207    0.389   88.775
  505.000    7.601    0.205    0.382   84.651
  505.250    8.791    0.208    0.376   84.070
  505.500   10.377    0.227    0.370   86.441
  505.750   11.170    0.245    0.363   91.177
  506.000   11.803    0.255    0.364   81.148
  506.250   12.200    0.265    0.375   71.118
  506.500   12.675    0.265    0.382   68.175
  506.750   12.912    0.257    0.388   65.825
  507.000   11.879    0.251    0.383   62.880
  507.250    9.815    0.247    0.383   57.574
  507.500    8.306    0.231    0.382   58.770
  507.750    7.353    0.222    0.378   61.728
  508.000    6.479    0.215    0.377   64.693
  508.250    5.923    0.218    0.378   69.427
  508.500    5.684    0.203    0.393   86.561
  508.750    5.603    0.193    0.423  101.335
  509.000    5.840    0.172    0.453  111.975
  509.250    6.236    0.152    0.436  122.024
  509.500    6.394    0.145    0.419  111.406
  509.750    6.473    0.155    0.405  103.739
  510.000    6.948    0.167    0.390  101.980
  510.250    7.185    0.169    0.390  100.217
  510.500    7.343    0.175    0.401   97.863
  510.750    7.659    0.174    0.399   94.921
  511.000    7.738    0.166    0.397   93.748
  511.250    7.817    0.147    0.399   97.303
  511.500    7.816    0.137    0.400   99.676
  511.750    8.053    0.143    0.400   96.731
  512.000    8.131    0.149    0.400   91.428
  512.250    8.448    0.150    0.399   88.487
