~VERSION INFORMATION
 VERS.                 2.0:   CWLS LOG ASCII STANDARD -VERSION 2.0
 WRAP.                  NO:   ONE LINE PER DEPTH STEP
~WELL INFORMATION BLOCK
#MNEM.UNIT           DATA                    DESCRIPTION OF MNEMONIC
#---------    -------------------            -------------------------------
# Generated from Intellog Unique Number	CS_67_68/WELL/785
WELL.         CANADIAN HOMESTEAD OILS        : Well_name    - WELL
LOC .         00/07-36-068-10W4/0            : Location     - LOCATION
UWI .         00/07-36-068-10W4/0            : Uwi          - UNIQUE WELL ID
ENTR.         SP                             : Entered      - ENTERED BY
SRVC.         SCHLUMBERGER                   : Scn          - SERVICE COMPANY
STRT.M        445                            : top_depth    - START DEPTH
STOP.M        665                            : bot_depth    - STOP DEPTH
STEP.M        0.25                           : increment    - STEP LENGTH
 NULL. -999.2500:NULL Value
~CURVE INFORMATION BLOCK
#MNEM UNIT       ERCB CURVE CODE    CURVE DESCRIPTION
#-----------   ------------------   ----------------------------------
DEPT.M        00 001 00 00         : DEPTH        - DEPTH
ILD .OHMM     00 120 00 00         : RESD         - DEEP RESISTIVITY (DIL)
DPHI.V/V      00 890 00 00         : PHID         - DENSITY POROSITY (LIMESTONE)
NPHI.V/V      00 330 00 00         : PHIN         - NEUTRON POROSITY (LIMESTONE)
GR  .API      00 310 00 00         : GR           - GAMMA RAY
~PARAMETER INFORMATION
#MNEM.UNIT           DATA             DESCRIPTION OF MNEMONIC
#---------         -----------     ------------------------------
GL  .M        768.6                : gl           - GROUND LEVEL ELEVATION
EREF.M        761.69               : kb           - ELEVATION OF DEPTH REFERENCE
DATM.M        768.6                : datum        - DATUM ELEVATION
TDD .M        667                  : tdd          - TOTAL DEPTH DRILLER
RUN .         ONE                  : Run          - RUN NUMBER
ENG .         BILL                 : Engineer     - RECORDING ENGINEER
WIT .         JIM                  : Witness      - WITNESSED BY
MUD .         GEL                  : Mud_type     - MUD TYPE
MATR.         LIMESTONE            : Logunit      - NEUTRON MATRIX
TMAX.C        25                   : BHT          - MAXIMUM RECORDED TEMPERATURE
BHTD.M        667                  : BHTDEP       - MAXIMUM RECORDED TEMPERATURE
MATR.         1                    : LOGUNIT      - NEUTRON MATRIX
RMT .C        25                   : MDTP         - TEMPERATURE OF MUD
NEUT.         1                    : NEUTRON      - NEUTRON TYPE
RESI.         0                    : RESIST       - RESISTIVITY TYPE
RMC .OHMM     0.25                 : RMC          - RESISTIVITY OF MUD CAKE
RMF .OHMM     0.25                 : RMF          - RESISTIVITY OF MUD FILTRATE
SUFT.C        15                   : SUFT         - SURFACE TEMPERATURE
~A  DEPTH     RESD     PHID     PHIN       GR
# ...
  575.500    2.481    0.279    0.522   87.584
  575.750    2.628    0.270    0.507   86.376
  576.000    2.806    0.283    0.498   84.557
  576.250    3.068    0.277    0.496   82.556
  576.500    3.324    0.254    0.489   80.251
  576.750    3.602    0.252    0.481   78.250
  577.000    3.831    0.242    0.474   76.433
  577.250    3.904    0.228    0.482   75.284
  577.500    3.927    0.208    0.471   74.928
  577.750    3.899    0.199    0.466   77.558
  578.000    3.893    0.214    0.477   80.311
  578.250    3.909    0.226    0.482   81.661
  578.500    3.969    0.233    0.477   81.244
  578.750    4.159    0.227    0.467   79.365
  579.000    4.464    0.205    0.457   77.425
  579.250    4.739    0.182    0.444   75.242
  579.500    4.920    0.169    0.433   74.397
  579.750    4.949    0.196    0.426   76.660
  580.000    4.887    0.212    0.434   80.753
  580.250    4.763    0.224    0.452   82.895
  580.500    4.565    0.228    0.458   80.530
  580.750    4.516    0.221    0.455   79.137
  581.000    4.459    0.215    0.452   78.174
  581.250    4.444    0.225    0.449   77.938
  581.500    4.421    0.235    0.445   78.620
  581.750    4.431    0.234    0.440   79.542
  582.000    4.449    0.228    0.434   81.258
  582.250    4.458    0.223    0.429   82.792
  582.500    4.460    0.220    0.438   83.409
  582.750    4.486    0.219    0.437   82.629
  583.000    4.521    0.219    0.438   81.479
  583.250    4.590    0.212    0.448   75.822
  583.500    4.927    0.195    0.444   66.083
  583.750    5.449    0.137    0.354   59.695
  584.000    6.026    0.126    0.302   53.917
  584.250    6.384    0.063    0.266   55.268
  584.500    6.879    0.070    0.364   63.807
  584.750    7.194    0.109    0.435   72.348
  585.000    6.986    0.161    0.464   77.780
  585.250    6.046    0.210    0.481   82.907
  585.500    5.194    0.237    0.484   84.684
  585.750    4.691    0.241    0.466   84.328
  586.000    4.447    0.234    0.449   84.035
  586.250    4.271    0.243    0.455   83.923
  586.500    4.155    0.250    0.464   83.809
  586.750    4.125    0.238    0.460   83.822
  587.000    4.073    0.235    0.457   84.073
  587.250    4.060    0.241    0.456   84.386
  587.500    4.061    0.243    0.458   84.701
  587.750    4.077    0.244    0.472   84.955
  588.000    4.094    0.256    0.480   82.893
  588.250    4.073    0.267    0.487   83.635
  588.500    4.059    0.263    0.475   87.055
  588.750    4.037    0.250    0.463   91.087
  589.000    4.016    0.241    0.470   93.228
  589.250    4.010    0.246    0.474   87.633
  589.500    3.989    0.226    0.453   80.453
  589.750    3.968    0.197    0.437   75.650
  590.000    3.918    0.173    0.424   72.308
  590.250    3.819    0.178    0.436   76.156
  590.500    3.715    0.202    0.457   79.823
  590.750    3.615    0.234    0.467   80.868
  591.000    3.569    0.258    0.459   80.999
  591.250    3.550    0.266    0.453   80.338
  591.500    3.532    0.251    0.450   79.190
  591.750    3.527    0.236    0.454   76.824
  592.000    3.528    0.230    0.462   73.177
  592.250    3.516    0.224    0.447   69.897
  592.500    3.485    0.194    0.424   66.984
  592.750    3.460    0.168    0.408   71.379
  593.000    3.353    0.181    0.411   76.080
  593.250    3.057    0.235    0.487   79.076
  593.500    2.736    0.259    0.517   79.999
  593.750    2.439    0.263    0.544   78.914
  594.000    2.167    0.311    0.551   78.374
  594.250    2.031    0.294    0.539   80.518
  594.500    1.958    0.283    0.545   82.902
  594.750    1.955    0.273    0.560   85.105
  595.000    1.977    0.265    0.566   87.309
  595.250    2.004    0.263    0.547   88.111
  595.500    2.038    0.262    0.533   87.330
  595.750    2.062    0.253    0.523   86.548
  596.000    2.089    0.252    0.532   86.190
  596.250    2.129    0.258    0.542   85.652
  596.500    2.202    0.253    0.555   83.529
  596.750    2.325    0.252    0.541   79.212
  597.000    2.585    0.258    0.475   75.567
  597.250    2.837    0.259    0.458   73.626
  597.500    3.185    0.238    0.444   74.915
  597.750    3.554    0.250    0.433   75.474
  598.000    3.967    0.192    0.442   75.180
  598.250    4.338    0.152    0.452   74.214
  598.500    4.718    0.171    0.399   74.467
  598.750    5.083    0.133    0.376   76.853
  599.000    5.436    0.114    0.368   80.217
  599.250    5.144    0.156    0.406   82.114
  599.500    4.663    0.187    0.424   84.073
  599.750    3.867    0.206    0.438   85.848
  600.000    3.279    0.208    0.449   87.809
  600.250    2.907    0.217    0.460   89.404
  600.500    2.626    0.211    0.502   90.570
  600.750    2.508    0.220    0.532   90.457
  601.000    2.422    0.208    0.545   89.248
  601.250    2.404    0.218    0.534   90.722
  601.500    2.410    0.235    0.527   91.584
  601.750    2.411    0.248    0.540   92.690
  602.000    2.411    0.234    0.526   95.502
  602.250    2.408    0.224    0.508   97.340
  602.500    2.404    0.217    0.499   95.522
  602.750    2.378    0.234    0.495   94.679
  603.000    2.361    0.242    0.510   94.871
  603.250    2.345    0.245    0.524   95.978
  603.500    2.354    0.244    0.543   96.901
  603.750    2.373    0.240    0.555   97.520
  604.000    2.395    0.233    0.566   97.958
  604.250    2.441    0.231    0.556   97.783
  604.500    2.478    0.218    0.531   95.174
  604.750    2.549    0.224    0.507   90.370
  605.000    2.716    0.239    0.495   83.677
  605.250    3.187    0.229    0.487   76.375
  605.500    3.685    0.219    0.433   71.876
  605.750    4.214    0.210    0.412   69.998
  606.000    4.574    0.199    0.409   71.530
  606.250    4.974    0.188    0.432   69.224
  606.500    5.271    0.194    0.426   62.289
  606.750    5.502    0.153    0.389   58.033
  607.000    5.917    0.121    0.360   56.398
  607.250    6.201    0.132    0.340   57.260
  607.500    6.168    0.167    0.384   59.160
  607.750    5.509    0.207    0.407   59.412
  608.000    5.126    0.236    0.402   59.179
  608.250    5.062    0.239    0.388   58.945
  608.500    5.139    0.175    0.367   60.112
  608.750    5.227    0.095    0.343   63.840
  609.000    5.143    0.139    0.382   67.443
  609.250    4.948    0.186    0.427   75.374
  609.500    4.570    0.214    0.464   81.842
  609.750    4.189    0.226    0.490   86.299
  610.000    4.083    0.229    0.518   88.198
  610.250    4.440    0.250    0.541   83.455
  610.500    4.775    0.247    0.424   74.511
  610.750    5.300    0.230    0.393   69.400
  611.000    5.605    0.219    0.379   62.586
  611.250    5.659    0.234    0.368   55.588
  611.500    5.169    0.265    0.359   49.018
  611.750    4.566    0.294    0.358   43.239
  612.000    3.930    0.296    0.362   37.887
  612.250    3.452    0.304    0.362   52.216
  612.500    3.165    0.306    0.360   64.167
  612.750    2.901    0.307    0.357   77.033
  613.000    2.730    0.302    0.356   85.573
  613.250    2.666    0.306    0.355   69.193
  613.500    2.637    0.311    0.355   57.078
  613.750    2.599    0.301    0.355   47.339
  614.000    2.576    0.302    0.355   40.890
  614.250    2.587    0.312    0.354   45.835
  614.500    2.597    0.320    0.353   52.730
  614.750    2.656    0.311    0.355   61.696
  615.000    2.717    0.298    0.368   72.124
  615.250    2.841    0.286    0.385   81.213
  615.500    3.084    0.267    0.402   87.498
  615.750    3.354    0.240    0.420   93.418
  616.000    3.814    0.226    0.422   97.997
  616.250    4.079    0.238    0.417  100.931
  616.500    4.386    0.238    0.438   96.737
  616.750    4.554    0.222    0.453   89.192
  617.000    4.658    0.231    0.467   82.012
  617.250    4.764    0.200    0.401   75.076
  617.500    4.937    0.117    0.364   72.953
  617.750    5.193    0.086    0.346   80.518
  618.000    5.421    0.119    0.373   86.865
  618.250    5.617    0.176    0.390   90.469
  618.500    5.661    0.204    0.411   80.549
  618.750    5.684    0.230    0.390   73.246
