~VERSION INFORMATION
 VERS.                 2.0:   CWLS LOG ASCII STANDARD -VERSION 2.0
 WRAP.                  NO:   ONE LINE PER DEPTH STEP
~WELL INFORMATION BLOCK
#MNEM.UNIT           DATA                    DESCRIPTION OF MNEMONIC
#---------    -------------------            -------------------------------
# Generated from Intellog Unique Number	CW_79_81/WELL/2461
WELL.         07-23-081-22W4                 : Well_name    - WELL
LOC .         00/07-23-081-22W4/0            : Location     - LOCATION
UWI .         00/07-23-081-22W4/0            : Uwi          - UNIQUE WELL ID
ENTR.         MAX                            : Entered      - ENTERED BY
SRVC.         SCHLUMBERGER                   : Scn          - SERVICE COMPANY
STRT.M        225                            : top_depth    - START DEPTH
STOP.M        439.75                         : bot_depth    - STOP DEPTH
STEP.M        0.25                           : increment    - STEP LENGTH
 NULL. -999.2500:NULL Value
~CURVE INFORMATION BLOCK
#MNEM UNIT       ERCB CURVE CODE    CURVE DESCRIPTION
#-----------   ------------------   ----------------------------------
DEPT.M        00 001 00 00         : DEPTH        - DEPTH
ILD .OHMM     00 120 00 00         : RESD         - DEEP RESISTIVITY (DIL)
NPHI.V/V      00 330 00 00         : PHIN         - NEUTRON POROSITY (SANDSTONE)
DPHI.V/V      00 890 00 00         : PHID         - DENSITY POROSITY (SANDSTONE)
GR  .API      00 310 00 00         : GR           - GAMMA RAY
CALI.MM       00 280 01 00         : CAL          - CALIPER
~PARAMETER INFORMATION
#MNEM.UNIT           DATA             DESCRIPTION OF MNEMONIC
#---------         -----------     ------------------------------
GL  .M        610.7                : gl           - GROUND LEVEL ELEVATION
EREF.M        614                  : kb           - ELEVATION OF DEPTH REFERENCE
DATM.M        610.7                : datum        - DATUM ELEVATION
TDD .M        450                  : tdd          - TOTAL DEPTH DRILLER
RUN .         ONE                  : Run          - RUN NUMBER
ENG .         BILL                 : Engineer     - RECORDING ENGINEER
WIT .         JIM                  : Witness      - WITNESSED BY
MUD .         GEL                  : Mud_type     - MUD TYPE
MATR.         SANDSTONE            : Logunit      - NEUTRON MATRIX
TMAX.C        30                   : BHT          - MAXIMUM RECORDED TEMPERATURE
BHTD.M        450                  : BHTDEP       - MAXIMUM RECORDED TEMPERATURE
MATR.         1                    : LOGUNIT      - NEUTRON MATRIX
RMT .C        21                   : MDTP         - TEMPERATURE OF MUD
NEUT.         1                    : NEUTRON      - NEUTRON TYPE
RESI.         0                    : RESIST       - RESISTIVITY TYPE
RMC .OHMM     4.03                 : RMC          - RESISTIVITY OF MUD CAKE
RMF .OHMM     4.42                 : RMF          - RESISTIVITY OF MUD FILTRATE
SUFT.C        -20                  : SUFT         - SURFACE TEMPERATURE
~A  DEPTH     RESD     PHIN     PHID       GR      CAL
# ...
  334.500    8.393    0.499    0.284   77.575  211.990
  334.750    8.331    0.487    0.280   77.578  212.391
  335.000    8.223    0.485    0.280   78.297  212.794
  335.250    8.132    0.491    0.281   79.494  213.396
  335.500    8.056    0.502    0.280   80.631  214.196
  335.750    7.901    0.505    0.280   81.222  215.162
  336.000    7.721    0.499    0.277   82.966  215.996
  336.250    7.496    0.486    0.270   86.790  216.797
  336.500    6.996    0.480    0.269   87.390  217.597
  336.750    6.776    0.476    0.267   87.273  218.398
  337.000    6.787    0.475    0.263   87.097  219.198
  337.250    6.523    0.492    0.260   85.468  220.248
  337.500    6.423    0.515    0.253   84.474  221.497
  337.750    6.612    0.512    0.257   81.850  221.899
  338.000    6.992    0.511    0.268   80.836  222.301
  338.250    7.258    0.506    0.271   81.795  222.703
  338.500    7.297    0.497    0.266   84.067  223.006
  338.750    7.296    0.491    0.256   85.980  223.177
  339.000    7.294    0.499    0.244   85.983  224.011
  339.250    7.347    0.500    0.240   84.552  225.210
  339.500    7.400    0.490    0.239   83.659  225.811
  339.750    7.480    0.478    0.239   84.139  226.213
  340.000    7.576    0.469    0.241   85.515  226.616
  340.250    7.618    0.465    0.252   85.946  227.185
  340.500    7.559    0.457    0.256   85.700  228.018
  340.750    7.503    0.478    0.256   86.419  228.819
  341.000    7.447    0.494    0.258   87.138  229.619
  341.250    7.364    0.495    0.261   88.335  230.021
  341.500    7.283    0.483    0.264   89.771  230.026
  341.750    7.303    0.468    0.264   90.640  229.948
  342.000    7.414    0.462    0.258   91.389  229.538
  342.250    7.523    0.469    0.258   90.436  229.143
  342.500    7.842    0.480    0.262   89.483  228.749
  342.750    8.369    0.492    0.263   89.127  227.957
  343.000    9.074    0.501    0.259   89.070  226.468
  343.250   10.043    0.496    0.251   88.416  223.670
  343.500   11.186    0.483    0.239   89.911  221.599
  343.750   12.114    0.477    0.261   91.347  219.614
  344.000   12.436    0.470    0.259   88.662  218.523
  344.250   12.342    0.468    0.248   85.081  217.731
  344.500   12.073    0.467    0.237   82.277  217.038
  344.750   11.844    0.450    0.232   80.121  216.561
  345.000   12.025    0.432    0.227   78.879  216.151
  345.250   12.652    0.424    0.186   76.253  215.359
  345.500   13.959    0.414    0.148   71.299  214.567
  345.750   17.012    0.392    0.102   65.448  213.974
  346.000   22.109    0.337    0.059   60.255  213.579
  346.250   23.080    0.218    0.065   58.535  213.270
  346.500   21.394    0.263    0.097   64.262  213.688
  346.750   17.604    0.339    0.182   72.386  213.693
  347.000   14.952    0.408    0.213   77.824  213.697
  347.250   13.077    0.441    0.213   81.410  213.900
  347.500   11.733    0.437    0.208   84.039  214.302
  347.750   10.654    0.427    0.228   86.720  214.706
  348.000   10.178    0.425    0.239   86.972  214.710
  348.250    9.881    0.420    0.249   88.169  214.715
  348.500    9.647    0.416    0.250   87.932  214.719
  348.750    9.576    0.424    0.246   86.382  214.722
  349.000    9.662    0.441    0.236   84.831  214.826
  349.250    9.877    0.452    0.224   85.691  215.312
  349.500   10.261    0.455    0.228   85.196  215.731
  349.750   10.874    0.443    0.228   83.765  216.133
  350.000   13.799    0.410    0.207   77.281  212.965
  350.250   15.940    0.386    0.209   72.943  210.559
  350.500   14.411    0.390    0.237   73.146  210.306
  350.750   11.908    0.437    0.250   76.378  210.806
  351.000   10.621    0.458    0.234   80.805  211.579
  351.250   10.077    0.466    0.248   82.433  211.522
  351.500    9.780    0.473    0.258   83.715  211.164
  351.750    9.631    0.473    0.257   83.448  210.710
  352.000    9.571    0.462    0.249   82.283  210.458
  352.250    9.535    0.441    0.252   83.112  210.948
  352.500    9.382    0.440    0.258   85.063  211.727
  352.750    9.171    0.431    0.243   85.501  213.648
  353.000    8.864    0.440    0.240   86.481  215.284
  353.250    8.570    0.452    0.242   88.113  217.018
  353.500    8.316    0.461    0.240   89.684  218.842
  353.750    8.007    0.466    0.231   89.948  220.599
  354.000    7.702    0.466    0.216   91.403  221.792
  354.250    7.362    0.473    0.221   91.845  222.534
  354.500    7.077    0.478    0.221   92.287  223.569
  354.750    6.920    0.483    0.222   92.610  225.099
  355.000    6.877    0.490    0.226   92.756  226.928
  355.250    6.903    0.500    0.235   92.966  228.039
  355.500    7.058    0.496    0.248   94.170  225.914
  355.750    7.698    0.486    0.267   88.900  223.075
  356.000    8.711    0.475    0.271   87.916  220.830
  356.250    9.644    0.471    0.266   88.237  218.589
  356.500   10.207    0.476    0.259   87.723  216.550
  356.750   10.887    0.488    0.254   84.126  215.695
  357.000   11.663    0.498    0.253   79.384  215.642
  357.250   12.994    0.506    0.250   76.490  215.189
  357.500   14.491    0.499    0.234   75.387  214.727
  357.750   16.338    0.483    0.203   74.875  214.075
  358.000   18.601    0.448    0.162   74.064  213.335
  358.250   20.911    0.364    0.114   72.414  212.632
  358.500   20.739    0.321    0.086   72.630  211.328
  358.750   19.824    0.298    0.084   72.593  210.478
  359.000   18.104    0.276    0.085   69.702  210.520
  359.250   15.405    0.265    0.115   68.836  210.863
  359.500   12.269    0.289    0.166   71.958  211.208
  359.750    9.124    0.396    0.204   78.997  211.872
  360.000    8.077    0.443    0.205   83.425  213.466
  360.250    7.895    0.448    0.205   82.445  213.007
  360.500    7.976    0.440    0.206   81.102  211.961
  360.750    8.295    0.431    0.204   80.233  211.114
  361.000    8.840    0.427    0.199   79.783  210.760
  361.250    9.876    0.418    0.190   78.942  210.858
  361.500   11.622    0.407    0.176   79.650  211.631
  361.750   13.420    0.384    0.130   76.998  211.166
  362.000   14.651    0.362    0.137   76.310  210.714
  362.250   14.640    0.358    0.162   77.586  210.467
  362.500   13.391    0.376    0.190   80.292  210.320
  362.750   11.509    0.409    0.232   83.944  209.937
  363.000   11.155    0.433    0.249   86.883  210.291
  363.250   11.395    0.439    0.235   86.370  210.240
  363.500   11.961    0.438    0.226   85.864  210.771
  363.750   12.812    0.434    0.221   85.357  211.307
  364.000   13.744    0.430    0.221   84.787  211.752
  364.250   14.229    0.426    0.225   84.079  212.647
  364.500   14.109    0.428    0.231   84.295  213.414
  364.750   13.998    0.423    0.241   86.640  213.358
  365.000   12.974    0.428    0.260   87.737  210.326
  365.250   11.874    0.438    0.265   86.868  208.087
  365.500   11.097    0.447    0.253   85.166  207.934
  365.750   10.751    0.448    0.232   86.003  209.001
  366.000   10.661    0.458    0.222   87.958  210.595
  366.250   10.654    0.460    0.211   88.872  211.325
  366.500   10.706    0.468    0.206   89.789  211.470
  366.750   10.778    0.473    0.204   91.068  211.419
  367.000   10.850    0.469    0.206   92.525  211.366
  367.250   10.905    0.449    0.219   93.087  211.298
  367.500   10.814    0.440    0.226   91.319  211.239
  367.750   10.647    0.445    0.231   89.374  212.366
  368.000   10.543    0.441    0.223   90.474  213.502
  368.250   10.498    0.437    0.218   92.822  214.638
  368.500   10.471    0.436    0.220   95.107  215.672
  368.750   10.370    0.434    0.224   96.698  216.481
  369.000   10.285    0.444    0.223   97.651  216.841
  369.250   10.127    0.453    0.223   98.096  216.790
  369.500    9.972    0.447    0.219   97.287  217.321
  369.750    9.783    0.438    0.219   96.777  218.454
  370.000    9.580    0.435    0.223   97.341  220.090
  370.250    9.419    0.440    0.220   99.317  222.084
  370.500    9.341    0.467    0.217  101.021  222.450
  370.750    9.471    0.468    0.220   99.797  223.968
