~VERSION INFORMATION
 VERS.                 2.0:   CWLS LOG ASCII STANDARD -VERSION 2.0
 WRAP.                  NO:   ONE LINE PER DEPTH STEP
~WELL INFORMATION BLOCK
#MNEM.UNIT           DATA                    DESCRIPTION OF MNEMONIC
#---------    -------------------            -------------------------------
# Generated from Intellog Unique Number	CS_71_72/WELL/783
WELL.         BRENDA IPIATIK                 : Well_name    - WELL
LOC .         00/06-30-071-09W4/0            : Location     - LOCATION
UWI .         00/06-30-071-09W4/0            : Uwi          - UNIQUE WELL ID
ENTR.         SP                             : Entered      - ENTERED BY
SRVC.         SCHLUMBERGER                   : Scn          - SERVICE COMPANY
STRT.M        320                            : top_depth    - START DEPTH
STOP.M        525                            : bot_depth    - STOP DEPTH
STEP.M        0.25                           : increment    - STEP LENGTH
 NULL. -999.2500:NULL Value
~CURVE INFORMATION BLOCK
#MNEM UNIT       ERCB CURVE CODE    CURVE DESCRIPTION
#-----------   ------------------   ----------------------------------
DEPT.M        00 001 00 00         : DEPTH        - DEPTH
ILD .OHMM     00 120 00 00         : RESD         - DEEP RESISTIVITY (DIL)
DPHI.V/V      00 890 00 00         : PHID         - DENSITY POROSITY (LIMESTONE)
NPHI.V/V      00 330 00 00         : PHIN         - NEUTRON POROSITY (LIMESTONE)
GR  .API      00 310 00 00         : GR           - GAMMA RAY
~PARAMETER INFORMATION
#MNEM.UNIT           DATA             DESCRIPTION OF MNEMONIC
#---------         -----------     ------------------------------
GL  .M        678.5                : gl           - GROUND LEVEL ELEVATION
EREF.M        6810.4               : kb           - ELEVATION OF DEPTH REFERENCE
DATM.M        678.5                : datum        - DATUM ELEVATION
TDD .M        539                  : tdd          - TOTAL DEPTH DRILLER
RUN .         ONE                  : Run          - RUN NUMBER
ENG .         BILL                 : Engineer     - RECORDING ENGINEER
WIT .         JIM                  : Witness      - WITNESSED BY
MUD .         GEL                  : Mud_type     - MUD TYPE
MATR.         LIMESTONE            : Logunit      - NEUTRON MATRIX
TMAX.C        22                   : BHT          - MAXIMUM RECORDED TEMPERATURE
BHTD.M        539                  : BHTDEP       - MAXIMUM RECORDED TEMPERATURE
MATR.         1                    : LOGUNIT      - NEUTRON MATRIX
RMT .C        25                   : MDTP         - TEMPERATURE OF MUD
NEUT.         1                    : NEUTRON      - NEUTRON TYPE
RESI.         0                    : RESIST       - RESISTIVITY TYPE
RMC .OHMM     0.25                 : RMC          - RESISTIVITY OF MUD CAKE
RMF .OHMM     0.25                 : RMF          - RESISTIVITY OF MUD FILTRATE
SUFT.C        15                   : SUFT         - SURFACE TEMPERATURE
~A  DEPTH     RESD     PHID     PHIN       GR
  320.000    2.660    0.241    0.529  104.886
  320.250    2.553    0.243    0.525  106.053
  320.500    2.506    0.239    0.538  105.512
  320.750    2.521    0.210    0.550  103.872
  321.000    2.570    0.214    0.559   99.974
  321.250    2.614    0.224    0.552   98.212
  321.500    2.685    0.215    0.537   98.099
  321.750    2.736    0.234    0.526   98.900
  322.000    2.794    0.232    0.520  101.903
  322.250    2.886    0.228    0.522  103.252
  322.500    2.947    0.228    0.519  104.541
  322.750    2.892    0.219    0.514  105.222
  323.000    2.834    0.215    0.529  105.046
  323.250    2.782    0.216    0.533  105.849
  323.500    2.767    0.209    0.546  107.201
  323.750    2.799    0.222    0.549  107.941
  324.000    2.847    0.226    0.539  108.499
  324.250    2.935    0.232    0.522  106.860
  324.500    3.014    0.181    0.508  108.333
  324.750    3.101    0.154    0.508  108.341
  325.000    3.227    0.119    0.517  107.861
  325.250    3.283    0.205    0.522  104.878
  325.500    3.290    0.204    0.514  103.177
  325.750    3.260    0.202    0.500  106.360
  326.000    3.379    0.206    0.490  108.200
  326.250    3.583    0.189    0.481  109.185
  326.500    3.842    0.172    0.486  106.203
  326.750    4.006    0.161    0.487  104.867
  327.000    4.168    0.154    0.479  103.776
  327.250    4.297    0.125    0.460   99.023
  327.500    4.346    0.128    0.449   99.460
  327.750    4.323    0.177    0.464  105.024
  328.000    4.164    0.201    0.478  109.245
  328.250    3.914    0.209    0.475  111.878
  328.500    3.618    0.210    0.456  112.986
  328.750    3.369    0.216    0.465  112.138
  329.000    3.179    0.220    0.489  110.682
  329.250    3.132    0.222    0.513  107.394
  329.500    3.259    0.224    0.500  103.800
  329.750    3.436    0.216    0.488  104.968
  330.000    3.657    0.207    0.490  107.113
  330.250    3.849    0.205    0.492  104.740
  330.500    3.894    0.204    0.503  108.291
  330.750    3.808    0.210    0.502  110.069
  331.000    3.654    0.219    0.509  110.565
  331.250    3.587    0.212    0.520  109.719
  331.500    3.670    0.209    0.515  106.675
  331.750    3.740    0.205    0.496  108.150
  332.000    3.791    0.194    0.511  109.256
  332.250    3.842    0.188    0.529  109.387
  332.500    3.998    0.182    0.501  104.267
  332.750    4.352    0.149    0.495   95.546
  333.000    5.166    0.106    0.489   88.227
  333.250    7.643    0.080    0.373   80.116
  333.500   10.507    0.219    0.340   73.287
  333.750   13.171    0.252    0.338   69.327
  334.000   14.973    0.279    0.327   69.702
  334.250   15.377    0.253    0.335   68.979
  334.500   14.373    0.204    0.349   67.888
  334.750   13.309    0.167    0.357   69.788
  335.000   12.393    0.203    0.347   71.933
  335.250   11.760    0.237    0.359   74.262
  335.500   11.587    0.250    0.359   75.552
  335.750   11.877    0.255    0.348   76.659
  336.000   12.546    0.249    0.345   77.279
  336.250   13.505    0.263    0.353   75.699
  336.500   15.236    0.285    0.349   70.702
  336.750   17.288    0.301    0.333   64.178
  337.000   19.616    0.319    0.317   57.226
  337.250   22.215    0.351    0.270   51.862
  337.500   25.064    0.363    0.246   47.904
  337.750   28.172    0.369    0.234   44.676
  338.000   29.759    0.381    0.225   41.816
  338.250   29.599    0.392    0.218   39.442
  338.500   27.511    0.356    0.311   37.435
  338.750   24.720    0.335    0.348   35.734
  339.000   22.632    0.327    0.373   34.034
  339.250   20.451    0.324    0.378   33.004
  339.500   18.901    0.323    0.383   32.647
  339.750   17.634    0.311    0.388   32.593
  340.000   16.483    0.306    0.383   33.396
  340.250   15.878    0.303    0.375   35.785
  340.500   15.469    0.302    0.381   38.235
  340.750   15.157    0.303    0.387   41.724
  341.000   15.159    0.299    0.378   41.548
  341.250   15.278    0.292    0.370   40.702
  341.500   15.340    0.286    0.383   40.650
  341.750   15.171    0.281    0.397   44.565
  342.000   14.560    0.275    0.381   52.877
  342.250   13.737    0.273    0.364   67.965
  342.500   12.601    0.220    0.375   82.258
  342.750   11.537    0.184    0.389   94.171
  343.000   10.327    0.221    0.390  100.652
  343.250    8.903    0.215    0.379  104.506
  343.500    7.675    0.186    0.381  109.093
  343.750    6.654    0.169    0.401  113.131
  344.000    6.196    0.165    0.410  114.239
  344.250    5.825    0.159    0.414  112.293
  344.500    5.892    0.153    0.415  109.616
  344.750    6.006    0.169    0.421  108.158
  345.000    6.029    0.180    0.429  109.450
  345.250    5.997    0.169    0.436  108.481
  345.500    5.876    0.167    0.430  107.512
  345.750    5.746    0.172    0.414  109.413
  346.000    5.715    0.172    0.421  110.520
  346.250    5.891    0.159    0.426  111.383
  346.500    6.084    0.168    0.428  110.721
  346.750    6.236    0.173    0.430  109.997
  347.000    6.344    0.166    0.433  111.042
  347.250    6.310    0.179    0.434  110.562
  347.500    6.170    0.178    0.425  108.373
  347.750    5.910    0.170    0.419  109.664
  348.000    5.979    0.167    0.418  111.198
  348.250    6.060    0.161    0.424  112.366
  348.500    6.039    0.166    0.429  112.192
  348.750    6.006    0.154    0.422  111.285
  349.000    5.962    0.164    0.430  110.926
  349.250    5.953    0.183    0.439  110.508
  349.500    6.010    0.186    0.449  109.783
  349.750    6.115    0.164    0.456  109.304
  350.000    6.162    0.171    0.451  109.861
  350.250    6.210    0.163    0.442  111.457
  350.500    6.236    0.158    0.436  112.932
  350.750    6.225    0.171    0.440  113.610
  351.000    6.180    0.180    0.445  111.788
  351.250    6.135    0.189    0.451  108.133
  351.500    6.011    0.167    0.455  105.089
  351.750    5.900    0.180    0.460  105.342
  352.000    5.705    0.178    0.465  106.204
  352.250    5.403    0.166    0.472  107.311
  352.500    5.156    0.158    0.459  107.320
  352.750    5.014    0.169    0.443  105.924
  353.000    4.968    0.183    0.435  104.284
  353.250    5.007    0.199    0.447  102.950
  353.500    5.161    0.223    0.439   94.472
  353.750    5.629    0.245    0.451   77.692
  354.000    6.375    0.266    0.447   57.859
  354.250    7.357    0.290    0.429   46.573
  354.500    9.851    0.314    0.406   38.400
  354.750   12.005    0.326    0.386   33.830
  355.000   13.545    0.325    0.375   33.045
  355.250   14.690    0.303    0.371   34.336
  355.500   14.694    0.284    0.383   37.274
  355.750   13.530    0.274    0.399   41.312
  356.000   12.156    0.259    0.413   45.533
  356.250   10.759    0.244    0.410   49.571
  356.500    9.981    0.273    0.425   53.181
  356.750   10.250    0.305    0.431   52.151
  357.000   11.371    0.305    0.416   42.148
  357.250   12.403    0.300    0.407   36.967
  357.500   13.126    0.292    0.400   38.563
  357.750   13.710    0.286    0.398   40.463
  358.000   14.293    0.297    0.409   41.571
  358.250   14.705    0.321    0.399   38.465
  358.500   15.101    0.318    0.383   40.795
  358.750   15.076    0.307    0.393   44.282
  359.000   13.752    0.283    0.397   49.724
  359.250   11.547    0.258    0.393   55.654
  359.500    9.568    0.241    0.388   62.683
  359.750    7.354    0.188    0.401   69.957
  360.000    5.947    0.181    0.417   80.222
  360.250    5.455    0.193    0.425   89.022
  360.500    5.138    0.206    0.427   94.951
  360.750    5.753    0.213    0.430   95.265
  361.000    6.627    0.213    0.445   77.935
  361.250    7.749    0.236    0.453   68.298
  361.500    9.112    0.275    0.456   59.210
  361.750   11.001    0.297    0.430   51.160
  362.000   12.888    0.315    0.410   43.536
  362.250   14.790    0.328    0.403   38.722
  362.500   16.101    0.320    0.411   39.647
  362.750   16.565    0.314    0.415   40.998
  363.000   16.600    0.303    0.405   42.471
  363.250   16.542    0.301    0.394   42.724
