~VERSION INFORMATION
 VERS.                 2.0:   CWLS LOG ASCII STANDARD -VERSION 2.0
 WRAP.                  NO:   ONE LINE PER DEPTH STEP
~WELL INFORMATION BLOCK
#MNEM.UNIT           DATA                    DESCRIPTION OF MNEMONIC
#---------    -------------------            -------------------------------
# Generated from Intellog Unique Number	CW_79_81/WELL/2449
WELL.         06-01-080-24W4                 : Well_name    - WELL
LOC .         00/06-01-080-24W4/0            : Location     - LOCATION
UWI .         00/06-01-080-24W4/0            : Uwi          - UNIQUE WELL ID
ENTR.         MAX                            : Entered      - ENTERED BY
SRVC.         COMPUTALOG                     : Scn          - SERVICE COMPANY
STRT.M        225                            : top_depth    - START DEPTH
STOP.M        454.75                         : bot_depth    - STOP DEPTH
STEP.M        0.25                           : increment    - STEP LENGTH
 NULL. -999.2500:NULL Value
~CURVE INFORMATION BLOCK
#MNEM UNIT       ERCB CURVE CODE    CURVE DESCRIPTION
#-----------   ------------------   ----------------------------------
DEPT.M        00 001 00 00         : DEPTH        - DEPTH
ILD .OHMM     00 120 00 00         : RESD         - DEEP RESISTIVITY (DIL)
NPHI.V/V      00 330 00 00         : PHIN         - NEUTRON POROSITY (SANDSTONE)
DPHI.V/V      00 890 00 00         : PHID         - DENSITY POROSITY (SANDSTONE)
GR  .API      00 310 00 00         : GR           - GAMMA RAY
CALI.MM       00 280 01 00         : CAL          - CALIPER
~PARAMETER INFORMATION
#MNEM.UNIT           DATA             DESCRIPTION OF MNEMONIC
#---------         -----------     ------------------------------
GL  .M        547.6                : gl           - GROUND LEVEL ELEVATION
EREF.M        552.6                : kb           - ELEVATION OF DEPTH REFERENCE
DATM.M        547.6                : datum        - DATUM ELEVATION
TDD .M        580.4                : tdd          - TOTAL DEPTH DRILLER
RUN .         ONE                  : Run          - RUN NUMBER
ENG .         BILL                 : Engineer     - RECORDING ENGINEER
WIT .         JIM                  : Witness      - WITNESSED BY
MUD .         GEL                  : Mud_type     - MUD TYPE
MATR.         SANDSTONE            : Logunit      - NEUTRON MATRIX
TMAX.C        22                   : BHT          - MAXIMUM RECORDED TEMPERATURE
BHTD.M        580.4                : BHTDEP       - MAXIMUM RECORDED TEMPERATURE
MATR.         1                    : LOGUNIT      - NEUTRON MATRIX
RMT .C        15.6                 : MDTP         - TEMPERATURE OF MUD
NEUT.         1                    : NEUTRON      - NEUTRON TYPE
RESI.         0                    : RESIST       - RESISTIVITY TYPE
RMC .OHMM     6                    : RMC          - RESISTIVITY OF MUD CAKE
RMF .OHMM     6                    : RMF          - RESISTIVITY OF MUD FILTRATE
SUFT.C        -20                  : SUFT         - SURFACE TEMPERATURE
~A  DEPTH     RESD     PHIN     PHID       GR      CAL
# ...
  334.500   25.742    0.206    0.041   60.042  219.064
  334.750   24.283    0.229    0.033   55.020  217.498
  335.000   21.888    0.287    0.053   53.423  216.840
  335.250   18.312    0.339    0.083   54.048  216.682
  335.500   14.818    0.371    0.131   56.113  216.823
  335.750   12.047    0.399    0.231   60.070  217.273
  336.000   10.848    0.430    0.253   64.104  217.311
  336.250    9.934    0.435    0.253   68.697  217.348
  336.500    9.520    0.422    0.254   71.488  217.993
  336.750    9.354    0.402    0.252   73.557  218.639
  337.000    9.325    0.390    0.248   75.325  218.983
  337.250    9.457    0.400    0.242   76.306  219.111
  337.500    9.755    0.401    0.234   75.076  219.567
  337.750    9.976    0.404    0.229   75.342  219.211
  338.000    9.927    0.407    0.220   74.887  218.846
  338.250    9.642    0.408    0.211   73.952  218.885
  338.500    9.182    0.407    0.202   72.895  219.730
  338.750    8.529    0.414    0.200   72.246  222.115
  339.000    8.154    0.427    0.204   72.525  223.836
  339.250    8.040    0.429    0.212   75.675  223.468
  339.500    8.236    0.421    0.217   78.826  222.202
  339.750    8.455    0.412    0.221   80.533  220.842
  340.000    8.506    0.407    0.225   80.135  219.985
  340.250    8.250    0.412    0.229   77.309  220.027
  340.500    7.888    0.422    0.221   75.078  220.069
  340.750    7.721    0.421    0.215   74.626  220.115
  341.000    7.725    0.419    0.213   75.251  220.178
  341.250    7.870    0.416    0.214   76.476  220.017
  341.500    8.151    0.413    0.217   77.641  219.732
  341.750    8.600    0.408    0.223   77.962  219.777
  342.000    8.671    0.409    0.224   78.243  219.820
  342.250    8.487    0.427    0.222   78.987  219.865
  342.500    8.261    0.432    0.220   79.731  221.410
  342.750    8.088    0.426    0.220   80.355  223.856
  343.000    7.989    0.415    0.221   80.561  226.199
  343.250    7.936    0.420    0.222   80.222  227.043
  343.500    7.936    0.440    0.220   81.998  227.090
  343.750    8.002    0.451    0.219   82.742  227.536
  344.000    8.199    0.452    0.217   81.684  227.678
  344.250    8.446    0.443    0.215   80.626  227.715
  344.500    8.732    0.431    0.215   80.530  227.750
  344.750    9.227    0.429    0.221   81.820  227.716
  345.000    9.740    0.433    0.230   83.349  227.341
  345.250   10.476    0.438    0.237   80.728  226.978
  345.500   11.991    0.443    0.249   76.845  225.721
  345.750   14.000    0.444    0.263   72.780  224.361
  346.000   16.259    0.440    0.273   68.595  223.397
  346.250   19.247    0.421    0.261   62.983  223.129
  346.500   20.473    0.400    0.238   61.255  223.585
  346.750   19.315    0.348    0.162   56.952  223.626
  347.000   17.714    0.339    0.159   55.352  224.271
  347.250   15.737    0.355    0.194   58.864  225.312
  347.500   13.691    0.376    0.232   65.681  226.549
  347.750   11.685    0.391    0.239   70.999  227.968
  348.000   10.842    0.401    0.232   77.037  228.846
  348.250   10.612    0.407    0.227   82.114  226.887
  348.500   10.560    0.408    0.225   80.338  225.523
  348.750   10.526    0.403    0.221   78.799  224.360
  349.000   10.455    0.398    0.217   79.843  223.298
  349.250   10.338    0.411    0.219   80.922  222.543
  349.500   10.111    0.429    0.212   80.194  222.590
  349.750    9.969    0.427    0.208   78.776  222.631
  350.000    9.914    0.423    0.214   78.426  223.398
  350.250    9.867    0.419    0.217   79.392  225.112
  350.500    9.799    0.419    0.212   80.781  227.231
  350.750    9.703    0.422    0.204   80.115  228.460
  351.000    9.561    0.407    0.206   77.901  228.497
  351.250    9.566    0.391    0.205   77.680  228.930
  351.500    9.570    0.386    0.205   77.283  229.356
  351.750    9.574    0.389    0.208   76.945  229.781
  352.000    9.544    0.397    0.211   77.260  230.309
  352.250    9.382    0.411    0.210   79.639  231.312
  352.500    9.244    0.409    0.207   81.896  232.174
  352.750    9.113    0.409    0.207   81.436  232.998
  353.000    9.034    0.418    0.205   79.905  233.830
  353.250    8.972    0.419    0.201   79.328  234.661
  353.500    8.844    0.417    0.197   80.123  235.486
  353.750    8.493    0.428    0.198   81.153  236.313
  354.000    8.304    0.422    0.201   81.424  236.344
  354.250    8.067    0.412    0.207   80.008  236.383
  354.500    7.837    0.407    0.210   78.418  235.219
  354.750    7.586    0.412    0.210   77.601  233.459
  355.000    7.358    0.424    0.207   78.393  232.199
  355.250    7.255    0.434    0.198   81.569  233.361
  355.500    7.258    0.433    0.193   81.836  235.051
  355.750    7.642    0.414    0.197   80.186  235.084
  356.000    8.263    0.410    0.206   79.430  234.222
  356.250    9.151    0.418    0.208   78.256  232.864
  356.500   10.338    0.424    0.206   77.558  230.911
  356.750   12.169    0.387    0.213   81.537  227.352
  357.000   14.217    0.341    0.212   87.026  225.315
  357.250   16.775    0.266    0.175   80.842  224.552
  357.500   19.635    0.216    0.093   63.924  223.491
  357.750   22.620    0.186    0.028   50.347  222.926
  358.000   24.453    0.177    0.001   45.240  222.856
  358.250   22.012    0.202   -0.006   45.228  222.498
  358.500   18.947    0.253    0.035   47.487  222.532
  358.750   15.959    0.272    0.128   51.321  222.564
  359.000   13.463    0.281    0.134   56.589  223.791
  359.250   11.470    0.289    0.123   59.949  224.223
  359.500    9.954    0.304    0.139   62.114  223.758
  359.750    8.832    0.341    0.201   68.507  224.853
  360.000    8.636    0.382    0.226   71.757  228.196
  360.250    8.833    0.405    0.238   70.347  229.425
  360.500    9.330    0.423    0.241   69.831  230.052
  360.750    9.971    0.432    0.239   69.851  230.281
  361.000   10.622    0.431    0.234   70.169  230.413
  361.250   11.226    0.417    0.230   70.912  230.850
  361.500   11.404    0.412    0.240   72.177  230.887
  361.750   11.244    0.415    0.246   74.579  231.314
  362.000   10.962    0.423    0.243   76.806  231.443
  362.250   10.650    0.434    0.242   77.542  231.475
  362.500   10.328    0.440    0.243   76.667  231.409
  362.750    9.917    0.426    0.240   75.108  230.961
  363.000    9.697    0.416    0.231   74.383  230.581
  363.250    9.702    0.414    0.228   75.834  230.216
  363.500    9.975    0.414    0.229   77.284  229.855
  363.750   10.645    0.427    0.233   77.183  229.493
  364.000   11.837    0.446    0.236   74.876  229.128
  364.250   13.810    0.440    0.232   69.912  228.685
  364.500   14.694    0.420    0.227   66.449  228.294
  364.750   15.471    0.406    0.223   65.755  227.933
  365.000   16.466    0.398    0.220   67.920  227.864
  365.250   17.659    0.399    0.220   69.966  227.896
  365.500   19.177    0.403    0.222   70.940  227.931
  365.750   22.097    0.381    0.213   71.371  228.052
  366.000   26.022    0.330    0.177   68.658  228.497
  366.250   29.641    0.241    0.095   62.474  227.731
  366.500   33.805    0.195    0.025   57.543  225.479
  366.750   38.084    0.172   -0.008   54.939  223.724
  367.000   41.897    0.162   -0.008   54.065  223.259
  367.250   44.386    0.165    0.006   52.805  223.776
  367.500   42.426    0.190    0.038   53.570  224.227
  367.750   35.736    0.253    0.090   57.642  225.051
  368.000   30.506    0.305    0.146   65.117  226.472
  368.250   25.730    0.348    0.190   72.056  228.291
  368.500   21.611    0.383    0.214   76.250  229.816
  368.750   18.262    0.409    0.217   77.523  229.778
  369.000   17.323    0.420    0.216   79.036  229.395
  369.250   15.739    0.433    0.217   79.530  229.821
  369.500   14.887    0.431    0.218   79.670  229.657
  369.750   14.359    0.422    0.218   79.928  229.291
  370.000   13.951    0.410    0.216   80.423  229.022
  370.250   13.538    0.403    0.211   80.974  229.058
  370.500   13.440    0.402    0.205   81.244  229.092
  370.750   13.446    0.410    0.206   81.498  229.131
