~VERSION INFORMATION
 VERS.                 2.0:   CWLS LOG ASCII STANDARD -VERSION 2.0
 WRAP.                  NO:   ONE LINE PER DEPTH STEP
~WELL INFORMATION BLOCK
#MNEM.UNIT           DATA                    DESCRIPTION OF MNEMONIC
#---------    -------------------            -------------------------------
# Generated from Intellog Unique Number	CW_82_90/WELL/502
WELL.         GULF WABASCA 06-14             : Well_name    - WELL
LOC .         00/06-14-083-23W4/0            : Location     - LOCATION
UWI .         00/06-14-083-23W4/0            : Uwi          - UNIQUE WELL ID
ENTR.         JAYE                           : Entered      - ENTERED BY
SRVC.         SCHLUMBERGER                   : Scn          - SERVICE COMPANY
DATE.         9 JAN 74                       : Date         - LOG DATE
STRT.M        222.504                        : top_depth    - START DEPTH
STOP.M        426.754                        : bot_depth    - STOP DEPTH
STEP.M        0.25                           : increment    - STEP LENGTH
 NULL. -999.2500:NULL Value
~CURVE INFORMATION BLOCK
#MNEM UNIT       ERCB CURVE CODE    CURVE DESCRIPTION
#-----------   ------------------   ----------------------------------
DEPT.M        00 001 00 00         : DEPTH        - DEPTH
ILD .OHMM     00 120 00 00         : RESD         - DEEP RESISTIVITY (DIL)
CALI.MM       00 280 01 00         : CAL          - CALIPER
GR  .API      00 310 00 00         : GR           - GAMMA RAY
NPHI.V/V      00 330 00 00         : PHIN         - NEUTRON POROSITY (SANDSTONE)
DPHI.V/V      00 890 00 00         : PHID         - DENSITY POROSITY (SANDSTONE)
~PARAMETER INFORMATION
#MNEM.UNIT           DATA             DESCRIPTION OF MNEMONIC
#---------         -----------     ------------------------------
GL  .M        607.771              : gl           - GROUND LEVEL ELEVATION
EREF.M        609.295              : kb           - ELEVATION OF DEPTH REFERENCE
DATM.M        607.771              : datum        - DATUM ELEVATION
TDD .M        426.72               : tdd          - TOTAL DEPTH DRILLER
ENG .         CHAUDHARY            : Engineer     - RECORDING ENGINEER
WIT .         LONG & CAMPBELL      : Witness      - WITNESSED BY
BASE.         EDMONTON             : Branch       - HOME BASE OF LOGGING UNIT
MUD .         GEL                  : Mud_type     - MUD TYPE
MATR.         SANDSTONE            : Logunit      - NEUTRON MATRIX
TMAX.C        29.4444              : BHT          - MAXIMUM RECORDED TEMPERATURE
BHTD.M        426.72               : BHTDEP       - MAXIMUM RECORDED TEMPERATURE
RMT .C        11.6667              : MDTP         - TEMPERATURE OF MUD
MUDD.KG/M     0                    : MWT          - MUD DENSITY
NEUT.         1                    : NEUTRON      - NEUTRON TYPE
RESI.         0                    : RESIST       - RESISTIVITY TYPE
RM  .OHMM     4.77                 : RM           - RESISTIVITY OF MUD
RMC .OHMM     0                    : RMC          - RESISTIVITY OF MUD CAKE
RMF .OHMM     0                    : RMF          - RESISTIVITY OF MUD FILTRATE
SUFT.C        -17.7778             : SUFT         - SURFACE TEMPERATURE
~A  DEPTH     RESD      CAL       GR     PHIN     PHID
# ...
  405.004   12.806  164.078  104.752    0.444    0.184
  405.254   13.492  163.801   94.047    0.454    0.176
  405.504   13.383  163.851   72.976    0.443    0.169
  405.754   12.915  163.169   85.987    0.408    0.095
  406.004   12.063  162.386   95.100    0.389    0.012
  406.254   10.906  163.262  103.537    0.420    0.146
  406.504   10.392  163.501  106.920    0.423    0.162
  406.754    9.939  163.762  107.978    0.429    0.162
  407.004    9.627  162.861  107.699    0.436    0.194
  407.254    9.259  162.498  100.346    0.440    0.192
  407.504    9.149  162.224  100.127    0.437    0.173
  407.754    9.042  162.167  102.349    0.402    0.148
  408.004    9.184  162.208  106.397    0.380    0.119
  408.254    9.415  162.565  112.218    0.399    0.097
  408.504    9.721  162.809  114.744    0.432    0.139
  408.754   10.129  163.369  113.792    0.453    0.172
  409.004   10.534  164.037  104.914    0.417    0.179
  409.254   11.322  164.383   83.842    0.385    0.119
  409.504   12.527  164.226   97.100    0.336    0.024
  409.754   13.199  163.962  101.698    0.365    0.074
  410.004   12.785  163.691  104.898    0.371    0.161
  410.254   11.576  163.837  108.701    0.380    0.147
  410.504   10.144  163.977  107.387    0.413    0.137
  410.754    8.987  164.029  105.334    0.397    0.160
  411.004    8.518  163.445  103.531    0.389    0.146
  411.254    9.022  162.049  110.079    0.400    0.121
  411.504    9.804  162.401  115.531    0.463    0.137
  411.754   10.807  163.066  112.325    0.440    0.160
  412.004   12.724  163.204   91.070    0.423    0.157
  412.254   15.144  163.352   82.134    0.400    0.143
  412.504   17.129  162.982   78.502    0.423    0.121
  412.754   16.175  162.712   76.944    0.366    0.076
  413.004   13.994  162.859   80.564    0.339    0.087
  413.254   13.883  163.005   94.246    0.316    0.099
  413.504   14.385  163.155  105.980    0.372    0.122
  413.754   15.976  163.194  108.138    0.432    0.180
  414.004   19.616  163.132   75.359    0.405    0.234
  414.254   22.473  163.074   75.144    0.411    0.259
  414.504   24.819  163.222   75.844    0.426    0.261
  414.754   27.215  163.159   75.619    0.417    0.263
  415.004   30.226  162.901   74.974    0.392    0.251
  415.254   32.016  162.333   74.511    0.382    0.236
  415.504   33.415  162.259   72.652    0.393    0.221
  415.754   34.129  161.997   72.670    0.398    0.227
  416.004   34.227  162.340   70.931    0.431    0.239
  416.254   33.823  162.182   64.003    0.428    0.275
  416.504   31.822  162.426   63.174    0.440    0.273
  416.754   29.994  162.583   65.580    0.429    0.259
  417.004   28.533  162.928   72.127    0.424    0.239
  417.254   27.140  163.070   79.895    0.433    0.211
  417.504   25.771  163.008   86.324    0.439    0.203
  417.754   25.512  162.640   83.483    0.447    0.231
  418.004   25.915  162.069   83.386    0.436    0.228
  418.254   27.099  162.107   83.594    0.426    0.237
  418.504   28.395  162.047   71.120    0.416    0.233
  418.754   29.315  161.673  113.400    0.418    0.239
  419.004   27.530  161.819  140.314    0.427    0.234
  419.254   23.093  162.172  145.218    0.403    0.247
  419.504   19.797  161.804  146.096    0.362    0.235
  419.754   16.973  161.643  145.333    0.351    0.168
  420.004   14.578  161.272  144.320    0.428    0.155
  420.254   12.385  161.518  143.920    0.457    0.166
  420.504   10.676  161.149  143.638    0.440    0.187
  420.754    9.103  161.402  144.456    0.371    0.199
  421.004    8.706  162.380  145.945    0.412    0.189
  421.254    8.667  162.522  145.301    0.418    0.201
  421.504    9.114  161.527  143.617    0.418    0.184
  421.754    9.759  161.263  141.024    0.438    0.149
  422.004   10.281  160.991  136.964    0.441    0.117
  422.254   10.792  160.828  130.828    0.432    0.092
  422.504   10.801  160.256  109.025    0.448    0.100
  422.754    9.586  159.883  112.586    0.459    0.179
  423.004    8.324  160.132  106.513    0.446    0.160
  423.254    7.621  160.283   92.149    0.418    0.161
  423.504    7.545  160.423   92.785    0.333    0.221
  423.754    7.567  160.062   80.250    0.340    0.257
  424.004    7.604  159.891   79.603    0.379    0.279
  424.254    7.738  160.449   83.108    0.388    0.249
  424.504    7.815  160.911   88.252    0.396    0.233
  424.754    7.909  161.262   93.887    0.393    0.250
  425.004    7.975  168.019   86.475    0.379    0.274
  425.254    7.925  170.948   84.181    0.364    0.125
  425.504    7.847  174.292   80.183    0.339    0.105
  425.754    7.812  173.305   73.257    0.368    0.108
  426.004    7.720  172.623   75.966    0.409    0.119
  426.254    7.713  173.084   73.306    0.396    0.111
  426.504    7.666  173.636   65.710    0.419    0.116
  426.754    7.659  175.126   62.142    0.433    0.114
