~VERSION INFORMATION
 VERS.                 2.0:   CWLS LOG ASCII STANDARD -VERSION 2.0
 WRAP.                  NO:   ONE LINE PER DEPTH STEP
~WELL INFORMATION BLOCK
#MNEM.UNIT           DATA                    DESCRIPTION OF MNEMONIC
#---------    -------------------            -------------------------------
# Generated from Intellog Unique Number	CW_70_72/WELL/773
NULL.         -999.25                        : NULL_VALUE
WELL.         CANOXY SMITH 06-29             : Well_name    - WELL              
LOC .         06-29-071-01W5                 : Location     - LOCATION          
UWI .         00/06-29-071-01W5/0            : Uwi          - UNIQUE WELL ID    
ENTR.         JAYE                           : Entered      - ENTERED BY        
SRVC.         SCHLUMBERGER                   : Scn          - SERVICE COMPANY   
DATE.         31 DEC 76                      : Date         - LOG DATE          
STRT.M        387.096                        : top_depth    - START DEPTH       
STOP.M        646.096                        : bot_depth    - STOP DEPTH        
STEP.M        0.25                           : increment    - STEP LENGTH       
~CURVE INFORMATION BLOCK
#MNEM UNIT       ERCB CURVE CODE    CURVE DESCRIPTION
#-----------   ------------------   ----------------------------------
DEPT.M        00 001 00 00         : DEPTH        - DEPTH                       
DPHI.V/V      00 890 00 00         : PHID         - DENSITY POROSITY (SANDSTONE)
NPHI.V/V      00 330 00 00         : PHIN         - NEUTRON POROSITY (SANDSTONE)
GR  .API      00 310 00 00         : GR           - GAMMA RAY                   
CALI.MM       00 280 01 00         : CAL          - CALIPER                     
ILD .OHMM     00 120 00 00         : RESD         - DEEP RESISTIVITY (DIL)      
~PARAMETER INFORMATION       
#MNEM.UNIT           DATA             DESCRIPTION OF MNEMONIC
#---------         -----------     ------------------------------
GL  .M        585.826              : gl           - GROUND LEVEL ELEVATION      
EREF.M        588.874              : kb           - ELEVATION OF DEPTH REFERENCE
DATM.M        585.826              : datum        - DATUM ELEVATION             
TDD .M        660.806              : tdd          - TOTAL DEPTH DRILLER         
RUN .         ONE                  : Run          - RUN NUMBER                  
BASE.         EDM                  : Branch       - HOME BASE OF LOGGING UNIT   
MATR.         SANDSTONE            : Logunit      - NEUTRON MATRIX              
TMAX.C        27.2222              : BHT          - MAXIMUM RECORDED TEMPERATURE
BHTD.M        660.502              : BHTDEP       - MAXIMUM RECORDED TEMPERATURE
RMT .C        8.33333              : MDTP         - TEMPERATURE OF MUD          
MUDD.KG/M     0                    : MWT          - MUD DENSITY                 
NEUT.         1                    : NEUTRON      - NEUTRON TYPE                
RESI.         0                    : RESIST       - RESISTIVITY TYPE            
RM  .OHMM     4.28                 : RM           - RESISTIVITY OF MUD          
RMC .OHMM     0                    : RMC          - RESISTIVITY OF MUD CAKE     
RMF .OHMM     3.46                 : RMF          - RESISTIVITY OF MUD FILTRATE 
SUFT.C        -17.7778             : SUFT         - SURFACE TEMPERATURE         
~A  DEPTH     PHID     PHIN       GR      CAL     RESD
  387.096    0.152    0.523  115.098  227.589    2.571
  387.346    0.167    0.515  116.943  223.204    2.566
  387.596    0.176    0.496  120.066  219.549    2.575
  387.846    0.158    0.487  114.747  219.688    2.613
  388.096    0.161    0.477  110.274  223.331    2.657
  388.346    0.158    0.490  107.081  228.514    2.696
  388.596    0.152    0.505  104.371  231.747    2.751
  388.846    0.174    0.505  100.509  231.581    2.812
  389.096    0.194    0.489   96.407  223.085    2.880
  389.346    0.182    0.481   94.427  204.097    2.983
  389.596    0.209    0.502   93.355  226.663    3.106
  389.846    0.227    0.510   91.315  239.560    3.288
  390.096    0.238    0.506   88.726  228.396    3.488
  390.346    0.244    0.456   85.714  219.895    3.741
  390.596    0.253    0.343   81.914  181.373    3.960
  390.846    0.220    0.348   78.839  169.379    4.094
  391.096    0.189    0.390   80.018  172.710    4.263
  391.346    0.181    0.418   82.410  193.115    4.430
  391.596    0.211    0.412   79.338  205.601    4.656
  391.846    0.190    0.368   74.624  167.699    4.893
  392.096    0.179    0.354   70.336  166.395    5.133
  392.346    0.207    0.358   69.450  165.308    5.405
  392.596    0.205    0.372   70.507  165.863    5.638
  392.846    0.185    0.401   73.022  166.740    5.627
  393.096    0.165    0.415   71.651  166.783    5.344
  393.346    0.195    0.404   68.880  166.704    5.046
  393.596    0.210    0.400   65.320  166.545    4.765
  393.846    0.204    0.414   61.520  166.377    4.600
  394.096    0.240    0.418   66.100  166.932    4.433
  394.346    0.246    0.412   70.496  167.282    4.288
  394.596    0.234    0.415   75.744  168.149    4.155
  394.846    0.209    0.421   83.542  170.760    3.968
  395.096    0.177    0.436   89.822  174.299    3.761
  395.346    0.150    0.454   96.407  180.407    3.617
  395.596    0.148    0.468  103.173  198.242    3.499
  395.846    0.190    0.483  109.452  209.801    3.610
  396.096    0.192    0.471  112.513  206.348    3.864
  396.346    0.181    0.443  108.167  198.262    4.167
  396.596    0.190    0.420  105.944  187.712    4.519
  396.846    0.212    0.371  105.787  178.602    4.928
  397.096    0.200    0.358  107.148  171.851    5.454
  397.346    0.191    0.391  109.295  179.095    6.091
  397.596    0.179    0.416  108.713  182.423    6.892
  397.846    0.192    0.422   98.411  177.221    7.957
  398.096    0.187    0.345   93.397  170.164    8.937
  398.346    0.183    0.338   90.627  166.094   10.055
  398.596    0.200    0.362   87.433  164.904   10.685
  398.846    0.198    0.388   84.361  164.737   11.292
  399.096    0.182    0.393   82.014  164.998   11.977
  399.346    0.177    0.382   78.211  165.236   12.449
  399.596    0.158    0.369   73.315  165.888   12.892
  399.846    0.177    0.359   70.122  166.444   13.130
  400.096    0.176    0.364   69.722  166.493   12.584
  400.346    0.187    0.379   69.686  166.845   11.474
  400.596    0.198    0.396   70.256  167.499   10.120
  400.846    0.206    0.411   72.226  168.066    8.910
  401.096    0.182    0.404   74.981  168.713    7.546
  401.346    0.155    0.401   78.651  169.263    6.450
  401.596    0.130    0.429   82.501  170.232    5.903
  401.846    0.119    0.449   87.140  170.687    5.533
  402.096    0.157    0.436   95.122  171.452    5.382
  402.346    0.164    0.421   96.665  172.101    5.177
  402.596    0.169    0.395   96.629  173.177    4.952
  402.846    0.168    0.403   97.323  174.458    4.676
  403.096    0.145    0.407   98.440  175.208    4.303
  403.346    0.138    0.408   99.252  176.591    4.049
  403.596    0.140    0.402   99.641  179.206    3.809
  403.846    0.145    0.383   96.142  181.506    3.551
  404.096    0.141    0.387   93.981  184.943    3.286
  404.346    0.130    0.421   96.558  190.227    3.013
  404.596    0.144    0.454  100.773  199.526    2.861
  404.846    0.160    0.488  105.838  205.842    2.834
  405.096    0.150    0.502  112.543  208.862    2.995
  405.346    0.161    0.490  115.362  211.064    3.309
  405.596    0.174    0.478  113.016  214.706    3.709
  405.846    0.158    0.428  106.847  188.519    4.306
  406.096    0.176    0.378  101.345  174.062    5.000
  406.346    0.188    0.328   96.085  173.277    5.990
  406.596    0.189    0.281   87.971  182.987    7.927
  406.846    0.257    0.230   74.692  174.595   11.170
  407.096    0.337    0.178   56.739  171.040   13.681
  407.346    0.384    0.119   46.012  169.961   16.603
  407.596    0.382    0.148   46.888  169.576   17.741
  407.846    0.319    0.200   52.502  168.903   16.477
  408.096    0.265    0.235   56.776  168.427   14.534
  408.346    0.236    0.269   61.416  167.964   12.655
  408.596    0.262    0.276   67.514  167.894   10.425
  408.846    0.285    0.304   59.280  168.343    8.308
  409.096    0.228    0.341   61.673  168.799    6.560
  409.346    0.235    0.373   68.683  168.953    5.505
  409.596    0.227    0.396   79.153  169.199    4.671
  409.846    0.210    0.389   86.161  169.540    4.128
  410.096    0.219    0.379   89.890  169.902    3.648
  410.346    0.205    0.363   92.283  169.928    3.476
  410.596    0.187    0.355   95.225  169.674    3.381
  410.846    0.177    0.364   98.346  169.702    3.418
  411.096    0.172    0.377  100.071  169.128    3.495
  411.346    0.180    0.385  101.067  168.868    3.646
  411.596    0.186    0.395  102.489  168.593    3.803
  411.846    0.167    0.408  103.970  170.590    3.917
  412.096    0.143    0.418  106.788  175.360    4.101
  412.346    0.143    0.434  111.126  183.937    4.255
  412.596    0.171    0.400  114.854  191.898    4.349
  412.846    0.197    0.368  120.042  188.962    4.168
  413.096    0.157    0.367  124.560  188.895    3.677
  413.346    0.151    0.438  125.679  190.277    3.148
  413.596    0.142    0.489  125.156  197.412    2.711
  413.846    0.129    0.520  125.363  204.034    2.383
  414.096    0.105    0.539  124.658  202.844    2.205
  414.346    0.066    0.532  121.648  195.068    2.262
  414.596    0.161    0.520  124.282  203.028    2.440
  414.846    0.178    0.485  125.582  212.430    2.597
  415.096    0.214    0.454  118.622  208.767    2.853
  415.346    0.187    0.444  109.111  199.864    3.049
  415.596    0.219    0.427   96.198  190.029    3.264
  415.846    0.222    0.382   81.827  180.712    3.411
  416.096    0.199    0.394   82.825  172.936    3.487
  416.346    0.156    0.410   86.796  177.309    3.571
  416.596    0.117    0.425   90.465  182.592    3.644
  416.846    0.109    0.442   91.763  188.391    3.704
  417.096    0.132    0.457   94.950  195.830    3.738
  417.346    0.176    0.464   98.980  211.196    3.773
  417.596    0.236    0.460   93.963  222.963    3.814
  417.846    0.256    0.445   87.306  228.764    3.849
  418.096    0.262    0.425   79.314  228.701    3.920
  418.346    0.272    0.422   72.292  220.104    3.993
  418.596    0.274    0.414   68.308  206.261    4.074
  418.846    0.258    0.403   70.338  189.436    4.150
  419.096    0.238    0.387   73.461  178.576    4.111
  419.346    0.223    0.393   77.435  170.493    4.234
  419.596    0.228    0.412   80.980  173.001    4.409
  419.846    0.287    0.491   85.376  171.398    4.933
  420.096    0.345    0.538   85.218  167.532    5.330
  420.346    0.390    0.585   81.538  164.486    5.329
  420.596    0.387    0.522   81.623  162.579    5.033
  420.846    0.349    0.454   85.231  161.592    4.648
  421.096    0.223    0.399   92.787  160.711    4.077
  421.346    0.183    0.410  100.769  160.435    3.725
  421.596    0.200    0.422  102.858  160.686    3.491
  421.846    0.217    0.425   99.907  161.649    3.334
  422.096    0.235    0.429   95.314  162.825    3.254
  422.346    0.243    0.442   91.210  163.693    3.236
  422.596    0.252    0.448   90.445  164.244    3.284
  422.846    0.255    0.449   92.473  165.005    3.376
  423.096    0.247    0.444   96.142  165.354    3.502
  423.346    0.242    0.433   96.528  165.703    3.547
