~VERSION INFORMATION
 VERS.                 2.0:   CWLS LOG ASCII STANDARD -VERSION 2.0
 WRAP.                  NO:   ONE LINE PER DEPTH STEP
~WELL INFORMATION BLOCK
#MNEM.UNIT           DATA                    DESCRIPTION OF MNEMONIC
#---------    -------------------            -------------------------------
# Generated from Intellog Unique Number	CW_73_75/WELL/2732
WELL.         SUNDANCE MCMORGAN  MARTENH 07- : Well_name    - WELL
LOC .         00/07-28-073-24W4/0            : Location     - LOCATION
UWI .         00/07-28-073-24W4/0            : Uwi          - UNIQUE WELL ID
ENTR.         JAYE                           : Entered      - ENTERED BY
SRVC.         SCHLUMBERGER                   : Scn          - SERVICE COMPANY
DATE.         19 MAR 73                      : Date         - LOG DATE
STRT.M        396.24                         : top_depth    - START DEPTH
STOP.M        624.74                         : bot_depth    - STOP DEPTH
STEP.M        0.25                           : increment    - STEP LENGTH
 NULL. -999.2500:NULL Value
~CURVE INFORMATION BLOCK
#MNEM UNIT       ERCB CURVE CODE    CURVE DESCRIPTION
#-----------   ------------------   ----------------------------------
DEPT.M        00 001 00 00         : DEPTH        - DEPTH
ILD .OHMM     00 120 00 00         : RESD         - DEEP RESISTIVITY (DIL)
NPHI.V/V      00 330 00 00         : PHIN         - NEUTRON POROSITY (SANDSTONE)
DPHI.V/V      00 890 00 00         : PHID         - DENSITY POROSITY (SANDSTONE)
GR  .API      00 310 00 00         : GR           - GAMMA RAY
CALI.MM       00 280 01 00         : CAL          - CALIPER
~PARAMETER INFORMATION
#MNEM.UNIT           DATA             DESCRIPTION OF MNEMONIC
#---------         -----------     ------------------------------
GL  .M        654.558              : gl           - GROUND LEVEL ELEVATION
EREF.M        656.844              : kb           - ELEVATION OF DEPTH REFERENCE
DATM.M        654.558              : datum        - DATUM ELEVATION
TDD .M        630.936              : tdd          - TOTAL DEPTH DRILLER
RUN .         ONE                  : Run          - RUN NUMBER
ENG .         MCLEVIN              : Engineer     - RECORDING ENGINEER
WIT .         LOWTHER              : Witness      - WITNESSED BY
BASE.         RD                   : Branch       - HOME BASE OF LOGGING UNIT
MUD .         GEL                  : Mud_type     - MUD TYPE
MATR.         SANDSTONE            : Logunit      - NEUTRON MATRIX
TMAX.C        28.8889              : BHT          - MAXIMUM RECORDED TEMPERATURE
BHTD.M        631.85               : BHTDEP       - MAXIMUM RECORDED TEMPERATURE
RMT .C        21.1111              : MDTP         - TEMPERATURE OF MUD
MUDD.KG/M     1104                 : MWT          - MUD DENSITY
NEUT.         1                    : NEUTRON      - NEUTRON TYPE
RESI.         0                    : RESIST       - RESISTIVITY TYPE
RM  .OHMM     3.04                 : RM           - RESISTIVITY OF MUD
RMC .OHMM     0                    : RMC          - RESISTIVITY OF MUD CAKE
RMF .OHMM     0                    : RMF          - RESISTIVITY OF MUD FILTRATE
SUFT.C        -17.7778             : SUFT         - SURFACE TEMPERATURE
~A  DEPTH     RESD     PHIN     PHID       GR      CAL
# ...
  505.740    4.893    0.490    0.183   77.770  159.137
  505.990    4.977    0.506    0.175   75.215  157.193
  506.240    5.158    0.497    0.170   75.231  155.255
  506.490    5.375    0.478    0.180   75.797  155.073
  506.740    5.869    0.464    0.167   75.385  155.515
  506.990    6.456    0.441    0.152   74.176  156.057
  507.240    7.316    0.415    0.133   72.601  156.600
  507.490    8.638    0.386    0.109   70.904  159.222
  507.740   10.845    0.307    0.073   69.206  161.004
  507.990   14.751    0.285    0.017   65.245  162.791
  508.240   17.384    0.295    0.043   62.875  165.095
  508.490   18.354    0.307    0.046   63.502  168.234
  508.740   15.042    0.317    0.057   65.842  170.539
  508.990   11.422    0.329    0.051   70.874  170.457
  509.240    9.104    0.359    0.079   74.683  165.621
  509.490    7.475    0.417    0.108   78.371  163.155
  509.740    6.335    0.446    0.169   81.382  161.318
  509.990    5.937    0.472    0.186   84.397  160.825
  510.240    5.884    0.491    0.170   86.186  160.956
  510.490    5.842    0.505    0.157   88.282  161.603
  510.740    5.834    0.517    0.149   90.746  162.979
  510.990    5.846    0.498    0.139   93.576  165.179
  511.240    5.870    0.469    0.120   96.831  167.694
  511.490    5.905    0.466    0.110  100.885  169.997
  511.740    5.973    0.475    0.100  104.143  171.992
  511.990    6.020    0.477    0.115  101.773  173.363
  512.240    6.055    0.483    0.127   97.934  171.941
  512.490    6.091    0.463    0.135   94.217  169.381
  512.740    6.185    0.456    0.149   90.990  167.330
  512.990    6.279    0.467    0.132   88.436  166.840
  513.240    6.423    0.448    0.124   87.473  166.658
  513.490    6.570    0.427    0.116   89.875  166.373
  513.740    6.708    0.412    0.109   92.949  166.606
  513.990    6.710    0.429    0.112   96.328  167.981
  514.240    6.614    0.481    0.127   98.976  168.837
  514.490    6.529    0.463    0.122   98.439  169.690
  514.740    6.411    0.464    0.124   92.461  171.273
  514.990    6.330    0.477    0.133   93.149  172.335
  515.240    6.286    0.496    0.139   95.794  172.981
  515.490    6.299    0.508    0.119   98.012  173.216
  515.740    6.313    0.491    0.103   99.190  172.722
  515.990    6.315    0.475    0.090   98.901  171.298
  516.240    6.293    0.486    0.082   99.099  169.046
  516.490    6.283    0.479    0.096  100.157  167.105
  516.740    6.262    0.464    0.114   98.457  165.369
  516.990    6.276    0.459    0.133   95.597  163.943
  517.240    6.337    0.471    0.125   94.146  162.005
  517.490    6.434    0.454    0.117   93.793  160.786
  517.740    6.630    0.456    0.103   90.077  159.260
  517.990    7.185    0.480    0.071   85.381  159.180
  518.240   10.265    0.438    0.051   77.261  159.213
  518.490   11.158    0.325    0.033   68.582  162.747
  518.740   10.338    0.295    0.014   79.966  167.107
  518.990    8.291    0.372    0.056   85.537  167.426
  519.240    7.639    0.451    0.123   90.070  166.190
  519.490    7.092    0.501    0.103   93.439  164.230
  519.740    6.772    0.469    0.109   94.667  162.996
  519.990    6.551    0.438    0.110   96.507  162.280
  520.240    6.376    0.448    0.122   96.819  162.080
  520.490    6.333    0.474    0.115   97.312  161.985
  520.740    6.337    0.464    0.112   98.357  163.029
  520.990    6.378    0.463    0.119  100.870  165.420
  521.240    6.443    0.472    0.135   98.979  167.085
  521.490    6.569    0.473    0.143   96.781  165.229
  521.740    6.737    0.479    0.139   94.889  162.440
  521.990    6.843    0.469    0.156   96.240  159.859
  522.240    6.911    0.455    0.159   96.734  157.381
  522.490    7.021    0.427    0.151   96.005  154.178
  522.740    7.186    0.421    0.140   96.744  152.425
  522.990    7.382    0.454    0.128   98.218  157.406
  523.240    7.613    0.480    0.111   96.265  163.112
  523.490    7.822    0.483    0.118   97.432  166.746
  523.740    7.945    0.460    0.126   98.660  168.825
  523.990    7.982    0.445    0.134   99.766  170.076
  524.240    7.987    0.443    0.130   97.997  170.086
  524.490    7.874    0.449    0.122   97.696  168.436
  524.740    7.675    0.456    0.125  101.372  166.062
  524.990    7.425    0.458    0.110  105.231  164.516
  525.240    7.116    0.452    0.131  108.233  165.560
  525.490    6.744    0.444    0.127  103.405  168.365
  525.740    6.550    0.435    0.129   96.680  168.891
  525.990    6.780    0.434    0.139   94.422  167.450
  526.240    7.043    0.436    0.128   94.182  166.008
  526.490    7.361    0.440    0.125   96.328  164.772
  526.740    7.420    0.450    0.144  101.105  164.265
  526.990    7.411    0.465    0.148  106.677  164.271
  527.240    7.321    0.467    0.132  109.006  164.176
  527.490    7.284    0.464    0.120  103.322  163.563
  527.740    7.262    0.449    0.156   92.377  162.536
  527.990    7.322    0.440    0.151   87.732  161.714
  528.240    7.709    0.430    0.135   83.638  160.790
  528.490    8.192    0.413    0.116   78.871  159.971
  528.740    8.321    0.399    0.077   77.775  159.461
  528.990    8.051    0.387    0.060   79.493  159.158
  529.240    7.516    0.397    0.086   80.476  159.166
  529.490    6.784    0.412    0.118   77.728  159.486
  529.740    6.489    0.432    0.116   73.635  159.597
  529.990    6.858    0.440    0.095   73.885  159.916
  530.240    7.553    0.447    0.087   73.890  160.132
  530.490    8.348    0.457    0.090   73.588  160.555
  530.740    9.438    0.465    0.125   75.857  160.771
  530.990   10.770    0.474    0.188   71.396  161.089
  531.240   11.618    0.476    0.216   65.160  161.511
  531.490   11.957    0.483    0.231   62.841  161.520
  531.740   11.590    0.478    0.239   61.439  159.559
  531.990    9.908    0.498    0.246   60.404  157.083
  532.240   10.027    0.524    0.241   60.837  158.955
  532.490   10.577    0.505    0.222   62.310  160.830
  532.740   11.071    0.493    0.205   64.395  161.873
  532.990   11.677    0.488    0.194   66.602  163.438
  533.240   11.995    0.481    0.210   68.258  163.961
  533.490   12.095    0.479    0.215   66.734  163.970
  533.740   12.241    0.489    0.215   64.781  163.769
  533.990   12.671    0.480    0.211   66.866  164.606
  534.240   13.041    0.464    0.204   69.379  166.168
  534.490   13.653    0.451    0.191   71.097  164.622
  534.740   14.425    0.456    0.156   69.511  162.766
  534.990   15.474    0.470    0.167   66.519  163.499
  535.240   16.228    0.497    0.213   69.827  167.549
  535.490   16.988    0.483    0.213   69.648  167.763
  535.740   16.780    0.487    0.224   66.167  166.114
  535.990   16.021    0.508    0.217   59.380  165.190
  536.240   15.098    0.494    0.205   59.630  163.748
  536.490   14.203    0.479    0.192   62.144  161.271
  536.740   14.454    0.449    0.179   61.598  161.279
  536.990   15.392    0.413    0.155   63.194  161.702
  537.240   16.200    0.350    0.126   63.320  161.089
  537.490   17.741    0.286    0.083   61.306  159.646
  537.740   18.535    0.300    0.110   57.090  156.754
  537.990   18.935    0.323    0.145   51.161  153.965
  538.240   18.985    0.349    0.213   52.512  151.384
  538.490   18.716    0.383    0.220   55.025  149.941
  538.740   18.210    0.432    0.215   57.905  148.915
  538.990   18.053    0.498    0.233   60.969  148.922
  539.240   17.996    0.506    0.244   61.952  150.277
  539.490   18.562    0.490    0.236   62.447  151.839
  539.740   19.141    0.475    0.221   62.880  155.059
  539.990   19.663    0.469    0.226   63.496  159.833
  540.240   19.975    0.445    0.238   64.969  161.394
  540.490   20.027    0.465    0.234   65.708  159.952
  540.740   19.852    0.501    0.241   63.511  156.853
  540.990   19.391    0.530    0.225   61.864  156.240
  541.240   18.935    0.492    0.220   63.826  157.077
  541.490   18.250    0.484    0.216   64.382  158.018
  541.740   17.657    0.480    0.211   62.551  158.856
  541.990   17.021    0.469    0.215   64.697  158.863
