~VERSION INFORMATION
 VERS.                 2.0:   CWLS LOG ASCII STANDARD -VERSION 2.0
 WRAP.                  NO:   ONE LINE PER DEPTH STEP
~WELL INFORMATION BLOCK
#MNEM.UNIT           DATA                    DESCRIPTION OF MNEMONIC
#---------    -------------------            -------------------------------
# Generated from Intellog Unique Number	CN_91_93/WELL/3046
WELL.         PARAMOUNT RESOURCES LTD.       : Well_name    - WELL
LOC .         00/05-36-092-20W4/0            : Location     - LOCATION
UWI .         00/05-36-092-20W4/0            : Uwi          - UNIQUE WELL ID
ENTR.         JOETTE                         : Entered      - ENTERED BY
SRVC.         COMPUTALOG                     : Scn          - SERVICE COMPANY
DATE.         04/09/92                       : Date         - LOG DATE
STRT.M        105                            : top_depth    - START DEPTH
STOP.M        255                            : bot_depth    - STOP DEPTH
STEP.M        0.25                           : increment    - STEP LENGTH
 NULL. -999.2500:NULL Value
~CURVE INFORMATION BLOCK
#MNEM UNIT       ERCB CURVE CODE    CURVE DESCRIPTION
#-----------   ------------------   ----------------------------------
DEPT.M        00 001 00 00         : DEPTH        - DEPTH
CALI.MM       00 280 01 00         : CAL          - CALIPER
GR  .API      00 310 00 00         : GR           - GAMMA RAY
NPHI.V/V      00 330 00 00         : PHIN         - NEUTRON POROSITY (SANDSTONE)
DPHI.V/V      00 890 00 00         : PHID         - DENSITY POROSITY (SANDSTONE)
ILD .OHMM     00 120 00 00         : RESD         - DEEP RESISTIVITY (DIL)
~PARAMETER INFORMATION
#MNEM.UNIT           DATA             DESCRIPTION OF MNEMONIC
#---------         -----------     ------------------------------
GL  .M        527.9                : gl           - GROUND LEVEL ELEVATION
EREF.M        531.3                : kb           - ELEVATION OF DEPTH REFERENCE
DATM.M        531.3                : datum        - DATUM ELEVATION
TDD .M        259                  : tdd          - TOTAL DEPTH DRILLER
RUN .         ONE                  : Run          - RUN NUMBER
ENG .         BILL                 : Engineer     - RECORDING ENGINEER
WIT .         JIM                  : Witness      - WITNESSED BY
MUD .         GEL                  : Mud_type     - MUD TYPE
MATR.         SANDSTONE            : Logunit      - NEUTRON MATRIX
TMAX.C        17                   : BHT          - MAXIMUM RECORDED TEMPERATURE
BHTD.M        259                  : BHTDEP       - MAXIMUM RECORDED TEMPERATURE
RMT .C        15.6                 : MDTP         - TEMPERATURE OF MUD
MUDD.KG/M     1190                 : MWT          - MUD DENSITY
NEUT.         1                    : NEUTRON      - NEUTRON TYPE
RESI.         0                    : RESIST       - RESISTIVITY TYPE
RM  .OHMM     1.9                  : RM           - RESISTIVITY OF MUD
RMC .OHMM     1.9                  : RMC          - RESISTIVITY OF MUD CAKE
RMF .OHMM     1.6                  : RMF          - RESISTIVITY OF MUD FILTRATE
SUFT.C        -20                  : SUFT         - SURFACE TEMPERATURE
~A  DEPTH      CAL       GR     PHIN     PHID     RESD
# ...
  214.500  167.013  111.923    0.391    0.105   12.953
  214.750  168.032  105.867    0.392    0.081   12.471
  215.000  169.065  101.633    0.401    0.054   11.783
  215.250  169.079  105.889    0.407    0.131   11.563
  215.500  169.101  111.966    0.407    0.148   11.134
  215.750  172.151  111.977    0.407    0.171   11.136
  216.000  175.201  111.376    0.407    0.174   10.929
  216.250  175.224  111.387    0.403    0.179   10.931
  216.500  175.233  113.823    0.390    0.178   10.935
  216.750  175.246  115.050    0.382    0.176   10.937
  217.000  176.279  116.273    0.377    0.175   10.940
  217.250  176.293  117.497    0.374    0.171   11.152
  217.500  176.315  118.720    0.372    0.171   11.369
  217.750  175.318  118.125    0.369    0.170   11.589
  218.000  173.324  118.739    0.364    0.168   12.041
  218.250  171.316  121.779    0.366    0.168   13.246
  218.500  168.297  118.152    0.324    0.170   14.851
  218.750  161.249  100.577    0.151    0.187   16.336
  219.000  160.248   81.789    0.067    0.229   23.904
  219.250  157.234   42.381    0.048    0.332   33.672
  219.500  157.256   35.117    0.049    0.376   47.431
  219.750  157.265   32.703    0.051    0.352   61.919
  220.000  160.315   25.434    0.055    0.357   77.813
  220.250  162.354   23.019    0.058    0.371  101.580
  220.500  162.372   24.243    0.062    0.370  122.891
  220.750  161.384   26.073    0.066    0.360  145.880
  221.000  160.387   27.903    0.082    0.351  148.699
  221.250  159.394   30.943    0.119    0.357  116.156
  221.500  158.406   33.986    0.167    0.356  103.652
  221.750  158.415   38.241    0.210    0.340  101.717
  222.000  159.453   37.651    0.233    0.328   99.836
  222.250  161.492   37.656    0.246    0.342   99.853
  222.500  161.501   38.880    0.251    0.352  103.750
  222.750  163.545   41.316    0.244    0.355  107.798
  223.000  164.569   42.545    0.235    0.358  116.354
  223.250  164.587   42.551    0.220    0.364  116.368
  223.500  164.600   41.349    0.152    0.376  109.939
  223.750  163.612   37.112    0.142    0.383   98.098
  224.000  161.609   32.274    0.141    0.376   84.271
  224.250  158.590   29.857    0.147    0.337   73.782
  224.500  156.587   29.264    0.174    0.310   61.016
  224.750  154.592   30.490    0.205    0.287   42.520
  225.000  153.595   31.102    0.232    0.277   32.586
  225.250  153.609   32.325    0.271    0.267   29.635
  225.500  154.642   34.155    0.294    0.267   29.084
  225.750  155.662   32.953    0.312    0.274   32.608
  226.000  158.721   31.142    0.327    0.282   38.705
  226.250  159.740   32.366    0.336    0.286   47.724
  226.500  161.788   34.196    0.339    0.288   58.845
  226.750  162.808   36.632    0.346    0.291   69.849
  227.000  166.878   41.494    0.359    0.296   82.911
  227.250  169.923   46.359    0.362    0.299   94.747
  227.500  171.958   48.795    0.357    0.294  100.335
  227.750  173.993   47.588    0.347    0.291  104.250
  228.000  176.041   45.779    0.344    0.295  108.305
  228.250  177.061   43.365    0.347    0.300  123.759
  228.500  177.079   43.375    0.352    0.302  146.901
  228.750  176.091   43.993    0.352    0.303  161.606
  229.000  176.109   42.187    0.350    0.300  177.773
  229.250  176.122   40.985    0.355    0.297  188.256
  229.500  176.122   39.783    0.356    0.295  199.346
  229.750  176.154   39.182    0.360    0.298  215.169
  230.000  175.170   40.405    0.365    0.307  232.247
  230.250  175.179   42.842    0.372    0.308  241.309
  230.500  175.206   44.068    0.380    0.310  250.711
  230.750  175.219   43.475    0.385    0.306  255.555
  231.000  175.242   42.268    0.383    0.303  260.524
  231.250  175.251   41.672    0.380    0.293  260.585
  231.500  175.273   41.685    0.376    0.291  265.651
  231.750  175.282   42.305    0.375    0.295  270.816
  232.000  174.294   42.923    0.375    0.297  281.416
  232.250  174.307   43.534    0.369    0.295  292.363
  232.500  173.315   44.758    0.367    0.295  292.449
  232.750  173.337   48.407    0.372    0.294  292.517
  233.000  172.349   48.421    0.376    0.296  292.551
  233.250  172.358   48.426    0.375    0.299  281.730
  233.500  171.370   48.437    0.372    0.307  271.261
  233.750  170.381   48.450    0.368    0.306  246.709
  234.000  170.386   48.458    0.361    0.296  220.138
  234.250  169.398   49.679    0.357    0.288  192.751
  234.500  169.416   50.906    0.367    0.297  182.092
  234.750  168.423   51.520    0.383    0.299  165.610
  235.000  168.441   52.746    0.384    0.294  144.998
  235.250  167.448   54.576    0.388    0.289  126.944
  235.500  165.449   56.404    0.395    0.283  117.671
  235.750  165.458   58.840    0.395    0.286  117.706
  236.000  164.461   55.212    0.387    0.292  127.048
  236.250  163.473   52.797    0.379    0.297  131.998
  236.500  163.486   52.202    0.381    0.298  137.140
  236.750  162.498   53.423    0.383    0.299  134.588
  237.000  161.505   55.253    0.384    0.298  115.623
  237.250  161.519   57.689    0.373    0.289  105.152
  237.500  161.541   61.338    0.367    0.284   97.465
  237.750  161.564   64.988    0.367    0.274   86.978
  238.000  161.573   69.243    0.369    0.266   82.168
  238.250  161.591   68.648    0.374    0.273   79.129
  238.500  161.609   65.023    0.378    0.285   80.658
  238.750  162.637   61.996    0.382    0.293   87.055
  239.000  162.655   57.762    0.382    0.301   92.189
  239.250  162.669   54.134    0.383    0.307   70.653
  239.500  163.702   60.816    0.385    0.298   42.282
  239.750  164.726   75.380    0.388    0.267   32.405
  240.000  164.753   88.732    0.388    0.228   17.302
  240.250  164.767  106.328    0.388    0.191   16.661
  240.500  164.780  106.945    0.384    0.174   17.983
  240.750  163.783  102.711    0.373    0.191   18.331
  241.000  161.784   97.264    0.368    0.227   19.412
  241.250  160.787   93.028    0.368    0.251   22.182
  241.500  156.776   78.485    0.371    0.258   24.399
  241.750  155.769   66.974    0.375    0.268   28.418
  242.000  153.766   59.708    0.376    0.283   31.259
  242.250  152.769   54.261    0.375    0.295   35.724
  242.500  152.787   53.062    0.370    0.305   37.113
  242.750  153.824   55.498    0.366    0.301   40.057
  243.000  154.844   56.716    0.358    0.290   47.553
  243.250  157.894   56.727    0.354    0.291   49.402
  243.500  159.942   54.312    0.361    0.297   52.319
  243.750  159.951   52.507    0.369    0.302   51.348
  244.000  158.963   50.701    0.375    0.301   43.274
  244.250  155.949   50.706    0.369    0.293   26.395
  244.500  153.937   50.720    0.365    0.291   21.828
  244.750  151.933   52.550    0.362    0.287   19.852
  245.000  153.973   54.374    0.361    0.281   18.756
  245.250  157.027   64.694    0.367    0.287   19.487
  245.500  158.056   63.492    0.412    0.329   22.696
  245.750  156.052   59.864    0.475    0.349   29.069
  246.000  150.011   55.630    0.491    0.308   37.948
  246.250  150.020   49.577    0.428    0.273   45.909
  246.500  151.044   41.098    0.376    0.261   55.547
  246.750  153.083   38.080    0.352    0.278   58.816
  247.000  156.138   38.697    0.343    0.293   61.111
  247.250  157.162   39.920    0.336    0.303   56.644
  247.500  157.184   40.532    0.338    0.299   32.022
  247.750  157.202   42.362    0.335    0.292   21.481
  248.000  155.199   49.046    0.328    0.289   17.101
  248.250  151.179   53.299    0.330    0.291    7.694
  248.500  150.181   57.554    0.357    0.282    6.125
  248.750  150.190   64.236    0.400    0.266    6.011
  249.000  150.208   86.077    0.441    0.229    6.366
  249.250  152.252  117.014    0.442    0.192    7.002
  249.500  154.287  116.419    0.431    0.168    8.155
  249.750  157.337  108.546    0.422    0.160    9.680
  250.000  159.385   98.246    0.415    0.198   11.274
  250.250  159.399   71.575    0.411    0.230   13.901
  250.500  157.395   62.492    0.401    0.257   21.948
  250.750  155.392   61.896    0.388    0.273   25.082
