~VERSION INFORMATION
 VERS.                 2.0:   CWLS LOG ASCII STANDARD -VERSION 2.0
 WRAP.                  NO:   ONE LINE PER DEPTH STEP
~WELL INFORMATION BLOCK
#MNEM.UNIT           DATA                    DESCRIPTION OF MNEMONIC
#---------    -------------------            -------------------------------
# Generated from Intellog Unique Number	CS_69_70/WELL/840
WELL.         BVX ET AL TWEEDIE              : Well_name    - WELL
LOC .         00/07-21-069-14W4/0            : Location     - LOCATION
UWI .         00/07-21-069-14W4/0            : Uwi          - UNIQUE WELL ID
ENTR.         SP                             : Entered      - ENTERED BY
SRVC.         SCHLUMBERGER                   : Scn          - SERVICE COMPANY
STRT.M        286.512                        : top_depth    - START DEPTH
STOP.M        472.262                        : bot_depth    - STOP DEPTH
STEP.M        0.25                           : increment    - STEP LENGTH
 NULL. -999.2500:NULL Value
~CURVE INFORMATION BLOCK
#MNEM UNIT       ERCB CURVE CODE    CURVE DESCRIPTION
#-----------   ------------------   ----------------------------------
DEPT.M        00 001 00 00         : DEPTH        - DEPTH
GR  .API      00 310 00 00         : GR           - GAMMA RAY
DPHI.V/V      00 890 00 00         : PHID         - DENSITY POROSITY (SANDSTONE)
NPHI.V/V      00 330 00 00         : PHIN         - NEUTRON POROSITY (SANDSTONE)
ILD .OHMM     00 120 00 00         : RESD         - DEEP RESISTIVITY (DIL)
~PARAMETER INFORMATION
#MNEM.UNIT           DATA             DESCRIPTION OF MNEMONIC
#---------         -----------     ------------------------------
GL  .M        569.9                : gl           - GROUND LEVEL ELEVATION
EREF.M        573.024              : kb           - ELEVATION OF DEPTH REFERENCE
DATM.M        569.9                : datum        - DATUM ELEVATION
TDD .M        478.536              : tdd          - TOTAL DEPTH DRILLER
RUN .         ONE                  : Run          - RUN NUMBER
ENG .         BILL                 : Engineer     - RECORDING ENGINEER
WIT .         JIM                  : Witness      - WITNESSED BY
MUD .         GEL                  : Mud_type     - MUD TYPE
MATR.         SANDSTONE            : Logunit      - NEUTRON MATRIX
TMAX.C        27.7778              : BHT          - MAXIMUM RECORDED TEMPERATURE
BHTD.M        478.536              : BHTDEP       - MAXIMUM RECORDED TEMPERATURE
MATR.         1                    : LOGUNIT      - NEUTRON MATRIX
RMT .C        25                   : MDTP         - TEMPERATURE OF MUD
NEUT.         1                    : NEUTRON      - NEUTRON TYPE
RESI.         0                    : RESIST       - RESISTIVITY TYPE
RMC .OHMM     0.25                 : RMC          - RESISTIVITY OF MUD CAKE
RMF .OHMM     0.25                 : RMF          - RESISTIVITY OF MUD FILTRATE
SUFT.C        15                   : SUFT         - SURFACE TEMPERATURE
~A  DEPTH       GR     PHID     PHIN     RESD
# ...
  417.012  119.921    0.249    0.554    2.858
  417.262  117.938    0.240    0.540    2.861
  417.512  116.325    0.212    0.525    2.900
  417.762  114.036    0.195    0.522    3.012
  418.012  111.268    0.193    0.500    2.989
  418.262  107.871    0.200    0.483    3.109
  418.512   91.540    0.201    0.472    3.231
  418.762   83.056    0.210    0.456    3.329
  419.012   84.640    0.052    0.431    3.510
  419.262   90.294    0.035    0.428    3.618
  419.512   95.014    0.164    0.436    3.695
  419.762   98.801    0.232    0.451    3.790
  420.012  103.081    0.176    0.415    3.929
  420.262  105.917    0.139    0.392    4.124
  420.512  109.586    0.127    0.372    4.381
  420.762  106.025    0.145    0.389    4.693
  421.012   81.907    0.153    0.391    5.053
  421.262   69.950    0.102    0.308    5.509
  421.512   61.032    0.028    0.247    6.214
  421.762   69.958   -0.002    0.230    7.359
  422.012   78.784    0.012    0.228    8.979
  422.262   85.669    0.024    0.240   12.181
  422.512   91.731    0.056    0.356   15.331
  422.762   97.000    0.096    0.437   13.417
  423.012  102.051    0.151    0.447    9.800
  423.262  104.143    0.191    0.448    6.585
  423.512  105.194    0.196    0.451    5.482
  423.762  106.526    0.201    0.456    4.933
  424.012  108.583    0.197    0.453    4.805
  424.262  108.383    0.194    0.445    4.798
  424.512  106.589    0.194    0.443    4.829
  424.762  106.608    0.176    0.453    4.883
  425.012  108.237    0.155    0.462    4.931
  425.262  109.136    0.163    0.468    5.015
  425.512  106.895    0.171    0.472    5.129
  425.762  102.512    0.180    0.469    5.274
  426.012   98.461    0.159    0.448    5.420
  426.262   96.440    0.128    0.394    5.592
  426.512  102.335    0.097    0.358    5.813
  426.762  106.876    0.159    0.382    6.037
  427.012  109.771    0.188    0.425    6.267
  427.262  109.735    0.163    0.450    6.357
  427.512  110.931    0.145    0.436    6.066
  427.762  111.312    0.137    0.422    5.646
  428.012  110.226    0.148    0.412    5.354
  428.262  114.329    0.176    0.411    5.192
  428.512  116.420    0.191    0.427    5.124
  428.762  117.713    0.199    0.418    5.054
  429.012  116.801    0.195    0.414    5.019
  429.262  112.785    0.188    0.419    4.991
  429.512  108.483    0.182    0.429    5.056
  429.762  106.389    0.184    0.430    5.082
  430.012  108.302    0.183    0.426    5.109
  430.262  105.398    0.176    0.437    5.091
  430.512  101.412    0.162    0.440    4.940
  430.762  104.464    0.143    0.440    4.962
  431.012  106.709    0.129    0.441    4.998
  431.262  107.024    0.122    0.447    5.130
  431.512  108.967    0.171    0.452    5.283
  431.762  112.262    0.177    0.452    5.390
  432.012  114.696    0.178    0.438    5.470
  432.262  114.010    0.197    0.421    5.508
  432.512  112.537    0.184    0.400    5.428
  432.762  111.473    0.166    0.387    5.304
  433.012  111.269    0.165    0.381    5.163
  433.262  111.445    0.160    0.379    5.081
  433.512  111.179    0.157    0.407    5.060
  433.762  110.547    0.160    0.435    5.110
  434.012  107.584    0.149    0.428    5.085
  434.262  106.546    0.145    0.438    4.527
  434.512  111.523    0.191    0.434    3.843
  434.762  112.922    0.209    0.478    3.290
  435.012  113.262    0.225    0.521    2.633
  435.262  115.370    0.228    0.528    2.346
  435.512  118.498    0.218    0.515    2.168
  435.762  120.358    0.214    0.516    2.093
  436.012  117.982    0.217    0.531    2.049
  436.262  113.217    0.213    0.555    2.467
  436.512  108.077    0.220    0.495    3.069
  436.762  101.051    0.215    0.455    3.923
  437.012   98.105    0.219    0.418    4.703
  437.262   96.414    0.203    0.391    5.523
  437.512   96.501    0.167    0.367    6.318
  437.762   97.330    0.145    0.361    6.789
  438.012   96.903    0.157    0.391    6.984
  438.262   96.889    0.147    0.375    6.977
  438.512   93.818    0.138    0.374    6.787
  438.762   87.958    0.141    0.399    6.985
  439.012   79.875    0.151    0.353    7.741
  439.262   75.006    0.098    0.298    8.300
  439.512   80.659    0.057    0.260    8.933
  439.762   86.823    0.031    0.248    9.260
  440.012   96.561    0.061    0.312    9.258
  440.262  107.305    0.097    0.355    7.514
  440.512  119.439    0.135    0.382    6.235
  440.762  126.822    0.164    0.404    5.331
  441.012  128.327    0.132    0.419    4.967
  441.262  125.985    0.132    0.430    4.843
  441.512  120.749    0.147    0.422    4.805
  441.762  115.639    0.130    0.404    4.805
  442.012  119.232    0.083    0.402    4.793
  442.262  121.809    0.093    0.416    4.719
  442.512  119.559    0.131    0.421    4.614
  442.762  121.460    0.148    0.427    4.422
  443.012  127.034    0.126    0.438    4.247
  443.262  131.608    0.111    0.443    4.073
  443.512  134.662    0.141    0.459    3.924
  443.762  136.228    0.177    0.484    3.785
  444.012  136.242    0.166    0.492    3.685
  444.262  135.939    0.160    0.496    3.651
  444.512  136.185    0.163    0.501    3.664
  444.762  135.240    0.174    0.505    3.699
  445.012  132.075    0.158    0.508    3.699
  445.262  130.520    0.136    0.483    3.633
  445.512  131.875    0.120    0.474    3.505
  445.762  134.393    0.097    0.467    3.317
  446.012  137.675    0.197    0.468    3.179
  446.262  140.490    0.214    0.479    3.100
  446.512  142.510    0.202    0.488    3.091
  446.762  143.201    0.204    0.507    3.170
  447.012  140.246    0.214    0.492    3.403
  447.262  135.761    0.197    0.495    3.558
  447.512  130.727    0.170    0.488    3.572
  447.762  131.476    0.143    0.446    3.347
  448.012  139.068    0.116    0.443    3.161
  448.262  147.538    0.150    0.483    2.977
  448.512  149.296    0.174    0.509    2.799
  448.762  148.362    0.184    0.525    2.741
  449.012  147.520    0.185    0.508    2.748
  449.262  145.262    0.189    0.488    3.103
  449.512  133.572    0.174    0.485    3.845
  449.762  119.245    0.166    0.463    4.957
  450.012  106.021    0.145    0.411    7.388
  450.262   93.741    0.129    0.372    9.468
  450.512  101.194    0.114    0.385   10.490
  450.762  107.579    0.196    0.397   10.346
  451.012  112.689    0.215    0.406    8.937
  451.262  118.094    0.204    0.410    7.707
  451.512  117.757    0.193    0.404    6.903
  451.762  101.671    0.195    0.402    6.867
  452.012   89.819    0.200    0.402    7.168
  452.262   85.168    0.224    0.401    8.116
  452.512   83.035    0.237    0.390    9.662
  452.762   80.641    0.196    0.377   11.840
  453.012   77.146    0.153    0.341   13.383
  453.262   74.397    0.114    0.288   14.648
  453.512   71.700    0.044    0.258   15.354
  453.762   73.138    0.019    0.245   16.257
  454.012   75.161    0.034    0.250   16.393
  454.262   77.961    0.049    0.277   13.971
  454.512   82.016    0.064    0.339   11.640
  454.762   87.281    0.081    0.366   10.021
  455.012   92.546    0.107    0.386    8.808
  455.262   99.997    0.124    0.391    7.830
  455.512  106.101    0.141    0.382    7.062
  455.762  110.137    0.171    0.378    6.545
  456.012  114.046    0.167    0.374    6.175
  456.262  120.872    0.176    0.386    6.053
  456.512  129.442    0.190    0.400    5.983
  456.762  137.900    0.211    0.392    5.990
  457.012  141.043    0.178    0.409    6.148
  457.262  133.919    0.147    0.428    6.447
  457.512  125.924    0.161    0.438    6.795
  457.762  116.893    0.170    0.431    7.175
  458.012  111.253    0.172    0.412    7.480
  458.262  107.088    0.174    0.395    7.836
  458.512  103.977    0.184    0.387    8.206
  458.762  101.459    0.175    0.396    8.506
  459.012   99.894    0.174    0.397    8.754
  459.262   99.547    0.146    0.393    8.894
  459.512  101.210    0.125    0.393    8.921
  459.762  101.946    0.152    0.406    8.949
  460.012   98.315    0.173    0.414    9.123
  460.262   94.773    0.202    0.410    9.404
