~VERSION INFORMATION
 VERS.                 2.0:   CWLS LOG ASCII STANDARD -VERSION 2.0
 WRAP.                  NO:   ONE LINE PER DEPTH STEP
~WELL INFORMATION BLOCK
#MNEM.UNIT           DATA                    DESCRIPTION OF MNEMONIC
#---------    -------------------            -------------------------------
# Generated from Intellog Unique Number	CW_79_81/WELL/2462
WELL.         07-32-081-20W4                 : Well_name    - WELL
LOC .         00/07-32-081-20W4/0            : Location     - LOCATION
UWI .         00/07-32-081-20W4/0            : Uwi          - UNIQUE WELL ID
ENTR.         MAX                            : Entered      - ENTERED BY
SRVC.         COMPUTALOG                     : Scn          - SERVICE COMPANY
STRT.M        152.4                          : top_depth    - START DEPTH
STOP.M        383.90                         : bot_depth    - STOP DEPTH
STEP.M        0.25                           : increment    - STEP LENGTH
 NULL. -999.2500:NULL Value
~CURVE INFORMATION BLOCK
#MNEM UNIT       ERCB CURVE CODE    CURVE DESCRIPTION
#-----------   ------------------   ----------------------------------
DEPT.M        00 001 00 00         : DEPTH        - DEPTH
ILD .OHMM     00 120 00 00         : RESD         - DEEP RESISTIVITY (DIL)
NPHI.V/V      00 330 00 00         : PHIN         - NEUTRON POROSITY (SANDSTONE)
DPHI.V/V      00 890 00 00         : PHID         - DENSITY POROSITY (SANDSTONE)
GR  .API      00 310 00 00         : GR           - GAMMA RAY
CALI.MM       00 280 01 00         : CAL          - CALIPER
~PARAMETER INFORMATION
#MNEM.UNIT           DATA             DESCRIPTION OF MNEMONIC
#---------         -----------     ------------------------------
GL  .M        586.77               : gl           - GROUND LEVEL ELEVATION
EREF.M        590.123              : kb           - ELEVATION OF DEPTH REFERENCE
DATM.M        586.77               : datum        - DATUM ELEVATION
TDD .M        399.288              : tdd          - TOTAL DEPTH DRILLER
RUN .         ONE                  : Run          - RUN NUMBER
ENG .         BILL                 : Engineer     - RECORDING ENGINEER
WIT .         JIM                  : Witness      - WITNESSED BY
MUD .         GEL                  : Mud_type     - MUD TYPE
MATR.         SANDSTONE            : Logunit      - NEUTRON MATRIX
TMAX.C        16.6667              : BHT          - MAXIMUM RECORDED TEMPERATURE
BHTD.M        399.288              : BHTDEP       - MAXIMUM RECORDED TEMPERATURE
MATR.         1                    : LOGUNIT      - NEUTRON MATRIX
RMT .C        7.77778              : MDTP         - TEMPERATURE OF MUD
NEUT.         1                    : NEUTRON      - NEUTRON TYPE
RESI.         0                    : RESIST       - RESISTIVITY TYPE
RMC .OHMM     3.9                  : RMC          - RESISTIVITY OF MUD CAKE
RMF .OHMM     4.15                 : RMF          - RESISTIVITY OF MUD FILTRATE
SUFT.C        -20.5556             : SUFT         - SURFACE TEMPERATURE
~A  DEPTH     RESD     PHIN     PHID       GR      CAL
# ...
  334.900   11.014    0.431    0.218  141.536  158.125
  335.150   10.992    0.445    0.221  143.466  159.464
  335.400   10.892    0.447    0.220  152.067  162.334
  335.650   10.828    0.436    0.218  156.301  162.293
  335.900   10.715    0.429    0.214  155.919  162.248
  336.150   10.588    0.426    0.211  152.341  162.200
  336.400   10.460    0.430    0.210  146.929  162.151
  336.650   10.319    0.445    0.211  140.730  162.180
  336.900   10.252    0.434    0.213  139.469  162.550
  337.150   10.219    0.420    0.212  141.336  162.905
  337.400   10.209    0.438    0.207  144.445  163.260
  337.650   10.222    0.445    0.205  146.075  163.617
  337.900   10.244    0.436    0.205  144.214  163.875
  338.150   10.242    0.447    0.201  138.343  163.981
  338.400   10.240    0.458    0.199  142.259  164.764
  338.650   10.239    0.470    0.203  148.618  165.123
  338.900   10.190    0.465    0.202  151.079  164.578
  339.150   10.125    0.453    0.199  149.869  163.731
  339.400   10.068    0.439    0.192  147.297  163.384
  339.650   10.008    0.419    0.177  148.381  164.698
  339.900    9.875    0.410    0.171  151.558  165.486
  340.150    9.428    0.440    0.198  149.875  165.436
  340.400    9.250    0.447    0.200  151.209  165.386
  340.650    9.186    0.433    0.200  154.732  165.943
  340.900    9.184    0.418    0.203  160.385  166.605
  341.150    9.315    0.432    0.202  168.282  165.494
  341.400    9.510    0.434    0.208  165.295  164.199
  341.650    9.665    0.423    0.205  159.115  162.946
  341.900    9.750    0.420    0.197  152.042  161.994
  342.150    9.827    0.426    0.192  148.937  161.748
  342.400    9.942    0.437    0.191  150.450  161.606
  342.650   10.229    0.441    0.193  152.775  159.528
  342.900   10.757    0.441    0.201  151.514  157.383
  343.150   11.617    0.423    0.211  143.914  156.545
  343.400   12.599    0.380    0.230  134.535  156.302
  343.650   13.708    0.356    0.240  128.234  156.053
  343.900   15.021    0.353    0.237  125.308  155.705
  344.150   16.934    0.326    0.223  120.403  155.654
  344.400   17.859    0.289    0.207  114.948  155.607
  344.650   19.245    0.212    0.183  108.768  155.561
  344.900   20.427    0.136    0.118  103.297  155.505
  345.150   21.154    0.072    0.094  105.282  155.455
  345.400   21.326    0.082    0.121  113.361  155.213
  345.650   20.986    0.302    0.170  118.456  154.193
  345.900   20.560    0.428    0.297  120.401  153.306
  346.150   19.988    0.435    0.278  116.824  153.260
  346.400   18.389    0.423    0.259  122.477  154.420
  346.650   17.575    0.407    0.241  125.999  154.573
  346.900   17.781    0.391    0.231  123.427  153.520
  347.150   18.309    0.372    0.227  118.435  153.067
  347.400   18.112    0.357    0.213  119.637  153.015
  347.650   16.732    0.342    0.210  115.348  152.573
  347.900   15.789    0.346    0.211  114.432  152.432
  348.150   15.441    0.355    0.203  115.233  152.386
  348.400   15.661    0.355    0.185  117.336  152.436
  348.650   16.136    0.317    0.167  122.157  152.945
  348.900   15.388    0.271    0.169  125.090  153.737
  349.150   15.574    0.303    0.187  129.087  154.092
  349.400   14.764    0.355    0.222  128.289  154.444
  349.650   13.605    0.402    0.233  126.959  155.400
  349.900   12.633    0.424    0.219  127.169  156.861
  350.150   12.201    0.407    0.216  129.585  158.091
  350.400   12.232    0.403    0.217  133.502  158.456
  350.650   12.355    0.407    0.213  136.549  157.609
  350.900   12.479    0.400    0.208  139.776  157.066
  351.150   12.634    0.388    0.206  139.632  156.822
  351.400   12.837    0.375    0.205  135.702  156.775
  351.650   13.132    0.355    0.198  129.367  156.716
  351.900   13.361    0.339    0.185  122.679  156.674
  352.150   13.232    0.286    0.186  121.705  157.416
  352.400   13.057    0.301    0.213  127.301  157.871
  352.650   12.834    0.343    0.225  131.418  158.226
  352.900   12.669    0.384    0.215  131.093  158.479
  353.150   12.838    0.398    0.206  128.056  158.429
  353.400   13.231    0.369    0.194  126.061  158.387
  353.650   13.758    0.342    0.193  121.771  158.742
  353.900   13.872    0.323    0.193  121.922  158.793
  354.150   13.678    0.306    0.190  124.617  159.148
  354.400   13.220    0.299    0.189  127.429  160.005
  354.650   12.344    0.331    0.203  128.185  161.312
  354.900   11.726    0.367    0.222  132.105  162.109
  355.150   11.151    0.389    0.219  130.185  162.856
  355.400   10.944    0.393    0.222  129.325  163.015
  355.650   10.926    0.399    0.217  132.493  162.573
  355.900   10.987    0.409    0.208  137.026  161.724
  356.150   11.055    0.401    0.210  134.871  160.857
  356.400   11.085    0.395    0.209  136.075  160.805
  356.650   11.084    0.404    0.209  141.726  160.363
  356.900   11.035    0.415    0.204  146.140  159.921
  357.150   10.922    0.412    0.196  147.182  160.076
  357.400   10.680    0.398    0.186  145.201  161.230
  357.650   10.158    0.398    0.174  142.789  163.835
  357.900    9.895    0.420    0.160  141.528  165.040
  358.150    9.351    0.434    0.187  147.421  165.386
  358.400    8.959    0.445    0.196  148.874  166.340
  358.650    8.725    0.458    0.189  150.267  166.497
  358.900    8.606    0.465    0.175  151.956  165.654
  359.150    8.503    0.445    0.163  151.102  164.968
  359.400    8.468    0.435    0.149  155.268  165.751
  359.650    8.435    0.446    0.182  159.738  166.511
  359.900    8.472    0.451    0.194  160.656  167.558
  360.150    8.580    0.446    0.197  159.918  168.107
  360.400    8.871    0.433    0.195  158.766  167.963
  360.650    9.726    0.416    0.191  157.489  167.009
  360.900   10.187    0.431    0.194  155.984  164.452
  361.150   11.434    0.429    0.188  144.597  164.416
  361.400   13.084    0.412    0.184  135.693  164.372
  361.650   15.021    0.367    0.175  127.735  163.924
  361.900   17.314    0.320    0.167  123.327  163.274
  362.150   21.065    0.349    0.181  131.228  163.055
  362.400   22.792    0.389    0.192  141.311  162.163
  362.650   23.970    0.395    0.202  143.178  162.522
  362.900   24.563    0.387    0.207  143.094  162.274
  363.150   24.830    0.367    0.202  144.842  161.227
  363.400   24.954    0.339    0.188  147.950  160.081
  363.650   24.977    0.299    0.173  146.994  160.506
  363.900   24.942    0.282    0.163  143.514  160.875
  364.150   24.846    0.317    0.180  145.853  160.834
  364.400   24.774    0.323    0.193  149.435  161.084
  364.650   24.709    0.316    0.201  148.226  161.236
  364.900   24.644    0.317    0.206  143.050  161.293
  365.150   24.579    0.344    0.209  139.180  161.636
  365.400   24.577    0.324    0.213  127.071  161.598
  365.650   24.575    0.279    0.228  112.130  161.948
  365.900   24.621    0.283    0.245   97.721  161.701
  366.150   24.681    0.293    0.263   86.093  160.251
  366.400   24.742    0.289    0.272   78.374  157.999
  366.650   24.849    0.273    0.261   74.795  156.345
  366.900   25.076    0.254    0.264   76.000  156.297
  367.150   25.201    0.295    0.292   77.395  159.453
  367.400   25.230    0.294    0.288   77.014  160.508
  367.650   25.228    0.282    0.282   76.396  160.864
  367.900   25.234    0.281    0.285   76.071  161.120
  368.150   25.264    0.306    0.284   75.413  161.068
  368.400   25.261    0.306    0.286   74.648  161.016
  368.650   25.197    0.296    0.291   73.435  160.975
  368.900   25.085    0.293    0.292   73.644  160.930
  369.150   24.925    0.286    0.292   75.038  160.882
  369.400   24.703    0.274    0.292   77.499  160.632
  369.650   24.307    0.274    0.299   81.855  159.603
  369.900   23.914    0.308    0.297   86.021  158.721
  370.150   23.279    0.354    0.298   89.781  158.675
  370.400   21.572    0.351    0.282   95.139  159.531
  370.650   17.377    0.347    0.263   99.253  160.488
  370.900   13.647    0.360    0.244  102.479  161.345
  371.150   11.918    0.370    0.212  109.501  162.497
