~VERSION INFORMATION
 VERS.                 2.0:   CWLS LOG ASCII STANDARD -VERSION 2.0
 WRAP.                  NO:   ONE LINE PER DEPTH STEP
~WELL INFORMATION BLOCK
#MNEM.UNIT           DATA                    DESCRIPTION OF MNEMONIC
#---------    -------------------            -------------------------------
# Generated from Intellog Unique Number	CS_67_68/WELL/2183
WELL.         GOLDEN EAGLE OIL & GAS         : Well_name    - WELL
LOC .         00/08-02-067-15W4/0            : Location     - LOCATION
UWI .         00/08-02-067-15W4/0            : Uwi          - UNIQUE WELL ID
ENTR.         SP                             : Entered      - ENTERED BY
SRVC.         SCHLUMBERGER                   : Scn          - SERVICE COMPANY
STRT.M        335                            : top_depth    - START DEPTH
STOP.M        513                            : bot_depth    - STOP DEPTH
STEP.M        0.25                           : increment    - STEP LENGTH
 NULL. -999.2500:NULL Value
~CURVE INFORMATION BLOCK
#MNEM UNIT       ERCB CURVE CODE    CURVE DESCRIPTION
#-----------   ------------------   ----------------------------------
DEPT.M        00 001 00 00         : DEPTH        - DEPTH
ILD .OHMM     00 120 00 00         : RESD         - DEEP RESISTIVITY (DIL)
DPHI.V/V      00 890 00 00         : PHID         - DENSITY POROSITY (LIMESTONE)
NPHI.V/V      00 330 00 00         : PHIN         - NEUTRON POROSITY (LIMESTONE)
GR  .API      00 310 00 00         : GR           - GAMMA RAY
CALI.MM       00 280 01 00         : CAL          - CALIPER
~PARAMETER INFORMATION
#MNEM.UNIT           DATA             DESCRIPTION OF MNEMONIC
#---------         -----------     ------------------------------
GL  .M        594.3                : gl           - GROUND LEVEL ELEVATION
EREF.M        597.3                : kb           - ELEVATION OF DEPTH REFERENCE
DATM.M        597.3                : datum        - DATUM ELEVATION
TDD .M        515                  : tdd          - TOTAL DEPTH DRILLER
RUN .         ONE                  : Run          - RUN NUMBER
ENG .         BILL                 : Engineer     - RECORDING ENGINEER
WIT .         JIM                  : Witness      - WITNESSED BY
MUD .         GEL                  : Mud_type     - MUD TYPE
MATR.         LIMESTONE            : Logunit      - NEUTRON MATRIX
TMAX.C        25                   : BHT          - MAXIMUM RECORDED TEMPERATURE
BHTD.M        516                  : BHTDEP       - MAXIMUM RECORDED TEMPERATURE
MATR.         1                    : LOGUNIT      - NEUTRON MATRIX
RMT .C        25                   : MDTP         - TEMPERATURE OF MUD
NEUT.         1                    : NEUTRON      - NEUTRON TYPE
RESI.         0                    : RESIST       - RESISTIVITY TYPE
RMC .OHMM     0.25                 : RMC          - RESISTIVITY OF MUD CAKE
RMF .OHMM     0.25                 : RMF          - RESISTIVITY OF MUD FILTRATE
SUFT.C        15                   : SUFT         - SURFACE TEMPERATURE
~A  DEPTH     RESD     PHID     PHIN       GR      CAL
  335.000    2.686    0.207    0.463  112.397  214.861
  335.250    2.700    0.197    0.469  112.342  216.393
  335.500    2.714    0.201    0.450  111.860  217.313
  335.750    2.780    0.209    0.441  111.501  218.134
  336.000    2.842    0.199    0.445  108.220  218.548
  336.250    2.878    0.193    0.437  105.791  218.456
  336.500    2.882    0.187    0.431  104.701  217.958
  336.750    2.866    0.183    0.426  108.297  217.561
  337.000    2.854    0.175    0.438  110.980  217.164
  337.250    2.811    0.208    0.437  114.088  216.564
  337.500    2.759    0.217    0.423  117.319  215.660
  337.750    2.743    0.206    0.432  110.510  214.047
  338.000    2.772    0.213    0.434  110.514  212.230
  338.250    2.829    0.205    0.424  112.285  210.921
  338.500    2.908    0.198    0.431  112.898  210.118
  338.750    2.923    0.183    0.420  110.835  209.621
  339.000    2.885    0.135    0.407  106.580  204.355
  339.250    2.727    0.171    0.399  103.117  201.321
  339.500    2.727    0.180    0.410  106.895  207.214
  339.750    2.772    0.175    0.408  109.883  211.177
  340.000    2.650    0.221    0.398  109.036  216.156
  340.250    2.410    0.255    0.373   95.958  212.209
  340.500    2.254    0.280    0.328   84.523  202.685
  340.750    2.088    0.286    0.310   74.731  192.044
  341.000    2.107    0.286    0.304   63.417  184.852
  341.250    2.508    0.304    0.315   60.015  183.644
  341.500    2.792    0.317    0.313   63.610  182.233
  341.750    2.539    0.318    0.316   66.476  182.242
  342.000    2.326    0.331    0.331   66.664  183.164
  342.250    2.135    0.229    0.336   70.442  185.099
  342.500    1.985    0.214    0.326   74.769  185.413
  342.750    1.952    0.296    0.316   76.903  185.117
  343.000    1.981    0.319    0.329   73.927  184.417
  343.250    2.047    0.333    0.337   71.133  183.919
  343.500    2.124    0.326    0.343   69.922  183.117
  343.750    2.179    0.316    0.355   72.969  182.618
  344.000    2.232    0.302    0.362   78.269  182.221
  344.250    2.307    0.252    0.351   84.117  182.128
  344.500    2.394    0.281    0.342   88.442  181.529
  344.750    2.544    0.276    0.341   88.083  181.842
  345.000    2.734    0.256    0.346   86.262  182.257
  345.250    2.955    0.251    0.340   88.397  183.178
  345.500    3.176    0.265    0.344   87.856  183.188
  345.750    3.394    0.259    0.349   88.287  182.690
  346.000    3.723    0.250    0.346   90.727  182.090
  346.250    4.137    0.243    0.348   94.749  181.896
  346.500    4.480    0.219    0.355   98.404  183.730
  346.750    3.525    0.194    0.354  101.696  186.477
  347.000    2.779    0.183    0.361  104.927  189.124
  347.250    2.513    0.173    0.378  108.948  191.567
  347.500    2.578    0.170    0.395  111.571  194.923
  347.750    2.766    0.172    0.408  113.827  199.090
  348.000    2.945    0.203    0.416  117.119  203.359
  348.250    3.273    0.215    0.430  121.080  203.875
  348.500    3.781    0.232    0.415  117.495  198.001
  348.750    4.087    0.222    0.377  107.459  193.651
  349.000    4.320    0.208    0.356   98.519  192.442
  349.250    4.255    0.194    0.346   94.630  191.334
  349.500    4.076    0.233    0.340   91.897  190.329
  349.750    3.832    0.258    0.340   94.154  190.135
  350.000    3.630    0.208    0.344   96.228  188.217
  350.250    3.420    0.207    0.359   97.207  185.589
  350.500    3.234    0.245    0.368   94.474  183.163
  350.750    3.081    0.244    0.358   92.533  182.158
  351.000    3.029    0.239    0.369   92.233  184.602
  351.250    3.090    0.223    0.365   92.725  185.929
  351.500    3.182    0.200    0.378   95.347  185.634
  351.750    3.199    0.226    0.376   97.301  184.324
  352.000    3.169    0.228    0.363   95.662  183.116
  352.250    3.092    0.215    0.352   93.477  182.213
  352.500    3.006    0.233    0.350   96.464  182.322
  352.750    2.896    0.245    0.354   97.687  182.027
  353.000    2.816    0.252    0.376   94.285  181.123
  353.250    2.738    0.250    0.393   90.882  180.523
  353.500    2.701    0.252    0.383   87.905  180.634
  353.750    2.691    0.263    0.386   86.329  180.947
  354.000    2.690    0.267    0.383   86.456  181.159
  354.250    2.684    0.265    0.384   87.983  181.472
  354.500    2.673    0.259    0.392   91.943  181.684
  354.750    2.687    0.259    0.384   90.610  182.201
  355.000    2.773    0.260    0.382   88.850  182.310
  355.250    2.969    0.259    0.383   89.160  182.421
  355.500    3.185    0.256    0.376   90.017  182.328
  355.750    3.461    0.250    0.369   91.545  182.540
  356.000    3.755    0.233    0.369   93.741  184.577
  356.250    3.983    0.201    0.399  103.908  187.020
  356.500    4.171    0.188    0.406  115.050  190.681
  356.750    4.280    0.186    0.395  120.471  193.834
  357.000    4.302    0.184    0.386  120.660  196.074
  357.250    4.309    0.197    0.378  117.745  195.880
  357.500    4.197    0.218    0.381  115.254  193.962
  357.750    4.104    0.209    0.368  111.304  192.653
  358.000    3.990    0.204    0.360  108.692  192.256
  358.250    3.815    0.217    0.352  107.116  192.975
  358.500    3.614    0.227    0.361  105.844  193.390
  358.750    3.494    0.227    0.352  104.875  193.094
  359.000    3.467    0.226    0.341  104.819  191.785
  359.250    3.505    0.220    0.351  105.312  189.968
  359.500    3.484    0.212    0.351  106.109  188.254
  359.750    3.289    0.227    0.340  106.357  187.958
  360.000    3.092    0.244    0.352  105.633  188.270
  360.250    2.786    0.243    0.361  104.968  189.395
  360.500    2.487    0.229    0.370  104.608  189.405
  360.750    2.296    0.213    0.389  106.621  189.717
  361.000    2.179    0.201    0.392  108.757  189.625
  361.250    2.068    0.222    0.386  106.206  188.011
  361.500    2.044    0.257    0.387   98.545  186.702
  361.750    2.113    0.283    0.392   94.169  185.493
  362.000    2.148    0.308    0.397   91.922  184.691
  362.250    2.200    0.310    0.387   91.319  183.990
  362.500    2.304    0.300    0.378   89.072  183.289
  362.750    2.480    0.292    0.384   90.600  182.588
  363.000    2.686    0.293    0.386   92.126  181.583
  363.250    2.887    0.290    0.383   89.941  180.780
  363.500    3.114    0.270    0.384   92.989  179.979
  363.750    3.291    0.237    0.385   96.889  179.682
  364.000    2.927    0.236    0.371  100.059  180.097
  364.250    2.613    0.243    0.372  100.429  180.411
  364.500    2.403    0.214    0.372   96.784  180.825
  364.750    2.367    0.229    0.375  100.257  181.444
  365.000    2.469    0.263    0.391   94.786  181.959
  365.250    2.581    0.295    0.404   91.810  182.373
  365.500    2.609    0.296    0.399   92.606  182.686
  365.750    2.604    0.274    0.393   94.558  182.797
  366.000    2.531    0.254    0.385   96.998  183.111
  366.250    2.466    0.247    0.380   98.038  183.423
  366.500    2.402    0.245    0.373   98.165  183.432
  366.750    2.405    0.255    0.366  101.639  183.442
  367.000    2.427    0.266    0.381  103.288  183.349
  367.250    2.467    0.265    0.387  102.440  182.952
  367.500    2.522    0.254    0.394   97.334  182.758
  367.750    2.617    0.260    0.405   95.575  182.767
  368.000    2.745    0.277    0.412   90.651  182.370
  368.250    2.838    0.289    0.416   89.440  182.177
  368.500    2.939    0.274    0.407   93.461  181.882
  368.750    3.015    0.255    0.401   95.109  181.788
  369.000    2.835    0.240    0.407   95.541  181.798
  369.250    2.676    0.229    0.410   97.676  181.705
  369.500    2.611    0.222    0.399   99.385  181.714
  369.750    2.635    0.219    0.397   98.600  181.724
  370.000    2.703    0.218    0.390   94.285  181.529
  370.250    2.663    0.242    0.381   90.153  181.031
  370.500    2.589    0.289    0.369   87.601  180.634
  370.750    2.559    0.265    0.367   89.858  180.340
  371.000    2.660    0.254    0.373   91.324  180.247
  371.250    2.880    0.255    0.369   88.226  180.052
