~VERSION INFORMATION
 VERS.                 2.0:   CWLS LOG ASCII STANDARD -VERSION 2.0
 WRAP.                  NO:   ONE LINE PER DEPTH STEP
~WELL INFORMATION BLOCK
#MNEM.UNIT           DATA                    DESCRIPTION OF MNEMONIC
#---------    -------------------            -------------------------------
# Generated from Intellog Unique Number	CC_80_83/WELL/1181
NULL.         -999.25                        : NULL_VALUE
WELL.         CAN SUP PONY                   : Well_name    - WELL
LOC .         07-11-082-07W4                 : Location     - LOCATION          
UWI .         00/07-11-082-07W4/0            : Uwi          - UNIQUE WELL ID    
ENTR.         DW                             : Entered      - ENTERED BY        
SRVC.         SCHLUMBERGER                   : Scn          - SERVICE COMPANY   
DATE.         14 FEB 77                      : Date         - LOG DATE
STRT.M        228.6                          : top_depth    - START DEPTH       
STOP.M        478.542                        : bot_depth    - STOP DEPTH        
STEP.M        0.305                          : increment    - STEP LENGTH       
~CURVE INFORMATION BLOCK
#MNEM UNIT       ERCB CURVE CODE    CURVE DESCRIPTION
#-----------   ------------------   ----------------------------------
DEPT.M        00 001 00 00         : DEPTH        - DEPTH                       
DPHI.V/V      00 890 00 00         : PHID         - DENSITY POROSITY (LIMESTONE)
NPHI.V/V      00 330 00 00         : PHIN         - NEUTRON POROSITY (LIMESTONE)
GR  .API      00 310 00 00         : GR           - GAMMA RAY                   
ILD .OHMM     00 120 00 00         : RESD         - DEEP RESISTIVITY (DIL)      
~PARAMETER INFORMATION       
#MNEM.UNIT           DATA             DESCRIPTION OF MNEMONIC
#---------         -----------     ------------------------------
GL  .M        0                    : gl           - GROUND LEVEL ELEVATION      
EREF.M        0                    : kb           - ELEVATION OF DEPTH REFERENCE
DATM.M        0                    : datum        - DATUM ELEVATION             
TDD .M        487.68               : tdd          - TOTAL DEPTH DRILLER         
RUN .         ONE                  : Run          - RUN NUMBER                  
ENG .         BILL                 : Engineer     - RECORDING ENGINEER          
WIT .         JIM                  : Witness      - WITNESSED BY                
MUD .         GEL                  : Mud_type     - MUD TYPE                    
MATR.         LIMESTONE            : Logunit      - NEUTRON MATRIX              
TMAX.C        21.6667              : BHT          - MAXIMUM RECORDED TEMPERATURE
BHTD.M        487.68               : BHTDEP       - MAXIMUM RECORDED TEMPERATURE
MATR.         1                    : LOGUNIT      - NEUTRON MATRIX              
RMT .C        25                   : MDTP         - TEMPERATURE OF MUD          
NEUT.         1                    : NEUTRON      - NEUTRON TYPE                
RESI.         0                    : RESIST       - RESISTIVITY TYPE            
RMC .OHMM     0.25                 : RMC          - RESISTIVITY OF MUD CAKE     
RMF .OHMM     0.25                 : RMF          - RESISTIVITY OF MUD FILTRATE 
SUFT.C        4                    : SUFT         - SURFACE TEMPERATURE         
~A  DEPTH     PHID     PHIN       GR     RESD
# ...
  281.635    0.331    0.417   80.532   28.977
  281.940    0.325    0.421   85.990   27.901
  282.245    0.313    0.425   91.451   24.484
  282.550    0.297    0.426   92.070   22.303
  282.855    0.274    0.428   96.321   19.213
  283.160    0.264    0.431   98.757   17.177
  283.464    0.265    0.452   98.166   15.936
  283.769    0.286    0.478   96.362   15.062
  284.074    0.287    0.478   97.587   14.775
  284.379    0.261    0.452   96.997   15.315
  284.684    0.255    0.419   92.775   15.587
  284.988    0.251    0.399   85.525   15.288
  285.293    0.244    0.396   85.540   14.720
  285.598    0.228    0.406   98.868   14.438
  285.903    0.206    0.408   99.487   14.159
  286.208    0.173    0.401   82.555   14.956
  286.512    0.209    0.380   77.729   16.095
  286.817    0.188    0.372   80.164   17.313
  287.122    0.214    0.380   86.229   16.982
  287.427    0.178    0.391   86.850   16.965
  287.732    0.179    0.389   86.862   16.638
  288.036    0.196    0.389   77.799   16.323
  288.341    0.213    0.390   76.603   16.011
  288.646    0.219    0.389   79.040   16.596
  288.951    0.187    0.375   81.472   16.278
  289.256    0.202    0.374   84.514   15.969
  289.561    0.185    0.392   86.345   15.661
  289.865    0.165    0.390   86.358   15.939
  290.170    0.174    0.381   83.345   16.220
  290.475    0.191    0.382   78.517   17.133
  290.780    0.200    0.385   76.719   17.442
  291.085    0.213    0.399   73.703   17.425
  291.389    0.247    0.380   67.060   18.750
  291.694    0.268    0.376   61.022   22.131
  291.999    0.284    0.377   55.591   24.258
  292.304    0.297    0.385   50.156   24.688
  292.609    0.297    0.371   44.121   23.328
  292.913    0.313    0.358   48.368   23.315
  293.218    0.303    0.383   60.489   24.623
  293.523    0.268    0.393   56.871   25.531
  293.828    0.277    0.370   60.517   25.040
  294.133    0.299    0.354   68.397   23.666
  294.438    0.280    0.354   78.700   21.554
  294.742    0.237    0.380   95.660   19.270
  295.047    0.224    0.398  110.807   17.878
  295.352    0.221    0.421  112.031   15.690
  295.657    0.218    0.454  113.254   13.770
  295.962    0.209    0.472  110.242   12.087
  296.266    0.246    0.489  104.809   11.008
  296.571    0.269    0.491  104.823   10.211
  296.876    0.248    0.486  104.234   10.017
  297.181    0.241    0.477  100.614   10.581
  297.486    0.284    0.457   93.367   12.256
  297.790    0.267    0.438   96.407   13.689
  298.095    0.248    0.408   97.028   17.081
  298.400    0.228    0.377   93.411   20.158
  298.705    0.225    0.384   94.028   21.290
  299.010    0.240    0.388   95.258   22.077
  299.314    0.236    0.412   96.480   20.861
  299.619    0.209    0.455  107.385   19.001
  299.924    0.192    0.476  108.610   16.677
  300.229    0.206    0.501  100.757   15.188
  300.534    0.228    0.493  103.195   14.091
  300.839    0.246    0.482  105.021   13.072
  301.143    0.240    0.465  104.431   12.585
  301.448    0.235    0.448   92.339   12.347
  301.753    0.254    0.440   76.618   12.564
  302.058    0.245    0.430   77.843   12.556
  302.363    0.239    0.418   76.647   13.019
  302.667    0.262    0.398   69.398   14.004
  302.972    0.262    0.386   73.046   14.257
  303.277    0.261    0.398   73.662   14.244
  303.582    0.247    0.426   68.231   15.324
  303.887    0.255    0.425   55.534   17.756
  304.191    0.269    0.374   45.259   20.576
  304.496    0.289    0.360   50.725   25.673
  304.801    0.312    0.388   51.946   28.660
  305.106    0.320    0.399   51.959   28.641
  305.411    0.310    0.405   52.578   28.090
  305.715    0.304    0.411   48.360   27.549
  306.020    0.327    0.404   47.768   26.521
  306.325    0.321    0.400   48.386   26.009
  306.630    0.308    0.403   48.401   25.984
  306.935    0.326    0.403   47.206   25.970
  307.240    0.332    0.400   45.402   25.947
  307.544    0.341    0.404   43.601   26.409
  307.849    0.345    0.404   43.615   26.387
  308.154    0.359    0.442   43.630   25.883
  308.459    0.358    0.454   46.062   25.851
  308.764    0.359    0.462   53.339   26.315
  309.068    0.347    0.431   46.092   27.280
  309.373    0.333    0.401   55.184   27.770
  309.678    0.329    0.422   60.042   27.749
  309.983    0.323    0.424   57.027   27.218
  310.288    0.320    0.407   55.226   26.694
  310.592    0.323    0.407   62.502   26.182
  310.897    0.321    0.415   58.884   25.677
  311.202    0.329    0.427   54.058   26.137
  311.507    0.326    0.432   52.863   26.588
  311.812    0.333    0.428   50.455   26.575
  312.116    0.339    0.428   51.074   26.549
  312.421    0.349    0.458   52.903   26.525
  312.726    0.341    0.441   56.549   26.017
  313.031    0.345    0.407   55.352   25.995
  313.336    0.332    0.399   51.736   25.971
  313.641    0.323    0.409   54.172   26.430
  313.945    0.322    0.435   54.184   26.901
  314.250    0.318    0.446   51.175   26.885
  314.555    0.344    0.426   48.161   26.857
  314.860    0.358    0.425   44.544   26.834
  315.165    0.353    0.438   45.164   26.814
  315.469    0.357    0.421   49.413   26.299
  315.774    0.347    0.409   52.453   26.769
  316.079    0.347    0.421   42.784   27.239
  316.384    0.357    0.418   42.195   27.218
  316.689    0.356    0.405   42.208   27.705
  316.993    0.354    0.405   41.617   27.170
  317.298    0.366    0.422   38.605   27.653
  317.603    0.369    0.438   38.619   27.627
  317.908    0.363    0.443   40.449   27.610
  318.213    0.337    0.430   41.676   27.578
  318.517    0.343    0.417   41.687   27.555
  318.822    0.357    0.433   40.494   27.026
  319.127    0.363    0.447   39.900   26.021
  319.432    0.364    0.438   39.913   25.527
  319.737    0.360    0.442   41.743   25.035
  320.042    0.359    0.444   44.783   25.007
  320.346    0.358    0.445   42.981   24.988
  320.651    0.358    0.442   41.182   24.970
  320.956    0.350    0.428   41.800   25.413
  321.261    0.348    0.392   44.236   25.391
  321.566    0.344    0.394   49.090   24.901
  321.870    0.347    0.404   54.553   23.099
  322.175    0.330    0.412   58.802   21.437
  322.480    0.299    0.467   65.474   17.471
  322.785    0.264    0.460   87.880   13.222
  323.090    0.243    0.435   88.500    9.822
  323.394    0.238    0.424   86.699    9.815
  323.699    0.233    0.415   93.978   10.364
  324.004    0.217    0.444   95.204   10.748
  324.309    0.247    0.468   94.006   11.562
  324.614    0.256    0.481   91.596   11.769
  324.918    0.255    0.467   86.769   11.758
  325.223    0.237    0.456   86.782   11.317
  325.528    0.242    0.422   84.984   11.310
  325.833    0.237    0.437   83.180   11.299
  326.138    0.235    0.450   73.511   11.499
  326.443    0.288    0.422   72.314   11.705
  326.747    0.279    0.434   84.433   11.481
  327.052    0.243    0.487   85.052   11.263
  327.357    0.250    0.488   78.408   10.645
  327.662    0.263    0.459   75.397   10.061
  327.967    0.286    0.460   76.622   10.238
  328.271    0.271    0.491   79.661   10.042
  328.576    0.268    0.505   86.332    9.491
  328.881    0.273    0.491   94.820    7.881
  329.186    0.218    0.483  102.702    4.118
  329.491    0.229    0.486  105.137    3.614
  329.795    0.218    0.497  103.335    3.817
  330.100    0.212    0.504   98.507    4.107
  330.405    0.207    0.526   88.838    4.848
  330.710    0.226    0.553  102.773    5.119
  331.015    0.224    0.557  102.183    4.662
  331.319    0.230    0.533   98.565    4.326
  331.624    0.242    0.515   97.975    4.166
  331.929    0.253    0.538   96.171    4.161
  332.234    0.248    0.548   93.159    4.236
  332.539    0.269    0.556   94.989    4.232
  332.844    0.266    0.574   98.635    3.783
  333.148    0.259    0.580  100.465    3.643
  333.453    0.270    0.557   90.795    3.508
  333.758    0.293    0.537   90.203    3.569
  334.063    0.285    0.516   92.036    3.771
  334.368    0.271    0.512   92.051    4.133
