~VERSION INFORMATION
 VERS.                 2.0:   CWLS LOG ASCII STANDARD -VERSION 2.0
 WRAP.                  NO:   ONE LINE PER DEPTH STEP
~WELL INFORMATION BLOCK
#MNEM.UNIT           DATA                    DESCRIPTION OF MNEMONIC
#---------    -------------------            -------------------------------
# Generated from Intellog Unique Number	CS_67_68/WELL/2179
WELL.         GLOBEL ARTIC ISLANDS           : Well_name    - WELL
LOC .         00/07-32-067-17W4/0            : Location     - LOCATION
UWI .         00/07-32-067-17W4/0            : Uwi          - UNIQUE WELL ID
ENTR.         SP                             : Entered      - ENTERED BY
SRVC.         SCHLUMBERGER                   : Scn          - SERVICE COMPANY
STRT.M        345                            : top_depth    - START DEPTH
STOP.M        550                            : bot_depth    - STOP DEPTH
STEP.M        0.25                           : increment    - STEP LENGTH
 NULL. -999.2500:NULL Value
~CURVE INFORMATION BLOCK
#MNEM UNIT       ERCB CURVE CODE    CURVE DESCRIPTION
#-----------   ------------------   ----------------------------------
DEPT.M        00 001 00 00         : DEPTH        - DEPTH
ILD .OHMM     00 120 00 00         : RESD         - DEEP RESISTIVITY (DIL)
DPHI.V/V      00 890 00 00         : PHID         - DENSITY POROSITY (LIMESTONE)
NPHI.V/V      00 330 00 00         : PHIN         - NEUTRON POROSITY (LIMESTONE)
GR  .API      00 310 00 00         : GR           - GAMMA RAY
CALI.MM       00 280 01 00         : CAL          - CALIPER
~PARAMETER INFORMATION
#MNEM.UNIT           DATA             DESCRIPTION OF MNEMONIC
#---------         -----------     ------------------------------
GL  .M        589.2                : gl           - GROUND LEVEL ELEVATION
EREF.M        593                  : kb           - ELEVATION OF DEPTH REFERENCE
DATM.M        593                  : datum        - DATUM ELEVATION
TDD .M        555                  : tdd          - TOTAL DEPTH DRILLER
RUN .         ONE                  : Run          - RUN NUMBER
ENG .         BILL                 : Engineer     - RECORDING ENGINEER
WIT .         JIM                  : Witness      - WITNESSED BY
MUD .         GEL                  : Mud_type     - MUD TYPE
MATR.         LIMESTONE            : Logunit      - NEUTRON MATRIX
TMAX.C        19                   : BHT          - MAXIMUM RECORDED TEMPERATURE
BHTD.M        553.5                : BHTDEP       - MAXIMUM RECORDED TEMPERATURE
MATR.         1                    : LOGUNIT      - NEUTRON MATRIX
RMT .C        25                   : MDTP         - TEMPERATURE OF MUD
NEUT.         1                    : NEUTRON      - NEUTRON TYPE
RESI.         0                    : RESIST       - RESISTIVITY TYPE
RMC .OHMM     0.25                 : RMC          - RESISTIVITY OF MUD CAKE
RMF .OHMM     0.25                 : RMF          - RESISTIVITY OF MUD FILTRATE
SUFT.C        15                   : SUFT         - SURFACE TEMPERATURE
~A  DEPTH     RESD     PHID     PHIN       GR      CAL
  345.000    3.261    0.187    0.497  112.498  187.130
  345.250    3.281    0.193    0.502  113.368  184.730
  345.500    3.283    0.192    0.476  111.259  185.368
  345.750    3.219    0.190    0.482  111.280  190.062
  346.000    3.115    0.188    0.501  111.967  191.006
  346.250    2.953    0.193    0.518  112.655  187.597
  346.500    2.754    0.202    0.503  111.458  185.092
  346.750    2.607    0.212    0.523  109.836  182.692
  347.000    2.445    0.227    0.540  108.517  185.969
  347.250    2.348    0.217    0.555  110.545  191.980
  347.500    2.333    0.228    0.524  112.083  193.027
  347.750    2.342    0.223    0.511  110.099  194.477
  348.000    2.469    0.206    0.504  110.664  194.915
  348.250    2.680    0.207    0.502  111.107  193.832
  348.500    3.041    0.165    0.516  102.556  190.722
  348.750    3.289    0.018    0.527   95.826  189.235
  349.000    3.028    0.003    0.495   88.484  182.478
  349.250    2.772    0.000    0.455   81.997  175.824
  349.500    2.653    0.011    0.454   93.206  171.393
  349.750    2.601    0.199    0.471  101.313  174.061
  350.000    2.569    0.222    0.484  104.190  187.575
  350.250    2.519    0.189    0.490  103.117  194.395
  350.500    2.483    0.172    0.484  104.107  194.024
  350.750    2.444    0.286    0.495  102.547  187.774
  351.000    2.431    0.324    0.505   99.039  197.432
  351.250    2.483    0.355    0.537   96.139  201.822
  351.500    2.564    0.354    0.549   92.392  203.985
  351.750    2.603    0.368    0.554   89.306  206.448
  352.000    2.615    0.380    0.507   84.584  204.961
  352.250    2.611    0.334    0.465   81.259  181.480
  352.500    2.604    0.263    0.418   82.191  165.804
  352.750    2.552    0.270    0.415   86.406  161.784
  353.000    2.465    0.264    0.419   89.709  158.981
  353.250    2.381    0.265    0.411   93.011  157.191
  353.500    2.445    0.273    0.409   95.098  157.827
  353.750    2.655    0.270    0.414   95.908  158.569
  354.000    2.850    0.260    0.417   99.638  162.861
  354.250    3.026    0.251    0.405  104.341  161.677
  354.500    3.165    0.239    0.408  107.642  160.590
  354.750    3.342    0.229    0.416  110.460  160.626
  355.000    3.541    0.218    0.423  107.194  166.538
  355.250    3.664    0.213    0.429  102.473  172.646
  355.500    3.700    0.229    0.416   99.693  175.618
  355.750    3.634    0.235    0.402   98.862  171.907
  356.000    3.478    0.224    0.405   97.848  169.504
  356.250    3.329    0.226    0.400   95.617  167.001
  356.500    3.312    0.246    0.395   90.041  166.322
  356.750    3.452    0.270    0.393   84.284  171.017
  357.000    3.611    0.275    0.393   80.229  165.276
  357.250    3.820    0.254    0.396   84.752  159.732
  357.500    3.988    0.241    0.378   89.513  158.243
  357.750    4.005    0.201    0.378   93.969  160.714
  358.000    3.949    0.179    0.394   96.969  163.682
  358.250    3.951    0.173    0.401   97.234  168.172
  358.500    4.118    0.180    0.408   97.195  171.347
  358.750    4.292    0.201    0.415   97.089  172.798
  359.000    4.407    0.205    0.412   97.351  173.134
  359.250    4.517    0.196    0.395   98.528  173.268
  359.500    4.553    0.188    0.391  100.186  172.893
  359.750    4.573    0.167    0.371  102.519  170.597
  360.000    4.533    0.152    0.368  104.241  168.098
  360.250    4.403    0.157    0.389  101.279  165.698
  360.500    4.277    0.144    0.401   99.293  163.902
  360.750    4.004    0.153    0.411  100.710  167.686
  361.000    3.672    0.178    0.427  103.040  172.075
  361.250    3.331    0.167    0.437  107.256  174.844
  361.500    3.164    0.245    0.453  113.052  176.903
  361.750    3.079    0.238    0.480  117.572  180.484
  362.000    3.251    0.274    0.497  116.315  188.319
  362.250    3.529    0.303    0.502  109.465  187.337
  362.500    3.604    0.270    0.471  104.985  172.269
  362.750    3.653    0.215    0.449  101.110  165.309
  363.000    3.628    0.201    0.440   98.027  168.890
  363.250    3.524    0.225    0.444   99.810  170.646
  363.500    3.404    0.246    0.431  103.114  162.265
  363.750    3.301    0.214    0.437  105.749  158.952
  364.000    3.242    0.229    0.444  105.281  163.044
  364.250    3.220    0.222    0.445  101.956  163.681
  364.500    3.198    0.217    0.445  100.274  162.193
  364.750    3.158    0.243    0.445  100.598  160.909
  365.000    3.143    0.247    0.445   99.886  162.666
  365.250    3.151    0.251    0.446   98.020  163.608
  365.500    3.164    0.237    0.447   96.580  164.248
  365.750    3.207    0.207    0.448   92.769  164.589
  366.000    3.257    0.229    0.446   87.620  164.312
  366.250    3.320    0.250    0.442   84.416  163.735
  366.500    3.390    0.234    0.444   83.098  162.051
  366.750    3.417    0.223    0.441   84.455  160.763
  367.000    3.394    0.222    0.438   84.718  159.381
  367.250    3.396    0.227    0.426   85.892  158.799
  367.500    3.392    0.241    0.417   90.594  158.428
  367.750    3.470    0.248    0.423   94.567  159.777
  368.000    3.537    0.231    0.438   97.992  162.444
  368.250    3.592    0.220    0.444  100.565  165.621
  368.500    3.634    0.215    0.451  101.862  167.272
  368.750    3.774    0.218    0.455  101.515  167.202
  369.000    3.897    0.210    0.452   95.698  165.615
  369.250    3.899    0.198    0.448   93.770  164.434
  369.500    3.930    0.186    0.443  101.394  166.491
  369.750    3.984    0.196    0.451  103.965  169.460
  370.000    4.001    0.213    0.459  104.653  171.927
  370.250    3.945    0.197    0.463  103.398  171.758
  370.500    3.874    0.203    0.455  103.232  167.736
  370.750    3.784    0.149    0.447  107.511  163.813
  371.000    3.588    0.166    0.463  110.568  169.318
  371.250    3.747    0.221    0.477  111.500  177.663
  371.500    3.812    0.236    0.481  113.709  178.405
  371.750    3.951    0.242    0.480  117.376  175.902
  372.000    4.027    0.256    0.453  120.983  178.975
  372.250    4.127    0.227    0.416  122.767  172.625
  372.500    4.231    0.191    0.403  118.468  169.108
  372.750    4.352    0.208    0.409  116.116  167.115
  373.000    4.453    0.218    0.412  118.142  166.640
  373.250    4.480    0.202    0.401  116.337  166.874
  373.500    4.466    0.201    0.410  117.819  167.921
  373.750    4.436    0.204    0.416  114.066  170.182
  374.000    4.389    0.216    0.423  108.491  170.925
  374.250    4.295    0.205    0.435  104.317  169.540
  374.500    4.164    0.210    0.445  108.532  168.049
  374.750    4.015    0.206    0.450  111.407  166.060
  375.000    3.857    0.210    0.445  111.550  165.077
  375.250    3.685    0.204    0.444  112.784  165.208
  375.500    3.701    0.202    0.443  115.725  168.183
  375.750    3.683    0.195    0.441  117.385  170.340
  376.000    3.678    0.203    0.433  119.597  170.880
  376.250    3.687    0.211    0.442  121.682  167.567
  376.500    3.702    0.236    0.436  123.645  165.268
  376.750    3.718    0.210    0.421  124.638  163.477
  377.000    3.818    0.210    0.419  122.589  161.690
  377.250    3.885    0.230    0.425  119.570  160.706
  377.500    3.865    0.191    0.410  117.642  164.285
  377.750    3.790    0.175    0.416  121.066  169.287
  378.000    3.709    0.173    0.429  124.616  171.848
  378.250    3.523    0.176    0.421  126.822  173.199
  378.500    3.304    0.187    0.448  127.935  171.919
  378.750    3.121    0.199    0.477  127.164  170.634
  379.000    2.960    0.186    0.488  124.752  172.079
  379.250    2.864    0.187    0.498  123.980  181.843
  379.500    2.798    0.224    0.509  118.711  188.158
  379.750    2.768    0.235    0.486  112.830  180.487
  380.000    2.765    0.208    0.476  105.675  176.366
  380.250    2.787    0.219    0.479  100.891  175.993
  380.500    2.846    0.237    0.483   98.173  174.808
  380.750    2.837    0.255    0.477   95.516  169.572
  381.000    2.797    0.176    0.483   93.896  162.206
  381.250    2.712    0.191    0.446   95.559  159.399
