~VERSION INFORMATION
 VERS.                 2.0:   CWLS LOG ASCII STANDARD -VERSION 2.0
 WRAP.                  NO:   ONE LINE PER DEPTH STEP
~WELL INFORMATION BLOCK
#MNEM.UNIT           DATA                    DESCRIPTION OF MNEMONIC
#---------    -------------------            -------------------------------
# Generated from Intellog Unique Number	CW_73_75/WELL/528
LOC .         00/06-04-075-24W4/0            : Location     - LOCATION
UWI .         00/06-04-075-24W4/0            : Uwi          - UNIQUE WELL ID
ENTR.         JAYE                           : Entered      - ENTERED BY
SRVC.         SCHLUMBERGER                   : Scn          - SERVICE COMPANY
DATE.         26 FEB 75                      : Date         - LOG DATE
STRT.M        438.912                        : top_depth    - START DEPTH
STOP.M        640.162                        : bot_depth    - STOP DEPTH
STEP.M        0.25                           : increment    - STEP LENGTH
 NULL. -999.2500:NULL Value
~CURVE INFORMATION BLOCK
#MNEM UNIT       ERCB CURVE CODE    CURVE DESCRIPTION
#-----------   ------------------   ----------------------------------
DEPT.M        00 001 00 00         : DEPTH        - DEPTH
ILD .OHMM     00 120 00 00         : RESD         - DEEP RESISTIVITY (DIL)
NPHI.V/V      00 330 00 00         : PHIN         - NEUTRON POROSITY (SANDSTONE)
DPHI.V/V      00 890 00 00         : PHID         - DENSITY POROSITY (SANDSTONE)
GR  .API      00 310 00 00         : GR           - GAMMA RAY
CALI.MM       00 280 01 00         : CAL          - CALIPER
~PARAMETER INFORMATION
#MNEM.UNIT           DATA             DESCRIPTION OF MNEMONIC
#---------         -----------     ------------------------------
GL  .M        718.322              : gl           - GROUND LEVEL ELEVATION
EREF.M        723.199              : kb           - ELEVATION OF DEPTH REFERENCE
DATM.M        718.322              : datum        - DATUM ELEVATION
TDD .M        640.385              : tdd          - TOTAL DEPTH DRILLER
RUN .         ONE                  : Run          - RUN NUMBER
ENG .         FETTERLEY            : Engineer     - RECORDING ENGINEER
WIT .         HARDMAN              : Witness      - WITNESSED BY
BASE.         EDM                  : Branch       - HOME BASE OF LOGGING UNIT
MUD .         GEL CHEM             : Mud_type     - MUD TYPE
MATR.         SANDSTONE            : Logunit      - NEUTRON MATRIX
TMAX.C        26.6667              : BHT          - MAXIMUM RECORDED TEMPERATURE
BHTD.M        641.604              : BHTDEP       - MAXIMUM RECORDED TEMPERATURE
RMT .C        15.5556              : MDTP         - TEMPERATURE OF MUD
MUDD.KG/M     1020                 : MWT          - MUD DENSITY
NEUT.         1                    : NEUTRON      - NEUTRON TYPE
RESI.         0                    : RESIST       - RESISTIVITY TYPE
RM  .OHMM     7.78                 : RM           - RESISTIVITY OF MUD
RMC .OHMM     0                    : RMC          - RESISTIVITY OF MUD CAKE
RMF .OHMM     5.63                 : RMF          - RESISTIVITY OF MUD FILTRATE
SUFT.C        -17.7778             : SUFT         - SURFACE TEMPERATURE
~A  DEPTH     RESD     PHIN     PHID       GR      CAL
# ...
  511.912   18.042    0.334    0.319   60.738  221.694
  512.162   18.557    0.335    0.319   60.404  221.841
  512.412   18.534    0.333    0.325   60.013  221.884
  512.662   17.979    0.332    0.334   59.379  221.832
  512.912   17.499    0.333    0.338   59.100  221.767
  513.162   16.724    0.333    0.339   59.126  222.026
  513.412   16.161    0.334    0.332   59.035  222.067
  513.662   15.560    0.339    0.325   58.759  222.312
  513.912   14.817    0.343    0.321   58.666  222.465
  514.162   13.878    0.349    0.319   58.330  222.606
  514.412   12.668    0.369    0.312   58.178  222.764
  514.662   11.396    0.381    0.284   58.204  222.800
  514.912   10.139    0.399    0.258   58.293  223.159
  515.162    8.874    0.432    0.248   58.496  223.510
  515.412    7.953    0.446    0.247   59.609  223.966
  515.662    7.024    0.442    0.266   63.975  224.205
  515.912    5.969    0.431    0.287   67.254  222.314
  516.162    5.101    0.421    0.281   69.453  220.214
  516.412    4.656    0.417    0.274   68.093  220.979
  516.662    4.442    0.425    0.270   70.290  224.391
  516.912    4.340    0.433    0.277   71.761  226.168
  517.162    4.335    0.439    0.271   70.644  225.807
  517.412    4.410    0.416    0.258   67.294  223.098
  517.662    4.462    0.402    0.220   64.911  219.168
  517.912    4.522    0.396    0.215   63.251  219.110
  518.162    4.601    0.401    0.215   65.869  220.989
  518.412    4.629    0.414    0.224   70.778  223.494
  518.662    4.606    0.433    0.252   73.760  224.859
  518.912    4.558    0.443    0.263   72.278  224.902
  519.162    4.612    0.423    0.260   67.482  223.415
  519.412    4.778    0.414    0.230   63.715  218.767
  519.662    5.203    0.404    0.200   64.100  213.197
  519.912    5.770    0.375    0.162   63.708  210.291
  520.162    6.885    0.350    0.164   60.961  210.537
  520.412    8.187    0.327    0.151   57.915  212.109
  520.662    9.030    0.314    0.144   56.495  217.461
  520.912    8.678    0.343    0.156   57.428  224.242
  521.162    7.693    0.378    0.212   60.466  225.411
  521.412    6.466    0.404    0.250   70.859  223.823
  521.662    5.494    0.460    0.275   77.211  221.730
  521.912    5.053    0.454    0.269   79.831  221.057
  522.162    4.973    0.439    0.257   76.363  222.227
  522.412    5.153    0.440    0.242   71.629  223.902
  522.662    5.310    0.447    0.265   67.742  226.302
  522.912    5.533    0.442    0.266   66.380  227.155
  523.162    5.690    0.434    0.247   65.803  227.304
  523.412    5.885    0.407    0.241   65.347  226.738
  523.662    5.976    0.394    0.233   63.627  225.671
  523.912    5.904    0.393    0.223   65.341  225.097
  524.162    5.683    0.428    0.242   69.766  224.632
  524.412    5.324    0.427    0.255   73.650  224.377
  524.662    5.079    0.431    0.252   76.930  224.417
  524.912    4.899    0.456    0.232   80.813  225.275
  525.162    4.769    0.450    0.206   85.121  227.467
  525.412    4.634    0.430    0.189   88.401  229.650
  525.662    4.594    0.421    0.208   86.257  233.277
  525.912    4.555    0.421    0.205   86.709  235.557
  526.162    4.508    0.426    0.201   88.063  236.937
  526.412    4.445    0.430    0.198   89.230  237.183
  526.662    4.407    0.434    0.203   90.341  237.333
  526.912    4.394    0.442    0.200   90.491  237.584
  527.162    4.380    0.452    0.196   87.746  238.036
  527.412    4.383    0.455    0.203   87.109  238.595
  527.662    4.346    0.445    0.207   89.186  238.938
  527.912    4.261    0.440    0.200   91.019  238.677
  528.162    4.218    0.440    0.204   92.071  235.972
  528.412    4.166    0.460    0.222   93.724  232.955
  528.662    4.138    0.446    0.240   89.656  229.933
  528.912    4.156    0.435    0.256   86.849  227.534
  529.162    4.174    0.436    0.270   82.536  226.360
  529.412    4.255    0.444    0.278   74.789  225.793
  529.662    4.320    0.446    0.269   69.031  225.319
  529.912    4.354    0.450    0.262   67.490  224.655
  530.162    4.309    0.456    0.256   67.580  224.395
  530.412    4.273    0.454    0.263   67.124  224.041
  530.662    4.299    0.444    0.258   66.247  224.179
  530.912    4.479    0.424    0.249   64.465  224.838
  531.162    4.912    0.398    0.232   62.081  226.207
  531.412    5.610    0.326    0.187   59.698  228.095
  531.662    6.708    0.269    0.140   56.171  229.773
  531.912    8.168    0.195    0.108   53.423  231.647
  532.162    9.984    0.185    0.078   51.099  234.043
  532.412   10.536    0.212    0.063   51.731  232.962
  532.662   10.144    0.233    0.059   54.169  229.947
  532.912    8.621    0.280    0.159   56.427  228.362
  533.162    7.586    0.330    0.192   58.198  226.875
  533.412    6.626    0.353    0.199   60.218  226.418
  533.662    5.694    0.382    0.212   61.988  226.558
  533.912    4.937    0.411    0.280   65.208  226.603
  534.162    4.701    0.427    0.284   68.369  226.040
  534.412    4.854    0.398    0.248   70.142  221.800
  534.662    4.929    0.372    0.205   66.796  216.026
  534.912    4.922    0.376    0.184   63.327  211.069
  535.162    4.748    0.421    0.235   66.310  210.101
  535.412    4.407    0.477    0.284   69.225  213.408
  535.662    4.150    0.462    0.295   72.084  218.759
  535.912    3.952    0.455    0.281   70.788  221.354
  536.162    3.904    0.454    0.277   70.812  220.892
  536.412    3.878    0.454    0.302   72.468  221.447
  536.662    3.902    0.443    0.278   74.785  222.310
  536.912    3.948    0.443    0.250   78.190  223.268
  537.162    4.045    0.444    0.226   81.044  225.054
  537.412    4.207    0.432    0.234   84.926  226.931
  537.662    4.327    0.427    0.218   87.424  228.406
  537.912    4.378    0.438    0.210   87.934  226.615
  538.162    4.413    0.445    0.245   85.370  219.929
  538.412    4.440    0.440    0.272   85.516  208.851
  538.662    4.451    0.430    0.281   86.391  185.424
  538.912    4.381    0.425    0.274   87.260  163.531
  539.162    4.368    0.433    0.264   87.286  161.234
  539.412    4.315    0.444    0.277   85.985  164.543
  539.662    4.216    0.449    0.270   81.673  170.301
  539.912    4.134    0.448    0.249   76.215  180.142
  540.162    4.076    0.431    0.239   76.846  190.701
  540.412    4.041    0.421    0.292   73.377  197.379
  540.662    4.073    0.425    0.283   76.598  204.363
  540.912    4.152    0.427    0.270   74.635  211.552
  541.162    4.349    0.408    0.282   70.866  219.553
  541.412    4.904    0.369    0.273   68.845  225.518
  541.662    5.251    0.343    0.244   66.040  226.998
  541.912    5.441    0.382    0.214   63.294  225.709
  542.162    5.106    0.400    0.264   63.682  222.491
  542.412    4.695    0.428    0.288   64.674  220.700
  542.662    4.232    0.456    0.299   66.148  219.521
  542.912    3.971    0.447    0.302   66.835  218.650
  543.162    3.830    0.440    0.296   66.923  217.574
  543.412    3.721    0.454    0.291   66.349  216.598
  543.662    3.650    0.452    0.290   65.892  215.010
  543.912    3.546    0.448    0.289   65.617  212.601
  544.162    3.490    0.444    0.287   63.716  218.262
  544.412    3.423    0.438    0.294   62.417  222.489
  544.662    3.393    0.425    0.305   62.083  224.173
  544.912    3.395    0.417    0.294   63.558  225.437
  545.162    3.492    0.417    0.289   65.209  226.104
  545.412    3.632    0.417    0.275   66.020  226.347
  545.662    3.812    0.414    0.255   64.117  226.292
  545.912    3.993    0.406    0.226   61.794  226.438
  546.162    4.277    0.373    0.213   62.547  226.583
  546.412    4.648    0.383    0.228   62.390  226.742
  546.662    4.987    0.326    0.195   62.057  226.989
  546.912    5.490    0.296    0.160   62.142  227.135
  547.162    6.099    0.295    0.149   62.833  227.483
  547.412    6.726    0.302    0.153   62.919  227.625
  547.662    7.337    0.310    0.159   61.502  227.985
  547.912    7.858    0.293    0.182   59.839  228.536
  548.162    8.354    0.239    0.170   58.542  229.194
