~VERSION INFORMATION
 VERS.                 2.0:   CWLS LOG ASCII STANDARD -VERSION 2.0
 WRAP.                  NO:   ONE LINE PER DEPTH STEP
~WELL INFORMATION BLOCK
#MNEM.UNIT           DATA                    DESCRIPTION OF MNEMONIC
#---------    -------------------            -------------------------------
# Generated from Intellog Unique Number	CW_70_72/WELL/994
NULL.         -999.25                        : NULL_VALUE
WELL.         CHIEFCO ET AL CALLW 09-19      : Well_name    - WELL              
LOC .         09-19-071-20W4                 : Location     - LOCATION          
UWI .         00/09-19-071-20W4/0            : Uwi          - UNIQUE WELL ID    
ENTR.         JAYE                           : Entered      - ENTERED BY        
SRVC.         SCHLUMBERGER                   : Scn          - SERVICE COMPANY   
DATE.         20 JAN 83                      : Date         - LOG DATE          
STRT.M        320                            : top_depth    - START DEPTH       
STOP.M        495                            : bot_depth    - STOP DEPTH        
STEP.M        0.25                           : increment    - STEP LENGTH       
~CURVE INFORMATION BLOCK
#MNEM UNIT       ERCB CURVE CODE    CURVE DESCRIPTION
#-----------   ------------------   ----------------------------------
DEPT.M        00 001 00 00         : DEPTH        - DEPTH                       
DPHI.V/V      00 890 00 00         : PHID         - DENSITY POROSITY (SANDSTONE)
NPHI.V/V      00 330 00 00         : PHIN         - NEUTRON POROSITY (SANDSTONE)
GR  .API      00 310 00 00         : GR           - GAMMA RAY                   
CALI.MM       00 280 01 00         : CAL          - CALIPER                     
ILD .OHMM     00 120 00 00         : RESD         - DEEP RESISTIVITY (DIL)      
~PARAMETER INFORMATION       
#MNEM.UNIT           DATA             DESCRIPTION OF MNEMONIC
#---------         -----------     ------------------------------
GL  .M        593.2                : gl           - GROUND LEVEL ELEVATION      
EREF.M        596.2                : kb           - ELEVATION OF DEPTH REFERENCE
DATM.M        593.2                : datum        - DATUM ELEVATION             
TDD .M        498                  : tdd          - TOTAL DEPTH DRILLER         
RUN .         ONE                  : Run          - RUN NUMBER                  
ENG .         GAGGINO              : Engineer     - RECORDING ENGINEER          
WIT .         BAILEY               : Witness      - WITNESSED BY                
BASE.         EDM                  : Branch       - HOME BASE OF LOGGING UNIT   
MUD .         GEL CHEM             : Mud_type     - MUD TYPE                    
MATR.         SANDSTONE            : Logunit      - NEUTRON MATRIX              
TMAX.C        22.2                 : BHT          - MAXIMUM RECORDED TEMPERATURE
BHTD.M        496.5                : BHTDEP       - MAXIMUM RECORDED TEMPERATURE
RMT .C        32.7                 : MDTP         - TEMPERATURE OF MUD          
MUDD.KG/M     1100                 : MWT          - MUD DENSITY                 
NEUT.         1                    : NEUTRON      - NEUTRON TYPE                
RESI.         0                    : RESIST       - RESISTIVITY TYPE            
RM  .OHMM     11                   : RM           - RESISTIVITY OF MUD          
RMC .OHMM     0                    : RMC          - RESISTIVITY OF MUD CAKE     
RMF .OHMM     9.9                  : RMF          - RESISTIVITY OF MUD FILTRATE 
SUFT.C        0                    : SUFT         - SURFACE TEMPERATURE         
~A  DEPTH     PHID     PHIN       GR      CAL     RESD
  320.000    0.265    0.535   95.600  190.351    2.931
  320.250    0.259    0.533   96.592  189.929    2.927
  320.500    0.247    0.522   96.525  188.159    2.917
  320.750    0.236    0.507   95.836  188.774    2.890
  321.000    0.243    0.494   94.339  191.361    2.827
  321.250    0.235    0.477   92.218  195.711    2.683
  321.500    0.217    0.503   89.911  195.495    2.575
  321.750    0.217    0.525   89.595  194.347    2.561
  322.000    0.226    0.542   89.467  195.793    2.615
  322.250    0.322    0.593   86.786  202.321    3.035
  322.500    0.434    0.565   83.421  208.641    3.906
  322.750    0.378    0.558   75.388  216.311    5.017
  323.000    0.307    0.360   69.782  215.992    5.757
  323.250    0.221    0.309   64.238  190.156    6.471
  323.500    0.178    0.339   56.330  171.684    6.646
  323.750    0.247    0.373   54.209  168.046    6.296
  324.000    0.325    0.380   58.499  170.631    5.986
  324.250    0.315    0.382   60.425  173.737    5.735
  324.500    0.281    0.400   61.665  176.634    5.546
  324.750    0.258    0.409   63.154  174.967    5.353
  325.000    0.233    0.383   64.021  172.782    5.137
  325.250    0.246    0.389   64.017  169.767    4.767
  325.500    0.249    0.406   64.386  167.995    4.532
  325.750    0.244    0.440   66.374  167.056    4.158
  326.000    0.230    0.466   70.042  166.114    4.006
  326.250    0.209    0.465   77.320  166.107    3.925
  326.500    0.238    0.432   86.714  166.204    3.912
  326.750    0.284    0.388   88.639  166.508    3.898
  327.000    0.290    0.399   83.344  167.538    3.915
  327.250    0.280    0.429   80.415  169.918    3.975
  327.500    0.269    0.489   82.713  177.276    4.098
  327.750    0.282    0.440   89.804  184.945    4.232
  328.000    0.258    0.380   95.153  174.046    4.514
  328.250    0.236    0.401   94.837  170.823    4.696
  328.500    0.212    0.436   97.510  169.881    5.018
  328.750    0.224    0.429   98.190  169.563    5.473
  329.000    0.241    0.407   94.389  168.933    6.059
  329.250    0.247    0.397   89.281  167.474    6.901
  329.500    0.276    0.368   81.185  166.014    8.130
  329.750    0.313    0.272   72.343  165.386    9.778
  330.000    0.365    0.218   59.020  164.859   11.433
  330.250    0.399    0.226   50.239  164.749   13.469
  330.500    0.381    0.238   48.990  164.845   13.373
  330.750    0.376    0.235   53.218  164.423   12.269
  331.000    0.383    0.227   56.699  164.104   10.284
  331.250    0.384    0.238   53.023  163.994    7.417
  331.500    0.380    0.253   54.263  164.091    5.855
  331.750    0.374    0.275   52.517  163.773    4.926
  332.000    0.360    0.295   50.459  163.662    4.272
  332.250    0.345    0.314   53.628  163.549    3.883
  332.500    0.333    0.303   52.379  163.646    4.133
  332.750    0.342    0.294   50.694  164.056    4.680
  333.000    0.356    0.298   53.616  164.877    5.452
  333.250    0.364    0.315   52.989  165.182    6.399
  333.500    0.334    0.345   53.171  165.381    7.552
  333.750    0.283    0.358   57.648  165.373    8.393
  334.000    0.256    0.345   61.877  165.369    7.965
  334.250    0.234    0.354   66.540  165.775    6.817
  334.500    0.258    0.377   70.270  166.286    5.768
  334.750    0.267    0.393   76.304  166.694    4.955
  335.000    0.266    0.386   83.021  166.896    4.470
  335.250    0.262    0.393   87.498  167.199    4.163
  335.500    0.260    0.412   90.979  167.090    3.827
  335.750    0.261    0.407   91.162  166.770    3.511
  336.000    0.271    0.397   89.850  166.453    3.179
  336.250    0.282    0.392   88.352  166.653    2.819
  336.500    0.308    0.465   87.788  168.306    2.548
  336.750    0.382    0.569   93.074  175.456    2.373
  337.000    0.461    0.602   89.833  190.491    2.291
  337.250    0.455    0.587   85.099  240.691    2.278
  337.500    0.468    0.577   89.327  266.928    2.296
  337.750    0.442    0.573   95.049  254.266    2.453
  338.000    0.400    0.569  104.318  236.727    2.641
  338.250    0.358    0.560  110.662  219.086    2.946
  338.500    0.442    0.545  110.907  192.523    3.343
  338.750    0.490    0.563  103.496  209.735    3.793
  339.000    0.547    0.546   94.965  245.516    4.199
  339.250    0.590    0.486  101.683  237.936    4.478
  339.500    0.311    0.431  107.342  208.469    4.748
  339.750    0.339    0.465  102.919  187.612    5.092
  340.000    0.495    0.489   95.322  243.413    5.440
  340.250    0.574    0.504   87.600  226.912    5.768
  340.500    0.673    0.529   79.939  213.731    6.256
  340.750    0.575    0.509   78.193  211.960    6.659
  341.000    0.487    0.448   74.143  199.402    7.263
  341.250    0.298    0.409   71.213  180.411    7.981
  341.500    0.259    0.410   83.719  173.662    8.938
  341.750    0.296    0.424   84.025  170.542    9.784
  342.000    0.317    0.448   79.292  168.979   11.834
  342.250    0.306    0.469   72.317  167.830   13.759
  342.500    0.281    0.411   66.337  167.096   14.756
  342.750    0.267    0.387   64.715  166.779   14.431
  343.000    0.277    0.380   63.030  166.462   13.800
  343.250    0.306    0.392   59.976  166.351   13.369
  343.500    0.318    0.407   59.785  166.239   13.199
  343.750    0.320    0.429   61.150  166.025   13.606
  344.000    0.317    0.455   62.266  166.016   14.757
  344.250    0.309    0.447   61.452  166.011   16.308
  344.500    0.301    0.440   61.386  166.002   19.322
  344.750    0.286    0.447   63.000  166.100   22.381
  345.000    0.236    0.395   62.684  166.301   27.224
  345.250    0.040    0.152   55.461  166.291   31.592
  345.500    0.002    0.131   49.170  166.286   36.801
  345.750   -0.015    0.130   43.378  166.072   36.469
  346.000   -0.013    0.134   44.244  166.167   29.946
  346.250    0.002    0.149   46.729  166.264   24.222
  346.500    0.108    0.171   49.402  166.671   18.173
  346.750    0.159    0.251   53.816  167.285   15.494
  347.000    0.219    0.398   58.293  167.488   13.410
  347.250    0.286    0.447   59.534  167.689   11.476
  347.500    0.274    0.430   60.525  167.991    9.656
  347.750    0.262    0.416   60.272  168.295    8.468
  348.000    0.273    0.421   61.078  168.287    7.682
  348.250    0.285    0.411   65.119  168.489    6.839
  348.500    0.281    0.415   69.658  169.104    6.112
  348.750    0.276    0.437   72.890  169.617    5.390
  349.000    0.267    0.438   76.682  170.752    4.604
  349.250    0.341    0.434   79.790  170.848    4.015
  349.500    0.396    0.504   83.147  173.434    3.595
  349.750    0.421    0.521   87.126  213.780    3.582
  350.000    0.343    0.472   92.412  215.225    3.799
  350.250    0.281    0.439  100.250  184.408    4.097
  350.500    0.246    0.415  100.619  172.368    4.426
  350.750    0.233    0.395  105.719  171.634    4.694
  351.000    0.210    0.410  111.565  173.599    4.660
  351.250    0.246    0.426  118.905  178.778    4.506
  351.500    0.277    0.449  112.366  185.514    4.050
  351.750    0.336    0.444  102.216  196.503    3.605
  352.000    0.351    0.427   94.121  202.823    3.022
  352.250    0.418    0.454   86.523  216.198    2.601
  352.500    0.512    0.568   92.992  249.074    2.506
  352.750    0.348    0.570   98.154  230.810    2.769
  353.000    0.320    0.551  103.502  207.255    3.432
  353.250    0.341    0.542  100.137  188.265    4.682
  353.500    0.385    0.526   88.556  175.291    6.163
  353.750    0.325    0.400   79.216  168.023    8.236
  354.000    0.218    0.370   74.605  164.178    9.813
  354.250    0.212    0.386   84.249  163.548    8.638
  354.500    0.250    0.419   92.211  164.578    7.661
  354.750    0.278    0.417   89.095  165.297    6.872
  355.000    0.292    0.425   84.173  165.705    6.364
  355.250    0.280    0.430   85.414  166.009    6.063
  355.500    0.248    0.417   87.588  166.310    5.863
  355.750    0.211    0.414   87.584  166.513    5.766
  356.000    0.242    0.439   87.455  166.818    5.703
  356.250    0.240    0.449   87.450  167.535    5.663
