~VERSION INFORMATION
 VERS.                 2.0:   CWLS LOG ASCII STANDARD -VERSION 2.0
 WRAP.                  NO:   ONE LINE PER DEPTH STEP
~WELL INFORMATION BLOCK
#MNEM.UNIT           DATA                    DESCRIPTION OF MNEMONIC
#---------    -------------------            -------------------------------
# Generated from Intellog Unique Number	CS_71_72/WELL/834
WELL.         KISSINGER ET AL TWEEDIE        : Well_name    - WELL
LOC .         00/08-01-072-12W4/0            : Location     - LOCATION
UWI .         00/08-01-072-12W4/0            : Uwi          - UNIQUE WELL ID
ENTR.         SP                             : Entered      - ENTERED BY
SRVC.         SCHLUMBERGER                   : Scn          - SERVICE COMPANY
STRT.M        290                            : top_depth    - START DEPTH
STOP.M        510                            : bot_depth    - STOP DEPTH
STEP.M        0.25                           : increment    - STEP LENGTH
 NULL. -999.2500:NULL Value
~CURVE INFORMATION BLOCK
#MNEM UNIT       ERCB CURVE CODE    CURVE DESCRIPTION
#-----------   ------------------   ----------------------------------
DEPT.M        00 001 00 00         : DEPTH        - DEPTH
GR  .API      00 310 00 00         : GR           - GAMMA RAY
NPHI.V/V      00 330 00 00         : PHIN         - NEUTRON POROSITY (LIMESTONE)
DPHI.V/V      00 890 00 00         : PHID         - DENSITY POROSITY (LIMESTONE)
ILD .OHMM     00 120 00 00         : RESD         - DEEP RESISTIVITY (DIL)
~PARAMETER INFORMATION
#MNEM.UNIT           DATA             DESCRIPTION OF MNEMONIC
#---------         -----------     ------------------------------
GL  .M        626.5                : gl           - GROUND LEVEL ELEVATION
EREF.M        630                  : kb           - ELEVATION OF DEPTH REFERENCE
DATM.M        626.5                : datum        - DATUM ELEVATION
TDD .M        522.6                : tdd          - TOTAL DEPTH DRILLER
RUN .         ONE                  : Run          - RUN NUMBER
ENG .         BILL                 : Engineer     - RECORDING ENGINEER
WIT .         JIM                  : Witness      - WITNESSED BY
MUD .         GEL                  : Mud_type     - MUD TYPE
MATR.         LIMESTONE            : Logunit      - NEUTRON MATRIX
TMAX.C        20                   : BHT          - MAXIMUM RECORDED TEMPERATURE
BHTD.M        522.6                : BHTDEP       - MAXIMUM RECORDED TEMPERATURE
MATR.         1                    : LOGUNIT      - NEUTRON MATRIX
RMT .C        25                   : MDTP         - TEMPERATURE OF MUD
NEUT.         1                    : NEUTRON      - NEUTRON TYPE
RESI.         0                    : RESIST       - RESISTIVITY TYPE
RMC .OHMM     0.25                 : RMC          - RESISTIVITY OF MUD CAKE
RMF .OHMM     0.25                 : RMF          - RESISTIVITY OF MUD FILTRATE
SUFT.C        15                   : SUFT         - SURFACE TEMPERATURE
~A  DEPTH       GR     PHIN     PHID     RESD
# ...
  377.000   66.977    0.399    0.275   12.030
  377.250   62.079    0.413    0.286   12.277
  377.500   59.019    0.420    0.297   12.360
  377.750   59.632    0.443    0.300   12.360
  378.000   61.469    0.434    0.294   12.361
  378.250   63.307    0.414    0.284   12.443
  378.500   64.532    0.402    0.269   12.444
  378.750   66.982    0.405    0.263   12.363
  379.000   67.594    0.415    0.262   11.953
  379.250   64.534    0.394    0.264   11.298
  379.500   65.759    0.384    0.253   10.725
  379.750   73.719    0.388    0.240   10.316
  380.000   79.842    0.411    0.248   10.071
  380.250   76.169    0.422    0.253    9.989
  380.500   70.660    0.408    0.254   10.728
  380.750   65.150    0.384    0.244   11.466
  381.000   62.702    0.362    0.264   12.860
  381.250   60.866    0.355    0.278   13.681
  381.500   59.642    0.356    0.283   14.091
  381.750   59.031    0.362    0.278   14.338
  382.000   60.256    0.377    0.281   14.257
  382.250   62.093    0.393    0.278   14.175
  382.500   57.196    0.403    0.279   14.094
  382.750   56.584    0.389    0.291   13.930
  383.000   59.034    0.362    0.276   13.685
  383.250   60.872    0.351    0.269   13.522
  383.500   60.872    0.347    0.281   13.604
  383.750   60.873    0.349    0.301   14.261
  384.000   59.037    0.324    0.309   15.081
  384.250   57.813    0.237    0.244   16.311
  384.500   57.814    0.184    0.147   24.510
  384.750   57.202    0.172    0.109   30.273
  385.000   56.591    0.162    0.058   38.491
  385.250   53.530    0.158    0.015   45.896
  385.500   48.633    0.157    0.003   50.027
  385.750   44.960    0.163   -0.004   52.538
  386.000   45.573    0.192    0.145   50.962
  386.250   49.859    0.221    0.205   45.302
  386.500   58.432    0.238    0.254   39.641
  386.750   63.943    0.250    0.281   35.612
  387.000   66.392    0.259    0.150   32.391
  387.250   60.270    0.272    0.116   29.173
  387.500   54.149    0.285    0.320   25.962
  387.750   54.150    0.309    0.355   22.759
  388.000   57.211    0.355    0.304   16.649
  388.250   60.885    0.384    0.297   14.928
  388.500   61.498    0.384    0.296   13.781
  388.750   62.111    0.389    0.295   13.044
  389.000   61.500    0.389    0.307   12.635
  389.250   59.664    0.398    0.312   12.308
  389.500   57.828    0.415    0.310   12.226
  389.750   55.992    0.416    0.295   11.818
  390.000   60.278    0.395    0.295   11.408
  390.250   63.340    0.382    0.301   11.081
  390.500   65.177    0.378    0.270   10.508
  390.750   67.015    0.405    0.251    9.689
  391.000   71.302    0.415    0.246    9.198
  391.250   74.363    0.397    0.251    8.789
  391.500   79.262    0.389    0.242    8.461
  391.750   81.099    0.422    0.228    8.134
  392.000   83.549    0.432    0.220    7.971
  392.250   77.427    0.425    0.243    7.808
  392.500   76.203    0.399    0.265    7.808
  392.750   78.653    0.388    0.273    8.055
  393.000   82.940    0.385    0.280    8.220
  393.250   84.777    0.398    0.259    8.220
  393.500   89.063    0.411    0.232    8.139
  393.750   92.125    0.414    0.225    7.893
  394.000   92.126    0.399    0.240    7.894
  394.250   86.004    0.385    0.249    8.141
  394.500   79.882    0.378    0.268    8.469
  394.750   78.659    0.385    0.284    8.634
  395.000   81.108    0.399    0.272    8.798
  395.250   82.946    0.390    0.253    9.045
  395.500   80.497    0.382    0.243    9.045
  395.750   75.600    0.376    0.269    9.046
  396.000   74.376    0.366    0.290    8.965
  396.250   74.377    0.358    0.288    8.965
  396.500   76.215    0.365    0.248    8.720
  396.750   79.889    0.383    0.224    8.065
  397.000   82.338    0.389    0.216    7.656
  397.250   84.176    0.378    0.215    7.247
  397.500   86.626    0.381    0.209    7.001
  397.750   89.687    0.388    0.221    7.002
  398.000   93.362    0.384    0.203    7.085
  398.250   95.199    0.377    0.213    7.250
  398.500   93.363    0.388    0.225    7.250
  398.750   90.915    0.392    0.233    7.251
  399.000   89.691    0.382    0.237    7.251
  399.250   89.079    0.387    0.213    7.170
  399.500   91.529    0.401    0.211    7.170
  399.750   93.366    0.415    0.208    7.171
  400.000   89.694    0.435    0.179    7.418
  400.250   84.184    0.318    0.172    7.746
  400.500   79.287    0.254    0.142    8.075
  400.750   73.777    0.222    0.003    8.322
  401.000   67.043    0.307    0.034    8.404
  401.250   63.983    0.329    0.141    8.077
  401.500   70.106    0.337    0.183    7.504
  401.750   73.168    0.371    0.208    6.931
  402.000   82.352    0.405    0.188    6.521
  402.250   89.088    0.397    0.177    6.440
  402.500  100.109    0.412    0.184    6.523
  402.750   99.497    0.417    0.208    6.688
  403.000   95.825    0.424    0.221    6.688
  403.250   93.988    0.441    0.201    6.689
  403.500   93.377    0.446    0.200    6.689
  403.750   93.378    0.433    0.199    6.608
  404.000   94.603    0.420    0.188    6.527
  404.250   96.440    0.415    0.198    6.445
  404.500   97.053    0.420    0.198    6.282
  404.750   96.442    0.430    0.195    6.037
  405.000   95.218    0.426    0.214    5.873
  405.250   93.382    0.414    0.222    5.792
  405.500   92.770    0.406    0.224    5.629
  405.750   95.832    0.414    0.222    4.728
  406.000  100.119    0.495    0.235    3.909
  406.250  102.568    0.495    0.250    3.090
  406.500  106.242    0.473    0.257    2.517
  406.750  101.958    0.473    0.264    2.026
  407.000   99.509    0.460    0.268    1.780
  407.250   98.285    0.441    0.270    2.109
  407.500   96.449    0.420    0.254    2.601
  407.750   94.613    0.409    0.235    3.258
  408.000   90.328    0.411    0.229    3.832
  408.250   86.043    0.412    0.215    4.488
  408.500   86.044    0.414    0.226    4.981
  408.750   88.493    0.416    0.229    5.391
  409.000   94.005    0.428    0.216    5.474
  409.250   95.230    0.435    0.211    5.311
  409.500   94.618    0.406    0.220    5.147
  409.750   92.782    0.388    0.220    5.230
  410.000   91.558    0.379    0.234    5.477
  410.250   92.171    0.395    0.258    5.641
  410.500   92.172    0.412    0.221    5.888
  410.750   92.173    0.414    0.214    6.053
  411.000   91.561    0.409    0.235    6.053
  411.250   91.562    0.393    0.240    6.136
  411.500   91.562    0.387    0.251    6.136
  411.750   86.053    0.384    0.266    6.137
  412.000   81.768    0.387    0.258    6.220
  412.250   81.768    0.388    0.242    6.302
  412.500   97.075    0.395    0.227    6.467
  412.750  115.443    0.395    0.227    6.549
  413.000   93.403    0.389    0.247    6.714
  413.250   81.771    0.377    0.248    6.879
  413.500   79.935    0.369    0.242    6.961
  413.750   83.609    0.371    0.227    7.044
  414.000   78.712    0.360    0.211    7.209
  414.250   76.876    0.352    0.243    7.209
  414.500   79.938    0.361    0.271    7.128
  414.750   80.551    0.368    0.251    6.801
  415.000   81.164    0.362    0.225    6.719
  415.250   81.165    0.362    0.218    6.720
  415.500   81.778    0.368    0.224    6.802
  415.750   84.839    0.380    0.232    6.803
  416.000   87.901    0.388    0.213    6.640
  416.250   89.739    0.394    0.209    6.558
  416.500   90.964    0.396    0.214    6.313
  416.750   88.516    0.407    0.232    5.904
  417.000   85.455    0.423    0.227    5.659
  417.250   83.619    0.426    0.210    5.332
  417.500   82.395    0.396    0.225    5.250
  417.750   81.171    0.400    0.214    5.005
  418.000   79.948    0.399    0.222    4.760
  418.250   83.010    0.395    0.202    4.760
  418.500   85.459    0.385    0.216    4.761
  418.750   86.684    0.383    0.243    4.844
  419.000   83.624    0.390    0.267    4.927
  419.250   81.788    0.406    0.282    4.927
  419.500   83.625    0.420    0.251    5.010
  419.750   86.075    0.422    0.239    5.092
  420.000   89.137    0.404    0.237    5.175
  420.250   90.362    0.405    0.208    5.176
