~VERSION INFORMATION
 VERS.                 2.0:   CWLS LOG ASCII STANDARD -VERSION 2.0
 WRAP.                  NO:   ONE LINE PER DEPTH STEP
~WELL INFORMATION BLOCK
#MNEM.UNIT           DATA                    DESCRIPTION OF MNEMONIC
#---------    -------------------            -------------------------------
# Generated from Intellog Unique Number	CX_WELLS/WELL/4026
WELL.         PACIFIC WILLOW                 : Well_name    - WELL
LOC .         00/07-09-077-04W5/0            : Location     - LOCATION
UWI .         00/07-09-077-04W5/0            : Uwi          - UNIQUE WELL ID
ENTR.         T                              : Entered      - ENTERED BY
SRVC.         SCHLUMBERGER                   : Scn          - SERVICE COMPANY
STRT.F        1400                           : top_depth    - START DEPTH
STOP.F        2149.67                        : bot_depth    - STOP DEPTH
STEP.F        0.82                           : increment    - STEP LENGTH
 NULL. -999.2500:NULL Value
~CURVE INFORMATION BLOCK
#MNEM UNIT       ERCB CURVE CODE    CURVE DESCRIPTION
#-----------   ------------------   ----------------------------------
DEPT.F        00 001 00 00         : DEPTH        - DEPTH
GR  .API      00 310 00 00         : GR           - GAMMA RAY
NPHI.V/V      00 330 00 00         : PHIN         - NEUTRON POROSITY (SANDSTONE)
DPHI.V/V      00 890 00 00         : PHID         - DENSITY POROSITY (SANDSTONE)
ILD .OHMM     00 120 00 00         : RESD         - DEEP RESISTIVITY (DIL)
~PARAMETER INFORMATION
#MNEM.UNIT           DATA             DESCRIPTION OF MNEMONIC
#---------         -----------     ------------------------------
GL  .F        2352                 : gl           - GROUND LEVEL ELEVATION
EREF.F        2364.5               : kb           - ELEVATION OF DEPTH REFERENCE
DATM.F        2364.5               : datum        - DATUM ELEVATION
TDD .F        2166                 : tdd          - TOTAL DEPTH DRILLER
RUN .         ONE                  : Run          - RUN NUMBER
ENG .         BILL                 : Engineer     - RECORDING ENGINEER
WIT .         JIM                  : Witness      - WITNESSED BY
MUD .         GEL                  : Mud_type     - MUD TYPE
MATR.         SANDSTONE            : Logunit      - NEUTRON MATRIX
TMAX.F        82                   : BHT          - MAXIMUM RECORDED TEMPERATURE
BHTD.F        2166                 : BHTDEP       - MAXIMUM RECORDED TEMPERATURE
MATR.         1                    : LOGUNIT      - NEUTRON MATRIX
RMT .F        65                   : MDTP         - TEMPERATURE OF MUD
NEUT.         1                    : NEUTRON      - NEUTRON TYPE
RESI.         4.1                  : RESIST       - RESISTIVITY TYPE
RMC .OHMM     3.5                  : RMC          - RESISTIVITY OF MUD CAKE
RMF .OHMM     3.5                  : RMF          - RESISTIVITY OF MUD FILTRATE
SUFT.F        35                   : SUFT         - SURFACE TEMPERATURE
~A  DEPTH       GR     PHIN     PHID     RESD
# ...
 1828.150   93.411    0.444    0.190    6.116
 1828.970   94.696    0.444    0.163    6.011
 1829.790   95.384    0.442    0.160    5.797
 1830.610   96.684    0.441    0.157    5.694
 1831.430   97.969    0.440    0.152    5.492
 1832.250   99.239    0.446    0.150    5.393
 1833.070  101.152    0.455    0.147    5.300
 1833.890  101.810    0.457    0.145    5.209
 1834.710   98.821    0.459    0.141    5.119
 1835.530   98.283    0.458    0.139    5.027
 1836.350   98.955    0.457    0.130    4.941
 1837.170   99.613    0.452    0.124    4.765
 1837.990  100.898    0.450    0.124    4.768
 1838.810  101.586    0.445    0.131    4.599
 1839.630  101.630    0.447    0.137    4.604
 1840.450  101.705    0.450    0.144    4.523
 1841.270  101.750    0.449    0.137    4.527
 1842.090  102.422    0.449    0.126    4.532
 1842.910  103.723    0.450    0.133    4.626
 1843.730  103.170    0.452    0.144    4.631
 1844.550  101.391    0.456    0.154    4.723
 1845.370   99.613    0.454    0.159    4.818
 1846.190   97.849    0.447    0.163    4.915
 1847.010   96.071    0.438    0.171    5.014
 1847.830   94.920    0.440    0.179    5.116
 1848.650   94.352    0.444    0.178    5.122
 1849.480   93.784    0.446    0.170    5.225
 1850.300   93.859    0.448    0.169    5.233
 1851.120   94.546    0.451    0.169    5.239
 1851.940   95.831    0.455    0.174    5.343
 1852.760   97.102    0.458    0.177    5.349
 1853.580   99.627    0.465    0.186    5.356
 1854.400  100.898    0.470    0.194    5.364
 1855.220   99.119    0.470    0.201    5.369
 1856.040   96.130    0.471    0.203    5.276
 1856.860   94.965    0.471    0.202    5.279
 1857.680   96.848    0.462    0.195    5.187
 1858.500  100.599    0.452    0.187    5.001
 1859.320  101.286    0.455    0.181    4.917
 1860.140  101.331    0.458    0.174    4.921
 1860.960  101.406    0.462    0.171    4.838
 1861.780  101.465    0.468    0.204    4.750
 1862.600  101.525    0.471    0.208    4.757
 1863.420   99.732    0.458    0.213    4.761
 1864.240   91.213    0.450    0.220    5.044
 1865.060   84.548    0.439    0.226    5.442
 1865.880   83.382    0.432    0.218    6.335
 1866.700   83.442    0.421    0.200    6.967
 1867.520   82.889    0.410    0.189    7.105
 1868.340   82.336    0.431    0.195    6.981
 1869.160   81.768    0.457    0.206    6.859
 1869.980   81.230    0.467    0.217    6.739
 1870.800   81.275    0.476    0.225    6.621
 1871.620   81.364    0.473    0.234    6.384
 1872.440   81.439    0.472    0.235    6.273
 1873.260   81.469    0.468    0.230    6.165
 1874.080   80.916    0.467    0.226    6.059
 1874.900   80.991    0.464    0.225    6.064
 1875.720   81.648    0.457    0.226    6.072
 1876.540   81.708    0.453    0.228    6.078
 1877.360   82.380    0.458    0.230    6.088
 1878.180   83.083    0.464    0.228    6.207
 1879.000   83.755    0.461    0.225    6.334
 1879.820   83.202    0.463    0.216    6.343
 1880.640   81.424    0.461    0.208    6.348
 1881.460   79.018    0.458    0.202    6.357
 1882.280   76.029    0.455    0.205    6.487
 1883.100   77.329    0.445    0.206    6.614
 1883.920   78.584    0.439    0.203    7.007
 1884.740   81.110    0.442    0.201    7.281
 1885.560   82.395    0.452    0.203    7.428
 1886.380   82.485    0.459    0.211    7.440
 1887.200   82.515    0.465    0.213    7.306
 1888.020   82.575    0.469    0.218    7.045
 1888.850   82.634    0.474    0.220    6.666
 1889.670   82.081    0.479    0.222    6.308
 1890.490   82.141    0.483    0.222    5.971
 1891.310   82.201    0.486    0.222    5.761
 1892.130   81.678    0.481    0.219    5.657
 1892.950   81.723    0.467    0.217    5.560
 1893.770   80.572    0.458    0.213    5.564
 1894.590   80.004    0.439    0.207    5.571
 1895.410   80.064    0.425    0.198    5.684
 1896.230   80.138    0.399    0.191    6.022
 1897.050   82.051    0.386    0.174    6.140
 1897.870   83.307    0.428    0.166    6.382
 1898.690   90.121    0.431    0.181    6.636
 1899.510   91.407    0.447    0.183    6.644
 1900.330   92.109    0.458    0.179    6.289
 1901.150   92.154    0.460    0.177    6.177
 1901.970   92.214    0.460    0.172    5.956
 1902.790   93.499    0.460    0.172    5.636
 1903.610   94.784    0.460    0.173    5.537
 1904.430   96.069    0.456    0.174    5.442
 1905.250   98.580    0.452    0.178    5.347
 1906.070  100.493    0.454    0.178    5.353
 1906.890  101.166    0.454    0.178    5.358
 1907.710  101.240    0.452    0.173    5.365
 1908.530  101.883    0.450    0.167    5.371
 1909.350  101.958    0.449    0.157    5.379
 1910.170  102.017    0.446    0.151    5.487
 1910.990  102.092    0.444    0.146    5.493
 1911.810  102.137    0.443    0.139    5.604
 1912.630  101.599    0.442    0.129    5.609
 1913.450  101.644    0.443    0.122    5.615
 1914.270  101.091    0.446    0.130    5.728
 1915.090  101.165    0.448    0.142    5.736
 1915.910  100.000    0.450    0.150    5.743
 1916.730   98.819    0.448    0.159    5.751
 1917.550   97.070    0.443    0.169    5.756
 1918.370   96.502    0.432    0.174    5.764
 1919.190   95.367    0.421    0.181    5.772
 1920.010   94.784    0.415    0.183    5.777
 1920.830   96.084    0.414    0.151    5.784
 1921.650  100.418    0.423    0.142    5.900
 1922.470  108.458    0.428    0.130    5.909
 1923.290  110.969    0.438    0.133    6.026
 1924.110  112.269    0.448    0.140    6.031
 1924.930  112.344    0.450    0.150    6.272
 1925.750  112.374    0.450    0.155    6.278
 1926.570  110.610    0.449    0.127    6.288
 1927.400  110.042    0.446    0.125    6.177
 1928.220  105.200    0.440    0.131    6.067
 1929.040  100.388    0.429    0.136    5.961
 1929.860   99.805    0.424    0.141    5.968
 1930.680   99.267    0.423    0.136    5.976
 1931.500   98.699    0.420    0.130    5.981
 1932.320   97.548    0.414    0.121    6.219
 1933.140   95.172    0.404    0.112    6.591
 1933.960   92.183    0.381    0.112    6.721
 1934.780   90.987    0.372    0.111    7.121
 1935.600   86.773    0.364    0.101    7.260
 1936.420   83.156    0.367    0.101    7.547
 1937.240   82.618    0.391    0.130    7.847
 1938.060   82.035    0.397    0.155    8.005
 1938.880   82.110    0.407    0.177    8.011
 1939.700   82.185    0.415    0.183    8.025
 1940.520   81.617    0.427    0.193    8.034
 1941.340   81.692    0.437    0.207    8.043
 1942.160   81.736    0.436    0.211    7.903
 1942.980   82.409    0.431    0.203    8.064
 1943.800   83.709    0.428    0.194    8.224
 1944.620   85.607    0.423    0.178    8.546
 1945.440   83.814    0.414    0.166    9.401
 1946.260   70.378    0.398    0.131   10.734
 1947.080   65.551    0.357    0.088   12.725
 1947.900   60.081    0.317    0.052   15.960
 1948.720   57.690    0.265   -0.002   20.397
 1949.540   58.975    0.191    0.003   26.082
 1950.360   62.144    0.205    0.030   22.888
 1951.180   64.026    0.235    0.059   15.450
 1952.000   66.522    0.284    0.106   11.664
 1952.820   71.499    0.317    0.144   11.040
 1953.640   75.878    0.347    0.159   10.643
 1954.460   77.148    0.379    0.173    9.702
 1955.280   80.287    0.391    0.179    9.013
 1956.100   82.782    0.399    0.181    8.529
 1956.920   83.455    0.411    0.183    8.071
 1957.740   83.514    0.423    0.186    7.497
 1958.560   82.977    0.431    0.189    7.362
 1959.380   83.036    0.432    0.188    7.099
 1960.200   83.111    0.431    0.187    6.849
 1961.020   83.141    0.427    0.184    6.602
 1961.840   83.813    0.426    0.180    6.733
 1962.660   82.662    0.428    0.180    6.742
 1963.480   80.884    0.432    0.187    6.748
 1964.300   79.733    0.434    0.191    6.758
 1965.120   79.763    0.441    0.197    6.763
 1965.940   80.466    0.447    0.194    6.773
 1966.770   81.138    0.449    0.188    6.781
 1967.590   80.585    0.450    0.181    6.790
 1968.410   79.419    0.450    0.185    6.927
 1969.230   79.494    0.444    0.189    6.935
 1970.050   79.524    0.431    0.181    7.072
