~VERSION INFORMATION
 VERS.                 2.0:   CWLS LOG ASCII STANDARD -VERSION 2.0
 WRAP.                  NO:   ONE LINE PER DEPTH STEP
~WELL INFORMATION BLOCK
#MNEM.UNIT           DATA                    DESCRIPTION OF MNEMONIC
#---------    -------------------            -------------------------------
# Generated from Intellog Unique Number	CW_73_75/WELL/693
WELL.         CDN SUP ET AL FRANCIS 07-05    : Well_name    - WELL
LOC .         00/07-05-074-20W4/0            : Location     - LOCATION
UWI .         00/07-05-074-20W4/0            : Uwi          - UNIQUE WELL ID
ENTR.         JAYE                           : Entered      - ENTERED BY
SRVC.         SCHLUMBERGER                   : Scn          - SERVICE COMPANY
DATE.         15 MAR 76                      : Date         - LOG DATE
STRT.M        393.192                        : top_depth    - START DEPTH
STOP.M        609.692                        : bot_depth    - STOP DEPTH
STEP.M        0.25                           : increment    - STEP LENGTH
 NULL. -999.2500:NULL Value
~CURVE INFORMATION BLOCK
#MNEM UNIT       ERCB CURVE CODE    CURVE DESCRIPTION
#-----------   ------------------   ----------------------------------
DEPT.M        00 001 00 00         : DEPTH        - DEPTH
DPHI.V/V      00 890 00 00         : PHID         - DENSITY POROSITY (SANDSTONE)
NPHI.V/V      00 330 00 00         : PHIN         - NEUTRON POROSITY (SANDSTONE)
GR  .API      00 310 00 00         : GR           - GAMMA RAY
CALI.IN       00 280 01 00         : CAL          - CALIPER
ILD .OHMM     00 120 00 00         : RESD         - DEEP RESISTIVITY (DIL)
~PARAMETER INFORMATION
#MNEM.UNIT           DATA             DESCRIPTION OF MNEMONIC
#---------         -----------     ------------------------------
GL  .M        705.612              : gl           - GROUND LEVEL ELEVATION
EREF.M        708.965              : kb           - ELEVATION OF DEPTH REFERENCE
DATM.M        705.612              : datum        - DATUM ELEVATION
TDD .M        682.752              : tdd          - TOTAL DEPTH DRILLER
RUN .         ONE                  : Run          - RUN NUMBER
BASE.         EDMONTON             : Branch       - HOME BASE OF LOGGING UNIT
MATR.         SANDSTONE            : Logunit      - NEUTRON MATRIX
TMAX.C        28.8889              : BHT          - MAXIMUM RECORDED TEMPERATURE
BHTD.M        682.752              : BHTDEP       - MAXIMUM RECORDED TEMPERATURE
RMT .C        -16.45               : MDTP         - TEMPERATURE OF MUD
MUDD.KG/M     0                    : MWT          - MUD DENSITY
NEUT.         1                    : NEUTRON      - NEUTRON TYPE
RESI.         0                    : RESIST       - RESISTIVITY TYPE
RM  .OHMM     5.48                 : RM           - RESISTIVITY OF MUD
RMC .OHMM     4                    : RMC          - RESISTIVITY OF MUD CAKE
RMF .OHMM     2.86                 : RMF          - RESISTIVITY OF MUD FILTRATE
SUFT.C        -17.7778             : SUFT         - SURFACE TEMPERATURE
~A  DEPTH     PHID     PHIN       GR      CAL     RESD
# ...
  466.192    0.326    0.446   43.971    7.712    7.048
  466.442    0.340    0.436   45.890    7.696    7.101
  466.692    0.348    0.436   48.243    7.667    7.142
  466.942    0.332    0.458   47.622    7.646    7.235
  467.192    0.340    0.467   47.063    7.634    7.277
  467.442    0.339    0.460   48.920    7.617    7.291
  467.692    0.344    0.451   49.786    7.596    7.306
  467.942    0.329    0.453   49.288    7.592    7.335
  468.192    0.337    0.457   47.552    7.588    7.349
  468.442    0.340    0.443   46.373    7.592    7.338
  468.692    0.334    0.446   45.752    7.600    7.339
  468.942    0.346    0.455   47.795    7.616    7.341
  469.192    0.331    0.450   50.768    7.633    7.342
  469.442    0.322    0.449   50.642    7.633    7.357
  469.692    0.311    0.453   48.720    7.633    7.359
  469.942    0.329    0.450   47.293    7.632    7.347
  470.192    0.315    0.457   46.672    7.636    7.335
  470.442    0.319    0.469   47.290    7.653    7.364
  470.692    0.331    0.470   49.953    7.669    7.419
  470.942    0.348    0.456   51.314    7.682    7.461
  471.192    0.338    0.433   49.640    7.681    7.477
  471.442    0.328    0.426   49.762    7.681    7.464
  471.692    0.321    0.419   50.752    7.669    7.466
  471.942    0.325    0.422   50.193    7.660    7.440
  472.192    0.315    0.441   49.944    7.652    7.455
  472.442    0.315    0.462   51.181    7.648    7.512
  472.692    0.319    0.459   51.303    7.648    7.541
  472.942    0.320    0.445   49.381    7.648    7.570
  473.192    0.317    0.429   50.433    7.648    7.544
  473.442    0.307    0.433   53.034    7.648    7.518
  473.692    0.287    0.449   55.944    7.647    7.520
  473.942    0.296    0.464   53.960    7.647    7.508
  474.192    0.330    0.470   53.711    7.651    7.496
  474.442    0.332    0.468   55.010    7.651    7.483
  474.692    0.329    0.447   57.115    7.664    7.458
  474.942    0.323    0.453   59.840    7.663    7.405
  475.192    0.328    0.441   62.564    7.667    7.393
  475.442    0.329    0.439   64.979    7.676    7.381
  475.692    0.333    0.443   67.518    7.692    7.369
  475.942    0.321    0.439   70.428    7.708    7.344
  476.192    0.308    0.436   72.037    7.733    7.226
  476.442    0.308    0.434   75.072    7.766    7.019
  476.692    0.311    0.441   76.000    7.791    6.819
  476.942    0.274    0.454   79.158    7.811    6.660
  477.192    0.248    0.473   81.139    7.819    6.505
  477.442    0.233    0.499   82.625    7.828    6.319
  477.692    0.248    0.509   81.260    7.823    6.184
  477.942    0.272    0.483   85.410    7.807    6.051
  478.192    0.254    0.474   85.842    7.794    5.825
  478.442    0.269    0.512   87.079    7.798    5.617
  478.692    0.280    0.498   91.910    7.839    5.427
  478.942    0.262    0.476   93.644    7.885    5.262
  479.192    0.236    0.465   94.076    7.996    5.074
  479.442    0.191    0.472   93.207    8.120    4.929
  479.692    0.200    0.481   92.338    8.240    4.824
  479.942    0.207    0.479   92.584    8.355    4.789
  480.192    0.199    0.473   93.698    8.430    4.879
  480.442    0.209    0.467   94.936    8.462    5.240
  480.692    0.207    0.463   96.793    8.466    5.721
  480.942    0.203    0.456   98.960    8.446    6.349
  481.192    0.209    0.452   99.826    8.413    7.125
  481.442    0.213    0.453   95.177    8.384    7.666
  481.692    0.224    0.447   90.529    8.322    7.866
  481.942    0.230    0.439   85.695    8.239    7.558
  482.192    0.254    0.427   86.065    8.119    7.105
  482.442    0.272    0.432   85.939    7.883    6.667
  482.692    0.253    0.440   84.637    7.825    6.313
  482.942    0.213    0.418   87.113    7.834    5.880
  483.192    0.203    0.411   90.891    7.941    5.368
  483.442    0.240    0.428   93.616    8.123    4.804
  483.692    0.230    0.454   97.518    8.395    4.213
  483.942    0.238    0.492  101.234    8.622    3.756
  484.192    0.223    0.492  104.330    8.870    3.312
  484.442    0.215    0.508  108.294    9.051    3.177
  484.692    0.222    0.552  107.239    9.163    3.218
  484.942    0.223    0.561  104.325    9.196    3.338
  485.192    0.234    0.560  101.783    9.187    3.495
  485.442    0.216    0.541   99.675    9.158    3.659
  485.692    0.220    0.519   96.885    9.014    3.852
  485.942    0.223    0.499   93.910    8.737    4.040
  486.192    0.234    0.479   90.749    8.485    4.199
  486.442    0.206    0.482   87.278    8.493    4.412
  486.692    0.234    0.493   83.992    8.394    4.577
  486.942    0.249    0.483   81.203    8.224    4.757
  487.192    0.282    0.463   75.997    7.981    4.863
  487.442    0.322    0.442   71.100    7.836    4.963
  487.692    0.333    0.432   68.683    7.716    5.046
  487.942    0.324    0.423   63.663    7.699    5.121
  488.192    0.315    0.417   65.705    7.724    5.150
  488.442    0.307    0.429   67.129    7.749    5.142
  488.692    0.301    0.436   66.694    7.773    5.124
  488.942    0.294    0.426   66.506    7.786    5.088
  489.192    0.290    0.425   67.744    7.790    5.052
  489.442    0.308    0.430   64.459    7.790    5.063
  489.692    0.321    0.434   65.882    7.785    5.082
  489.942    0.330    0.444   68.111    7.785    5.130
  490.192    0.325    0.446   64.392    7.785    5.150
  490.442    0.311    0.442   63.337    7.785    5.207
  490.692    0.305    0.438   64.265    7.797    5.373
  490.942    0.322    0.446   65.255    7.801    5.802
  491.192    0.324    0.459   64.014    7.814    6.335
  491.442    0.301    0.443   62.649    7.834    6.967
  491.692    0.278    0.417   62.895    7.851    7.804
  491.942    0.252    0.387   63.266    7.867    8.918
  492.192    0.205    0.350   61.529    7.879   10.455
  492.442    0.092    0.291   59.855    7.912   12.213
  492.692    0.068    0.187   59.915    7.929   13.804
  492.942    0.058    0.180   59.108    7.924   14.935
  493.192    0.067    0.176   57.496    7.900   15.636
  493.442    0.069    0.174   55.574    7.875   15.161
  493.692    0.046    0.177   53.651    7.862   14.148
  493.942    0.090    0.194   52.473    7.837   13.059
  494.192    0.137    0.215   52.223    7.808   11.685
  494.442    0.178    0.291   52.718    7.775   10.173
  494.692    0.200    0.315   55.070    7.746    8.055
  494.942    0.194    0.313   58.538    7.734    6.507
  495.192    0.238    0.364   63.803    7.729    5.533
  495.442    0.314    0.408   70.865    7.729    5.060
  495.692    0.319    0.467   68.571    7.733    4.845
  495.942    0.325    0.450   67.144    7.725    4.793
  496.192    0.325    0.439   67.515    7.712    4.785
  496.442    0.322    0.438   69.062    7.708    4.760
  496.692    0.327    0.448   70.795    7.708    4.735
  496.942    0.325    0.441   73.210    7.700    4.727
  497.192    0.308    0.442   75.749    7.708    4.720
  497.442    0.303    0.450   76.429    7.720    4.695
  497.692    0.296    0.454   73.639    7.728    4.670
  497.942    0.322    0.487   70.664    7.732    4.671
  498.192    0.314    0.479   70.600    7.745    4.689
  498.442    0.316    0.462   72.147    7.749    4.725
  498.692    0.311    0.459   72.766    7.749    4.752
  498.942    0.311    0.473   73.260    7.744    4.787
  499.192    0.313    0.481   73.754    7.744    4.832
  499.442    0.294    0.486   73.814    7.744    4.869
  499.692    0.297    0.485   74.122    7.744    4.906
  499.942    0.301    0.467   77.962    7.740    4.933
  500.192    0.307    0.459   81.864    7.731    4.962
  500.442    0.308    0.467   82.482    7.740    4.972
  500.692    0.306    0.462   79.073    7.756    4.973
  500.942    0.314    0.460   76.345    7.772    4.974
  501.192    0.295    0.467   74.919    7.793    4.975
  501.442    0.288    0.474   73.554    7.793    4.976
  501.692    0.294    0.482   73.181    7.797    4.959
  501.942    0.283    0.485   74.046    7.797    4.978
  502.192    0.284    0.483   76.461    7.788    4.979
  502.442    0.278    0.471   79.124    7.780    4.998
