~VERSION INFORMATION
 VERS.                 2.0:   CWLS LOG ASCII STANDARD -VERSION 2.0
 WRAP.                  NO:   ONE LINE PER DEPTH STEP
~WELL INFORMATION BLOCK
#MNEM.UNIT           DATA                    DESCRIPTION OF MNEMONIC
#---------    -------------------            -------------------------------
# Generated from Intellog Unique Number	CW_70_72/WELL/529
NULL.         -999.25                        : NULL_VALUE
WELL.         CHIEFCO SCEPTRE SPURFIELD 06-0 : Well_name    - WELL              
LOC .         06-02-072-02W5                 : Location     - LOCATION          
UWI .         00/06-02-072-02W5/0            : Uwi          - UNIQUE WELL ID    
ENTR.         JAYE                           : Entered      - ENTERED BY        
SRVC.         SCHLUMBERGER                   : Scn          - SERVICE COMPANY   
DATE.         21 JAN 78                      : Date         - LOG DATE          
STRT.M        387.096                        : top_depth    - START DEPTH       
STOP.M        640.096                        : bot_depth    - STOP DEPTH        
STEP.M        0.25                           : increment    - STEP LENGTH       
~CURVE INFORMATION BLOCK
#MNEM UNIT       ERCB CURVE CODE    CURVE DESCRIPTION
#-----------   ------------------   ----------------------------------
DEPT.M        00 001 00 00         : DEPTH        - DEPTH                       
DPHI.V/V      00 890 00 00         : PHID         - DENSITY POROSITY (SANDSTONE)
NPHI.V/V      00 330 00 00         : PHIN         - NEUTRON POROSITY (SANDSTONE)
GR  .API      00 310 00 00         : GR           - GAMMA RAY                   
CALI.MM       00 280 01 00         : CAL          - CALIPER                     
ILD .OHMM     00 120 00 00         : RESD         - DEEP RESISTIVITY (DIL)      
~PARAMETER INFORMATION       
#MNEM.UNIT           DATA             DESCRIPTION OF MNEMONIC
#---------         -----------     ------------------------------
GL  .M        588.416              : gl           - GROUND LEVEL ELEVATION      
EREF.M        591.312              : kb           - ELEVATION OF DEPTH REFERENCE
DATM.M        588.416              : datum        - DATUM ELEVATION             
TDD .M        659.892              : tdd          - TOTAL DEPTH DRILLER         
RUN .         ONE                  : Run          - RUN NUMBER                  
ENG .         CONQUIST/DALY        : Engineer     - RECORDING ENGINEER          
WIT .         SIFERD               : Witness      - WITNESSED BY                
BASE.         EDM                  : Branch       - HOME BASE OF LOGGING UNIT   
MUD .         GEL CHEM             : Mud_type     - MUD TYPE                    
MATR.         SANDSTONE            : Logunit      - NEUTRON MATRIX              
TMAX.C        25.5556              : BHT          - MAXIMUM RECORDED TEMPERATURE
BHTD.M        660.197              : BHTDEP       - MAXIMUM RECORDED TEMPERATURE
RMT .C        18.8889              : MDTP         - TEMPERATURE OF MUD          
MUDD.KG/M     1128                 : MWT          - MUD DENSITY                 
NEUT.         1                    : NEUTRON      - NEUTRON TYPE                
RESI.         0                    : RESIST       - RESISTIVITY TYPE            
RM  .OHMM     6.55                 : RM           - RESISTIVITY OF MUD          
RMC .OHMM     0                    : RMC          - RESISTIVITY OF MUD CAKE     
RMF .OHMM     5.8                  : RMF          - RESISTIVITY OF MUD FILTRATE 
SUFT.C        0                    : SUFT         - SURFACE TEMPERATURE         
~A  DEPTH     PHID     PHIN       GR      CAL     RESD
# ...
  423.596    0.228    0.377   67.605  161.902    5.329
  423.846    0.253    0.400   66.996  157.814    4.800
  424.096    0.252    0.438   70.930  156.043    4.259
  424.346    0.256    0.452   76.172  155.120    3.785
  424.596    0.270    0.443   78.425  154.824    3.352
  424.846    0.282    0.436   82.237  154.950    3.048
  425.096    0.270    0.444   86.793  155.186    2.841
  425.346    0.277    0.442   89.608  154.889    2.672
  425.596    0.288    0.424   83.582  154.491    2.523
  425.846    0.297    0.417   74.570  153.989    2.433
  426.096    0.279    0.413   75.206  153.589    2.359
  426.346    0.263    0.406   77.460  153.192    2.309
  426.596    0.271    0.399   79.340  153.211    2.334
  426.846    0.271    0.387   81.470  154.816    2.409
  427.096    0.237    0.392   85.280  157.999    2.510
  427.346    0.194    0.419   92.576  162.555    2.736
  427.596    0.204    0.453   85.868  162.364    2.916
  427.846    0.231    0.431   78.909  157.013    3.191
  428.096    0.276    0.418   75.561  152.081    3.408
  428.346    0.262    0.410   78.251  146.941    3.550
  428.596    0.241    0.405   83.741  144.536    3.589
  428.846    0.255    0.425   82.946  147.090    3.567
  429.096    0.247    0.435   76.734  151.541    3.484
  429.346    0.258    0.430   71.458  153.247    3.430
  429.596    0.276    0.441   67.985  153.380    3.402
  429.846    0.283    0.456   67.750  152.870    3.381
  430.096    0.258    0.454   68.821  152.471    3.360
  430.346    0.262    0.432   73.378  152.812    3.326
  430.596    0.251    0.409   75.258  153.152    3.312
  430.846    0.243    0.430   77.138  153.596    3.316
  431.096    0.246    0.461   75.472  154.254    3.340
  431.346    0.258    0.465   73.121  154.692    3.369
  431.596    0.248    0.443   74.941  155.983    3.399
  431.846    0.221    0.436   76.881  157.794    3.436
  432.096    0.201    0.434   81.686  162.667    3.540
  432.346    0.195    0.438   88.920  165.533    3.688
  432.596    0.231    0.454   76.609  165.346    3.827
  432.846    0.237    0.435   67.036  165.893    3.898
  433.096    0.246    0.434   75.516  168.444    3.903
  433.346    0.291    0.512   73.475  174.477    3.835
  433.596    0.302    0.507   68.073  175.658    3.726
  433.846    0.242    0.455   64.849  164.297    3.579
  434.096    0.239    0.434   65.424  157.997    3.412
  434.346    0.260    0.453   67.055  156.756    3.321
  434.596    0.281    0.437   66.694  156.776    3.220
  434.846    0.293    0.444   66.335  156.797    3.134
  435.096    0.273    0.444   64.791  157.349    3.085
  435.346    0.270    0.429   62.378  158.428    3.072
  435.596    0.280    0.439   62.639  159.290    3.053
  435.846    0.287    0.444   65.765  160.370    3.045
  436.096    0.299    0.437   73.060  161.129    3.038
  436.346    0.243    0.418   80.169  163.365    3.064
  436.596    0.216    0.409   88.275  166.124    3.092
  436.846    0.174    0.426   96.006  169.627    3.191
  437.096    0.160    0.450   98.074  173.340    3.325
  437.346    0.168    0.445   98.710  175.994    3.444
  437.596    0.155    0.434  100.091  179.393    3.568
  437.846    0.151    0.431  104.898  181.313    3.634
  438.096    0.157    0.438  106.219  182.282    3.694
  438.346    0.168    0.464  103.369  181.778    3.741
  438.596    0.218    0.470   99.896  179.373    3.789
  438.846    0.196    0.464   95.429  176.553    3.837
  439.096    0.186    0.456   91.768  174.676    3.908
  439.346    0.189    0.427   86.741  172.697    4.018
  439.596    0.206    0.413   82.583  169.345    4.194
  439.846    0.233    0.405   83.093  168.631    4.428
  440.096    0.235    0.410   87.775  170.344    4.719
  440.346    0.226    0.426   94.262  171.734    4.992
  440.596    0.260    0.464   99.814  172.913    5.310
  440.846    0.241    0.497  104.932  174.202    5.543
  441.096    0.250    0.516  103.140  175.594    5.635
  441.346    0.249    0.529  104.398  178.252    5.341
  441.596    0.233    0.525  106.839  180.489    5.006
  441.846    0.212    0.509  105.297  181.247    4.656
  442.096    0.209    0.487  103.193  179.688    4.472
  442.346    0.195    0.461   98.165  175.917    4.402
  442.596    0.221    0.434   88.654  179.314    4.552
  442.846    0.293    0.459   80.389  182.601    4.698
  443.096    0.346    0.503   70.755  172.611    4.634
  443.346    0.297    0.436   63.921  161.464    4.392
  443.596    0.283    0.389   57.027  157.690    3.979
  443.846    0.278    0.407   53.553  156.974    3.464
  444.096    0.286    0.403   49.272  156.575    3.062
  444.346    0.282    0.398   47.355  156.285    2.742
  444.596    0.279    0.393   46.435  156.409    2.536
  444.846    0.291    0.388   46.947  156.648    2.454
  445.096    0.278    0.384   50.072  157.196    2.421
  445.346    0.263    0.377   53.260  157.533    2.433
  445.596    0.274    0.374   54.208  158.188    2.436
  445.846    0.257    0.376   54.719  158.736    2.453
  446.096    0.281    0.379   54.980  159.184    2.475
  446.346    0.275    0.380   54.807  159.414    2.545
  446.596    0.259    0.385   54.944  159.437    2.616
  446.846    0.260    0.391   55.894  159.250    2.645
  447.096    0.260    0.400   57.026  159.268    2.648
  447.346    0.264    0.411   59.218  159.397    2.652
  447.596    0.266    0.418   61.845  158.470    2.675
  447.846    0.290    0.406   63.850  157.228    2.679
  448.096    0.282    0.401   64.609  156.934    2.672
  448.346    0.278    0.408   62.880  157.487    2.661
  448.596    0.296    0.414   59.097  158.143    2.614
  448.846    0.280    0.425   56.371  158.373    2.583
  449.096    0.282    0.438   54.703  158.079    2.557
  449.346    0.286    0.453   55.775  157.468    2.532
  449.596    0.307    0.438   58.279  157.707    2.516
  449.846    0.318    0.425   60.532  157.726    2.501
  450.096    0.308    0.447   61.853  157.750    2.490
  450.346    0.308    0.460   60.496  157.877    2.479
  450.596    0.309    0.449   57.024  158.323    2.463
  450.846    0.296    0.436   55.357  159.183    2.438
  451.096    0.309    0.422   54.687  160.686    2.419
  451.346    0.301    0.435   55.196  161.654    2.386
  451.596    0.300    0.443   56.890  163.363    2.366
  451.846    0.296    0.440   58.957  164.126    2.356
  452.096    0.293    0.432   61.773  164.251    2.399
  452.346    0.278    0.435   62.719  163.430    2.444
  452.596    0.276    0.457   60.616  161.557    2.570
  452.846    0.289    0.461   57.020  159.470    2.688
  453.096    0.278    0.428   52.862  157.701    2.769
  453.346    0.273    0.398   52.130  156.886    2.706
  453.596    0.290    0.390   53.450  156.906    2.579
  453.846    0.297    0.404   55.329  157.034    2.506
  454.096    0.292    0.406   58.330  157.052    2.420
  454.346    0.298    0.401   60.957  156.977    2.400
  454.596    0.311    0.402   62.029  156.895    2.399
  454.846    0.310    0.410   61.544  157.015    2.412
  455.096    0.302    0.421   63.674  157.250    2.465
  455.346    0.321    0.413   63.687  157.587    2.497
  455.596    0.305    0.402   59.094  158.033    2.519
  455.846    0.294    0.405   59.730  158.478    2.513
  456.096    0.292    0.417   61.674  158.813    2.516
  456.346    0.320    0.426   64.737  159.679    2.544
  456.596    0.292    0.430   62.572  160.545    2.625
  456.846    0.282    0.410   59.099  161.937    2.771
  457.096    0.257    0.337   56.373  163.859    3.259
  457.346    0.198    0.234   53.960  165.881    3.949
  457.596    0.080    0.198   51.794  167.276    4.583
  457.846    0.104    0.215   49.754  167.509    5.389
  458.096    0.131    0.259   50.451  165.740    5.765
  458.346    0.198    0.334   52.829  162.493    5.105
  458.596    0.243    0.390   56.889  158.936    3.998
  458.846    0.271    0.408   59.952  157.693    3.197
  459.096    0.285    0.430   59.031  157.298    2.757
  459.346    0.289    0.444   58.359  157.317    2.521
  459.596    0.294    0.444   57.812  157.655    2.349
  459.846    0.289    0.437   53.842  157.782    2.429
