~VERSION INFORMATION
 VERS.                 2.0:   CWLS LOG ASCII STANDARD -VERSION 2.0
 WRAP.                  NO:   ONE LINE PER DEPTH STEP
~WELL INFORMATION BLOCK
#MNEM.UNIT           DATA                    DESCRIPTION OF MNEMONIC
#---------    -------------------            -------------------------------
# Generated from Intellog Unique Number	CW_70_72/WELL/3014
NULL.         -999.25                        : NULL_VALUE
WELL.         DEKALB ET AL MITSUE 06-35      : Well_name    - WELL              
LOC .         06-35-070-03W5                : Location     - LOCATION          
UWI .         00/06-35-070-03W5/0            : Uwi          - UNIQUE WELL ID    
ENTR.         JAYE                           : Entered      - ENTERED BY        
SRVC.         SCHLUMBERGER                   : Scn          - SERVICE COMPANY   
DATE.         10 FEB 80                      : Date         - LOG DATE          
STRT.M        460                            : top_depth    - START DEPTH       
STOP.M        680                            : bot_depth    - STOP DEPTH        
STEP.M        0.25                           : increment    - STEP LENGTH       
~CURVE INFORMATION BLOCK
#MNEM UNIT       ERCB CURVE CODE    CURVE DESCRIPTION
#-----------   ------------------   ----------------------------------
DEPT.M        00 001 00 00         : DEPTH        - DEPTH                       
ILD .OHMM     00 120 00 00         : RESD         - DEEP RESISTIVITY (DIL)      
CALI.MM       00 280 01 00         : CAL          - CALIPER                     
GR  .API      00 310 00 00         : GR           - GAMMA RAY                   
NPHI.V/V      00 330 00 00         : PHIN         - NEUTRON POROSITY (SANDSTONE)
DPHI.V/V      00 890 00 00         : PHID         - DENSITY POROSITY (SANDSTONE)
~PARAMETER INFORMATION       
#MNEM.UNIT           DATA             DESCRIPTION OF MNEMONIC
#---------         -----------     ------------------------------
GL  .M        617.4                : gl           - GROUND LEVEL ELEVATION      
EREF.M        620.6                : kb           - ELEVATION OF DEPTH REFERENCE
DATM.M        617.4                : datum        - DATUM ELEVATION             
TDD .M        685                  : tdd          - TOTAL DEPTH DRILLER         
RUN .         ONE                  : Run          - RUN NUMBER                  
ENG .         COOK                 : Engineer     - RECORDING ENGINEER          
WIT .         LOWTHER              : Witness      - WITNESSED BY                
BASE.         RD                   : Branch       - HOME BASE OF LOGGING UNIT   
MUD .         GEL CHEM             : Mud_type     - MUD TYPE                    
MATR.         SANDSTONE            : Logunit      - NEUTRON MATRIX              
TMAX.C        31                   : BHT          - MAXIMUM RECORDED TEMPERATURE
BHTD.M        686                  : BHTDEP       - MAXIMUM RECORDED TEMPERATURE
RMT .C        10                   : MDTP         - TEMPERATURE OF MUD          
MUDD.KG/M     1120                 : MWT          - MUD DENSITY                 
NEUT.         1                    : NEUTRON      - NEUTRON TYPE                
RESI.         0                    : RESIST       - RESISTIVITY TYPE            
RM  .OHMM     4.39                 : RM           - RESISTIVITY OF MUD          
RMC .OHMM     0.25                 : RMC          - RESISTIVITY OF MUD CAKE     
RMF .OHMM     2.49                 : RMF          - RESISTIVITY OF MUD FILTRATE 
SUFT.C        0                    : SUFT         - SURFACE TEMPERATURE         
~A  DEPTH     RESD      CAL       GR     PHIN     PHID
# ...
  496.500    2.276  164.947   59.826    0.446    0.305
  496.750    2.185  163.833   62.507    0.462    0.309
  497.000    2.136  163.345   59.420    0.453    0.307
  497.250    2.096  163.571   55.277    0.420    0.299
  497.500    2.120  164.027   53.492    0.397    0.295
  497.750    2.131  164.037   54.374    0.408    0.298
  498.000    2.109  163.958   54.950    0.425    0.307
  498.250    2.096  163.998   56.823    0.436    0.302
  498.500    2.085  163.997   58.077    0.434    0.295
  498.750    2.092  165.589   57.599    0.425    0.298
  499.000    2.115  165.807   57.795    0.429    0.305
  499.250    2.100  165.620   56.321    0.428    0.308
  499.500    2.088  165.849   55.842    0.416    0.310
  499.750    2.064  166.395   55.916    0.415    0.308
  500.000    1.960  166.516   56.055    0.423    0.312
  500.250    1.928  166.335   56.315    0.413    0.307
  500.500    1.897  166.461   56.329    0.417    0.300
  500.750    1.883  165.657   57.029    0.427    0.295
  501.000    1.906  165.065   61.134    0.426    0.306
  501.250    1.968  165.398   64.374    0.418    0.307
  501.500    2.066  165.425   54.834    0.439    0.301
  501.750    2.248  165.038   49.949    0.471    0.309
  502.000    2.437  164.440   48.846    0.477    0.306
  502.250    2.564  164.356   52.584    0.460    0.270
  502.500    2.613  164.687   56.691    0.448    0.249
  502.750    2.629  165.125   62.229    0.455    0.244
  503.000    2.572  165.879   63.730    0.475    0.253
  503.250    2.456  166.628   64.797    0.486    0.264
  503.500    2.345  166.745   68.659    0.494    0.272
  503.750    2.198  166.771   65.136    0.476    0.270
  504.000    2.084  166.588   61.925    0.457    0.278
  504.250    1.956  166.401   62.375    0.428    0.296
  504.500    1.837  166.114   59.845    0.438    0.310
  504.750    1.787  165.933   55.889    0.442    0.319
  505.000    1.872  165.648   56.153    0.426    0.308
  505.250    1.952  164.441   57.717    0.442    0.291
  505.500    2.005  166.210   59.467    0.467    0.271
  505.750    2.094  166.751   61.467    0.462    0.267
  506.000    2.212  166.566   62.038    0.439    0.262
  506.250    2.364  166.387   63.665    0.433    0.281
  506.500    2.501  166.410   67.277    0.431    0.304
  506.750    2.779  166.534   72.317    0.405    0.254
  507.000    2.962  166.980   81.947    0.419    0.224
  507.250    3.147  167.100   89.033    0.458    0.215
  507.500    3.299  166.818   91.404    0.468    0.212
  507.750    3.377  166.634   91.608    0.435    0.215
  508.000    3.385  166.551   91.931    0.421    0.221
  508.250    3.343  166.572   92.439    0.416    0.224
  508.500    3.321  166.601   92.268    0.432    0.228
  508.750    3.305  166.620   85.086    0.461    0.241
  509.000    3.307  166.648   80.695    0.479    0.227
  509.250    3.353  166.359   89.332    0.427    0.203
  509.500    3.419  166.175   99.086    0.430    0.193
  509.750    3.498  167.233  102.823    0.431    0.190
  510.000    3.620  167.978  103.210    0.427    0.187
  510.250    3.663  167.900  100.494    0.423    0.176
  510.500    3.645  164.925   94.988    0.418    0.207
  510.750    3.607  163.400   92.395    0.413    0.242
  511.000    3.510  162.495   84.655    0.426    0.258
  511.250    3.390  162.312   79.458    0.421    0.269
  511.500    3.286  162.235   78.665    0.405    0.267
  511.750    3.157  162.354   80.292    0.405    0.258
  512.000    3.060  162.798   81.114    0.414    0.250
  512.250    2.955  162.817   82.307    0.416    0.257
  512.500    2.865  163.159   81.142    0.421    0.270
  512.750    2.767  163.386   76.566    0.424    0.282
  513.000    2.703  163.507   77.820    0.422    0.284
  513.250    2.690  163.528   81.309    0.427    0.282
  513.500    2.686  163.559   78.220    0.422    0.279
  513.750    2.739  163.787   76.808    0.427    0.278
  514.000    2.819  164.016   75.643    0.432    0.278
  514.250    2.939  163.832   75.038    0.405    0.282
  514.500    3.075  163.860   77.347    0.382    0.278
  514.750    3.249  163.881   76.493    0.376    0.263
  515.000    3.393  163.697   76.320    0.380    0.262
  515.250    3.290  163.719   73.295    0.393    0.270
  515.500    3.136  163.744   69.276    0.404    0.283
  515.750    2.923  163.771   66.437    0.423    0.294
  516.000    2.740  164.208   65.831    0.441    0.298
  516.250    2.593  164.335   65.162    0.434    0.298
  516.500    2.519  164.870   61.765    0.409    0.294
  516.750    2.577  164.870   60.230    0.396    0.290
  517.000    2.662  164.524   60.987    0.403    0.296
  517.250    2.765  164.326   61.064    0.417    0.300
  517.500    2.820  164.448   60.890    0.422    0.281
  517.750    2.718  164.480   61.093    0.441    0.267
  518.000    2.654  164.710   61.664    0.459    0.260
  518.250    2.555  165.042   63.105    0.463    0.269
  518.500    2.547  165.063   65.538    0.453    0.271
  518.750    2.548  165.187   66.669    0.446    0.263
  519.000    2.569  165.187   65.195    0.451    0.254
  519.250    2.664  165.663   63.783    0.466    0.258
  519.500    2.746  165.467   61.687    0.475    0.272
  519.750    2.821  165.383   59.839    0.473    0.279
  520.000    2.860  165.823   57.870    0.461    0.283
  520.250    2.905  165.823   59.497    0.436    0.275
  520.500    2.918  165.363   64.534    0.409    0.268
  520.750    2.925  165.169   64.487    0.423    0.264
  521.000    2.906  165.402   61.027    0.436    0.262
  521.250    2.886  165.011   58.373    0.404    0.265
  521.500    2.878  166.277   56.652    0.397    0.266
  521.750    2.853  166.193   56.666    0.420    0.263
  522.000    2.849  165.603   57.485    0.427    0.268
  522.250    2.825  165.004   58.554    0.408    0.272
  522.500    2.816  164.614   63.346    0.396    0.269
  522.750    2.818  164.437   65.654    0.399    0.258
  523.000    2.836  164.451   60.395    0.401    0.247
  523.250    2.935  164.893   55.695    0.413    0.249
  523.500    3.260  165.431   52.980    0.429    0.230
  523.750    3.844  165.452   52.251    0.269    0.134
  524.000    4.742  165.063   51.459    0.195    0.033
  524.250    5.750  165.084   50.355    0.156    0.028
  524.500    6.883  164.800   46.276    0.147    0.026
  524.750    8.665  164.621   45.731    0.141    0.020
  525.000   10.295  164.328   48.350    0.135    0.019
  525.250   11.916  164.558   48.800    0.132    0.021
  525.500   12.611  164.590   40.500    0.130    0.022
  525.750   12.809  164.923   37.411    0.135    0.021
  526.000   12.699  165.151   41.273    0.159    0.027
  526.250   12.288  165.793   44.514    0.172    0.039
  526.500   11.736  167.059   45.396    0.183    0.051
  526.750   10.880  167.804   45.039    0.196    0.062
  527.000   10.010  168.758   46.479    0.222    0.081
  527.250    8.939  166.823   48.292    0.243    0.113
  527.500    7.381  165.496   48.741    0.264    0.128
  527.750    6.279  164.078   51.545    0.287    0.140
  528.000    5.342  163.170   55.097    0.311    0.159
  528.250    4.460  163.086   56.787    0.329    0.191
  528.500    3.888  163.420   58.041    0.350    0.235
  528.750    3.351  163.545   58.862    0.387    0.256
  529.000    2.888  163.264   58.814    0.398    0.270
  529.250    2.618  163.178   56.532    0.402    0.276
  529.500    2.409  162.995   54.934    0.419    0.279
  529.750    2.275  162.715   53.148    0.424    0.286
  530.000    2.181  163.250   54.096    0.414    0.280
  530.250    2.142  163.794   55.720    0.418    0.272
  530.500    2.204  164.230   58.031    0.412    0.270
  530.750    2.315  164.461   56.926    0.405    0.267
  531.000    2.506  164.484   55.824    0.427    0.226
  531.250    2.831  164.712   55.031    0.366    0.073
  531.500    3.216  165.151   50.828    0.191    0.008
  531.750    3.627  165.279   45.880    0.143   -0.006
  532.000    4.238  165.514   43.845    0.130   -0.012
  532.250    4.743  165.540   42.122    0.132   -0.016
  532.500    5.278  165.666   44.744    0.157   -0.014
  532.750    5.070  165.376   47.982    0.225    0.003
