~VERSION INFORMATION
 VERS.                 2.0:   CWLS LOG ASCII STANDARD -VERSION 2.0
 WRAP.                  NO:   ONE LINE PER DEPTH STEP
~WELL INFORMATION BLOCK
#MNEM.UNIT           DATA                    DESCRIPTION OF MNEMONIC
#---------    -------------------            -------------------------------
# Generated from Intellog Unique Number	CS_77_79/WELL/840
WELL.         DOME COWPAR                    : Well_name    - WELL
LOC .         00/02-17-079-03W4/0            : Location     - LOCATION
UWI .         00/02-17-079-03W4/0            : Uwi          - UNIQUE WELL ID
ENTR.         JHS                            : Entered      - ENTERED BY
SRVC.         SCHLUMBERGER                   : Scn          - SERVICE COMPANY
STRT.M        140                            : top_depth    - START DEPTH
STOP.M        400                            : bot_depth    - STOP DEPTH
STEP.M        0.25                           : increment    - STEP LENGTH
 NULL. -999.2500:NULL Value
~CURVE INFORMATION BLOCK
#MNEM UNIT       ERCB CURVE CODE    CURVE DESCRIPTION
#-----------   ------------------   ----------------------------------
DEPT.M        00 001 00 00         : DEPTH        - DEPTH
DPHI.V/V      00 890 00 00         : PHID         - DENSITY POROSITY (LIMESTONE)
NPHI.V/V      00 330 00 00         : PHIN         - NEUTRON POROSITY (LIMESTONE)
GR  .API      00 310 00 00         : GR           - GAMMA RAY
ILD .OHMM     00 120 00 00         : RESD         - DEEP RESISTIVITY (DIL)
RHOB.KG/M3    00 350 00 00         : DENS         - BULK DENSITY
~PARAMETER INFORMATION
#MNEM.UNIT           DATA             DESCRIPTION OF MNEMONIC
#---------         -----------     ------------------------------
GL  .M        549.2                : gl           - GROUND LEVEL ELEVATION
EREF.M        553.1                : kb           - ELEVATION OF DEPTH REFERENCE
DATM.M        553.1                : datum        - DATUM ELEVATION
TDD .M        402                  : tdd          - TOTAL DEPTH DRILLER
RUN .         ONE                  : Run          - RUN NUMBER
ENG .         BILL                 : Engineer     - RECORDING ENGINEER
WIT .         JIM                  : Witness      - WITNESSED BY
MUD .         GEL                  : Mud_type     - MUD TYPE
MATR.         LIMESTONE            : Logunit      - NEUTRON MATRIX
TMAX.C        24.4                 : BHT          - MAXIMUM RECORDED TEMPERATURE
BHTD.M        402                  : BHTDEP       - MAXIMUM RECORDED TEMPERATURE
MATR.         1                    : LOGUNIT      - NEUTRON MATRIX
RMT .C        25                   : MDTP         - TEMPERATURE OF MUD
NEUT.         1                    : NEUTRON      - NEUTRON TYPE
RESI.         0                    : RESIST       - RESISTIVITY TYPE
RMC .OHMM     0.25                 : RMC          - RESISTIVITY OF MUD CAKE
RMF .OHMM     0.25                 : RMF          - RESISTIVITY OF MUD FILTRATE
SUFT.C        15                   : SUFT         - SURFACE TEMPERATURE
~A  DEPTH     PHID     PHIN       GR     RESD     DENS
# ...
  213.000    0.288    0.439  108.758   13.690    0.000
  213.250    0.322    0.446  105.112   14.208    0.000
  213.500    0.337    0.457  100.859   14.475    0.000
  213.750    0.340    0.458   96.607   14.748    0.000
  214.000    0.345    0.464   92.354   14.477    0.000
  214.250    0.336    0.452   87.493   14.478    0.000
  214.500    0.324    0.435   83.241   14.213    0.000
  214.750    0.305    0.433   78.380   14.213    0.000
  215.000    0.314    0.434   78.379   14.214    0.000
  215.250    0.299    0.443   82.627   14.215    0.000
  215.500    0.295    0.448   82.626   14.753    0.000
  215.750    0.291    0.435   79.587   15.031    0.000
  216.000    0.284    0.421   78.978   14.755    0.000
  216.250    0.276    0.411   80.191   14.485    0.000
  216.500    0.259    0.415   82.618   13.957    0.000
  216.750    0.248    0.443   86.259   13.449    0.000
  217.000    0.252    0.466   86.258   13.203    0.000
  217.250    0.239    0.478   80.791   13.451    0.000
  217.500    0.232    0.506   74.109   13.960    0.000
  217.750    0.213    0.523   68.034   14.761    0.000
  218.000    0.178    0.485   63.174   16.811    0.000
  218.250    0.091    0.422   56.492   18.448    0.000
  218.500    0.074    0.330   52.239   18.795    0.000
  218.750    0.112    0.325   58.309   18.450    0.000
  219.000    0.206    0.339   64.988   17.130    0.000
  219.250    0.264    0.456   69.845   15.325    0.000
  219.500    0.277    0.465   68.020   13.210    0.000
  219.750    0.271    0.449   67.412   12.265    0.000
  220.000    0.266    0.438   66.803   12.040    0.000
  220.250    0.265    0.428   69.836   12.041    0.000
  220.500    0.264    0.420   72.871   12.268    0.000
  220.750    0.241    0.423   74.691   12.268    0.000
  221.000    0.237    0.431   76.511   12.269    0.000
  221.250    0.249    0.431   76.510   12.270    0.000
  221.500    0.253    0.443   74.685   12.270    0.000
  221.750    0.242    0.450   76.505   11.823    0.000
  222.000    0.247    0.445   78.933   11.393    0.000
  222.250    0.230    0.428   83.789   10.978    0.000
  222.500    0.204    0.416   88.646   10.193    0.000
  222.750    0.209    0.425   91.680   10.006    0.000
  223.000    0.223    0.452   92.285    9.464    0.000
  223.250    0.206    0.452   94.105    8.952    0.000
  223.500    0.196    0.442   97.140    8.312    0.000
  223.750    0.194    0.454   98.353    7.862    0.000
  224.000    0.194    0.462   98.350    7.718    0.000
  224.250    0.182    0.466   97.741    7.576    0.000
  224.500    0.195    0.471   95.918    7.437    0.000
  224.750    0.211    0.479   91.665    7.301    0.000
  225.000    0.207    0.494   89.841    7.301    0.000
  225.250    0.212    0.503   90.447    7.302    0.000
  225.500    0.219    0.500   88.623    7.302    0.000
  225.750    0.206    0.500   89.228    7.439    0.000
  226.000    0.214    0.485   91.048    7.440    0.000
  226.250    0.220    0.475   89.832    7.580    0.000
  226.500    0.214    0.477   87.401    7.722    0.000
  226.750    0.221    0.483   84.362    8.318    0.000
  227.000    0.242    0.490   81.931    8.633    0.000
  227.250    0.255    0.485   76.464    9.474    0.000
  227.500    0.280    0.484   70.997   10.591    0.000
  227.750    0.292    0.476   67.959   11.198    0.000
  228.000    0.295    0.466   69.778   12.062    0.000
  228.250    0.306    0.459   67.954   12.520    0.000
  228.500    0.315    0.466   66.738   12.520    0.000
  228.750    0.294    0.476   65.521   12.756    0.000
  229.000    0.287    0.484   64.912   12.522    0.000
  229.250    0.269    0.485   65.518   12.523    0.000
  229.500    0.261    0.453   72.196   12.293    0.000
  229.750    0.248    0.440   79.482   11.845    0.000
  230.000    0.225    0.448   86.159   11.414    0.000
  230.250    0.231    0.455   87.372   10.796    0.000
  230.500    0.242    0.468   88.585   10.024    0.000
  230.750    0.226    0.477   90.405    9.481    0.000
  231.000    0.219    0.460   92.832    8.803    0.000
  231.250    0.213    0.443   94.045    8.642    0.000
  231.500    0.206    0.447   94.650    8.483    0.000
  231.750    0.226    0.468   96.470    8.175    0.000
  232.000    0.223    0.473   97.683    8.175    0.000
  232.250    0.222    0.455   95.252    8.025    0.000
  232.500    0.224    0.448   92.821    8.025    0.000
  232.750    0.224    0.450   94.034    7.878    0.000
  233.000    0.206    0.445   94.639    8.026    0.000
  233.250    0.219    0.438   94.637    8.331    0.000
  233.500    0.220    0.433   94.028    8.487    0.000
  233.750    0.216    0.450   93.418    8.488    0.000
  234.000    0.216    0.460   92.810    8.488    0.000
  234.250    0.196    0.457   91.593    8.333    0.000
  234.500    0.229    0.460   95.234    8.333    0.000
  234.750    0.209    0.470   95.840    8.180    0.000
  235.000    0.205    0.480   92.195    8.181    0.000
  235.250    0.205    0.457   90.371    8.031    0.000
  235.500    0.196    0.444   93.405    7.883    0.000
  235.750    0.220    0.450   94.010    7.884    0.000
  236.000    0.214    0.464   93.402    7.884    0.000
  236.250    0.194    0.476   92.185    7.597    0.000
  236.500    0.201    0.482   91.576    7.598    0.000
  236.750    0.230    0.473   94.003    7.598    0.000
  237.000    0.226    0.466   98.252    7.598    0.000
  237.250    0.213    0.461   98.858    7.599    0.000
  237.500    0.212    0.461   95.820    7.742    0.000
  237.750    0.210    0.481   93.995    7.600    0.000
  238.000    0.222    0.510   94.601    7.600    0.000
  238.250    0.223    0.490   95.814    7.461    0.000
  238.500    0.202    0.474   97.026    7.324    0.000
  238.750    0.214    0.481   96.417    7.190    0.000
  239.000    0.199    0.494   96.415    7.058    0.000
  239.250    0.218    0.502   98.236    7.058    0.000
  239.500    0.222    0.485  101.269    6.929    0.000
  239.750    0.219    0.476  101.875    6.929    0.000
  240.000    0.210    0.495  100.659    7.060    0.000
  240.250    0.208    0.502   96.406    7.060    0.000
  240.500    0.216    0.494   92.153    7.193    0.000
  240.750    0.205    0.491   94.580    7.328    0.000
  241.000    0.212    0.491   98.222    7.466    0.000
  241.250    0.207    0.502   96.398    7.466    0.000
  241.500    0.191    0.493   94.574    7.466    0.000
  241.750    0.193    0.491   94.573    7.467    0.000
  242.000    0.214    0.488   91.534    7.330    0.000
  242.250    0.213    0.487   89.710    7.330    0.000
  242.500    0.216    0.493   90.923    7.196    0.000
  242.750    0.230    0.500   90.921    7.064    0.000
  243.000    0.227    0.500   87.276    6.807    0.000
  243.250    0.216    0.502   85.452    6.807    0.000
  243.500    0.225    0.498   86.058    6.682    0.000
  243.750    0.230    0.501   87.877    6.560    0.000
  244.000    0.225    0.508   84.839    6.560    0.000
  244.250    0.251    0.514   84.837    6.560    0.000
  244.500    0.259    0.528   85.443    6.561    0.000
  244.750    0.244    0.536   88.477    6.561    0.000
  245.000    0.245    0.513   90.297    6.562    0.000
  245.250    0.246    0.499   90.295    6.323    0.000
  245.500    0.251    0.496   89.686    6.323    0.000
  245.750    0.236    0.523   87.862    6.207    0.000
  246.000    0.262    0.517   84.216    6.324    0.000
  246.250    0.265    0.495   83.608    6.443    0.000
  246.500    0.259    0.487   82.391    6.687    0.000
  246.750    0.251    0.494   81.175    6.940    0.000
  247.000    0.273    0.501   76.314    7.203    0.000
  247.250    0.282    0.499   76.920    7.204    0.000
  247.500    0.276    0.492   83.598    6.942    0.000
  247.750    0.262    0.482   88.455    6.689    0.000
  248.000    0.241    0.481   92.096    6.446    0.000
  248.250    0.231    0.492   90.273    6.327    0.000
  248.500    0.228    0.505   82.376    6.446    0.000
  248.750    0.257    0.494   76.909    6.944    0.000
  249.000    0.273    0.478   73.263    7.762    0.000
  249.250    0.280    0.488   72.046    8.840    0.000
