~VERSION INFORMATION
 VERS.                 2.0:   CWLS LOG ASCII STANDARD -VERSION 2.0
 WRAP.                  NO:   ONE LINE PER DEPTH STEP
~WELL INFORMATION BLOCK
#MNEM.UNIT           DATA                    DESCRIPTION OF MNEMONIC
#---------    -------------------            -------------------------------
# Generated from Intellog Unique Number	CS_71_72/WELL/838
WELL.         AMOCO AEC IPIATIK              : Well_name    - WELL
LOC .         00/08-16-072-05W4/0            : Location     - LOCATION
UWI .         00/08-16-072-05W4/0            : Uwi          - UNIQUE WELL ID
ENTR.         SP                             : Entered      - ENTERED BY
SRVC.         SCHLUMBERGER                   : Scn          - SERVICE COMPANY
STRT.M        320                            : top_depth    - START DEPTH
STOP.M        560                            : bot_depth    - STOP DEPTH
STEP.M        0.25                           : increment    - STEP LENGTH
 NULL. -999.2500:NULL Value
~CURVE INFORMATION BLOCK
#MNEM UNIT       ERCB CURVE CODE    CURVE DESCRIPTION
#-----------   ------------------   ----------------------------------
DEPT.M        00 001 00 00         : DEPTH        - DEPTH
GR  .API      00 310 00 00         : GR           - GAMMA RAY
NPHI.V/V      00 330 00 00         : PHIN         - NEUTRON POROSITY (LIMESTONE)
DPHI.V/V      00 890 00 00         : PHID         - DENSITY POROSITY (LIMESTONE)
ILD .OHMM     00 120 00 00         : RESD         - DEEP RESISTIVITY (DIL)
~PARAMETER INFORMATION
#MNEM.UNIT           DATA             DESCRIPTION OF MNEMONIC
#---------         -----------     ------------------------------
GL  .M        697.9                : gl           - GROUND LEVEL ELEVATION
EREF.M        702.17               : kb           - ELEVATION OF DEPTH REFERENCE
DATM.M        697.9                : datum        - DATUM ELEVATION
TDD .M        583                  : tdd          - TOTAL DEPTH DRILLER
RUN .         ONE                  : Run          - RUN NUMBER
ENG .         BILL                 : Engineer     - RECORDING ENGINEER
WIT .         JIM                  : Witness      - WITNESSED BY
MUD .         GEL                  : Mud_type     - MUD TYPE
MATR.         LIMESTONE            : Logunit      - NEUTRON MATRIX
TMAX.C        20                   : BHT          - MAXIMUM RECORDED TEMPERATURE
BHTD.M        583                  : BHTDEP       - MAXIMUM RECORDED TEMPERATURE
MATR.         1                    : LOGUNIT      - NEUTRON MATRIX
RMT .C        25                   : MDTP         - TEMPERATURE OF MUD
NEUT.         1                    : NEUTRON      - NEUTRON TYPE
RESI.         0                    : RESIST       - RESISTIVITY TYPE
RMC .OHMM     0.25                 : RMC          - RESISTIVITY OF MUD CAKE
RMF .OHMM     0.25                 : RMF          - RESISTIVITY OF MUD FILTRATE
SUFT.C        15                   : SUFT         - SURFACE TEMPERATURE
~A  DEPTH       GR     PHIN     PHID     RESD
# ...
  407.000   72.180    0.486    0.261    3.026
  407.250   69.777    0.495    0.273    2.767
  407.500   67.374    0.497    0.285    2.670
  407.750   65.572    0.480    0.291    2.486
  408.000   62.568    0.464    0.298    2.314
  408.250   61.970    0.458    0.287    2.232
  408.500   60.169    0.470    0.284    2.154
  408.750   60.176    0.474    0.304    2.078
  409.000   60.786    0.465    0.318    2.041
  409.250   60.190    0.476    0.322    2.005
  409.500   58.992    0.465    0.326    2.004
  409.750   59.002    0.471    0.332    2.004
  410.000   59.005    0.483    0.340    2.004
  410.250   59.013    0.499    0.330    2.039
  410.500   59.018    0.490    0.322    2.113
  410.750   59.630    0.494    0.317    2.151
  411.000   60.237    0.500    0.314    2.229
  411.250   61.447    0.482    0.313    2.309
  411.500   62.659    0.460    0.309    2.480
  411.750   62.665    0.438    0.299    2.570
  412.000   62.069    0.432    0.292    2.711
  412.250   63.883    0.448    0.277    2.759
  412.500   65.697    0.450    0.253    2.662
  412.750   68.114    0.453    0.269    2.568
  413.000   71.132    0.462    0.287    2.391
  413.250   71.138    0.473    0.281    2.348
  413.500   69.337    0.484    0.284    2.306
  413.750   66.332    0.470    0.296    2.265
  414.000   65.135    0.460    0.311    2.305
  414.250   67.552    0.453    0.295    2.347
  414.500   69.971    0.459    0.288    2.475
  414.750   71.182    0.467    0.299    2.565
  415.000   71.789    0.475    0.291    2.658
  415.250   72.398    0.484    0.282    2.754
  415.500   71.802    0.502    0.281    2.803
  415.750   70.002    0.516    0.269    2.803
  416.000   70.007    0.515    0.258    2.753
  416.250   70.014    0.504    0.257    2.704
  416.500   70.626    0.500    0.277    2.562
  416.750   70.628    0.507    0.283    2.385
  417.000   70.635    0.504    0.279    2.343
  417.250   69.437    0.504    0.283    2.260
  417.500   71.251    0.510    0.282    2.181
  417.750   74.272    0.496    0.300    2.104
  418.000   74.878    0.484    0.315    2.066
  418.250   76.693    0.491    0.312    2.029
  418.500   76.700    0.508    0.303    2.029
  418.750   74.900    0.496    0.295    2.065
  419.000   73.099    0.491    0.309    2.065
  419.250   71.899    0.486    0.320    2.140
  419.500   85.764    0.482    0.314    2.217
  419.750   90.589    0.467    0.301    2.381
  420.000   94.209    0.540    0.278    2.424
  420.250   93.613    0.564    0.260    2.649
  420.500   90.007    0.583    0.276    2.795
  420.750   87.604    0.561    0.273    2.948
  421.000   84.598    0.532    0.276    3.281
  421.250   83.399    0.502    0.260    3.651
  421.500   82.802    0.483    0.247    3.851
  421.750   81.605    0.472    0.250    4.135
  422.000   82.815    0.464    0.243    4.209
  422.250   84.027    0.472    0.244    4.284
  422.500   84.034    0.475    0.249    4.361
  422.750   82.837    0.469    0.242    4.361
  423.000   82.240    0.478    0.234    4.359
  423.250   82.247    0.491    0.233    4.282
  423.500   84.063    0.475    0.249    4.205
  423.750   85.877    0.475    0.259    3.986
  424.000   86.483    0.485    0.239    3.645
  424.250   87.095    0.486    0.231    3.393
  424.500   87.099    0.497    0.213    3.216
  424.750   87.105    0.509    0.214    3.103
  425.000   85.908    0.517    0.231    3.332
  425.250   85.313    0.515    0.220    3.514
  425.500   85.317    0.512    0.220    3.911
  425.750   87.133    0.508    0.238    4.126
  426.000   89.549    0.506    0.227    4.352
  426.250   91.966    0.511    0.263    4.430
  426.500   93.176    0.522    0.279    4.590
  426.750   93.182    0.511    0.270    4.428
  427.000   94.395    0.508    0.252    4.349
  427.250   96.811    0.512    0.236    4.122
  427.500   97.419    0.518    0.230    3.837
  427.750   98.029    0.523    0.226    3.702
  428.000   98.034    0.527    0.222    3.572
  428.250  102.259    0.536    0.221    3.571
  428.500  102.868    0.535    0.237    3.507
  428.750  102.271    0.524    0.232    3.507
  429.000  100.471    0.512    0.239    3.570
  429.250   99.275    0.504    0.239    3.699
  429.500   98.677    0.512    0.231    3.901
  429.750   98.081    0.524    0.250    3.901
  430.000   93.872    0.528    0.262    3.831
  430.250   89.661    0.535    0.270    3.831
  430.500   84.849    0.540    0.274    3.969
  430.750   81.241    0.529    0.269    4.113
  431.000   80.040    0.504    0.245    4.577
  431.250   82.460    0.470    0.232    4.828
  431.500   83.067    0.476    0.227    5.185
  431.750   81.869    0.487    0.240    5.469
  432.000   82.480    0.486    0.253    5.468
  432.250   83.087    0.475    0.245    5.468
  432.500   83.095    0.485    0.234    5.275
  432.750   83.099    0.486    0.227    4.911
  433.000   80.698    0.491    0.228    4.738
  433.250   77.692    0.513    0.229    4.653
  433.500   73.481    0.518    0.245    4.822
  433.750   69.271    0.494    0.253    5.366
  434.000   65.060    0.469    0.265    5.762
  434.250   61.452    0.403    0.241    6.528
  434.500   56.038    0.337    0.180    7.802
  434.750   53.032    0.287    0.050    8.379
  435.000   61.472    0.293    0.034    8.682
  435.250   71.117    0.342    0.095    7.799
  435.500   75.341    0.410    0.240    6.523
  435.750   77.757    0.459    0.264    5.756
  436.000   74.753    0.477    0.280    5.455
  436.250   71.144    0.478    0.289    5.170
  436.500   68.140    0.483    0.288    5.169
  436.750   66.337    0.484    0.286    5.262
  437.000   66.344    0.490    0.288    5.451
  437.250   67.556    0.494    0.293    5.649
  437.500   71.180    0.500    0.295    5.750
  437.750   72.389    0.502    0.299    6.065
  438.000   74.203    0.507    0.308    6.285
  438.250   74.209    0.494    0.314    6.512
  438.500   74.215    0.489    0.306    6.628
  438.750   76.631    0.481    0.285    6.746
  439.000   80.255    0.478    0.288    6.867
  439.250   82.067    0.457    0.283    6.866
  439.500   84.486    0.447    0.265    6.865
  439.750   85.696    0.454    0.254    6.864
  440.000   86.302    0.465    0.254    6.622
  440.250   86.310    0.471    0.240    6.504
  440.500   84.510    0.479    0.216    6.164
  440.750   80.298    0.487    0.223    6.163
  441.000   75.487    0.485    0.242    6.273
  441.250   71.877    0.473    0.257    6.617
  441.500   72.489    0.464    0.285    6.736
  441.750   73.698    0.463    0.287    6.979
  442.000   76.116    0.461    0.259    7.104
  442.250   79.735    0.455    0.251    6.854
  442.500   83.357    0.453    0.252    6.612
  442.750   85.774    0.465    0.269    6.156
  443.000   88.190    0.480    0.260    5.432
  443.250   90.608    0.506    0.246    5.148
  443.500   90.612    0.522    0.248    4.543
  443.750   88.811    0.542    0.259    4.008
  444.000   86.409    0.565    0.277    3.601
  444.250   87.621    0.579    0.280    3.235
  444.500   88.229    0.575    0.267    2.958
  444.750   87.632    0.579    0.260    2.803
  445.000   89.447    0.600    0.258    2.705
  445.250   91.864    0.610    0.255    2.704
  445.500   93.678    0.592    0.266    2.752
  445.750   94.889    0.587    0.267    2.852
  446.000   94.294    0.592    0.265    2.955
  446.250   92.492    0.580    0.250    3.062
  446.500   89.487    0.569    0.243    3.230
  446.750   86.484    0.575    0.242    3.531
  447.000   85.284    0.582    0.247    3.725
  447.250   83.484    0.553    0.264    4.072
  447.500   81.081    0.526    0.261    4.295
  447.750   78.677    0.503    0.258    4.780
  448.000   75.670    0.510    0.256    4.953
  448.250   72.063    0.495    0.254    5.512
  448.500   72.069    0.480    0.297    5.814
  448.750   75.691    0.471    0.305    6.133
  449.000   75.095    0.469    0.292    6.355
  449.250   74.499    0.463    0.277    6.703
  449.500   75.110    0.472    0.265    6.823
  449.750   76.924    0.484    0.265    6.945
  450.000   78.132    0.485    0.266    6.944
  450.250   79.345    0.478    0.257    6.820
