~VERSION INFORMATION
 VERS.                 2.0:   CWLS LOG ASCII STANDARD -VERSION 2.0
 WRAP.                  NO:   ONE LINE PER DEPTH STEP
~WELL INFORMATION BLOCK
#MNEM.UNIT           DATA                    DESCRIPTION OF MNEMONIC
#---------    -------------------            -------------------------------
# Generated from Intellog Unique Number	CS_71_72/WELL/834
WELL.         KISSINGER ET AL TWEEDIE        : Well_name    - WELL
LOC .         00/08-01-072-12W4/0            : Location     - LOCATION
UWI .         00/08-01-072-12W4/0            : Uwi          - UNIQUE WELL ID
ENTR.         SP                             : Entered      - ENTERED BY
SRVC.         SCHLUMBERGER                   : Scn          - SERVICE COMPANY
STRT.M        290                            : top_depth    - START DEPTH
STOP.M        510                            : bot_depth    - STOP DEPTH
STEP.M        0.25                           : increment    - STEP LENGTH
 NULL. -999.2500:NULL Value
~CURVE INFORMATION BLOCK
#MNEM UNIT       ERCB CURVE CODE    CURVE DESCRIPTION
#-----------   ------------------   ----------------------------------
DEPT.M        00 001 00 00         : DEPTH        - DEPTH
GR  .API      00 310 00 00         : GR           - GAMMA RAY
NPHI.V/V      00 330 00 00         : PHIN         - NEUTRON POROSITY (LIMESTONE)
DPHI.V/V      00 890 00 00         : PHID         - DENSITY POROSITY (LIMESTONE)
ILD .OHMM     00 120 00 00         : RESD         - DEEP RESISTIVITY (DIL)
~PARAMETER INFORMATION
#MNEM.UNIT           DATA             DESCRIPTION OF MNEMONIC
#---------         -----------     ------------------------------
GL  .M        626.5                : gl           - GROUND LEVEL ELEVATION
EREF.M        630                  : kb           - ELEVATION OF DEPTH REFERENCE
DATM.M        626.5                : datum        - DATUM ELEVATION
TDD .M        522.6                : tdd          - TOTAL DEPTH DRILLER
RUN .         ONE                  : Run          - RUN NUMBER
ENG .         BILL                 : Engineer     - RECORDING ENGINEER
WIT .         JIM                  : Witness      - WITNESSED BY
MUD .         GEL                  : Mud_type     - MUD TYPE
MATR.         LIMESTONE            : Logunit      - NEUTRON MATRIX
TMAX.C        20                   : BHT          - MAXIMUM RECORDED TEMPERATURE
BHTD.M        522.6                : BHTDEP       - MAXIMUM RECORDED TEMPERATURE
MATR.         1                    : LOGUNIT      - NEUTRON MATRIX
RMT .C        25                   : MDTP         - TEMPERATURE OF MUD
NEUT.         1                    : NEUTRON      - NEUTRON TYPE
RESI.         0                    : RESIST       - RESISTIVITY TYPE
RMC .OHMM     0.25                 : RMC          - RESISTIVITY OF MUD CAKE
RMF .OHMM     0.25                 : RMF          - RESISTIVITY OF MUD FILTRATE
SUFT.C        15                   : SUFT         - SURFACE TEMPERATURE
~A  DEPTH       GR     PHIN     PHID     RESD
# ...
  333.500  104.203    0.391    0.220    7.327
  333.750  107.265    0.418    0.206    7.081
  334.000  110.327    0.423    0.224    6.590
  334.250  110.940    0.418    0.222    6.509
  334.500  107.879    0.409    0.220    6.755
  334.750  102.370    0.409    0.216    7.248
  335.000   98.085    0.403    0.252    8.068
  335.250   92.575    0.399    0.285    8.315
  335.500   88.290    0.393    0.295    8.725
  335.750   80.332    0.392    0.297    9.136
  336.000   76.046    0.393    0.289    9.382
  336.250   78.496    0.398    0.279    9.629
  336.500   82.171    0.398    0.280    9.794
  336.750   82.783    0.403    0.279    9.876
  337.000   80.335    0.392    0.270    9.877
  337.250   85.846    0.388    0.264    9.795
  337.500   91.357    0.394    0.259    9.386
  337.750   93.194    0.385    0.258    8.895
  338.000   91.970    0.381    0.261    8.732
  338.250   90.134    0.378    0.249    8.405
  338.500   96.258    0.403    0.226    8.242
  338.750   98.707    0.430    0.213    8.160
  339.000  100.545    0.424    0.212    8.243
  339.250   98.709    0.414    0.204    8.489
  339.500   95.648    0.417    0.216    8.818
  339.750   98.098    0.421    0.228    9.146
  340.000  102.384    0.407    0.233    9.311
  340.250  104.834    0.408    0.212    9.230
  340.500  105.447    0.409    0.197    9.066
  340.750  105.448    0.415    0.222    8.657
  341.000  104.836    0.417    0.211    8.248
  341.250  104.225    0.402    0.247    8.166
  341.500  103.613    0.417    0.218    8.249
  341.750  103.001    0.435    0.249    8.496
  342.000   95.043    0.450    0.270    8.824
  342.250   90.145    0.469    0.236    9.153
  342.500   88.922    0.451    0.228    9.317
  342.750   90.760    0.408    0.223    9.482
  343.000   91.372    0.388    0.260    9.564
  343.250   89.536    0.378    0.276    9.893
  343.500   84.639    0.376    0.278   10.549
  343.750   80.966    0.367    0.273   11.452
  344.000   79.742    0.362    0.275   12.272
  344.250   77.906    0.361    0.268   12.847
  344.500   79.131    0.370    0.269   13.011
  344.750   84.030    0.407    0.274   13.012
  345.000   85.255    0.388    0.266   12.767
  345.250   85.256    0.375    0.233   12.521
  345.500   84.032    0.366    0.250   12.440
  345.750   78.522    0.361    0.279   12.441
  346.000   76.074    0.367    0.250   12.524
  346.250   79.749    0.393    0.233   12.606
  346.500   78.525    0.385    0.245   12.688
  346.750   79.138    0.356    0.259   12.853
  347.000   84.036    0.337    0.265   12.936
  347.250   85.874    0.333    0.248   13.018
  347.500   90.160    0.349    0.218   13.019
  347.750   93.222    0.359    0.200   13.019
  348.000   96.896    0.365    0.189   12.938
  348.250   92.611    0.372    0.220   12.857
  348.500   88.938    0.389    0.233   12.776
  348.750   85.266    0.399    0.226   12.776
  349.000   80.368    0.400    0.249   12.777
  349.250   77.308    0.385    0.268   12.695
  349.500   84.043    0.370    0.248   12.450
  349.750   90.778    0.362    0.213   12.041
  350.000   98.126    0.375    0.231   11.468
  350.250  101.800    0.405    0.220   10.977
  350.500  102.413    0.423    0.234   10.732
  350.750  101.190    0.394    0.249   10.404
  351.000   99.354    0.384    0.202   10.241
  351.250   90.783    0.376    0.247   10.405
  351.500   80.375    0.366    0.294   11.308
  351.750   73.029    0.367    0.257   11.964
  352.000   66.295    0.393    0.237   12.293
  352.250   78.540    0.381    0.230   12.048
  352.500   87.113    0.372    0.236   11.802
  352.750   91.399    0.375    0.228   11.721
  353.000   86.502    0.371    0.280   12.132
  353.250   78.543    0.373    0.295   12.542
  353.500   72.422    0.380    0.295   12.707
  353.750   63.851    0.371    0.286   12.871
  354.000   65.076    0.372    0.276   12.872
  354.250   69.975    0.393    0.300   13.037
  354.500   71.812    0.393    0.308   13.201
  354.750   67.527    0.378    0.305   13.612
  355.000   62.018    0.380    0.292   13.858
  355.250   61.406    0.404    0.290   13.777
  355.500   64.468    0.421    0.274   13.613
  355.750   66.305    0.414    0.271   13.286
  356.000   67.531    0.409    0.275   12.959
  356.250   68.144    0.410    0.313   12.796
  356.500   62.634    0.416    0.333   13.124
  356.750   55.288    0.404    0.317   13.617
  357.000   48.554    0.380    0.307   13.781
  357.250   57.126    0.383    0.278   13.454
  357.500   63.249    0.381    0.255   12.799
  357.750   65.699    0.381    0.254   12.636
  358.000   68.761    0.400    0.265   12.390
  358.250   71.823    0.414    0.271   12.227
  358.500   68.762    0.403    0.273   12.310
  358.750   66.926    0.382    0.263   12.228
  359.000   69.988    0.373    0.258   12.065
  359.250   72.438    0.370    0.284   11.984
  359.500   72.438    0.375    0.312   11.985
  359.750   68.765    0.373    0.297   12.149
  360.000   68.154    0.362    0.281   12.477
  360.250   67.543    0.371    0.296   12.806
  360.500   67.543    0.397    0.276   12.725
  360.750   65.095    0.411    0.243   12.562
  361.000   60.198    0.424    0.257   12.644
  361.250   57.749    0.403    0.276   12.727
  361.500   52.852    0.384    0.299   13.219
  361.750   49.179    0.364    0.308   14.531
  362.000   48.568    0.359    0.297   15.598
  362.250   47.956    0.355    0.290   16.172
  362.500   45.508    0.364    0.286   17.075
  362.750   44.284    0.375    0.286   17.321
  363.000   44.285    0.377    0.296   17.732
  363.250   44.898    0.367    0.316   17.896
  363.500   46.123    0.355    0.327   17.979
  363.750   47.348    0.355    0.339   17.897
  364.000   49.185    0.370    0.317   17.898
  364.250   51.023    0.373    0.311   17.817
  364.500   51.636    0.368    0.315   17.817
  364.750   51.636    0.371    0.312   17.818
  365.000   50.413    0.361    0.301   17.655
  365.250   50.413    0.359    0.302   17.573
  365.500   55.312    0.377    0.305   17.246
  365.750   60.823    0.403    0.321   17.001
  366.000   63.273    0.411    0.321   16.674
  366.250   63.273    0.400    0.315   16.592
  366.500   55.927    0.400    0.317   16.429
  366.750   54.703    0.403    0.301   16.348
  367.000   59.602    0.403    0.299   16.349
  367.250   61.439    0.403    0.318   16.349
  367.500   57.154    0.415    0.333   16.432
  367.750   54.706    0.421    0.313   16.351
  368.000   52.870    0.415    0.316   16.351
  368.250   53.483    0.408    0.315   16.188
  368.500   52.871    0.446    0.302   16.106
  368.750   51.035    0.474    0.318   16.025
  369.000   52.261    0.452    0.331   16.108
  369.250   52.873    0.420    0.331   16.108
  369.500   50.425    0.405    0.312   16.027
  369.750   49.201    0.403    0.301   16.027
  370.000   52.263    0.398    0.299   15.947
  370.250   53.489    0.392    0.300   15.865
  370.500   53.489    0.392    0.301   15.866
  370.750   47.367    0.391    0.302   15.866
  371.000   48.593    0.384    0.296   15.867
  371.250   51.655    0.389    0.291   15.868
  371.500   53.492    0.405    0.312   15.868
  371.750   54.717    0.418    0.302   15.869
  372.000   54.718    0.411    0.299   15.952
  372.250   55.331    0.402    0.296   15.870
  372.500   55.944    0.391    0.291   16.035
  372.750   47.373    0.384    0.286   15.954
  373.000   46.761    0.372    0.286   15.954
  373.250   51.660    0.365    0.291   15.873
  373.500   54.110    0.360    0.295   15.792
  373.750   55.947    0.361    0.300   15.711
  374.000   57.785    0.368    0.302   15.547
  374.250   57.173    0.361    0.296   15.138
  374.500   52.888    0.372    0.280   14.893
  374.750   54.725    0.389    0.290   14.729
  375.000   55.339    0.384    0.307   14.730
  375.250   54.115    0.394    0.297   14.485
  375.500   55.340    0.408    0.279   13.584
  375.750   68.198    0.422    0.284   12.847
  376.000   71.872    0.427    0.297   12.109
  376.250   73.097    0.427    0.288   11.290
  376.500   69.425    0.427    0.272   10.553
  376.750   69.425    0.405    0.276   11.292
