~VERSION INFORMATION
 VERS.                 2.0:   CWLS LOG ASCII STANDARD -VERSION 2.0
 WRAP.                  NO:   ONE LINE PER DEPTH STEP
~WELL INFORMATION BLOCK
#MNEM.UNIT           DATA                    DESCRIPTION OF MNEMONIC
#---------    -------------------            -------------------------------
# Generated from Intellog Unique Number	CN_91_93/WELL/1073
WELL.         06-03-091-19W4                 : Well_name    - WELL
LOC .         00/06-03-091-19W4/0            : Location     - LOCATION
UWI .         00/06-03-091-19W4/0            : Uwi          - UNIQUE WELL ID
ENTR.         JOETTE                         : Entered      - ENTERED BY
SRVC.         SCHLUMBERGER                   : Scn          - SERVICE COMPANY
DATE.         02/04/92                       : Date         - LOG DATE
STRT.F        410.105                        : top_depth    - START DEPTH
STOP.F        770.997                        : bot_depth    - STOP DEPTH
STEP.F        0.82                           : increment    - STEP LENGTH
 NULL. -999.2500:NULL Value
~CURVE INFORMATION BLOCK
#MNEM UNIT       ERCB CURVE CODE    CURVE DESCRIPTION
#-----------   ------------------   ----------------------------------
DEPT.F        00 001 00 00         : DEPTH        - DEPTH
ILD .OHMM     00 120 00 00         : RESD         - DEEP RESISTIVITY (DIL)
NPHI.V/V      00 330 00 00         : PHIN         - NEUTRON POROSITY (SANDSTONE)
CALI.IN       00 280 01 00         : CAL          - CALIPER
GR  .API      00 310 00 00         : GR           - GAMMA RAY
~PARAMETER INFORMATION
#MNEM.UNIT           DATA             DESCRIPTION OF MNEMONIC
#---------         -----------     ------------------------------
GL  .M        518.3                : gl           - GROUND LEVEL ELEVATION
EREF.M        518.3                : kb           - ELEVATION OF DEPTH REFERENCE
DATM.M        518.3                : datum        - DATUM ELEVATION
TDD .M        238                  : tdd          - TOTAL DEPTH DRILLER
RUN .         ONE                  : Run          - RUN NUMBER
ENG .         JO                   : Engineer     - RECORDING ENGINEER
WIT .         TIM                  : Witness      - WITNESSED BY
MUD .         GEL                  : Mud_type     - MUD TYPE
MATR.         SANDSTONE            : Logunit      - NEUTRON MATRIX
TMAX.F        59                   : BHT          - MAXIMUM RECORDED TEMPERATURE
BHTD.F        780.84               : BHTDEP       - MAXIMUM RECORDED TEMPERATURE
RMT .F        59                   : MDTP         - TEMPERATURE OF MUD
MUDD.LB/G     10.1667              : MWT          - MUD DENSITY
NEUT.         1                    : NEUTRON      - NEUTRON TYPE
RESI.         0                    : RESIST       - RESISTIVITY TYPE
RM  .OHMM     7.4                  : RM           - RESISTIVITY OF MUD
RMC .OHMM     19.8                 : RMC          - RESISTIVITY OF MUD CAKE
RMF .OHMM     6.5                  : RMF          - RESISTIVITY OF MUD FILTRATE
SUFT.F        39.2                 : SUFT         - SURFACE TEMPERATURE
~A  DEPTH     RESD     PHIN      CAL       GR
# ...
  552.822   14.393    0.395    8.039   90.643
  553.642   13.488    0.412    8.277   91.298
  554.462   12.998    0.497    8.496   94.339
  555.282   11.956    0.480    8.558   98.265
  556.102   11.100    0.459    8.582   91.487
  556.923   11.207    0.461    8.606   90.359
  557.743   12.654    0.464    8.629   86.257
  558.563   13.137    0.459    8.614   83.345
  559.383   13.767    0.422    8.579   79.243
  560.203   14.029    0.405    8.563   81.972
  561.024   14.033    0.436    8.508   98.698
  561.844   13.650    0.457    8.434  100.542
  562.664   13.277    0.468    8.438   98.811
  563.484   14.310    0.471    8.462   93.520
  564.304   15.136    0.424    8.466   85.248
  565.125   16.010    0.404    8.392   78.776
  565.945   16.778    0.384    8.279   80.323
  566.765   16.782    0.368    8.223   83.357
  567.585   16.477    0.394    8.208   81.336
  568.406   16.027    0.408    8.231   79.621
  569.226   15.736    0.407    8.236   81.747
  570.046   15.164    0.406    8.240   86.877
  570.866   14.478    0.409    8.225   85.147
  571.686   14.478    0.407    8.229   84.910
  572.507   14.088    0.408    8.213   87.647
  573.327   13.959    0.410    8.237   90.383
  574.147   13.959    0.411    8.260   93.425
  574.967   13.967    0.408    8.283   97.953
  575.787   14.233    0.414    8.268  100.682
  576.608   14.777    0.431    8.194   93.309
  577.428   15.343    0.437    8.159   89.802
  578.248   15.929    0.430    8.163   85.403
  579.068   16.234    0.432    8.186   83.085
  579.888   16.238    0.397    8.269   81.949
  580.709   15.794    0.370    8.214   84.983
  581.529   14.528    0.386    8.178   93.673
  582.349   13.116    0.402    8.202   99.086
  583.169   13.120    0.446    8.284   95.876
  583.990   13.495    0.470    8.386   89.998
  584.810   13.754    0.483    8.449   87.078
  585.630   14.147    0.379    8.452   86.536
  586.450   14.688    0.391    8.555   95.227
  587.270   15.108    0.422    8.598   92.017
  588.091   15.111    0.446    8.582   89.714
  588.911   13.771    0.430    8.527   92.138
  589.731   11.648    0.426    8.454  101.721
  590.551    7.450    0.461    8.438  104.160
  591.371    5.182    0.478    8.442  102.437
  592.192    5.533    0.505    8.465   99.822
  593.012    6.018    0.530    8.489   93.036
  593.832    6.858    0.534    8.512   86.853
  594.652   10.829    0.481    8.516   84.528
  595.472   12.342    0.429    8.500   84.604
  596.293   12.577    0.414    8.486   86.738
  597.113   12.347    0.460    8.470   88.895
  597.933   11.680    0.462    8.493   87.454
  598.753   11.047    0.451    8.575   91.380
  599.573   10.746    0.456    8.638   94.719
  600.394   11.157    0.455    8.661   94.490
  601.214   11.369    0.454    8.645   98.110
  602.034   11.059    0.462    8.533  102.044
  602.854   11.165    0.470    8.419   97.934
  603.675   13.582    0.427    8.267   82.824
  604.495   16.676    0.407    8.213   76.931
  605.315   17.804    0.423    8.197   78.181
  606.135   17.320    0.435    8.202   93.717
  606.955   16.382    0.413    8.205   89.913
  607.776   15.352    0.413    8.210   87.588
  608.596   15.645    0.414    8.210   84.378
  609.416   16.395    0.405    8.199   83.844
  610.236   17.341    0.400    8.182   81.228
  611.056   17.841    0.395    8.167   76.250
  611.877   18.693    0.377    8.167   75.396
  612.697   19.590    0.349    8.156   75.464
  613.517   18.704    0.345    8.159   79.100
  614.337   17.365    0.393    8.163   75.585
  615.157   15.388    0.447    8.167   70.882
  615.978   14.155    0.404    8.191   62.617
  616.798   17.378    0.384    8.195   58.805
  617.618   21.338    0.394    8.219   59.178
  618.438   22.996    0.409    8.222   55.062
  619.259   22.160    0.422    8.227   56.319
  620.079   20.384    0.421    8.192   62.029
  620.899   20.013    0.380    8.215   67.739
  621.719   23.020    0.341    8.219   65.421
  622.539   27.229    0.321    8.203   57.743
  623.360   26.487    0.320    8.188   53.649
  624.180   25.053    0.326    8.172   52.513
  625.000   23.044    0.352    8.118   53.763
  625.820   21.000    0.399    8.043   57.392
  626.640   19.863    0.452    8.048   59.541
  627.461   18.965    0.483    8.130   57.520
  628.281   23.502    0.453    8.153   61.446
  629.101   31.675    0.422    8.157   62.704
  629.921   35.761    0.291    8.141   62.162
  630.741   39.631    0.305    8.146   64.601
  631.562   29.975    0.332    8.170   69.732
  632.382   24.427    0.350    8.173   74.245
  633.202   17.636    0.370    8.158   78.483
  634.022   16.373    0.394    8.142   83.301
  634.843   14.242    0.428    8.107   84.551
  635.663   11.824    0.447    8.208   82.522
  636.483   11.827    0.457    8.349   80.502
  637.303   12.510    0.434    8.471   82.949
  638.123   13.233    0.438    8.513   86.570
  638.944   14.530    0.446    8.556   92.882
  639.764   15.084    0.451    8.560   95.915
  640.584   15.808    0.453    8.448   88.246
  641.404   15.376    0.430    8.394   82.657
  642.224   14.410    0.430    8.397   87.186
  643.045   14.413    0.452    8.421   94.085
  643.865   14.826    0.457    8.424   99.200
  644.685   14.969    0.450    8.448   95.098
  645.505   14.696    0.444    8.452   87.718
  646.325   14.428    0.448    8.436   85.400
  647.146   14.166    0.434    8.382   88.731
  647.966   14.436    0.431    8.346   89.387
  648.786   14.306    0.442    8.312   91.536
  649.606   13.532    0.456    8.354   91.604
  650.427   13.162    0.465    8.319   92.862
  651.247   13.414    0.472    8.246   94.394
  652.067   13.798    0.478    8.347   92.373
  652.887   13.674    0.429    8.469   93.631
  653.707   13.055    0.429    8.531   94.584
  654.528   13.428    0.454    8.497   92.853
  655.348   13.684    0.475    8.480   89.346
  656.168   14.076    0.504    8.504   77.796
  656.988   14.345    0.485    8.547   84.702
  657.808   13.953    0.465    8.590   93.393
  658.629   12.834    0.461    8.633   98.813
  659.449   12.958    0.469    8.638   94.406
  660.269   12.964    0.465    8.641   92.980
  661.089   12.965    0.469    8.606   89.473
  661.909   12.729    0.462    8.551   81.499
  662.730   12.614    0.452    8.477   89.000
  663.550   12.738    0.457    8.520   91.142
  664.370   12.858    0.457    8.622   90.318
  665.190   12.391    0.452    8.626   92.155
  666.010   12.053    0.455    8.552   91.026
  666.831   12.168    0.459    8.536   86.338
  667.651   12.402    0.393    8.559   89.379
  668.471   12.997    0.374    8.642   93.007
  669.291   13.493    0.400    8.782   94.852
  670.112   13.750    0.412    8.786   95.210
  670.932   13.627    0.437    8.459   89.904
  671.752   14.281    0.424    8.267   84.910
  672.572   14.965    0.341    8.291   86.457
  673.392   14.969    0.341    8.432   98.129
  674.213   13.898    0.399    8.552  103.831
  675.033   12.665    0.419    8.635  103.297
  675.853   11.649    0.409    8.600  102.168
  676.673   12.095    0.411    8.643  103.426
  677.493   11.547    0.437    8.784  104.988
  678.314   10.425    0.460    8.943  105.643
  679.134    9.589    0.476    9.142  105.094
  679.954    9.327    0.483    9.264  103.676
  680.774    9.775    0.504    9.053  101.663
  681.594   10.340    0.477    8.823  100.222
  682.415   11.143    0.468    8.573   88.085
  683.235   10.639    0.452    8.558   89.937
  684.055    9.695    0.435    8.581   94.153
  684.875    9.001    0.448    8.664  102.256
  685.696    8.839    0.467    8.726  104.688
  686.516    8.676    0.480    8.750  107.135
  687.336    8.283    0.488    8.793  109.871
  688.156    8.209    0.487    8.797  108.453
  688.976    8.444    0.481    8.800  105.525
  689.797    9.271    0.480    8.765  104.099
  690.617   10.764    0.493    8.710  106.851
  691.437   12.615    0.480    8.714  110.769
  692.257   13.979    0.457    8.758  109.046
  693.077   15.931    0.473    8.782   92.739
  693.898   17.655    0.468    8.746   70.486
  694.718   22.292    0.439    8.692   51.213
