~VERSION INFORMATION
 VERS.                 2.0:   CWLS LOG ASCII STANDARD -VERSION 2.0
 WRAP.                  NO:   ONE LINE PER DEPTH STEP
~WELL INFORMATION BLOCK
#MNEM.UNIT           DATA                    DESCRIPTION OF MNEMONIC
#---------    -------------------            -------------------------------
# Generated from Intellog Unique Number	CS_69_70/WELL/800
WELL.         AEC FISHER CRK                 : Well_name    - WELL
LOC .         00/06-19-069-04W4/0            : Location     - LOCATION
UWI .         00/06-19-069-04W4/0            : Uwi          - UNIQUE WELL ID
ENTR.         SP                             : Entered      - ENTERED BY
SRVC.         SCHLUMBERGER                   : Scn          - SERVICE COMPANY
STRT.M        300                            : top_depth    - START DEPTH
STOP.M        550                            : bot_depth    - STOP DEPTH
STEP.M        0.25                           : increment    - STEP LENGTH
 NULL. -999.2500:NULL Value
~CURVE INFORMATION BLOCK
#MNEM UNIT       ERCB CURVE CODE    CURVE DESCRIPTION
#-----------   ------------------   ----------------------------------
DEPT.M        00 001 00 00         : DEPTH        - DEPTH
ILD .OHMM     00 120 00 00         : RESD         - DEEP RESISTIVITY (DIL)
DPHI.V/V      00 890 00 00         : PHID         - DENSITY POROSITY (LIMESTONE)
NPHI.V/V      00 330 00 00         : PHIN         - NEUTRON POROSITY (LIMESTONE)
GR  .API      00 310 00 00         : GR           - GAMMA RAY
~PARAMETER INFORMATION
#MNEM.UNIT           DATA             DESCRIPTION OF MNEMONIC
#---------         -----------     ------------------------------
GL  .M        687.9                : gl           - GROUND LEVEL ELEVATION
EREF.M        691.6                : kb           - ELEVATION OF DEPTH REFERENCE
DATM.M        687.9                : datum        - DATUM ELEVATION
TDD .M        557                  : tdd          - TOTAL DEPTH DRILLER
RUN .         ONE                  : Run          - RUN NUMBER
ENG .         BILL                 : Engineer     - RECORDING ENGINEER
WIT .         JIM                  : Witness      - WITNESSED BY
MUD .         GEL                  : Mud_type     - MUD TYPE
MATR.         LIMESTONE            : Logunit      - NEUTRON MATRIX
TMAX.C        21                   : BHT          - MAXIMUM RECORDED TEMPERATURE
BHTD.M        5572                 : BHTDEP       - MAXIMUM RECORDED TEMPERATURE
MATR.         1                    : LOGUNIT      - NEUTRON MATRIX
RMT .C        25                   : MDTP         - TEMPERATURE OF MUD
NEUT.         1                    : NEUTRON      - NEUTRON TYPE
RESI.         0                    : RESIST       - RESISTIVITY TYPE
RMC .OHMM     0.25                 : RMC          - RESISTIVITY OF MUD CAKE
RMF .OHMM     0.25                 : RMF          - RESISTIVITY OF MUD FILTRATE
SUFT.C        15                   : SUFT         - SURFACE TEMPERATURE
~A  DEPTH     RESD     PHID     PHIN       GR
# ...
  430.500    5.760    0.326    0.447   71.564
  430.750    5.792    0.317    0.435   73.815
  431.000    5.991    0.274    0.449   76.553
  431.250    6.232    0.210    0.462   77.952
  431.500    6.337    0.180    0.395   81.177
  431.750    6.361    0.181    0.367   83.428
  432.000    6.277    0.216    0.411   86.592
  432.250    6.184    0.248    0.424   88.538
  432.500    6.114    0.238    0.429   87.137
  432.750    6.194    0.247    0.440   82.022
  433.000    6.288    0.248    0.434   79.342
  433.250    6.323    0.253    0.421   77.514
  433.500    6.182    0.275    0.428   75.686
  433.750    5.755    0.292    0.449   74.224
  434.000    5.279    0.284    0.430   73.126
  434.250    4.751    0.275    0.422   72.333
  434.500    4.499    0.267    0.452   74.950
  434.750    4.268    0.263    0.473   77.931
  435.000    4.126    0.261    0.488   80.608
  435.250    4.011    0.259    0.504   83.346
  435.500    3.907    0.258    0.518   86.023
  435.750    3.899    0.252    0.492   88.579
  436.000    3.929    0.258    0.466   88.760
  436.250    4.056    0.255    0.453   88.089
  436.500    4.033    0.245    0.445   87.966
  436.750    3.692    0.239    0.444   89.790
  437.000    3.176    0.255    0.473   92.650
  437.250    2.875    0.276    0.523   95.388
  437.500    2.657    0.275    0.565   96.483
  437.750    2.516    0.267    0.556   95.203
  438.000    2.378    0.270    0.544   94.106
  438.250    2.312    0.277    0.554   91.669
  438.500    2.299    0.278    0.562   89.780
  438.750    2.360    0.277    0.539   92.823
  439.000    2.413    0.277    0.525   95.926
  439.250    2.482    0.273    0.517   99.942
  439.500    2.567    0.262    0.524  102.011
  439.750    2.631    0.248    0.509   98.113
  440.000    2.726    0.236    0.502   93.181
  440.250    2.846    0.244    0.507   88.553
  440.500    3.180    0.266    0.527   84.838
  440.750    4.052    0.311    0.494   78.749
  441.000    6.590    0.328    0.351   71.016
  441.250   12.482    0.357    0.244   63.892
  441.500   16.922    0.397    0.136   58.655
  441.750   19.554    0.478    0.118   56.584
  442.000   22.134    0.415    0.179   54.878
  442.250   24.450    0.389    0.210   54.389
  442.500   23.591    0.370    0.246   54.814
  442.750   19.623    0.359    0.262   54.813
  443.000   15.084    0.349    0.269   53.959
  443.250   10.837    0.348    0.289   52.436
  443.500    8.299    0.355    0.347   51.095
  443.750    6.331    0.339    0.373   50.606
  444.000    5.614    0.331    0.386   51.762
  444.250    5.025    0.334    0.404   54.560
  444.500    4.885    0.327    0.421   54.802
  444.750    4.912    0.327    0.420   53.522
  445.000    4.912    0.337    0.412   52.425
  445.250    4.921    0.338    0.409   51.389
  445.500    4.948    0.325    0.413   52.727
  445.750    4.967    0.317    0.417   55.039
  446.000    4.994    0.321    0.415   56.194
  446.250    5.060    0.337    0.409   55.462
  446.500    5.175    0.347    0.413   54.182
  446.750    5.891    0.346    0.426   53.268
  447.000    8.153    0.334    0.445   51.744
  447.250   10.847    0.291    0.191   49.429
  447.500   14.872    0.047    0.168   46.506
  447.750   20.815    0.004    0.152   43.887
  448.000   28.753   -0.001    0.176   46.868
  448.250   33.226    0.133    0.321   50.885
  448.500   34.238    0.237    0.428   54.536
  448.750   27.481    0.340    0.440   56.604
  449.000   19.122    0.350    0.444   57.577
  449.250   14.264    0.355    0.425   57.636
  449.500   11.278    0.347    0.410   56.417
  449.750    9.981    0.341    0.396   55.990
  450.000    9.758    0.336    0.388   56.292
  450.250    9.433    0.358    0.409   56.413
  450.500    7.846    0.383    0.409   56.290
  450.750    9.170    0.399    0.458   55.436
  451.000   11.861    0.347    0.490   54.643
  451.250   15.198    0.260    0.453   53.911
  451.500   18.030    0.251    0.440   53.666
  451.750   19.436    0.274    0.447   53.482
  452.000   19.545    0.302    0.460   54.637
  452.250   18.128    0.336    0.470   56.888
  452.500   17.459    0.336    0.472   57.800
  452.750   17.101    0.328    0.466   56.459
  453.000   18.126    0.324    0.460   55.849
  453.250   20.135    0.321    0.455   55.056
  453.500   21.828    0.344    0.450   54.142
  453.750   23.092    0.333    0.454   53.044
  454.000   24.020    0.343    0.472   51.704
  454.250   22.960    0.355    0.457   52.006
  454.500   20.319    0.360    0.450   53.588
  454.750   18.221    0.357    0.441   56.204
  455.000   16.711    0.357    0.433   58.942
  455.250   15.676    0.358    0.429   59.306
  455.500   15.240    0.361    0.457   56.382
  455.750   17.154    0.365    0.458   53.885
  456.000   19.020    0.351    0.447   52.666
  456.250   20.388    0.341    0.439   53.151
  456.500   21.207    0.344    0.436   54.550
  456.750   20.655    0.352    0.438   56.801
  457.000   19.195    0.360    0.432   59.296
  457.250   17.148    0.355    0.423   61.060
  457.500   15.639    0.351    0.439   61.484
  457.750   15.033    0.345    0.457   60.022
  458.000   14.587    0.337    0.455   61.177
  458.250   14.234    0.330    0.445   63.854
  458.500   13.278    0.332    0.451   65.679
  458.750   11.424    0.338    0.458   66.712
  459.000   10.091    0.340    0.452   68.355
  459.250    9.238    0.336    0.476   63.240
  459.500    9.186    0.331    0.487   58.550
  459.750   10.715    0.322    0.468   56.053
  460.000   13.704    0.303    0.464   52.765
  460.250   17.461    0.197    0.422   49.232
  460.500   19.288    0.142    0.330   51.605
  460.750   19.764    0.180    0.281   56.352
  461.000   17.923    0.219    0.335   61.038
  461.250   15.392    0.279    0.415   61.158
  461.500   13.959    0.309    0.459   60.974
  461.750   12.972    0.308    0.456   63.408
  462.000   12.078    0.318    0.451   65.963
  462.250   11.035    0.338    0.452   67.423
  462.500   10.548    0.351    0.465   64.499
  462.750   11.034    0.332    0.445   62.306
  463.000   11.717    0.322    0.429   60.965
  463.250   12.726    0.326    0.423   59.320
  463.500   13.590    0.320    0.423   57.127
  463.750   14.057    0.329    0.413   60.900
  464.000   14.030    0.336    0.407   62.969
  464.250   12.964    0.331    0.415   64.246
  464.500   11.009    0.327    0.434   63.270
  464.750   10.386    0.316    0.447   59.251
  465.000   11.822    0.232    0.444   55.779
  465.250   14.372    0.126    0.367   52.430
  465.500   16.299    0.146    0.264   51.576
  465.750   17.276    0.287    0.304   55.714
  466.000   16.638    0.314    0.376   59.669
  466.250   14.423    0.331    0.428   62.956
  466.500   13.530    0.338    0.443   63.806
  466.750   12.933    0.342    0.449   63.561
  467.000   12.596    0.345    0.450   61.855
  467.250   12.548    0.337    0.450   60.819
  467.500   12.571    0.333    0.436   59.295
  467.750   12.761    0.331    0.439   58.381
  468.000   13.399    0.333    0.450   57.832
  468.250   14.282    0.333    0.458   55.761
  468.500   15.512    0.333    0.464   54.054
  468.750   17.264    0.326    0.459   56.001
  469.000   18.575    0.294    0.431   57.461
  469.250   19.213    0.176    0.245   54.233
  469.500   18.643    0.176    0.313   48.022
  469.750   17.488    0.238    0.365   53.134
  470.000   16.748    0.298    0.407   58.185
  470.250   16.099    0.317    0.434   61.228
  470.500   15.592    0.317    0.450   60.191
  470.750   14.654    0.322    0.460   59.094
  471.000   13.465    0.330    0.462   58.545
  471.250   12.775    0.332    0.461   57.813
  471.500   12.326    0.317    0.449   54.828
  471.750   12.164    0.298    0.437   54.218
  472.000   12.255    0.275    0.428   56.043
  472.250   12.844    0.267    0.441   57.077
  472.500   13.460    0.289    0.448   57.075
  472.750   13.845    0.306    0.442   57.378
  473.000   14.239    0.321    0.451   57.498
  473.250   15.092    0.194    0.331   57.497
  473.500   15.552    0.165    0.317   55.243
  473.750   15.435    0.152    0.309   58.772
