~VERSION INFORMATION
 VERS.                 2.0:   CWLS LOG ASCII STANDARD -VERSION 2.0
 WRAP.                  NO:   ONE LINE PER DEPTH STEP
~WELL INFORMATION BLOCK
#MNEM.UNIT           DATA                    DESCRIPTION OF MNEMONIC
#---------    -------------------            -------------------------------
# Generated from Intellog Unique Number	CS_69_70/WELL/774
WELL.         ET AL HEART LAKE               : Well_name    - WELL
LOC .         00/06-23-069-11W4/0            : Location     - LOCATION
UWI .         00/06-23-069-11W4/0            : Uwi          - UNIQUE WELL ID
ENTR.         SP                             : Entered      - ENTERED BY
SRVC.         SCHLUMBERGER                   : Scn          - SERVICE COMPANY
STRT.M        310                            : top_depth    - START DEPTH
STOP.M        505                            : bot_depth    - STOP DEPTH
STEP.M        0.25                           : increment    - STEP LENGTH
 NULL. -999.2500:NULL Value
~CURVE INFORMATION BLOCK
#MNEM UNIT       ERCB CURVE CODE    CURVE DESCRIPTION
#-----------   ------------------   ----------------------------------
DEPT.M        00 001 00 00         : DEPTH        - DEPTH
ILD .OHMM     00 120 00 00         : RESD         - DEEP RESISTIVITY (DIL)
DPHI.V/V      00 890 00 00         : PHID         - DENSITY POROSITY (LIMESTONE)
NPHI.V/V      00 330 00 00         : PHIN         - NEUTRON POROSITY (LIMESTONE)
GR  .API      00 310 00 00         : GR           - GAMMA RAY
~PARAMETER INFORMATION
#MNEM.UNIT           DATA             DESCRIPTION OF MNEMONIC
#---------         -----------     ------------------------------
GL  .M        634.4                : gl           - GROUND LEVEL ELEVATION
EREF.M        638.8                : kb           - ELEVATION OF DEPTH REFERENCE
DATM.M        634.4                : datum        - DATUM ELEVATION
TDD .M        507                  : tdd          - TOTAL DEPTH DRILLER
RUN .         ONE                  : Run          - RUN NUMBER
ENG .         BILL                 : Engineer     - RECORDING ENGINEER
WIT .         JIM                  : Witness      - WITNESSED BY
MUD .         GEL                  : Mud_type     - MUD TYPE
MATR.         LIMESTONE            : Logunit      - NEUTRON MATRIX
TMAX.C        20                   : BHT          - MAXIMUM RECORDED TEMPERATURE
BHTD.M        507                  : BHTDEP       - MAXIMUM RECORDED TEMPERATURE
MATR.         1                    : LOGUNIT      - NEUTRON MATRIX
RMT .C        25                   : MDTP         - TEMPERATURE OF MUD
NEUT.         1                    : NEUTRON      - NEUTRON TYPE
RESI.         0                    : RESIST       - RESISTIVITY TYPE
RMC .OHMM     0.25                 : RMC          - RESISTIVITY OF MUD CAKE
RMF .OHMM     0.25                 : RMF          - RESISTIVITY OF MUD FILTRATE
SUFT.C        15                   : SUFT         - SURFACE TEMPERATURE
~A  DEPTH     RESD     PHID     PHIN       GR
# ...
  353.500    5.111    0.254    0.386   77.991
  353.750    5.168    0.273    0.383   81.907
  354.000    5.158    0.296    0.410   80.135
  354.250    5.110    0.312    0.437   74.018
  354.500    5.090    0.327    0.455   70.165
  354.750    5.042    0.330    0.479   67.964
  355.000    5.004    0.332    0.475   67.904
  355.250    4.975    0.338    0.449   68.088
  355.500    4.956    0.327    0.439   68.579
  355.750    4.937    0.320    0.449   68.824
  356.000    4.927    0.313    0.465   68.886
  356.250    4.918    0.310    0.475   69.500
  356.500    4.917    0.308    0.485   70.296
  356.750    4.908    0.310    0.488   72.376
  357.000    4.898    0.316    0.483   72.377
  357.250    4.888    0.313    0.475   74.642
  357.500    4.869    0.302    0.468   78.864
  357.750    4.860    0.278    0.466   83.454
  358.000    4.841    0.249    0.463   87.614
  358.250    4.832    0.250    0.465   92.203
  358.500    4.840    0.256    0.470   95.936
  358.750    4.895    0.259    0.476   96.916
  359.000    4.978    0.251    0.482   94.837
  359.250    5.111    0.255    0.478   92.269
  359.500    5.197    0.266    0.475   90.189
  359.750    5.256    0.271    0.476   88.294
  360.000    5.275    0.276    0.479   87.806
  360.250    5.275    0.254    0.485   88.235
  360.500    5.255    0.240    0.493   90.928
  360.750    5.225    0.233    0.487   92.397
  361.000    5.107    0.235    0.473   93.988
  361.250    5.059    0.236    0.468   95.274
  361.500    5.012    0.237    0.465   94.419
  361.750    5.030    0.275    0.467   86.956
  362.000    5.087    0.299    0.447   80.412
  362.250    5.163    0.313    0.434   73.194
  362.500    5.212    0.300    0.422   68.668
  362.750    5.261    0.292    0.413   73.808
  363.000    5.270    0.292    0.424   76.929
  363.250    5.250    0.302    0.443   77.480
  363.500    5.249    0.312    0.453   69.896
  363.750    5.259    0.314    0.438   67.511
  364.000    5.278    0.270    0.425   71.794
  364.250    5.338    0.226    0.417   74.915
  364.500    5.388    0.215    0.426   78.893
  364.750    5.469    0.231    0.435   81.341
  365.000    5.541    0.253    0.426   75.652
  365.250    5.593    0.276    0.438   71.677
  365.500    5.624    0.292    0.450   70.332
  365.750    5.687    0.308    0.419   75.655
  366.000    5.762    0.296    0.407   80.550
  366.250    5.882    0.289    0.420   84.528
  366.500    6.073    0.282    0.416   87.588
  366.750    6.281    0.263    0.389   90.097
  367.000    6.522    0.256    0.378   85.632
  367.250    6.620    0.250    0.400   82.880
  367.500    6.732    0.259    0.415   82.331
  367.750    6.796    0.266    0.417   83.311
  368.000    6.846    0.255    0.418   83.495
  368.250    6.884    0.247    0.421   86.616
  368.500    6.897    0.244    0.424   91.450
  368.750    6.832    0.234    0.430   94.693
  369.000    6.641    0.221    0.428   97.753
  369.250    6.468    0.216    0.422   95.980
  369.500    6.335    0.219    0.424   92.861
  369.750    6.228    0.207    0.438   97.572
  370.000    6.158    0.199    0.455  101.794
  370.250    6.088    0.212    0.458  107.056
  370.500    6.088    0.260    0.458  109.749
  370.750    6.053    0.287    0.462   91.459
  371.000    6.075    0.319    0.468   78.552
  371.250    6.086    0.327    0.469   65.584
  371.500    6.120    0.314    0.462   67.298
  371.750    6.142    0.305    0.468   69.501
  372.000    6.130    0.310    0.470   67.055
  372.250    6.130    0.319    0.455   64.365
  372.500    6.129    0.319    0.452   64.121
  372.750    6.129    0.312    0.467   65.162
  373.000    6.105    0.303    0.463   69.506
  373.250    6.082    0.295    0.447   73.545
  373.500    6.047    0.289    0.438   76.849
  373.750    6.001    0.286    0.440   76.973
  374.000    5.945    0.292    0.444   75.261
  374.250    5.877    0.298    0.467   68.472
  374.500    5.800    0.301    0.473   64.251
  374.750    5.756    0.280    0.450   59.603
  375.000    5.702    0.271    0.433   57.952
  375.250    5.712    0.264    0.422   61.930
  375.500    5.765    0.268    0.438   68.844
  375.750    5.863    0.261    0.445   75.880
  376.000    6.042    0.229    0.411   81.754
  376.250    6.179    0.207    0.388   84.385
  376.500    6.249    0.216    0.399   85.242
  376.750    6.296    0.230    0.412   84.815
  377.000    6.307    0.229    0.420   84.877
  377.250    6.224    0.232    0.409   86.285
  377.500    6.073    0.250    0.420   86.837
  377.750    5.882    0.271    0.432   83.168
  378.000    5.793    0.287    0.430   78.214
  378.250    5.706    0.263    0.419   75.400
  378.500    5.631    0.263    0.416   71.486
  378.750    5.526    0.291    0.421   68.918
  379.000    5.453    0.311    0.421   67.390
  379.250    5.421    0.305    0.417   67.207
  379.500    5.442    0.296    0.413   67.086
  379.750    5.513    0.290    0.411   67.576
  380.000    5.575    0.285    0.407   68.556
  380.250    5.659    0.282    0.405   69.108
  380.500    5.713    0.288    0.424   67.029
  380.750    5.723    0.302    0.449   65.623
  381.000    5.690    0.312    0.469   64.951
  381.250    5.594    0.304    0.467   66.420
  381.500    5.387    0.298    0.460   72.906
  381.750    4.803    0.278    0.453   76.760
  382.000    4.250    0.253    0.463   80.249
  382.250    3.882    0.236    0.495   84.654
  382.500    3.669    0.249    0.527   88.876
  382.750    3.788    0.278    0.572   91.385
  383.000    4.122    0.305    0.546   91.876
  383.250    4.571    0.318    0.520   77.439
  383.500    5.040    0.321    0.491   67.163
  383.750    5.485    0.324    0.480   67.409
  384.000    5.880    0.326    0.488   69.551
  384.250    6.268    0.328    0.485   65.637
  384.500    6.532    0.327    0.464   62.824
  384.750    6.668    0.324    0.453   61.663
  385.000    6.756    0.324    0.449   61.235
  385.250    6.743    0.327    0.459   61.481
  385.500    6.617    0.333    0.466   62.155
  385.750    6.456    0.337    0.476   63.624
  386.000    6.264    0.336    0.467   61.301
  386.250    6.170    0.333    0.455   57.142
  386.500    6.100    0.335    0.444   54.512
  386.750    6.054    0.330    0.438   52.433
  387.000    6.020    0.328    0.447   50.538
  387.250    5.985    0.340    0.455   49.744
  387.500    5.974    0.337    0.454   51.825
  387.750    5.928    0.332    0.448   53.661
  388.000    5.917    0.332    0.437   56.231
  388.250    5.916    0.329    0.437   57.823
  388.500    5.882    0.327    0.444   57.396
  388.750    5.882    0.327    0.450   55.011
  389.000    5.881    0.331    0.445   53.299
  389.250    5.870    0.333    0.443   52.749
  389.500    5.880    0.333    0.443   52.567
  389.750    5.880    0.330    0.448   52.446
  390.000    5.879    0.325    0.452   52.630
  390.250    5.879    0.334    0.455   52.509
  390.500    5.878    0.342    0.458   53.183
  390.750    5.845    0.345    0.459   53.000
  391.000    5.844    0.329    0.449   51.288
  391.250    5.844    0.320    0.439   55.266
  391.500    5.854    0.312    0.427   57.897
  391.750    5.887    0.308    0.439   61.018
  392.000    5.897    0.304    0.465   60.836
  392.250    5.886    0.317    0.457   57.289
  392.500    5.886    0.333    0.448   55.577
  392.750    5.885    0.325    0.448   54.538
  393.000    5.918    0.314    0.442   54.967
  393.250    5.951    0.321    0.444   56.253
  393.500    5.961    0.326    0.443   59.924
  393.750    6.029    0.312    0.437   63.596
  394.000    6.166    0.297    0.439   66.961
  394.250    6.342    0.298    0.440   68.492
  394.500    6.622    0.314    0.435   68.064
  394.750    6.875    0.309    0.442   67.576
  395.000    7.098    0.305    0.450   67.944
  395.250    7.191    0.304    0.442   69.291
  395.500    7.004    0.308    0.430   71.066
  395.750    6.619    0.309    0.444   71.801
  396.000    6.422    0.309    0.452   71.802
  396.250    6.409    0.322    0.450   70.335
  396.500    6.567    0.324    0.462   67.767
  396.750    6.896    0.311    0.470   65.443
