~VERSION INFORMATION
 VERS.                 2.0:   CWLS LOG ASCII STANDARD -VERSION 2.0
 WRAP.                  NO:   ONE LINE PER DEPTH STEP
~WELL INFORMATION BLOCK
#MNEM.UNIT           DATA                    DESCRIPTION OF MNEMONIC
#---------    -------------------            -------------------------------
# Generated from Intellog Unique Number	CS_77_79/WELL/900
WELL.         DOME PETROLEUM LIMITED         : Well_name    - WELL
LOC .         00/07-19-077-16W4/0            : Location     - LOCATION
UWI .         00/07-19-077-16W4/0            : Uwi          - UNIQUE WELL ID
ENTR.         SP                             : Entered      - ENTERED BY
SRVC.         SCHLUMBERGER                   : Scn          - SERVICE COMPANY
STRT.M        240                            : top_depth    - START DEPTH
STOP.M        460                            : bot_depth    - STOP DEPTH
STEP.M        0.25                           : increment    - STEP LENGTH
 NULL. -999.2500:NULL Value
~CURVE INFORMATION BLOCK
#MNEM UNIT       ERCB CURVE CODE    CURVE DESCRIPTION
#-----------   ------------------   ----------------------------------
DEPT.M        00 001 00 00         : DEPTH        - DEPTH
ILD .OHMM     00 120 00 00         : RESD         - DEEP RESISTIVITY (DIL)
DPHI.V/V      00 890 00 00         : PHID         - DENSITY POROSITY (LIMESTONE)
NPHI.V/V      00 330 00 00         : PHIN         - NEUTRON POROSITY (LIMESTONE)
GR  .API      00 310 00 00         : GR           - GAMMA RAY
~PARAMETER INFORMATION
#MNEM.UNIT           DATA             DESCRIPTION OF MNEMONIC
#---------         -----------     ------------------------------
GL  .M        624.8                : gl           - GROUND LEVEL ELEVATION
EREF.M        628.94               : kb           - ELEVATION OF DEPTH REFERENCE
DATM.M        624.8                : datum        - DATUM ELEVATION
TDD .M        467                  : tdd          - TOTAL DEPTH DRILLER
RUN .         ONE                  : Run          - RUN NUMBER
ENG .         BILL                 : Engineer     - RECORDING ENGINEER
WIT .         JIM                  : Witness      - WITNESSED BY
MUD .         GEL                  : Mud_type     - MUD TYPE
MATR.         LIMESTONE            : Logunit      - NEUTRON MATRIX
TMAX.C        21                   : BHT          - MAXIMUM RECORDED TEMPERATURE
BHTD.M        467                  : BHTDEP       - MAXIMUM RECORDED TEMPERATURE
MATR.         1                    : LOGUNIT      - NEUTRON MATRIX
RMT .C        25                   : MDTP         - TEMPERATURE OF MUD
NEUT.         1                    : NEUTRON      - NEUTRON TYPE
RESI.         0                    : RESIST       - RESISTIVITY TYPE
RMC .OHMM     0.25                 : RMC          - RESISTIVITY OF MUD CAKE
RMF .OHMM     0.25                 : RMF          - RESISTIVITY OF MUD FILTRATE
SUFT.C        15                   : SUFT         - SURFACE TEMPERATURE
~A  DEPTH     RESD     PHID     PHIN       GR
# ...
  370.500    5.274    0.212    0.458   94.175
  370.750    5.082    0.216    0.447   96.026
  371.000    4.990    0.206    0.442   97.257
  371.250    4.993    0.214    0.448   98.487
  371.500    5.186    0.227    0.458   97.893
  371.750    5.287    0.242    0.457   96.081
  372.000    5.389    0.259    0.452   95.480
  372.250    5.599    0.272    0.448   93.060
  372.500    5.707    0.296    0.453   90.642
  372.750    6.041    0.305    0.453   89.433
  373.000    6.514    0.302    0.457   88.832
  373.250    6.766    0.300    0.452   88.235
  373.500    6.897    0.297    0.447   88.250
  373.750    7.031    0.296    0.441   85.217
  374.000    7.036    0.312    0.432   80.964
  374.250    6.909    0.319    0.423   76.097
  374.500    6.911    0.323    0.416   72.457
  374.750    6.418    0.313    0.420   70.648
  375.000    6.301    0.318    0.425   70.657
  375.250    5.961    0.326    0.424   71.281
  375.500    5.852    0.332    0.416   70.689
  375.750    5.747    0.332    0.407   70.089
  376.000    5.539    0.343    0.413   69.496
  376.250    5.541    0.352    0.434   69.517
  376.500    5.544    0.347    0.444   70.139
  376.750    5.343    0.344    0.449   70.759
  377.000    5.655    0.350    0.439   71.379
  377.250    5.450    0.352    0.425   72.615
  377.500    5.769    0.350    0.412   73.238
  377.750    5.881    0.349    0.411   71.425
  378.000    5.884    0.348    0.415   69.611
  378.250    5.670    0.341    0.418   69.018
  378.500    5.673    0.347    0.421   69.645
  378.750    5.784    0.347    0.422   69.654
  379.000    5.681    0.345    0.422   70.280
  379.250    5.684    0.349    0.421   71.519
  379.500    5.687    0.355    0.416   71.529
  379.750    5.798    0.357    0.409   72.151
  380.000    6.020    0.348    0.406   71.556
  380.250    6.253    0.342    0.410   70.352
  380.500    6.619    0.344    0.422   69.760
  380.750    6.874    0.338    0.440   69.769
  381.000    7.414    0.329    0.430   69.177
  381.250    7.699    0.323    0.414   69.804
  381.500    8.149    0.334    0.397   70.430
  381.750    8.153    0.336    0.394   70.439
  382.000    8.006    0.341    0.407   69.852
  382.250    7.295    0.341    0.436   69.861
  382.500    6.524    0.328    0.457   69.871
  382.750    6.405    0.318    0.450   69.274
  383.000    6.408    0.316    0.428   66.853
  383.250    6.293    0.316    0.412   66.865
  383.500    6.296    0.319    0.412   69.929
  383.750    6.300    0.337    0.418   71.772
  384.000    6.186    0.350    0.425   71.176
  384.250    6.190    0.356    0.426   70.582
  384.500    6.193    0.358    0.426   71.209
  384.750    6.082    0.354    0.426   71.222
  385.000    6.085    0.347    0.425   68.801
  385.250    6.088    0.343    0.424   68.205
  385.500    6.208    0.337    0.424   68.825
  385.750    6.328    0.335    0.422   70.676
  386.000    6.451    0.337    0.415   71.293
  386.250    6.453    0.346    0.421   72.532
  386.500    6.704    0.348    0.424   73.155
  386.750    6.582    0.351    0.425   73.166
  387.000    6.464    0.359    0.423   73.802
  387.250    6.231    0.363    0.422   73.813
  387.500    6.118    0.364    0.417   73.213
  387.750    5.896    0.354    0.420   73.228
  388.000    5.791    0.350    0.422   74.462
  388.250    5.794    0.345    0.420   75.694
  388.500    5.797    0.341    0.411   75.708
  388.750    5.909    0.338    0.403   75.115
  389.000    5.911    0.342    0.415   72.692
  389.250    5.915    0.351    0.422   71.483
  389.500    5.917    0.364    0.446   69.670
  389.750    5.922    0.368    0.460   69.073
  390.000    5.926    0.373    0.451   69.087
  390.250    5.816    0.366    0.437   70.325
  390.500    5.930    0.361    0.432   72.165
  390.750    6.045    0.357    0.428   74.622
  391.000    6.050    0.354    0.423   75.243
  391.250    5.941    0.346    0.419   74.042
  391.500    5.943    0.341    0.413   72.837
  391.750    6.059    0.338    0.412   72.848
  392.000    6.061    0.333    0.410   72.262
  392.250    6.064    0.340    0.407   72.272
  392.500    6.067    0.346    0.401   72.892
  392.750    6.071    0.353    0.397   73.516
  393.000    5.962    0.355    0.401   74.143
  393.250    5.964    0.356    0.398   74.764
  393.500    5.970    0.356    0.394   75.388
  393.750    5.972    0.351    0.394   75.402
  394.000    5.974    0.342    0.395   74.808
  394.250    5.866    0.340    0.406   74.215
  394.500    5.869    0.333    0.418   73.619
  394.750    5.872    0.328    0.418   74.252
  395.000    5.876    0.324    0.409   75.483
  395.250    5.878    0.324    0.415   76.101
  395.500    5.882    0.330    0.419   77.333
  395.750    5.885    0.334    0.413   76.737
  396.000    5.779    0.329    0.405   76.144
  396.250    5.782    0.323    0.386   74.940
  396.500    5.785    0.320    0.382   73.735
  396.750    5.681    0.319    0.403   71.919
  397.000    5.684    0.315    0.427   68.884
  397.250    5.581    0.318    0.434   65.245
  397.500    5.584    0.321    0.438   65.256
  397.750    5.485    0.322    0.437   65.275
  398.000    5.487    0.326    0.427   65.892
  398.250    5.389    0.333    0.433   72.614
  398.500    5.392    0.336    0.444   74.458
  398.750    5.294    0.333    0.453   73.864
  399.000    5.296    0.332    0.453   72.665
  399.250    5.299    0.330    0.446   72.067
  399.500    5.302    0.326    0.439   71.472
  399.750    5.207    0.316    0.440   71.483
  400.000    5.210    0.323    0.439   70.284
  400.250    5.116    0.331    0.439   70.291
  400.500    5.118    0.339    0.434   71.530
  400.750    5.121    0.344    0.428   72.150
  401.000    5.124    0.346    0.423   72.775
  401.250    5.126    0.351    0.429   74.624
  401.500    5.128    0.360    0.433   75.860
  401.750    5.132    0.351    0.436   75.868
  402.000    5.232    0.348    0.436   75.892
  402.250    5.234    0.356    0.442   76.513
  402.500    5.239    0.354    0.459   77.131
  402.750    5.241    0.339    0.474   77.761
  403.000    5.243    0.341    0.483   77.164
  403.250    5.245    0.338    0.489   75.955
  403.500    5.247    0.329    0.476   74.753
  403.750    5.251    0.323    0.476   75.381
  404.000    5.156    0.316    0.475   75.391
  404.250    5.159    0.310    0.475   77.233
  404.500    5.161    0.305    0.464   79.690
  404.750    5.164    0.296    0.454   80.921
  405.000    5.167    0.289    0.454   83.381
  405.250    5.170    0.284    0.459   83.999
  405.500    5.173    0.281    0.469   84.622
  405.750    5.080    0.274    0.477   84.034
  406.000    5.082    0.264    0.465   84.047
  406.250    4.991    0.241    0.463   84.056
  406.500    4.994    0.241    0.463   88.952
  406.750    4.995    0.241    0.470   91.402
  407.000    4.998    0.242    0.472   94.472
  407.250    4.818    0.251    0.476   95.704
  407.500    4.820    0.259    0.480   97.543
  407.750    4.732    0.265    0.482  100.611
  408.000    4.735    0.251    0.482  103.063
  408.250    4.920    0.246    0.472  104.905
  408.500    5.109    0.241    0.451  105.531
  408.750    5.306    0.235    0.432  104.326
  409.000    5.941    0.231    0.415  103.729
  409.250    6.651    0.220    0.401   97.645
  409.500    7.445    0.208    0.394   84.244
  409.750    8.334    0.193    0.387   64.746
  410.000    9.507    0.180    0.382   55.617
  410.250    9.690    0.168    0.377   54.408
  410.500    9.698    0.164    0.373   56.864
  410.750    9.345    0.162    0.368   63.584
  411.000    8.675    0.157    0.362   73.969
  411.250    8.207    0.165    0.359   84.350
  411.500    7.910    0.164    0.353   85.584
  411.750    7.766    0.159    0.348   82.545
  412.000    7.628    0.163    0.349   84.397
  412.250    7.630    0.182    0.380   88.066
  412.500    7.635    0.197    0.404   93.565
  412.750    7.639    0.193    0.425   94.808
  413.000    7.643    0.195    0.421   94.828
  413.250    7.646    0.197    0.410   96.049
  413.500    7.651    0.195    0.407   96.064
  413.750    7.654    0.194    0.406   95.468
