~VERSION INFORMATION
 VERS.                 2.0:   CWLS LOG ASCII STANDARD -VERSION 2.0
 WRAP.                  NO:   ONE LINE PER DEPTH STEP
~WELL INFORMATION BLOCK
#MNEM.UNIT           DATA                    DESCRIPTION OF MNEMONIC
#---------    -------------------            -------------------------------
# Generated from Intellog Unique Number	CW_73_75/WELL/877
WELL.         CDN SUP ER AL FRANCIS 07-35    : Well_name    - WELL
LOC .         00/07-35-074-21W4/0            : Location     - LOCATION
UWI .         00/07-35-074-21W4/0            : Uwi          - UNIQUE WELL ID
ENTR.         JAYE                           : Entered      - ENTERED BY
SRVC.         SCHLUMBERGER                   : Scn          - SERVICE COMPANY
DATE.         11 MAR 75                      : Date         - LOG DATE
STRT.M        387.096                        : top_depth    - START DEPTH
STOP.M        606.596                        : bot_depth    - STOP DEPTH
STEP.M        0.25                           : increment    - STEP LENGTH
 NULL. -999.2500:NULL Value
~CURVE INFORMATION BLOCK
#MNEM UNIT       ERCB CURVE CODE    CURVE DESCRIPTION
#-----------   ------------------   ----------------------------------
DEPT.M        00 001 00 00         : DEPTH        - DEPTH
ILD .OHMM     00 120 00 00         : RESD         - DEEP RESISTIVITY (DIL)
DPHI.V/V      00 890 00 00         : PHID         - DENSITY POROSITY (SANDSTONE)
NPHI.V/V      00 330 00 00         : PHIN         - NEUTRON POROSITY (SANDSTONE)
GR  .API      00 310 00 00         : GR           - GAMMA RAY
CALI.IN       00 280 01 00         : CAL          - CALIPER
~PARAMETER INFORMATION
#MNEM.UNIT           DATA             DESCRIPTION OF MNEMONIC
#---------         -----------     ------------------------------
GL  .M        691.896              : gl           - GROUND LEVEL ELEVATION
EREF.M        695.615              : kb           - ELEVATION OF DEPTH REFERENCE
DATM.M        691.896              : datum        - DATUM ELEVATION
TDD .M        669.036              : tdd          - TOTAL DEPTH DRILLER
RUN .         ONE                  : Run          - RUN NUMBER
BASE.         EDM                  : Branch       - HOME BASE OF LOGGING UNIT
MATR.         SANDSTONE            : Logunit      - NEUTRON MATRIX
TMAX.C        28.8889              : BHT          - MAXIMUM RECORDED TEMPERATURE
BHTD.M        669.036              : BHTDEP       - MAXIMUM RECORDED TEMPERATURE
RMT .C        15.5556              : MDTP         - TEMPERATURE OF MUD
MUDD.KG/M     0                    : MWT          - MUD DENSITY
NEUT.         1                    : NEUTRON      - NEUTRON TYPE
RESI.         0                    : RESIST       - RESISTIVITY TYPE
RM  .OHMM     2.8                  : RM           - RESISTIVITY OF MUD
RMC .OHMM     0                    : RMC          - RESISTIVITY OF MUD CAKE
RMF .OHMM     3.83                 : RMF          - RESISTIVITY OF MUD FILTRATE
SUFT.C        -17.7778             : SUFT         - SURFACE TEMPERATURE
~A  DEPTH     RESD     PHID     PHIN       GR      CAL
# ...
  533.096    4.490    0.266    0.516   82.749    9.892
  533.346    4.695    0.263    0.525   82.114    9.912
  533.596    4.875    0.259    0.533   81.777    9.892
  533.846    5.016    0.253    0.531   81.440    9.795
  534.096    5.217    0.265    0.505   80.519    9.677
  534.346    5.357    0.241    0.488   79.878    9.462
  534.596    5.542    0.224    0.480   79.827    9.403
  534.846    5.692    0.228    0.483   79.787    9.403
  535.096    5.824    0.222    0.493   79.736    9.364
  535.346    5.949    0.227    0.485   78.815    9.207
  535.596    6.087    0.224    0.470   77.888    9.031
  535.846    6.250    0.238    0.471   76.972    8.894
  536.096    6.235    0.225    0.469   76.046    8.836
  536.346    6.356    0.218    0.430   75.417    8.777
  536.596    6.516    0.206    0.422   74.787    8.777
  536.846    6.607    0.198    0.413   74.152    8.757
  537.096    6.674    0.204    0.401   74.107    8.757
  537.346    6.683    0.227    0.397   74.061    8.777
  537.596    6.617    0.237    0.405   74.600    8.777
  537.846    6.482    0.233    0.425   75.424    8.777
  538.096    6.349    0.221    0.429   76.254    8.796
  538.346    6.229    0.214    0.437   77.084    8.836
  538.596    6.180    0.204    0.442   77.909    8.875
  538.846    6.175    0.205    0.440   78.441    8.914
  539.096    6.216    0.206    0.438   78.687    8.933
  539.346    6.246    0.214    0.433   78.350    9.012
  539.596    6.287    0.219    0.449   78.310    9.070
  539.846    6.283    0.209    0.471   77.961    9.090
  540.096    6.313    0.177    0.457   77.922    9.129
  540.346    6.331    0.156    0.420   77.865    9.188
  540.596    6.339    0.130    0.403   82.500    9.286
  540.846    6.346    0.187    0.426   85.659    9.403
  541.096    6.261    0.193    0.433   87.943    9.501
  541.346    6.177    0.202    0.444   89.071    9.462
  541.596    6.106    0.214    0.446   89.609    9.384
  541.846    6.046    0.213    0.431   89.552    9.403
  542.096    6.009    0.197    0.457   89.215    9.540
  542.346    6.005    0.201    0.476   88.877    9.618
  542.596    5.968    0.208    0.487   87.659    9.560
  542.846    5.953    0.205    0.488   85.284    9.462
  543.096    5.926    0.180    0.487   81.725    9.344
  543.346    5.923    0.206    0.485   81.685    9.207
  543.596    5.973    0.200    0.485   83.099    9.110
  543.846    6.068    0.192    0.488   84.793    9.070
  544.096    6.220    0.178    0.472   85.337    9.051
  544.346    6.399    0.177    0.462   85.286    9.070
  544.596    6.572    0.194    0.449   85.235    9.070
  544.846    6.663    0.208    0.438   85.189    9.090
  545.096    6.647    0.210    0.422   85.149    9.168
  545.346    6.558    0.205    0.399   85.688    9.247
  545.596    6.435    0.192    0.408   85.928    9.442
  545.846    6.315    0.172    0.427   86.758    9.579
  546.096    6.174    0.162    0.445   88.750    9.716
  546.346    6.215    0.187    0.480   89.866    9.834
  546.596    6.347    0.208    0.512   89.821    9.814
  546.846    6.590    0.208    0.501   88.030    9.658
  547.096    7.057    0.197    0.452   85.352    9.481
  547.346    7.462    0.179    0.409   83.847    9.247
  547.596    7.846    0.166    0.392   82.629    9.031
  547.846    7.700    0.164    0.394   82.864    8.933
  548.096    7.272    0.196    0.415   85.159    8.894
  548.346    7.320    0.207    0.424   86.286    8.875
  548.596    7.683    0.209    0.432   86.532    8.875
  548.846    8.533    0.208    0.433   83.271    8.875
  549.096    9.921    0.202    0.429   79.128    8.894
  549.346   12.409    0.173    0.415   75.586    8.914
  549.596   13.436    0.132    0.356   70.281    8.933
  549.846   13.726    0.101    0.304   63.517    8.933
  550.096   13.592    0.054    0.243   65.515    8.953
  550.346   12.132    0.064    0.291   74.809    8.973
  550.596   10.067    0.111    0.381   80.892    8.992
  550.846    8.114    0.155    0.409   84.933    9.012
  551.096    7.430    0.156    0.426   87.211    9.012
  551.346    7.121    0.165    0.439   88.636    9.012
  551.596    7.041    0.176    0.427   86.536    9.070
  551.846    7.153    0.175    0.418   84.161    9.090
  552.096    7.239    0.157    0.412   82.365    9.110
  552.346    7.208    0.151    0.416   82.022    9.129
  552.596    7.164    0.158    0.419   81.970    9.168
  552.846    7.058    0.144    0.418   82.503    9.188
  553.096    6.888    0.116    0.413   89.181    9.188
  553.346    6.809    0.133    0.421   92.055    9.207
  553.596    6.817    0.148    0.424   90.533    9.207
  553.846    6.889    0.148    0.424   89.331    9.227
  554.096    7.024    0.154    0.422   86.659    9.227
  554.346    7.122    0.160    0.420   84.565    9.247
  554.596    7.210    0.150    0.423   86.854    9.247
  554.846    7.285    0.120    0.439   88.846    9.266
  555.096    7.374    0.140    0.442   90.254    9.266
  555.346    7.342    0.149    0.436   91.954    9.286
  555.596    7.245    0.132    0.405   92.212    9.286
  555.846    7.084    0.131    0.398   91.279    9.325
  556.096    6.814    0.179    0.401   88.607    9.344
  556.346    6.579    0.217    0.395   85.935    9.344
  556.596    6.456    0.184    0.398   84.430    9.325
  556.846    6.406    0.160    0.403   83.801    9.286
  557.096    6.413    0.155    0.408   83.458    9.266
  557.346    6.374    0.151    0.416   83.704    9.266
  557.596    6.290    0.171    0.421   84.237    9.364
  557.846    5.822    0.166    0.401   84.489    9.579
  558.096    5.002    0.157    0.481   84.724    9.755
  558.346    3.930    0.238    0.541   82.343   10.166
  558.596    3.243    0.343    0.577   79.665   10.558
  558.846    2.672    0.382    0.590   81.371   10.890
  559.096    2.393    0.347    0.550   84.828    9.755
  559.346    2.248    0.316    0.518   88.290    9.403
  559.596    2.260    0.257    0.518   93.498    9.286
  559.846    2.363    0.229    0.520   96.949    9.325
  560.096    2.573    0.222    0.512   96.904    9.364
  560.346    2.890    0.222    0.500   96.852    9.403
  560.596    3.329    0.220    0.484   96.509    9.481
  560.846    4.089    0.189    0.463   95.010    9.521
  561.096    4.789    0.170    0.440   93.797    9.579
  561.346    5.680    0.169    0.425   91.698    9.579
  561.596    6.322    0.163    0.424   88.442    9.501
  561.846    6.909    0.140    0.424   83.137    9.442
  562.096    7.187    0.117    0.388   77.260    9.423
  562.346    7.170    0.094    0.345   65.243    9.403
  562.596    7.036    0.029    0.236   57.020    9.364
  562.846    6.817    0.043    0.269   67.773    9.325
  563.096    6.288    0.083    0.340   75.024    9.266
  563.346    5.982    0.108    0.393   78.189    9.247
  563.596    5.946    0.126    0.421   77.262    9.247
  563.846    6.141    0.113    0.412   75.757    9.227
  564.096    6.343    0.098    0.401   76.873    9.227
  564.346    6.397    0.103    0.416   77.703    9.227
  564.596    6.266    0.110    0.415   77.074    9.247
  564.846    6.138    0.117    0.416   79.072    9.247
  565.096    6.056    0.183    0.422   82.523    9.247
  565.346    6.020    0.189    0.419   84.526    9.247
  565.596    6.050    0.195    0.425   85.058    9.247
  565.846    6.046    0.167    0.434   82.380    9.227
  566.096    6.076    0.162    0.441   81.162    9.227
  566.346    6.105    0.161    0.437   81.111    9.227
  566.596    6.112    0.137    0.419   81.071    9.227
  566.846    6.109    0.119    0.413   81.615    9.227
  567.096    6.094    0.167    0.422   84.780    9.227
  567.346    6.081    0.179    0.449   86.777    9.227
  567.596    6.055    0.173    0.461   84.677    9.247
  567.846    6.040    0.150    0.459   82.886    9.266
  568.096    5.981    0.111    0.432   81.668    9.266
  568.346    5.870    0.070    0.410   83.076    9.266
  568.596    5.771    0.107    0.402   86.241    9.266
  568.846    5.530    0.127    0.401   89.697    9.266
  569.096    5.242    0.147    0.414   92.868    9.266
  569.346    4.862    0.163    0.423   94.865    9.266
