~VERSION INFORMATION
 VERS.                 2.0:   CWLS LOG ASCII STANDARD -VERSION 2.0
 WRAP.                  NO:   ONE LINE PER DEPTH STEP
~WELL INFORMATION BLOCK
#MNEM.UNIT           DATA                    DESCRIPTION OF MNEMONIC
#---------    -------------------            -------------------------------
# Generated from Intellog Unique Number	CW_73_75/WELL/2724
WELL.         GASCAN MITSUE 04-24            : Well_name    - WELL
LOC .         00/04-24-073-04W5/0            : Location     - LOCATION
UWI .         00/04-24-073-04W5/0            : Uwi          - UNIQUE WELL ID
ENTR.         JAYE                           : Entered      - ENTERED BY
SRVC.         SCHLUMBERGER                   : Scn          - SERVICE COMPANY
DATE.         1 FEB 82                       : Date         - LOG DATE
STRT.M        360                            : top_depth    - START DEPTH
STOP.M        570                            : bot_depth    - STOP DEPTH
STEP.M        0.25                           : increment    - STEP LENGTH
 NULL. -999.2500:NULL Value
~CURVE INFORMATION BLOCK
#MNEM UNIT       ERCB CURVE CODE    CURVE DESCRIPTION
#-----------   ------------------   ----------------------------------
DEPT.M        00 001 00 00         : DEPTH        - DEPTH
DPHI.V/V      00 890 00 00         : PHID         - DENSITY POROSITY (SANDSTONE)
NPHI.V/V      00 330 00 00         : PHIN         - NEUTRON POROSITY (SANDSTONE)
GR  .API      00 310 00 00         : GR           - GAMMA RAY
CALI.MM       00 280 01 00         : CAL          - CALIPER
ILD .OHMM     00 120 00 00         : RESD         - DEEP RESISTIVITY (DLL)
~PARAMETER INFORMATION
#MNEM.UNIT           DATA             DESCRIPTION OF MNEMONIC
#---------         -----------     ------------------------------
GL  .M        587                  : gl           - GROUND LEVEL ELEVATION
EREF.M        591.3                : kb           - ELEVATION OF DEPTH REFERENCE
DATM.M        587                  : datum        - DATUM ELEVATION
TDD .M        1624                 : tdd          - TOTAL DEPTH DRILLER
RUN .         ONE                  : Run          - RUN NUMBER
ENG .         WALTERHOUSE          : Engineer     - RECORDING ENGINEER
WIT .         IRELAND              : Witness      - WITNESSED BY
BASE.         EDM                  : Branch       - HOME BASE OF LOGGING UNIT
MUD .         GEL CHEM             : Mud_type     - MUD TYPE
MATR.         SANDSTONE            : Logunit      - NEUTRON MATRIX
TMAX.C        51.6                 : BHT          - MAXIMUM RECORDED TEMPERATURE
BHTD.M        1624                 : BHTDEP       - MAXIMUM RECORDED TEMPERATURE
RMT .C        51.6                 : MDTP         - TEMPERATURE OF MUD
MUDD.KG/M     1110                 : MWT          - MUD DENSITY
NEUT.         0                    : NEUTRON      - NEUTRON TYPE
RESI.         1                    : RESIST       - RESISTIVITY TYPE
RM  .OHMM     0                    : RM           - RESISTIVITY OF MUD
RMC .OHMM     0                    : RMC          - RESISTIVITY OF MUD CAKE
RMF .OHMM     0                    : RMF          - RESISTIVITY OF MUD FILTRATE
SUFT.C        0                    : SUFT         - SURFACE TEMPERATURE
~A  DEPTH     PHID     PHIN       GR      CAL     RESD
# ...
  469.500    0.354    0.381   65.788  337.004    6.796
  469.750    0.357    0.380   62.986  337.332    6.763
  470.000    0.348    0.377   62.120  337.448    6.692
  470.250    0.349    0.395   62.504  337.463    6.547
  470.500    0.350    0.404   66.011  337.687    6.369
  470.750    0.352    0.391   72.080  337.284    6.024
  471.000    0.358    0.377   71.090  335.323    5.708
  471.250    0.365    0.372   66.662  333.464    5.553
  471.500    0.358    0.366   66.171  332.436    5.526
  471.750    0.354    0.380   69.866  332.140    5.624
  472.000    0.362    0.390   70.313  332.048    5.810
  472.250    0.392    0.392   65.511  331.856    6.037
  472.500    0.398    0.407   65.519  331.557    6.213
  472.750    0.394    0.408   63.655  330.634    6.324
  473.000    0.412    0.407   61.539  329.192    6.399
  473.250    0.438    0.401   60.173  327.852    6.440
  473.500    0.443    0.404   58.183  325.788    6.444
  473.750    0.424    0.415   56.505  324.656    6.424
  474.000    0.400    0.411   56.014  323.836    6.404
  474.250    0.401    0.385   59.147  322.917    6.242
  474.500    0.405    0.384   61.905  322.305    5.949
  474.750    0.410    0.355   64.600  322.113    5.563
  475.000    0.407    0.379   68.232  321.814    5.252
  475.250    0.393    0.386   70.927  321.620    5.081
  475.500    0.390    0.388   67.375  321.530    4.952
  475.750    0.384    0.387   63.073  321.441    5.116
  476.000    0.373    0.404   60.083  321.352    5.593
  476.250    0.344    0.395   60.342  321.157    6.406
  476.500    0.276    0.368   61.038  320.963    7.216
  476.750    0.216    0.317   58.860  320.355    8.220
  477.000    0.185    0.277   54.808  319.847    9.595
  477.250    0.178    0.262   51.256  313.928   10.768
  477.500    0.201    0.281   51.202  299.364   11.103
  477.750    0.244    0.318   54.335  282.406   10.822
  478.000    0.265    0.335   57.155  273.572   10.411
  478.250    0.234    0.340   59.913  284.103    9.996
  478.500    0.205    0.318   62.171  289.323    9.616
  478.750    0.167    0.283   58.993  289.754    9.267
  479.000    0.136    0.237   55.254  290.707    8.965
  479.250    0.113    0.207   55.263  292.284    8.820
  479.500    0.108    0.193   55.772  293.756    8.614
  479.750    0.120    0.202   56.156  294.915    8.286
  480.000    0.195    0.224   57.039  295.867    7.852
  480.250    0.229    0.244   58.797  291.926    7.234
  480.500    0.273    0.264   60.242  286.629    6.590
  480.750    0.299    0.332   60.064  280.709    6.037
  481.000    0.318    0.364   61.822  279.995    5.667
  481.250    0.331    0.373   66.766  282.509    5.381
  481.500    0.335    0.378   66.525  284.606    5.157
  481.750    0.338    0.393   63.660  285.352    5.017
  482.000    0.341    0.408   67.417  286.093    4.945
  482.250    0.338    0.399   66.240  286.525    4.884
  482.500    0.335    0.384   61.750  286.750    4.805
  482.750    0.348    0.373   60.572  287.182    4.763
  483.000    0.350    0.360   61.330  287.714    4.731
  483.250    0.346    0.355   63.026  287.938    4.725
  483.500    0.348    0.376   64.223  287.850    4.728
  483.750    0.356    0.404   67.167  287.759    4.768
  484.000    0.362    0.394   64.178  287.877    4.833
  484.250    0.353    0.373   64.249  288.101    4.938
  484.500    0.345    0.368   65.195  288.011    5.073
  484.750    0.351    0.378   65.890  287.922    5.241
  485.000    0.360    0.397   65.463  287.834    5.394
  485.250    0.359    0.399   63.784  287.954    5.594
  485.500    0.348    0.402   65.355  288.175    5.801
  485.750    0.340    0.416   68.300  288.400    5.893
  486.000    0.346    0.431   70.808  288.516    5.648
  486.250    0.348    0.438   70.255  288.636    5.301
  486.500    0.343    0.426   70.263  288.651    4.875
  486.750    0.338    0.405   70.522  288.770    4.646
  487.000    0.339    0.387   71.468  288.993    4.649
  487.250    0.346    0.381   73.726  289.112    4.767
  487.500    0.346    0.383   74.485  289.438    5.009
  487.750    0.337    0.385   71.557  289.453    5.293
  488.000    0.327    0.376   71.316  289.571    5.541
  488.250    0.320    0.351   73.136  289.586    5.811
  488.500    0.316    0.383   76.582  289.497    5.992
  488.750    0.315    0.401   79.214  289.512    5.940
  489.000    0.313    0.389   77.287  289.527    5.587
  489.250    0.320    0.388   75.421  289.332    5.166
  489.500    0.330    0.384   74.619  289.660    4.878
  489.750    0.331    0.380   73.065  290.195    4.674
  490.000    0.331    0.372   70.950  291.355    4.573
  490.250    0.332    0.366   72.083  292.931    4.533
  490.500    0.333    0.376   74.466  291.593    4.536
  490.750    0.334    0.390   72.413  288.067    4.599
  491.000    0.336    0.394   70.548  287.040    4.752
  491.250    0.339    0.381   69.870  286.952    4.928
  491.500    0.342    0.367   68.628  287.279    5.168
  491.750    0.348    0.349   64.889  287.501    5.492
  492.000    0.357    0.362   64.586  287.516    5.814
  492.250    0.321    0.378   70.029  291.072    6.179
  492.500    0.300    0.364   78.660  294.938    6.022
  492.750    0.284    0.356   77.794  303.908    5.548
  493.000    0.291    0.377   77.491  304.965    4.979
  493.250    0.307    0.396   77.188  300.605    4.771
  493.500    0.318    0.395   75.884  295.519    4.820
  493.750    0.324    0.372   71.644  293.243    4.961
  494.000    0.326    0.363   75.340  293.257    5.125
  494.250    0.335    0.378   80.659  295.147    5.235
  494.500    0.339    0.401   84.041  294.016    5.141
  494.750    0.321    0.410   82.050  292.677    5.155
  495.000    0.275    0.391   77.999  302.479    5.081
  495.250    0.248    0.378   75.696  309.783    4.971
  495.500    0.254    0.372   77.142  301.675    4.873
  495.750    0.284    0.390   78.650  293.985    4.822
  496.000    0.296    0.404   79.159  286.502    4.833
  496.250    0.303    0.383   79.355  281.416    4.994
  496.500    0.311    0.361   76.677  279.660    5.178
  496.750    0.321    0.375   75.749  278.218    5.351
  497.000    0.326    0.400   76.758  276.984    5.497
  497.250    0.318    0.411   77.766  276.685    5.636
  497.500    0.308    0.403   78.712  281.176    5.693
  497.750    0.288    0.381   83.406  290.668    5.580
  498.000    0.267    0.361   88.101  297.450    4.989
  498.250    0.333    0.387   90.734  295.070    4.536
  498.500    0.398    0.398   86.869  285.505    4.455
  498.750    0.349    0.385   82.317  278.439    4.699
  499.000    0.304    0.376   77.953  277.100    4.955
  499.250    0.309    0.372   77.149  277.323    5.044
  499.500    0.296    0.364   81.907  279.732    5.066
  499.750    0.268    0.389   86.601  286.933    5.107
  500.000    0.248    0.414   86.172  294.235    5.072
  500.250    0.267    0.430   81.496  290.294    4.981
  500.500    0.291    0.417   84.504  284.998    5.244
  500.750    0.301    0.397   84.513  283.140    5.721
  501.000    0.295    0.391   83.147  282.216    6.034
  501.250    0.273    0.386   82.843  282.023    5.892
  501.500    0.263    0.374   86.351  282.455    5.563
  501.750    0.253    0.367   87.797  282.990    5.372
  502.000    0.260    0.385   85.118  283.734    5.186
  502.250    0.259    0.385   82.255  284.686    4.971
  502.500    0.254    0.376   80.888  285.430    4.845
  502.750    0.258    0.386   85.395  286.484    4.740
  503.000    0.249    0.386   96.150  287.436    4.568
  503.250    0.247    0.374  101.157  291.407    4.452
  503.500    0.266    0.384  100.790  294.129    4.324
  503.750    0.264    0.373   92.740  296.852    4.230
  504.000    0.267    0.370   87.314  300.511    4.186
  504.250    0.263    0.380   90.071  301.567    4.188
  504.500    0.247    0.391   90.892  298.251    4.247
  504.750    0.246    0.382   83.341  295.453    4.290
  505.000    0.258    0.376   81.039  289.428    4.415
  505.250    0.277    0.401   82.110  284.341    4.763
  505.500    0.288    0.410   86.554  281.544    5.186
  505.750    0.287    0.413   83.439  279.893    5.595
