~VERSION INFORMATION
 VERS.                 2.0:   CWLS LOG ASCII STANDARD -VERSION 2.0
 WRAP.                  NO:   ONE LINE PER DEPTH STEP
~WELL INFORMATION BLOCK
#MNEM.UNIT           DATA                    DESCRIPTION OF MNEMONIC
#---------    -------------------            -------------------------------
# Generated from Intellog Unique Number	CW_79_81/WELL/2452
WELL.         GULF AMOCO HOOLE               : Well_name    - WELL
LOC .         00/06-20-081-24W4/0            : Location     - LOCATION
UWI .         00/06-20-081-24W4/0            : Uwi          - UNIQUE WELL ID
ENTR.         MAX                            : Entered      - ENTERED BY
SRVC.         COMPUTALOG                     : Scn          - SERVICE COMPANY
STRT.M        210                            : top_depth    - START DEPTH
STOP.M        474.75                         : bot_depth    - STOP DEPTH
STEP.M        0.25                           : increment    - STEP LENGTH
 NULL. -999.2500:NULL Value
~CURVE INFORMATION BLOCK
#MNEM UNIT       ERCB CURVE CODE    CURVE DESCRIPTION
#-----------   ------------------   ----------------------------------
DEPT.M        00 001 00 00         : DEPTH        - DEPTH
ILD .OHMM     00 120 00 00         : RESD         - DEEP RESISTIVITY (DIL)
NPHI.V/V      00 330 00 00         : PHIN         - NEUTRON POROSITY (SANDSTONE)
DPHI.V/V      00 890 00 00         : PHID         - DENSITY POROSITY (SANDSTONE)
GR  .API      00 310 00 00         : GR           - GAMMA RAY
CALI.MM       00 280 01 00         : CAL          - CALIPER
~PARAMETER INFORMATION
#MNEM.UNIT           DATA             DESCRIPTION OF MNEMONIC
#---------         -----------     ------------------------------
GL  .M        599.05               : gl           - GROUND LEVEL ELEVATION
EREF.M        603.3                : kb           - ELEVATION OF DEPTH REFERENCE
DATM.M        599.05               : datum        - DATUM ELEVATION
TDD .M        487                  : tdd          - TOTAL DEPTH DRILLER
RUN .         ONE                  : Run          - RUN NUMBER
ENG .         BILL                 : Engineer     - RECORDING ENGINEER
WIT .         JIM                  : Witness      - WITNESSED BY
MUD .         GEL                  : Mud_type     - MUD TYPE
MATR.         SANDSTONE            : Logunit      - NEUTRON MATRIX
TMAX.C        24                   : BHT          - MAXIMUM RECORDED TEMPERATURE
BHTD.M        487                  : BHTDEP       - MAXIMUM RECORDED TEMPERATURE
MATR.         1                    : LOGUNIT      - NEUTRON MATRIX
RMT .C        17.8                 : MDTP         - TEMPERATURE OF MUD
NEUT.         1                    : NEUTRON      - NEUTRON TYPE
RESI.         0                    : RESIST       - RESISTIVITY TYPE
RMC .OHMM     5                    : RMC          - RESISTIVITY OF MUD CAKE
RMF .OHMM     5.8                  : RMF          - RESISTIVITY OF MUD FILTRATE
SUFT.C        -20                  : SUFT         - SURFACE TEMPERATURE
~A  DEPTH     RESD     PHIN     PHID       GR      CAL
# ...
  392.500    9.847    0.404    0.189   81.731  220.619
  392.750   10.471    0.415    0.185   83.244  219.040
  393.000   11.043    0.411    0.180   82.503  219.041
  393.250   11.366    0.399    0.174   81.556  219.437
  393.500   11.574    0.393    0.175   80.430  219.537
  393.750   11.700    0.387    0.174   79.127  219.538
  394.000   11.805    0.382    0.172   78.061  219.441
  394.250   11.976    0.382    0.178   78.358  218.553
  394.500   11.974    0.388    0.187   79.840  216.085
  394.750   11.885    0.401    0.185   81.026  214.900
  395.000   11.797    0.398    0.186   81.857  214.012
  395.250   11.710    0.398    0.189   81.502  214.408
  395.500   11.602    0.409    0.191   79.843  215.694
  395.750   11.398    0.430    0.188   77.967  215.926
  396.000   11.225    0.426    0.186   80.437  215.104
  396.250   11.224    0.425    0.189   83.045  214.314
  396.500   11.222    0.425    0.189   83.165  214.711
  396.750   11.179    0.422    0.188   82.691  216.292
  397.000   11.076    0.420    0.190   82.573  218.664
  397.250   10.898    0.432    0.194   82.762  221.201
  397.500   10.814    0.439    0.188   82.516  222.025
  397.750   10.813    0.438    0.177   82.753  222.026
  398.000   10.870    0.434    0.174   83.702  222.324
  398.250   10.948    0.429    0.176   83.822  222.522
  398.500   11.006    0.423    0.176   83.111  222.425
  398.750   11.004    0.412    0.168   83.556  221.949
  399.000   11.003    0.402    0.172   85.780  221.538
  399.250   11.081    0.406    0.175   88.625  221.144
  399.500   11.100    0.416    0.170   89.337  221.046
  399.750   11.017    0.418    0.161   88.152  220.850
  400.000   10.916    0.409    0.160   86.671  220.456
  400.250   11.027    0.404    0.185   88.499  220.062
  400.500   11.194    0.412    0.186   91.711  220.063
  400.750   11.605    0.418    0.189   91.237  220.459
  401.000   11.904    0.408    0.191   89.519  220.559
  401.250   12.121    0.395    0.174   86.912  220.560
  401.500   12.163    0.386    0.144   83.475  220.463
  401.750   11.685    0.384    0.137   79.070  220.316
  402.000   11.083    0.402    0.163   79.565  221.552
  402.250   10.528    0.405    0.182   83.121  223.924
  402.500    9.779    0.404    0.187   89.345  225.110
  402.750    9.095    0.398    0.186   93.614  225.309
  403.000    8.601    0.390    0.185   94.681  224.915
  403.250    8.315    0.384    0.183   94.929  224.439
  403.500    8.128    0.389    0.187   96.164  224.029
  403.750    8.186    0.392    0.184   96.639  224.029
  404.000    8.651    0.393    0.180   94.980  223.734
  404.250    9.650    0.388    0.170   91.780  222.945
  404.500   11.114    0.378    0.159   87.988  221.860
  404.750   12.609    0.378    0.167   84.413  220.824
  405.000   14.934    0.378    0.191   81.944  219.590
  405.250   18.081    0.363    0.224   79.100  218.801
  405.500   22.385    0.346    0.236   76.433  218.604
  405.750   27.882    0.334    0.234   73.351  218.803
  406.000   33.508    0.327    0.225   69.737  219.101
  406.250   35.605    0.323    0.204   65.154  219.019
  406.500   33.518    0.318    0.184   61.203  218.609
  406.750   28.255    0.310    0.163   58.122  217.820
  407.000   22.604    0.321    0.166   57.886  217.031
  407.250   18.740    0.345    0.191   60.020  216.242
  407.500   16.307    0.366    0.228   63.399  215.650
  407.750   14.435    0.353    0.255   66.590  215.816
  408.000   13.487    0.341    0.243   68.320  216.640
  408.250   13.388    0.341    0.247   69.269  218.222
  408.500   13.435    0.351    0.256   71.107  219.211
  408.750   13.677    0.366    0.264   72.174  218.224
  409.000   14.030    0.376    0.268   72.056  215.854
  409.250   14.276    0.376    0.270   71.929  214.835
  409.500   14.492    0.375    0.278   73.658  215.659
  409.750   14.490    0.376    0.286   72.474  214.870
  410.000   14.488    0.377    0.285   70.933  214.377
  410.250   14.380    0.378    0.282   70.104  214.181
  410.500   14.144    0.379    0.279   69.868  214.182
  410.750   13.753    0.385    0.273   68.969  214.183
  411.000   13.341    0.395    0.266   69.217  214.184
  411.250   13.242    0.392    0.258   73.248  213.396
  411.500   13.216    0.388    0.252   74.434  213.199
  411.750   13.310    0.384    0.242   73.487  213.398
  412.000   13.552    0.381    0.223   71.294  213.794
  412.250   14.076    0.384    0.179   69.073  213.943
  412.500   14.731    0.391    0.163   69.814  212.710
  412.750   15.383    0.395    0.190   71.000  211.920
  413.000   16.322    0.390    0.198   70.052  213.502
  413.250   17.485    0.381    0.194   67.445  215.479
  413.500   18.807    0.370    0.182   63.890  216.468
  413.750   20.620    0.367    0.167   59.791  215.432
  414.000   22.773    0.368    0.156   57.075  214.198
  414.250   25.356    0.376    0.159   55.653  215.385
  414.500   28.109    0.375    0.170   55.120  215.682
  414.750   30.168    0.367    0.171   55.477  215.486
  415.000   31.118    0.354    0.146   56.485  215.289
  415.250   31.521    0.337    0.081   57.918  215.850
  415.500   31.278    0.324    0.059   59.154  216.675
  415.750   30.597    0.315    0.082   59.866  218.256
  416.000   29.437    0.304    0.086   59.333  218.949
  416.250   28.387    0.295    0.083   58.385  218.752
  416.500   27.414    0.293    0.078   57.556  218.062
  416.750   25.774    0.304    0.069   57.379  217.751
  417.000   24.446    0.325    0.072   58.861  218.164
  417.250   20.298    0.340    0.140   63.129  218.560
  417.500   16.983    0.356    0.175   67.753  218.956
  417.750   14.901    0.381    0.193   71.784  218.957
  418.000   13.748    0.410    0.202   74.808  218.365
  418.250   13.101    0.417    0.202   77.140  217.017
  418.500   12.806    0.395    0.199   78.128  216.194
  418.750   12.711    0.388    0.187   79.077  216.591
  419.000   12.686    0.385    0.175   79.493  216.691
  419.250   12.684    0.378    0.162   79.612  216.692
  419.500   12.659    0.371    0.150   79.435  216.495
  419.750   12.546    0.378    0.137   78.478  215.377
  420.000   12.449    0.399    0.129   77.243  213.732
  420.250   12.178    0.409    0.146   77.718  213.733
  420.500   11.848    0.409    0.161   79.793  213.438
  420.750   11.463    0.405    0.172   82.520  213.044
  421.000   11.073    0.400    0.176   85.188  212.551
  421.250   10.722    0.400    0.174   87.471  211.680
  421.500   10.560    0.399    0.166   88.212  211.269
  421.750   10.482    0.396    0.150   84.183  210.875
  422.000   10.347    0.395    0.154   84.243  211.074
  422.250   10.234    0.398    0.166   86.851  213.643
  422.500   10.177    0.402    0.172   89.282  217.793
  422.750   10.175    0.403    0.155   87.623  220.165
  423.000   10.173    0.399    0.140   87.624  220.167
  423.250   10.098    0.396    0.128   87.862  220.168
  423.500   10.024    0.390    0.132   87.921  219.576
  423.750    9.949    0.384    0.139   88.515  219.182
  424.000    9.858    0.385    0.145   89.938  219.183
  424.250    9.684    0.400    0.151   92.221  219.267
  424.500    9.537    0.413    0.154   92.962  219.680
  424.750    9.536    0.422    0.141   89.881  220.076
  425.000    9.638    0.429    0.115   84.844  220.472
  425.250    9.814    0.422    0.119   83.778  221.066
  425.500   10.065    0.404    0.149   86.978  221.660
  425.750   10.515    0.397    0.148   88.965  221.743
  426.000   10.921    0.400    0.126   88.225  222.156
  426.250   10.528    0.377    0.109   86.803  222.157
  426.500    9.981    0.370    0.137   85.737  222.455
  426.750    9.522    0.376    0.161   86.330  222.653
  427.000    9.317    0.388    0.162   89.175  222.654
  427.250    9.592    0.398    0.150   94.451  222.573
  427.500    9.963    0.397    0.122   95.934  222.163
  427.750   10.254    0.381    0.074   89.534  222.164
  428.000   10.216    0.376    0.097   87.578  222.165
  428.250   10.067    0.376    0.132   92.439  222.166
  428.500    9.993    0.377    0.148  101.211  222.167
  428.750   10.243    0.378    0.129  104.334  222.086
