~VERSION INFORMATION
 VERS.                 2.0:   CWLS LOG ASCII STANDARD -VERSION 2.0
 WRAP.                  NO:   ONE LINE PER DEPTH STEP
~WELL INFORMATION BLOCK
#MNEM.UNIT           DATA                    DESCRIPTION OF MNEMONIC
#---------    -------------------            -------------------------------
# Generated from Intellog Unique Number	CN_91_93/WELL/3031
WELL.         PARAMOUNT RESOURCES LTD.       : Well_name    - WELL
LOC .         00/04-24-092-20W4/0            : Location     - LOCATION
UWI .         00/04-24-092-20W4/0            : Uwi          - UNIQUE WELL ID
ENTR.         JOETTE                         : Entered      - ENTERED BY
SRVC.         COMPUTALOG                     : Scn          - SERVICE COMPANY
DATE.         04/09/92                       : Date         - LOG DATE
STRT.M        110                            : top_depth    - START DEPTH
STOP.M        243                            : bot_depth    - STOP DEPTH
STEP.M        0.25                           : increment    - STEP LENGTH
 NULL. -999.2500:NULL Value
~CURVE INFORMATION BLOCK
#MNEM UNIT       ERCB CURVE CODE    CURVE DESCRIPTION
#-----------   ------------------   ----------------------------------
DEPT.M        00 001 00 00         : DEPTH        - DEPTH
CALI.MM       00 280 01 00         : CAL          - CALIPER
GR  .API      00 310 00 00         : GR           - GAMMA RAY
NPHI.V/V      00 330 00 00         : PHIN         - NEUTRON POROSITY (SANDSTONE)
DPHI.V/V      00 890 00 00         : PHID         - DENSITY POROSITY (SANDSTONE)
ILD .OHMM     00 120 00 00         : RESD         - DEEP RESISTIVITY (DIL)
~PARAMETER INFORMATION
#MNEM.UNIT           DATA             DESCRIPTION OF MNEMONIC
#---------         -----------     ------------------------------
GL  .M        520.2                : gl           - GROUND LEVEL ELEVATION
EREF.M        523.6                : kb           - ELEVATION OF DEPTH REFERENCE
DATM.M        523.6                : datum        - DATUM ELEVATION
TDD .M        241.3                : tdd          - TOTAL DEPTH DRILLER
RUN .         ONE                  : Run          - RUN NUMBER
ENG .         JO                   : Engineer     - RECORDING ENGINEER
WIT .         TIM                  : Witness      - WITNESSED BY
MUD .         GEL                  : Mud_type     - MUD TYPE
MATR.         SANDSTONE            : Logunit      - NEUTRON MATRIX
TMAX.C        17                   : BHT          - MAXIMUM RECORDED TEMPERATURE
BHTD.M        241.3                : BHTDEP       - MAXIMUM RECORDED TEMPERATURE
RMT .C        17.8                 : MDTP         - TEMPERATURE OF MUD
MUDD.KG/M     1080                 : MWT          - MUD DENSITY
NEUT.         1                    : NEUTRON      - NEUTRON TYPE
RESI.         0                    : RESIST       - RESISTIVITY TYPE
RM  .OHMM     1.9                  : RM           - RESISTIVITY OF MUD
RMC .OHMM     1.9                  : RMC          - RESISTIVITY OF MUD CAKE
RMF .OHMM     1.4                  : RMF          - RESISTIVITY OF MUD FILTRATE
SUFT.C        4                    : SUFT         - SURFACE TEMPERATURE
~A  DEPTH      CAL       GR     PHIN     PHID     RESD
  110.000  163.632   61.361    0.399    0.268   12.226
  110.250  164.769   60.792    0.385    0.266   12.963
  110.500  163.796   63.990    0.380    0.275   13.483
  110.750  162.894   64.047    0.381    0.282   13.501
  111.000  164.030   65.980    0.383    0.291   13.506
  111.250  164.147   71.654    0.379    0.281   13.256
  111.500  163.151   72.975    0.377    0.283   12.770
  111.750  160.140   68.026    0.381    0.294   12.532
  112.000  159.214   64.939    0.389    0.314   12.068
  112.250  159.261   60.630    0.396    0.324   11.401
  112.500  160.421   58.809    0.403    0.330   10.770
  112.750  160.515   68.876    0.410    0.296   10.173
  113.000  160.609   83.950    0.416    0.271    9.424
  113.250  161.745   95.283    0.424    0.265    8.404
  113.500  162.858  102.847    0.441    0.257    7.493
  113.750  167.123  102.278    0.458    0.249    6.810
  114.000  167.217   99.845    0.449    0.222    6.312
  114.250  164.206   98.010    0.432    0.184    6.077
  114.500  162.214   94.952    0.428    0.186    5.855
  114.750  163.350   98.123    0.441    0.218    5.858
  115.000  165.530  103.824    0.449    0.238    5.861
  115.250  167.709  105.772    0.438    0.234    5.866
  115.500  168.846  103.325    0.426    0.244    5.871
  115.750  168.939   98.987    0.431    0.219    5.874
  116.000  169.033   95.929    0.440    0.179    5.994
  116.250  165.998   98.488    0.447    0.182    6.481
  116.500  161.921   99.796    0.447    0.232    6.738
  116.750  163.081  100.478    0.424    0.273    7.144
  117.000  164.217  103.023    0.411    0.277    7.722
  117.250  164.311  106.833    0.419    0.249    8.033
  117.500  162.319  100.007    0.435    0.210    8.354
  117.750  160.350   93.806    0.444    0.171    8.691
  118.000  160.397   96.991    0.447    0.131    8.532
  118.250  161.557  103.930    0.450    0.145    8.374
  118.500  162.717  112.134    0.441    0.179    8.220
  118.750  162.788  112.816    0.427    0.211    7.916
  119.000  163.924  111.621    0.427    0.236    7.623
  119.250  162.975  111.691    0.434    0.243    7.203
  119.500  163.092  112.359    0.438    0.248    6.935
  119.750  162.143  114.292    0.433    0.244    6.807
  120.000  163.303  113.097    0.434    0.236    6.685
  120.250  165.435  113.153    0.439    0.232    6.689
  120.500  167.615  112.598    0.445    0.228    6.693
  120.750  168.775  110.137    0.441    0.227    6.828
  121.000  168.869  108.942    0.435    0.226    7.241
  121.250  168.962  109.624    0.441    0.229    7.680
  121.500  166.947  108.443    0.436    0.234    7.987
  121.750  163.959  107.248    0.433    0.227    8.305
  122.000  161.967  103.536    0.439    0.183    8.638
  122.250  163.104   99.212    0.428    0.200    8.481
  122.500  165.283  103.662    0.419    0.210    8.167
  122.750  167.486  106.221    0.423    0.228    7.865
  123.000  168.599  108.155    0.435    0.240    7.869
  123.250  168.693  108.211    0.448    0.243    7.877
  123.500  169.853  105.153    0.443    0.229    8.036
  123.750  170.942  103.346    0.436    0.218    8.358
  124.000  174.211  102.748    0.436    0.216    8.527
  124.250  174.258  101.553    0.436    0.224    8.703
  124.500  172.266  100.372    0.424    0.229    8.542
  124.750  170.298   99.177    0.416    0.207    8.386
  125.000  168.306   97.968    0.430    0.171    7.770
  125.250  167.333   98.024    0.454    0.139    6.666
  125.500  164.298  104.963    0.482    0.146    6.058
  125.750  164.462  114.419    0.494    0.244    5.298
  126.000  166.595  116.992    0.496    0.266    5.104
  126.250  169.817  113.280    0.478    0.267    5.105
  126.500  171.997  113.336    0.484    0.255    5.310
  126.750  171.047  120.275    0.500    0.237    5.419
  127.000  168.036  119.705    0.506    0.236    5.636
  127.250  166.044  119.762    0.496    0.240    5.861
  127.500  165.095  119.206    0.465    0.242    6.096
  127.750  165.212  115.494    0.455    0.236    6.342
  128.000  167.345  118.067    0.461    0.216    6.469
  128.250  169.548  123.129    0.471    0.213    6.349
  128.500  170.661  126.314    0.486    0.223    5.998
  128.750  169.735  123.881    0.493    0.235    5.453
  129.000  168.786  122.060    0.501    0.246    5.456
  129.250  165.774  119.600    0.490    0.253    5.787
  129.500  164.825  115.276    0.464    0.251    6.018
  129.750  163.900  108.450    0.458    0.219    6.258
  130.000  163.946  104.766    0.442    0.199    6.638
  130.250  164.064  108.576    0.431    0.174    6.770
  130.500  165.224  109.870    0.430    0.175    6.911
  130.750  166.337  107.437    0.431    0.204    6.912
  131.000  167.450  106.242    0.434    0.223    6.785
  131.250  167.590  109.413    0.436    0.236    6.791
  131.500  167.661  113.849    0.430    0.239    6.796
  131.750  167.731  115.782    0.416    0.232    6.801
  132.000  166.805  117.118    0.408    0.220    7.075
  132.250  164.813  117.174    0.406    0.227    7.358
  132.500  164.884  112.836    0.406    0.238    7.653
  132.750  163.958  109.138    0.423    0.239    8.115
  133.000  165.118  111.697    0.435    0.228    8.945
  133.250  166.255  111.128    0.434    0.238    9.300
  133.500  168.457   94.902    0.435    0.254   10.451
  133.750  168.504   86.824    0.421    0.246   10.865
  134.000  167.555   82.500    0.412    0.255   11.747
  134.250  164.520   79.428    0.418    0.271   11.532
  134.500  164.637   80.110    0.415    0.242   10.483
  134.750  164.755   84.560    0.400    0.229    9.527
  135.000  165.844   88.982    0.386    0.244    8.825
  135.250  168.047   95.309    0.409    0.256    7.872
  135.500  170.203  100.385    0.425    0.254    7.434
  135.750  171.340  104.182    0.439    0.218    7.024
  136.000  172.476  108.006    0.442    0.213    6.765
  136.250  169.512  109.940    0.452    0.193    6.638
  136.500  167.473  111.873    0.474    0.153    6.517
  136.750  165.504  112.569    0.482    0.137    6.399
  137.000  164.532  113.251    0.475    0.180    6.404
  137.250  164.672  113.307    0.470    0.221    6.533
  137.500  164.719  113.363    0.481    0.226    6.665
  137.750  164.836  111.543    0.474    0.218    6.800
  138.000  164.953  112.239    0.472    0.213    6.807
  138.250  165.024  114.784    0.482    0.219    6.809
  138.500  165.117  114.200    0.476    0.230    6.558
  138.750  167.297  112.407    0.472    0.234    6.195
  139.000  169.500  115.578    0.489    0.235    6.080
  139.250  170.589  116.274    0.514    0.234    6.205
  139.500  169.640  115.079    0.489    0.229    6.840
  139.750  167.672  113.258    0.470    0.219    7.251
  140.000  165.703  109.532    0.444    0.211    7.836
  140.250  164.707   97.700    0.412    0.196    8.973
  140.500  163.805   90.873    0.398    0.151    9.701
  140.750  163.875   90.929    0.405    0.135   10.088
  141.000  165.059   93.502    0.411    0.209   10.494
  141.250  166.172   92.933    0.406    0.243   10.704
  141.500  167.332   96.104    0.404    0.253   10.310
  141.750  168.421  102.431    0.418    0.200    9.371
  142.000  168.539  106.881    0.433    0.158    8.519
  142.250  168.632  101.918    0.424    0.126    8.044
  142.500  165.597   89.460    0.393    0.091    7.600
  142.750  161.520   92.645    0.371    0.065    7.320
  143.000  162.633   97.707    0.397    0.077    7.185
  143.250  164.836  105.897    0.404    0.160    7.054
  143.500  165.949  119.107    0.409    0.176    6.793
  143.750  167.156  126.046    0.434    0.163    6.668
  144.000  167.226  127.979    0.464    0.168    6.545
  144.250  166.254  130.538    0.497    0.164    6.304
  144.500  164.308  132.486    0.495    0.158    6.071
  144.750  163.336  130.039    0.501    0.155    6.074
  145.000  163.406  128.844    0.489    0.160    5.965
  145.250  164.590  130.152    0.473    0.182    5.854
  145.500  164.660  130.208    0.472    0.223    5.530
  145.750  166.839  126.510    0.509    0.241    5.124
  146.000  167.976  120.295    0.513    0.234    4.656
  146.250  169.112  119.100    0.502    0.250    4.233
