~VERSION INFORMATION
 VERS.                 2.0:   CWLS LOG ASCII STANDARD -VERSION 2.0
 WRAP.                  NO:   ONE LINE PER DEPTH STEP
~WELL INFORMATION BLOCK
#MNEM.UNIT           DATA                    DESCRIPTION OF MNEMONIC
#---------    -------------------            -------------------------------
# Generated from Intellog Unique Number	CW_70_72/WELL/468
NULL.         -999.25                        : NULL_VALUE
WELL.         GLOBAL CALLING LAKE SOUTH 05-0 : Well_name    - WELL              
LOC .         05-06-071-21W4                 : Location     - LOCATION          
UWI .         00/05-06-071-21W4/0            : Uwi          - UNIQUE WELL ID    
ENTR.         JAYE                           : Entered      - ENTERED BY        
SRVC.         SCHLUMBERGER                   : Scn          - SERVICE COMPANY   
DATE.         13 MAR 83                      : Date         - LOG DATE          
STRT.M        432                            : top_depth    - START DEPTH       
STOP.M        620                            : bot_depth    - STOP DEPTH        
STEP.M        0.25                           : increment    - STEP LENGTH       
~CURVE INFORMATION BLOCK
#MNEM UNIT       ERCB CURVE CODE    CURVE DESCRIPTION
#-----------   ------------------   ----------------------------------
DEPT.M        00 001 00 00         : DEPTH        - DEPTH                       
DPHI.V/V      00 890 00 00         : PHID         - DENSITY POROSITY (SANDSTONE)
NPHI.V/V      00 330 00 00         : PHIN         - NEUTRON POROSITY (SANDSTONE)
GR  .API      00 310 00 00         : GR           - GAMMA RAY                   
CALI.MM       00 280 01 00         : CAL          - CALIPER                     
ILD .OHMM     00 120 00 00         : RESD         - DEEP RESISTIVITY (DIL)      
~PARAMETER INFORMATION       
#MNEM.UNIT           DATA             DESCRIPTION OF MNEMONIC
#---------         -----------     ------------------------------
GL  .M        681.1                : gl           - GROUND LEVEL ELEVATION      
EREF.M        685.6                : kb           - ELEVATION OF DEPTH REFERENCE
DATM.M        681.1                : datum        - DATUM ELEVATION             
TDD .M        622                  : tdd          - TOTAL DEPTH DRILLER         
RUN .         ONE                  : Run          - RUN NUMBER                  
ENG .         DUNLOP               : Engineer     - RECORDING ENGINEER          
WIT .         LOWTHER              : Witness      - WITNESSED BY                
BASE.         EDM                  : Branch       - HOME BASE OF LOGGING UNIT   
MUD .         GEL CHEM             : Mud_type     - MUD TYPE                    
MATR.         SANDSTONE            : Logunit      - NEUTRON MATRIX              
TMAX.C        20.6                 : BHT          - MAXIMUM RECORDED TEMPERATURE
BHTD.M        622.5                : BHTDEP       - MAXIMUM RECORDED TEMPERATURE
RMT .C        22.8                 : MDTP         - TEMPERATURE OF MUD          
MUDD.KG/M     1110                 : MWT          - MUD DENSITY                 
NEUT.         1                    : NEUTRON      - NEUTRON TYPE                
RESI.         0                    : RESIST       - RESISTIVITY TYPE            
RM  .OHMM     4.22                 : RM           - RESISTIVITY OF MUD          
RMC .OHMM     0                    : RMC          - RESISTIVITY OF MUD CAKE     
RMF .OHMM     2.83                 : RMF          - RESISTIVITY OF MUD FILTRATE 
SUFT.C        0                    : SUFT         - SURFACE TEMPERATURE         
~A  DEPTH     PHID     PHIN       GR      CAL     RESD
# ...
  505.000    0.338    0.429   57.055  157.039    2.602
  505.250    0.322    0.439   58.141  156.971    2.792
  505.500    0.308    0.453   64.487  156.377    3.074
  505.750    0.297    0.472   72.648  156.409    3.348
  506.000    0.293    0.490   81.438  157.384    3.559
  506.250    0.290    0.519   85.717  158.565    3.714
  506.500    0.285    0.540   85.111  158.809    3.802
  506.750    0.277    0.562   80.434  158.318    3.710
  507.000    0.268    0.536   70.996  157.416    3.441
  507.250    0.322    0.498   64.003  156.195    3.081
  507.500    0.349    0.470   58.384  154.663    2.885
  507.750    0.341    0.445   54.458  153.445    2.722
  508.000    0.339    0.451   54.417  152.431    2.583
  508.250    0.353    0.453   55.500  151.944    2.510
  508.500    0.351    0.443   58.965  151.455    2.449
  508.750    0.342    0.437   62.179  151.280    2.421
  509.000    0.350    0.431   64.266  151.524    2.414
  509.250    0.343    0.425   65.289  151.564    2.401
  509.500    0.329    0.426   61.990  151.381    2.399
  509.750    0.328    0.438   61.636  149.123    2.425
  510.000    0.342    0.453   62.659  147.590    2.478
  510.250    0.366    0.457   63.180  146.784    2.611
  510.500    0.370    0.456   62.761  147.551    2.806
  510.750    0.359    0.448   61.591  149.148    3.160
  511.000    0.317    0.417   59.479  152.420    3.646
  511.250    0.176    0.255   54.552  156.420    4.270
  511.500    0.145    0.243   55.074  157.916    4.889
  511.750    0.241    0.300   57.474  155.129    4.387
  512.000    0.297    0.357   60.688  152.346    3.756
  512.250    0.350    0.423   60.396  151.751    3.222
  512.500    0.344    0.421   58.850  151.370    2.599
  512.750    0.337    0.415   58.746  151.402    2.402
  513.000    0.332    0.413   59.516  151.330    2.405
  513.250    0.331    0.443   60.663  151.572    2.538
  513.500    0.328    0.465   61.498  151.500    2.837
  513.750    0.301    0.475   57.634  151.643    3.183
  514.000    0.270    0.383   53.836  151.885    3.721
  514.250    0.068    0.172   51.160  151.810    4.159
  514.500    0.112    0.236   47.361  151.641    4.496
  514.750    0.210    0.329   50.449  151.251    4.329
  515.000    0.259    0.408   54.416  150.242    3.665
  515.250    0.345    0.441   57.568  148.291    3.133
  515.500    0.357    0.456   59.406  146.971    2.874
  515.750    0.360    0.471   60.302  147.525    2.593
  516.000    0.353    0.484   61.324  149.333    2.450
  516.250    0.352    0.438   62.785  151.248    2.351
  516.500    0.362    0.429   61.238  152.121    2.264
  516.750    0.358    0.443   58.693  152.357    2.238
  517.000    0.352    0.452   57.712  152.597    2.295
  517.250    0.355    0.458   57.043  152.733    2.426
  517.500    0.375    0.450   56.873  152.981    2.702
  517.750    0.400    0.511   56.829  153.427    3.124
  518.000    0.408    0.568   56.035  154.194    3.584
  518.250    0.128    0.606   54.677  154.852    4.325
  518.500    0.086    0.182   53.070  157.288    4.954
  518.750    0.114    0.184   51.336  158.050    5.035
  519.000    0.172    0.248   52.610  155.059    4.653
  519.250    0.330    0.287   56.136  153.004    3.903
  519.500    0.362    0.423   58.411  152.203    2.999
  519.750    0.299    0.464   60.059  152.136    2.736
  520.000    0.252    0.463   62.147  151.854    2.674
  520.250    0.228    0.463   64.672  151.889    2.729
  520.500    0.236    0.482   68.826  152.337    2.847
  520.750    0.273    0.481   78.680  153.104    2.943
  521.000    0.294    0.455   76.195  153.865    3.013
  521.250    0.308    0.437   72.772  153.584    3.035
  521.500    0.307    0.448   72.103  151.427    3.016
  521.750    0.282    0.449   72.685  148.644    2.986
  522.000    0.193    0.450   75.775  149.091    3.008
  522.250    0.181    0.459   82.184  152.152    3.173
  522.500    0.202    0.453   86.901  154.799    3.417
  522.750    0.213    0.448   84.979  154.829    3.653
  523.000    0.204    0.450   88.446  153.716    3.875
  523.250    0.190    0.441   91.973  152.391    4.074
  523.500    0.172    0.430   94.248  151.597    4.125
  523.750    0.188    0.429   96.024  152.775    3.987
  524.000    0.200    0.441   97.294  155.835    3.712
  524.250    0.175    0.458   99.381  159.208    3.503
  524.500    0.164    0.457   97.772  161.434    3.304
  524.750    0.232    0.421   87.709  158.128    3.328
  525.000    0.277    0.415   80.713  152.939    3.440
  525.250    0.270    0.431   78.356  150.678    3.656
  525.500    0.233    0.402   76.871  152.803    4.102
  525.750    0.199    0.349   73.385  155.027    4.885
  526.000    0.149    0.294   71.024  157.148    5.512
  526.250    0.131    0.273   77.433  157.912    6.071
  526.500    0.133    0.288   84.593  156.588    6.022
  526.750    0.173    0.337   91.066  154.120    5.504
  527.000    0.204    0.379   92.213  152.586    4.820
  527.250    0.196    0.411   87.847  152.200    4.488
  527.500    0.217    0.428   90.562  152.129    4.355
  527.750    0.217    0.438   95.091  152.579    4.296
  528.000    0.196    0.441  102.000  153.346    4.278
  528.250    0.188    0.417   98.200  154.838    4.284
  528.500    0.208    0.411   95.402  156.124    4.274
  528.750    0.206    0.424   93.296  156.788    4.312
  529.000    0.198    0.433   90.306  156.822    4.358
  529.250    0.187    0.435   88.762  156.120    4.413
  529.500    0.212    0.446   88.843  155.321    4.503
  529.750    0.218    0.437   86.921  155.039    4.559
  530.000    0.211    0.414   87.818  155.073    4.601
  530.250    0.212    0.414   87.652  155.943    4.597
  530.500    0.211    0.422   86.983  157.019    4.579
  530.750    0.199    0.426   88.129  158.202    4.550
  531.000    0.170    0.406   89.965  160.008    4.474
  531.250    0.187    0.403   94.558  161.609    4.429
  531.500    0.207    0.416   96.646  159.454    4.273
  531.750    0.249    0.426   87.773  157.502    4.115
  532.000    0.306    0.437   76.830  155.239    4.014
  532.250    0.288    0.433   66.517  154.229    3.953
  532.500    0.235    0.273   60.462  154.156    4.163
  532.750    0.193    0.225   59.479  154.293    4.725
  533.000    0.101    0.207   59.373  154.541    5.594
  533.250    0.083    0.189   57.014  154.570    8.163
  533.500    0.067    0.166   55.908  154.605   13.004
  533.750    0.057    0.162   57.308  154.431   16.906
  534.000    0.067    0.193   60.395  154.358   13.162
  534.250    0.100    0.287   66.177  154.293   10.059
  534.500    0.148    0.318   66.260  154.215    8.282
  534.750    0.238    0.347   64.966  154.151    6.756
  535.000    0.284    0.378   65.550  153.974    5.763
  535.250    0.268    0.410   66.758  153.909    5.027
  535.500    0.251    0.433   68.284  153.936    4.494
  535.750    0.222    0.424   69.179  153.549    4.160
  536.000    0.273    0.438   71.455  153.477    3.933
  536.250    0.294    0.454   75.984  153.410    3.801
  536.500    0.283    0.435   77.884  153.342    3.721
  536.750    0.271    0.439   78.654  153.478    3.679
  537.000    0.260    0.456   79.301  153.409    3.684
  537.250    0.253    0.433   80.136  153.447    3.716
  537.500    0.258    0.416   80.218  153.683    3.813
  537.750    0.264    0.432   79.862  153.508    3.897
  538.000    0.262    0.442   84.331  153.333    3.977
  538.250    0.261    0.437   88.420  153.159    4.043
  538.500    0.271    0.426   84.808  152.665    4.101
  538.750    0.270    0.431   84.641  153.951    4.152
  539.000    0.272    0.435   85.663  154.507    4.166
  539.250    0.276    0.433   87.625  154.644    4.157
  539.500    0.258    0.442   87.707  154.999    4.115
  539.750    0.248    0.448   84.721  155.234    3.979
  540.000    0.250    0.456   83.678  155.268    3.932
  540.250    0.252    0.479   83.825  154.987    3.872
  540.500    0.252    0.465   84.843  155.029    3.849
  540.750    0.261    0.454   87.559  155.268    3.847
  541.000    0.264    0.456   90.459  155.730    3.859
  541.250    0.255    0.477   92.984  155.856    3.864
