~VERSION INFORMATION
 VERS.                 2.0:   CWLS LOG ASCII STANDARD -VERSION 2.0
 WRAP.                  NO:   ONE LINE PER DEPTH STEP
~WELL INFORMATION BLOCK
#MNEM.UNIT           DATA                    DESCRIPTION OF MNEMONIC
#---------    -------------------            -------------------------------
# Generated from Intellog Unique Number	CX_WELLS/WELL/3997
WELL.         BRALORNE                       : Well_name    - WELL
LOC .         00/06-23-077-15W4/0            : Location     - LOCATION
UWI .         00/06-23-077-15W4/0            : Uwi          - UNIQUE WELL ID
ENTR.         T                              : Entered      - ENTERED BY
SRVC.         SCHLUMBERGER                   : Scn          - SERVICE COMPANY
DATE.         03/04/92                       : Date         - LOG DATE
STRT.M        275                            : top_depth    - START DEPTH
STOP.M        515                            : bot_depth    - STOP DEPTH
STEP.M        0.25                           : increment    - STEP LENGTH
 NULL. -999.2500:NULL Value
~CURVE INFORMATION BLOCK
#MNEM UNIT       ERCB CURVE CODE    CURVE DESCRIPTION
#-----------   ------------------   ----------------------------------
DEPT.M        00 001 00 00         : DEPTH        - DEPTH
GR  .API      00 310 00 00         : GR           - GAMMA RAY
NPHI.V/V      00 330 00 00         : PHIN         - NEUTRON POROSITY (SANDSTONE)
DPHI.V/V      00 890 00 00         : PHID         - DENSITY POROSITY (SANDSTONE)
ILD .OHMM     00 120 00 00         : RESD         - DEEP RESISTIVITY (DIL)
~PARAMETER INFORMATION
#MNEM.UNIT           DATA             DESCRIPTION OF MNEMONIC
#---------         -----------     ------------------------------
GL  .M        673                  : gl           - GROUND LEVEL ELEVATION
EREF.M        676.9                : kb           - ELEVATION OF DEPTH REFERENCE
DATM.M        676.9                : datum        - DATUM ELEVATION
TDD .M        520                  : tdd          - TOTAL DEPTH DRILLER
RUN .         ONE                  : Run          - RUN NUMBER
ENG .         JO                   : Engineer     - RECORDING ENGINEER
WIT .         TIM                  : Witness      - WITNESSED BY
MUD .         GEL                  : Mud_type     - MUD TYPE
MATR.         SANDSTONE            : Logunit      - NEUTRON MATRIX
TMAX.C        21                   : BHT          - MAXIMUM RECORDED TEMPERATURE
BHTD.M        520                  : BHTDEP       - MAXIMUM RECORDED TEMPERATURE
RMT .C        18                   : MDTP         - TEMPERATURE OF MUD
MUDD.KG/M     1                    : MWT          - MUD DENSITY
NEUT.         1                    : NEUTRON      - NEUTRON TYPE
RESI.         0                    : RESIST       - RESISTIVITY TYPE
RM  .OHMM     4                    : RM           - RESISTIVITY OF MUD
RMC .OHMM     3.8                  : RMC          - RESISTIVITY OF MUD CAKE
RMF .OHMM     4.1                  : RMF          - RESISTIVITY OF MUD FILTRATE
SUFT.C        4                    : SUFT         - SURFACE TEMPERATURE
~A  DEPTH       GR     PHIN     PHID     RESD
# ...
  449.000   67.177    0.332    0.150    8.915
  449.250   62.225    0.339    0.173    8.776
  449.500   64.138    0.345    0.187    8.639
  449.750   67.933    0.351    0.185    8.652
  450.000   71.719    0.353    0.183    8.674
  450.250   76.128    0.352    0.177    8.691
  450.500   78.686    0.351    0.169    8.704
  450.750   79.331    0.350    0.170    8.881
  451.000   82.502    0.349    0.176    8.899
  451.250   83.167    0.345    0.184    9.084
  451.500   82.584    0.341    0.192    9.102
  451.750   80.752    0.338    0.186    9.125
  452.000   78.296    0.333    0.172    9.139
  452.250   73.968    0.330    0.161    8.987
  452.500   74.644    0.328    0.141    8.692
  452.750   78.429    0.329    0.128    8.548
  453.000   80.332    0.333    0.125    8.410
  453.250   79.749    0.334    0.166    8.427
  453.500   81.048    0.337    0.195    8.296
  453.750   84.843    0.338    0.191    8.019
  454.000   86.746    0.339    0.183    7.882
  454.250   87.411    0.342    0.192    7.486
  454.500   88.710    0.347    0.181    7.493
  454.750   89.999    0.347    0.173    7.373
  455.000   90.040    0.343    0.185    7.254
  455.250   89.446    0.342    0.187    7.141
  455.500   88.259    0.344    0.178    7.023
  455.750   87.032    0.352    0.173    6.789
  456.000   85.210    0.358    0.166    6.441
  456.250   82.141    0.368    0.163    5.895
  456.500   79.051    0.395    0.173    5.388
  456.750   75.337    0.402    0.199    4.501
  457.000   82.887    0.429    0.228    3.829
  457.250   86.683    0.435    0.237    3.317
  457.500   86.703    0.432    0.238    3.089
  457.750   86.130    0.429    0.237    2.877
  458.000   84.288    0.420    0.234    2.782
  458.250   80.585    0.410    0.229    2.735
  458.500   76.267    0.385    0.224    2.742
  458.750   75.683    0.380    0.219    2.906
  459.000   75.724    0.388    0.212    2.964
  459.250   75.765    0.382    0.207    3.021
  459.500   76.440    0.349    0.192    3.257
  459.750   78.343    0.344    0.154    3.575
  460.000   80.266    0.344    0.155    4.143
  460.250   78.435    0.335    0.152    5.070
  460.500   75.969    0.321    0.140    6.320
  460.750   72.899    0.316    0.111    7.739
  461.000   71.692    0.318    0.119    8.340
  461.250   71.733    0.315    0.133    8.510
  461.500   75.508    0.303    0.143    8.377
  461.750   79.303    0.283    0.144    8.394
  462.000   81.841    0.273    0.143    8.406
  462.250   70.023    0.261    0.132    8.900
  462.500   66.320    0.261    0.119    9.950
  462.750   61.992    0.279    0.060   10.529
  463.000   58.288    0.296    0.038   10.173
  463.250   57.705    0.320    0.103    9.478
  463.500   60.252    0.333    0.133    8.992
  463.750   62.155    0.344    0.150    8.688
  464.000   65.950    0.349    0.159    7.949
  464.250   70.350    0.348    0.165    7.402
  464.500   75.404    0.340    0.174    6.896
  464.750   77.317    0.331    0.183    6.195
  465.000   78.606    0.334    0.174    5.571
  465.250   79.895    0.340    0.168    5.283
  465.500   82.422    0.353    0.183    5.010
  465.750   85.583    0.363    0.213    4.670
  466.000   91.885    0.376    0.223    4.510
  466.250   90.043    0.366    0.215    4.439
  466.500   88.212    0.369    0.193    4.448
  466.750   88.253    0.368    0.174    4.539
  467.000   90.166    0.347    0.178    4.714
  467.250   92.079    0.345    0.179    5.080
  467.500   89.623    0.345    0.177    5.580
  467.750   88.416    0.344    0.148    6.120
  468.000   91.577    0.333    0.141    6.965
  468.250   99.117    0.329    0.121    8.221
  468.500   94.790    0.326    0.114    9.702
  468.750   89.213    0.321    0.137   11.881
  469.000   80.507    0.316    0.154   13.521
  469.250   73.058    0.305    0.180   15.388
  469.500   68.106    0.321    0.204   14.344
  469.750   61.906    0.331    0.211   12.647
  470.000   53.833    0.342    0.211   10.758
  470.250   50.129    0.350    0.197    9.847
  470.500   52.667    0.339    0.185    9.174
  470.750   58.334    0.324    0.178    9.529
  471.000   65.240    0.329    0.212   10.844
  471.250   69.026    0.340    0.218   13.279
  471.500   65.946    0.339    0.208   16.261
  471.750   62.866    0.324    0.202   17.207
  472.000   59.162    0.329    0.218   17.233
  472.250   57.965    0.331    0.224   17.267
  472.500   58.630    0.326    0.214   15.797
  472.750   58.047    0.322    0.197   14.191
  473.000   57.464    0.327    0.183   13.471
  473.250   60.625    0.337    0.178   13.009
  473.500   74.396    0.349    0.173   12.569
  473.750   80.053    0.350    0.173   12.373
  474.000   88.842    0.344    0.187   13.100
  474.250   93.876    0.338    0.198   14.639
  474.500   82.058    0.291    0.214   16.352
  474.750   67.735    0.271    0.221   19.653
  475.000   57.790    0.280    0.224   25.416
  475.250   51.600    0.309    0.224   28.404
  475.500   51.006    0.318    0.227   29.514
  475.750   51.057    0.318    0.235   29.054
  476.000   51.088    0.313    0.238   26.088
  476.250   51.149    0.310    0.235   24.318
  476.500   53.072    0.314    0.226   23.072
  476.750   53.717    0.316    0.216   22.689
  477.000   57.502    0.317    0.208   21.922
  477.250   62.536    0.312    0.185   21.570
  477.500   67.579    0.296    0.190   21.223
  477.750   70.751    0.279    0.193   20.881
  478.000   68.919    0.297    0.185   20.933
  478.250   66.454    0.308    0.175   22.983
  478.500   61.502    0.307    0.174   23.017
  478.750   60.294    0.304    0.195   23.075
  479.000   61.583    0.304    0.200   22.703
  479.250   62.872    0.304    0.185   22.349
  479.500   64.171    0.309    0.176   22.383
  479.750   66.084    0.304    0.191   22.416
  480.000   66.739    0.308    0.202   23.304
  480.250   71.169    0.314    0.200   24.215
  480.500   73.696    0.316    0.209   25.163
  480.750   76.233    0.318    0.216   26.640
  481.000   80.019    0.322    0.221   28.204
  481.250   75.066    0.323    0.253   28.764
  481.500   69.490    0.318    0.254   31.565
  481.750   60.794    0.304    0.234   35.258
  482.000   53.345    0.267    0.223   44.775
  482.250   49.017    0.232    0.244   54.803
  482.500   50.316    0.222    0.276   76.223
  482.750   50.347    0.165    0.302   96.750
  483.000   49.764    0.154    0.318  114.243
  483.250   46.684    0.156    0.330  132.467
  483.500   40.484    0.157    0.317  145.368
  483.750   26.170    0.154    0.317  162.455
  484.000   26.221    0.146    0.321  175.063
  484.250   27.510    0.135    0.326  188.743
  484.500   25.689    0.124    0.333  196.027
  484.750   24.461    0.115    0.340  211.345
  485.000   22.629    0.111    0.348  223.642
  485.250   20.174    0.124    0.354  228.086
  485.500   18.342    0.127    0.351  232.733
  485.750   19.652    0.130    0.344  224.974
  486.000   21.565    0.152    0.335  217.258
  486.250   23.478    0.176    0.323  206.229
  486.500   26.639    0.208    0.319  199.156
  486.750   27.294    0.219    0.311  192.612
  487.000   27.355    0.239    0.299  192.993
  487.250   26.762    0.255    0.284  196.828
  487.500   26.792    0.278    0.286  212.209
  487.750   26.843    0.317    0.286  220.399
  488.000   25.646    0.319    0.286  241.984
  488.250   25.052    0.321    0.287  270.292
  488.500   25.093    0.322    0.293  337.065
  488.750   30.127    0.323    0.300  397.811
  489.000   32.060    0.324    0.303  452.731
  489.250   30.843    0.325    0.307  506.194
  489.500   29.625    0.328    0.309  463.100
  489.750   27.169    0.330    0.302  423.674
  490.000   26.586    0.330    0.283  387.797
  490.250   24.765    0.327    0.281  361.117
  490.500   22.299    0.323    0.282  349.077
  490.750   19.239    0.321    0.284  343.294
  491.000   19.280    0.317    0.289  337.773
  491.250   21.193    0.317    0.299  344.656
  491.500   22.482    0.319    0.303  358.134
  491.750   21.899    0.322    0.301  379.159
  492.000   19.453    0.325    0.306  408.586
  492.250   18.226    0.327    0.312  424.565
