~VERSION INFORMATION
 VERS.                 2.0:   CWLS LOG ASCII STANDARD -VERSION 2.0
 WRAP.                  NO:   ONE LINE PER DEPTH STEP
~WELL INFORMATION BLOCK
#MNEM.UNIT           DATA                    DESCRIPTION OF MNEMONIC
#---------    -------------------            -------------------------------
# Generated from Intellog Unique Number	CX_WELLS/WELL/3038
WELL.         ASHLAND HOUSE R                : Well_name    - WELL
LOC .         00/06-06-082-13W4/0            : Location     - LOCATION
UWI .         00/06-06-082-13W4/0            : Uwi          - UNIQUE WELL ID
ENTR.         T                              : Entered      - ENTERED BY
SRVC.         SCHLUMBERGER                   : Scn          - SERVICE COMPANY
STRT.F        500                            : top_depth    - START DEPTH
STOP.F        1260.33                        : bot_depth    - STOP DEPTH
STEP.F        0.82                           : increment    - STEP LENGTH
 NULL. -999.2500:NULL Value
~CURVE INFORMATION BLOCK
#MNEM UNIT       ERCB CURVE CODE    CURVE DESCRIPTION
#-----------   ------------------   ----------------------------------
DEPT.F        00 001 00 00         : DEPTH        - DEPTH
GR  .API      00 310 00 00         : GR           - GAMMA RAY
NPHI.V/V      00 330 00 00         : PHIN         - NEUTRON POROSITY (SANDSTONE)
ILD .OHMM     00 120 00 00         : RESD         - DEEP RESISTIVITY (OTHER)
~PARAMETER INFORMATION
#MNEM.UNIT           DATA             DESCRIPTION OF MNEMONIC
#---------         -----------     ------------------------------
GL  .F        1960                 : gl           - GROUND LEVEL ELEVATION
EREF.F        1974                 : kb           - ELEVATION OF DEPTH REFERENCE
DATM.F        1974                 : datum        - DATUM ELEVATION
TDD .F        1268                 : tdd          - TOTAL DEPTH DRILLER
RUN .         ONE                  : Run          - RUN NUMBER
ENG .         BILL                 : Engineer     - RECORDING ENGINEER
WIT .         JIM                  : Witness      - WITNESSED BY
MUD .         GEL                  : Mud_type     - MUD TYPE
MATR.         SANDSTONE            : Logunit      - NEUTRON MATRIX
TMAX.F        68                   : BHT          - MAXIMUM RECORDED TEMPERATURE
BHTD.F        1668                 : BHTDEP       - MAXIMUM RECORDED TEMPERATURE
MATR.         1                    : LOGUNIT      - NEUTRON MATRIX
RMT .F        68                   : MDTP         - TEMPERATURE OF MUD
NEUT.         1                    : NEUTRON      - NEUTRON TYPE
RESI.         1.88                 : RESIST       - RESISTIVITY TYPE
RMC .OHMM     3.4                  : RMC          - RESISTIVITY OF MUD CAKE
RMF .OHMM     1.88                 : RMF          - RESISTIVITY OF MUD FILTRATE
SUFT.F        37.4                 : SUFT         - SURFACE TEMPERATURE
~A  DEPTH       GR     PHIN     RESD
  500.000   97.415    0.583    4.206
  500.820   98.632    0.586    4.054
  501.640   99.849    0.588    3.980
  502.461  101.064    0.589    3.836
  503.281  102.275    0.589    3.698
  504.101  103.489    0.589    3.698
  504.921  104.108    0.587    3.630
  505.741  104.116    0.585    3.564
  506.562  104.128    0.585    3.499
  507.382  104.142    0.583    3.435
  508.202  104.151    0.583    3.373
  509.022  104.162    0.584    3.311
  509.843  104.775    0.586    3.311
  510.663  105.388    0.592    3.251
  511.483  104.202    0.594    3.251
  512.303  102.410    0.590    3.251
  513.123  102.422    0.580    3.251
  513.944  103.034    0.571    3.312
  514.764  101.843    0.559    3.312
  515.584   99.447    0.557    3.373
  516.404   96.452    0.558    3.500
  517.224   95.263    0.561    3.565
  518.045   96.478    0.562    3.632
  518.865   98.894    0.557    3.699
  519.685  102.516    0.555    3.768
  520.505  103.129    0.556    3.768
  521.325  103.745    0.556    3.768
  522.146  104.355    0.555    3.768
  522.966  104.366    0.555    3.768
  523.786  104.979    0.555    3.768
  524.606  104.392    0.555    3.769
  525.427  101.394    0.549    3.769
  526.247  100.203    0.538    3.769
  527.067  102.626    0.530    3.769
  527.887  103.239    0.521    3.769
  528.707  103.247    0.520    3.769
  529.528  103.860    0.523    3.769
  530.348  103.872    0.530    3.839
  531.168  104.484    0.534    3.839
  531.988  105.103    0.544    3.839
  532.808  105.115    0.550    3.911
  533.629  104.525    0.559    3.984
  534.449  105.742    0.543    4.058
  535.269  106.953    0.527    3.984
  536.089  107.563    0.543    3.840
  536.909  106.378    0.548    3.770
  537.730  100.974    0.543    3.840
  538.550   99.786    0.541    3.984
  539.370  100.399    0.537    4.289
  540.190  100.410    0.534    4.879
  541.010  101.026    0.529    5.759
  541.831  101.633    0.507    6.673
  542.651  101.049    0.487    7.876
  543.471   99.858    0.488    8.478
  544.291   96.259    0.488    8.960
  545.112   88.453    0.486    9.469
  545.932   80.648    0.483    9.646
  546.752   82.463    0.476    9.825
  547.572   83.677    0.472    9.646
  548.392   86.100    0.472    9.646
  549.213   87.314    0.474   10.008
  550.033   85.524    0.479   10.384
  550.853   84.328    0.483   11.178
  551.673   80.130    0.481   12.033
  552.493   73.533    0.483   12.485
  553.314   72.937    0.486   12.954
  554.134   70.546    0.490   13.440
  554.954   66.349    0.493   13.440
  555.774   65.762    0.498   13.195
  556.594   68.181    0.501   12.718
  557.415   69.390    0.498   12.035
  558.235   72.411    0.494   11.181
  559.055   75.432    0.491   10.776
  559.875   79.048    0.492   10.011
  560.696   85.076    0.496    9.131
  561.516   88.094    0.498    8.328
  562.336   80.285    0.492    8.328
  563.156   70.676    0.486    9.131
  563.976   65.877    0.487    9.474
  564.797   69.502    0.489   10.012
  565.617   71.317    0.491   10.581
  566.437   72.531    0.492   11.183
  567.257   72.543    0.495   11.183
  568.077   70.146    0.498   10.582
  568.898   64.746    0.499   10.014
  569.718   60.551    0.498    9.133
  570.538   65.975    0.488    8.330
  571.358   72.600    0.490    7.322
  572.178   78.027    0.499    6.437
  572.999   73.826    0.507    5.763
  573.819   69.027    0.499    5.066
  574.639   75.656    0.483    4.454
  575.459   85.288    0.478    4.293
  576.280   92.516    0.483    4.707
  577.100   88.919    0.494    5.067
  577.920   80.513    0.508    5.161
  578.740   78.122    0.524    5.067
  579.560   82.944    0.541    4.537
  580.381   88.367    0.559    4.373
  581.201   98.604    0.519    4.138
  582.021  101.619    0.506    3.844
  582.841  105.840    0.498    4.063
  583.661  106.455    0.490    4.294
  584.482  103.466    0.491    4.795
  585.302  101.069    0.495    5.258
  586.122   99.875    0.500    5.873
  586.942   98.684    0.500    6.559
  587.762   99.898    0.495    7.325
  588.583  101.115    0.490    7.600
  589.403  101.728    0.486    8.032
  590.223  102.341    0.485    8.032
  591.043  101.156    0.478    8.033
  591.864  100.560    0.479    7.886
  592.684   98.770    0.486    7.886
  593.504   95.773    0.491    8.033
  594.324   93.983    0.484    8.183
  595.144   93.995    0.472    8.490
  595.965   93.408    0.475    8.972
  596.785   91.011    0.482    9.658
  597.605   79.598    0.490   10.787
  598.425   79.011    0.487   11.828
  599.245   79.621    0.482   12.500
  600.066   82.040    0.482   12.969
  600.886   83.859    0.486   13.707
  601.706   85.674    0.491   13.961
  602.526   86.888    0.495   14.221
  603.346   86.298    0.498   14.755
  604.167   85.709    0.492   14.756
  604.987   82.713    0.484   15.030
  605.807   80.320    0.478   15.030
  606.627   82.135    0.469   15.031
  607.448   86.957    0.465   15.031
  608.268   90.577    0.471   14.757
  609.088   93.595    0.473   14.757
  609.908   95.416    0.466   14.488
  610.728   93.022    0.457   14.224
  611.549   91.230    0.443   13.965
  612.369   88.833    0.447   13.460
  613.189   85.838    0.456   12.974
  614.009   81.039    0.466   12.505
  614.829   75.639    0.466   12.053
  615.650   69.039    0.466   11.833
  616.470   76.867    0.465   11.405
  617.290   84.696    0.465   11.406
  618.110   82.305    0.466   11.618
  618.930   78.706    0.466   12.054
  619.751   73.305    0.463   12.507
  620.571   72.117    0.462   12.739
  621.391   75.141    0.463   12.507
  622.211   76.349    0.466   12.279
  623.031   79.370    0.468   10.995
  623.852   81.784    0.472    9.845
  624.672   84.802    0.480    8.815
  625.492   87.823    0.487    7.893
  626.312   91.445    0.495    7.469
  627.133   95.062    0.508    7.068
  627.953   99.884    0.519    6.688
  628.773  105.909    0.528    6.213
  629.593  114.943    0.521    5.879
  630.413  118.562    0.511    5.772
  631.234  121.583    0.503    5.563
  632.054  120.996    0.499    5.362
  632.874  119.198    0.502    5.265
  633.694  114.399    0.508    5.265
  634.514  110.207    0.520    5.265
  635.335  116.229    0.534    5.265
  636.155  121.652    0.547    4.891
  636.975  125.274    0.541    4.628
  637.795  127.694    0.518    4.221
  638.615  128.304    0.504    3.921
  639.436  126.514    0.492    4.144
  640.256  121.712    0.489    4.544
  641.076  114.508    0.484    5.170
  641.896  101.291    0.477    6.448
  642.717   96.492    0.471    7.752
  643.537  100.713    0.476    9.494
  644.357  106.136    0.483   10.603
  645.177  106.752    0.493   10.603
  645.997  106.168    0.499   10.410
  646.818  105.572    0.496   10.220
  647.638  102.577    0.489    9.851
  648.458   99.582    0.484    9.152
  649.278   98.992    0.479    8.821
  650.098  114.039    0.475    8.660
  650.919  120.064    0.470    8.985
  651.739  116.468    0.468    9.322
  652.559  106.257    0.467    9.672
  653.379  103.866    0.465   10.036
  654.199  100.871    0.464   10.606
  655.020   98.477    0.466   10.803
  655.840   93.681    0.472   11.417
  656.660   88.879    0.477   11.630
  657.480   82.877    0.480   12.066
  658.301   73.268    0.480   12.291
  659.121   65.462    0.481   12.291
  659.941   62.467    0.484   12.291
  660.761   64.884    0.484   12.292
  661.581   68.504    0.484   12.292
  662.402   71.525    0.483   12.292
  663.222   73.340    0.484   12.292
  664.042   73.953    0.485   12.068
  664.862   72.764    0.485   11.848
  665.682   71.573    0.485   11.420
  666.503   69.778    0.490   11.420
  667.323   67.989    0.500   11.421
  668.143   68.601    0.520   11.421
  668.963   77.635    0.512   11.421
  669.783   77.046    0.516   11.634
  670.604   73.449    0.530   11.634
  671.424   70.451    0.510   11.422
  672.244   72.874    0.493   11.009
  673.064   76.496    0.488   10.808
  673.885   78.306    0.487   10.611
  674.705   83.131    0.486   10.418
  675.525   86.750    0.483   10.041
  676.345   90.367    0.481    9.678
  677.165   96.394    0.490    9.158
