~VERSION INFORMATION
 VERS.                 2.0:   CWLS LOG ASCII STANDARD -VERSION 2.0
 WRAP.                  NO:   ONE LINE PER DEPTH STEP
~WELL INFORMATION BLOCK
#MNEM.UNIT           DATA                    DESCRIPTION OF MNEMONIC
#---------    -------------------            -------------------------------
# Generated from Intellog Unique Number	CW_79_81/WELL/549
WELL.         07-16-079-24W4                 : Well_name    - WELL
LOC .         00/07-16-079-24W4/0            : Location     - LOCATION
UWI .         00/07-16-079-24W4/0            : Uwi          - UNIQUE WELL ID
ENTR.         MAX                            : Entered      - ENTERED BY
SRVC.         SCHLUMBERGER                   : Scn          - SERVICE COMPANY
STRT.M        198.12                         : top_depth    - START DEPTH
STOP.M        457.12                         : bot_depth    - STOP DEPTH
STEP.M        0.25                           : increment    - STEP LENGTH
 NULL. -999.2500:NULL Value
~CURVE INFORMATION BLOCK
#MNEM UNIT       ERCB CURVE CODE    CURVE DESCRIPTION
#-----------   ------------------   ----------------------------------
DEPT.M        00 001 00 00         : DEPTH        - DEPTH
ILD .OHMM     00 120 00 00         : RESD         - DEEP RESISTIVITY (DIL)
NPHI.V/V      00 330 00 00         : PHIN         - NEUTRON POROSITY (SANDSTONE)
DPHI.V/V      00 890 00 00         : PHID         - DENSITY POROSITY (SANDSTONE)
CALI.MM       00 280 01 00         : CAL          - CALIPER
GR  .API      00 310 00 00         : GR           - GAMMA RAY
~PARAMETER INFORMATION
#MNEM.UNIT           DATA             DESCRIPTION OF MNEMONIC
#---------         -----------     ------------------------------
GL  .M        557.479              : gl           - GROUND LEVEL ELEVATION
EREF.M        561.137              : kb           - ELEVATION OF DEPTH REFERENCE
DATM.M        557.479              : datum        - DATUM ELEVATION
TDD .M        353.568              : tdd          - TOTAL DEPTH DRILLER
RUN .         ONE                  : Run          - RUN NUMBER
ENG .         BILL                 : Engineer     - RECORDING ENGINEER
WIT .         JIM                  : Witness      - WITNESSED BY
MUD .         GEL                  : Mud_type     - MUD TYPE
MATR.         SANDSTONE            : Logunit      - NEUTRON MATRIX
TMAX.C        20                   : BHT          - MAXIMUM RECORDED TEMPERATURE
BHTD.M        445.008              : BHTDEP       - MAXIMUM RECORDED TEMPERATURE
RMT .C        17.7778              : MDTP         - TEMPERATURE OF MUD
MUDD.KG/M     10400                : MWT          - MUD DENSITY
NEUT.         1                    : NEUTRON      - NEUTRON TYPE
RESI.         0                    : RESIST       - RESISTIVITY TYPE
RM  .OHMM     10.7                 : RM           - RESISTIVITY OF MUD
RMC .OHMM     0.25                 : RMC          - RESISTIVITY OF MUD CAKE
RMF .OHMM     0.25                 : RMF          - RESISTIVITY OF MUD FILTRATE
SUFT.C        -23.3333             : SUFT         - SURFACE TEMPERATURE
~A  DEPTH     RESD     PHIN     PHID      CAL       GR
# ...
  307.620   14.795    0.478    0.285  223.015   58.760
  307.870   16.523    0.479    0.281  223.037   59.067
  308.120   18.114    0.477    0.277  223.060   59.377
  308.370   21.160    0.472    0.261  223.086   60.270
  308.620   22.788    0.470    0.257  223.114   61.758
  308.870   22.821    0.469    0.250  223.134   61.479
  309.120   20.885    0.463    0.224  223.159   63.256
  309.370   18.105    0.455    0.213  223.182   65.916
  309.620   15.276    0.446    0.204  223.202   70.045
  309.870   11.055    0.436    0.180  222.727   77.999
  310.120    9.585    0.418    0.187  222.761   83.894
  310.370    8.930    0.432    0.188  222.778   86.262
  310.620    8.477    0.448    0.207  222.302   73.925
  310.870    8.411    0.442    0.200  221.830   63.058
  311.120    8.202    0.430    0.187  221.850   58.074
  311.370    8.220    0.419    0.183  221.873   60.146
  311.620    8.229    0.448    0.254  222.399   63.100
  311.870    8.319    0.457    0.250  222.917   66.936
  312.120    8.565    0.453    0.237  223.935   72.835
  312.370    8.895    0.451    0.219  225.458   73.141
  312.620    9.320    0.452    0.209  226.476   72.565
  312.870    9.681    0.453    0.196  226.499   71.110
  313.120    9.785    0.452    0.199  226.522   68.477
  313.370    9.715    0.436    0.187  226.547   67.021
  313.620    9.388    0.411    0.170  226.570   69.975
  313.870    8.986    0.409    0.194  226.595   73.223
  314.120    8.684    0.434    0.208  226.615   73.531
  314.370    8.684    0.449    0.231  226.641   73.842
  314.620    8.412    0.479    0.227  226.165   72.386
  314.870    8.267    0.478    0.229  225.192   72.106
  315.120    8.059    0.466    0.229  223.226   73.884
  315.370    8.059    0.461    0.224  223.249   75.660
  315.620    8.015    0.455    0.220  223.271   80.381
  315.870    7.816    0.446    0.212  224.290   81.275
  316.120    7.827    0.447    0.201  226.310   79.230
  316.370    7.703    0.474    0.181  227.824   76.597
  316.620    7.646    0.495    0.186  227.847   76.026
  316.870    7.522    0.502    0.193  227.872   78.098
  317.120    7.536    0.497    0.196  227.872   81.052
  317.370    7.536    0.476    0.185  227.929   83.127
  317.620    7.493    0.461    0.161  228.444   83.137
  317.870    7.493    0.445    0.165  228.464   83.154
  318.120    7.528    0.437    0.167  229.983   83.167
  318.370    7.673    0.439    0.176  231.505   83.182
  318.620    7.754    0.448    0.196  231.522   82.607
  318.870    7.754    0.447    0.196  230.552   79.974
  319.120    8.000    0.441    0.188  228.085   75.869
  319.370    8.301    0.433    0.188  227.613   75.296
  319.620    8.781    0.435    0.183  228.634   77.664
  319.870    9.120    0.430    0.178  230.646   77.381
  320.120    9.386    0.441    0.201  230.668   75.632
  320.370    9.573    0.449    0.205  228.702   73.881
  320.620    9.675    0.442    0.202  226.235   72.428
  320.870    9.675    0.434    0.200  226.258   71.263
  321.120    9.371    0.429    0.196  226.289   70.396
  321.370    8.886    0.414    0.174  226.289   70.114
  321.620    8.431    0.406    0.154  226.827   71.599
  321.870    7.930    0.403    0.144  228.847   74.553
  322.120    7.930    0.438    0.176  231.362   78.683
  322.370    7.679    0.456    0.187  232.375   85.168
  322.620    7.481    0.473    0.188  232.898   88.416
  322.870    7.495    0.483    0.194  231.928   89.021
  323.120    7.576    0.494    0.202  230.457   88.444
  323.370    7.727    0.490    0.196  229.985   86.105
  323.620    8.026    0.489    0.186  231.000   84.944
  323.870    8.260    0.489    0.194  233.020   84.077
  324.120    8.736    0.491    0.182  235.038   82.620
  324.370    9.324    0.494    0.175  235.055   80.281
  324.620   10.315    0.499    0.184  234.580   76.472
  324.870   11.727    0.498    0.197  232.118   72.664
  325.120   13.094    0.487    0.226  230.644   69.148
  325.370   13.845    0.473    0.237  229.173   67.103
  325.620   13.377    0.483    0.257  228.704   67.999
  325.870   12.807    0.485    0.244  228.726   67.130
  326.120   12.948    0.485    0.249  228.749   66.557
  326.370   13.206    0.475    0.239  228.775   68.337
  326.620   13.594    0.465    0.237  228.794   70.997
  326.870   13.743    0.463    0.239  229.318   73.363
  327.120   12.928    0.467    0.230  229.341   71.317
  327.370   12.372    0.479    0.228  229.366   69.568
  327.620   11.631    0.485    0.227  229.386   68.994
  327.870   10.845    0.479    0.234  229.414   69.595
  328.120   10.864    0.466    0.224  229.434   72.258
  328.370   12.016    0.453    0.222  229.457   74.918
  328.620   16.218    0.444    0.218  229.482   77.871
  328.870   17.780    0.445    0.199  230.006   81.119
  329.120   19.151    0.449    0.190  232.018   83.784
  329.370   19.885    0.447    0.167  234.038   82.031
  329.620   19.043    0.429    0.157  232.069   74.691
  329.870   16.962    0.396    0.134  230.100   67.651
  330.120   15.523    0.303    0.107  229.627   66.486
  330.370   13.952    0.265    0.065  229.647   65.915
  330.620   12.771    0.262    0.081  229.673   66.810
  330.870   12.338    0.298    0.107  229.695   68.586
  331.120   12.026    0.344    0.182  229.721   71.835
  331.370   11.838    0.443    0.204  230.742   76.260
  331.620   11.746    0.449    0.196  231.263   77.450
  331.870   11.555    0.455    0.194  231.286   78.053
  332.120   11.374    0.452    0.189  231.806   80.421
  332.370   11.388    0.450    0.181  233.326   78.376
  332.620   11.618    0.445    0.166  233.846   79.273
  332.870   11.957    0.449    0.156  233.866   81.049
  333.120   12.305    0.467    0.163  233.894   80.475
  333.370   12.443    0.475    0.163  233.422   79.312
  333.620   12.349    0.470    0.159  232.443   79.034
  333.870   11.826    0.461    0.154  230.983   79.344
  334.120   11.018    0.463    0.147  230.503   79.355
  334.370    9.818    0.447    0.162  230.027   75.549
  334.620    9.066    0.424    0.161  230.548   74.973
  334.870    8.681    0.418    0.150  232.067   76.457
  335.120    8.539    0.437    0.170  231.592   78.234
  335.370    8.821    0.457    0.198  228.062   79.084
  335.620    8.683    0.463    0.194  227.184   80.043
  335.870    8.629    0.474    0.185  227.316   81.287
  336.120    8.726    0.477    0.194  227.945   82.531
  336.370    8.905    0.455    0.179  228.560   83.490
  336.620    9.245    0.448    0.169  228.663   83.879
  336.870    9.872    0.455    0.167  228.809   84.812
  337.120   10.153    0.455    0.164  228.927   85.469
  337.370   10.547    0.453    0.183  229.059   85.546
  337.620   10.963    0.455    0.191  228.664   84.726
  337.870   11.278    0.463    0.188  230.771   83.353
  338.120   11.510    0.466    0.184  231.897   82.532
  338.370   11.536    0.469    0.166  232.014   79.362
  338.620   11.470    0.434    0.145  231.664   76.201
  338.870   11.285    0.400    0.129  231.810   75.683
  339.120   10.919    0.381    0.116  231.386   78.404
  339.370   10.467    0.392    0.115  231.518   84.356
  339.620   10.041    0.417    0.151  231.636   88.252
  339.870    9.797    0.440    0.169  233.260   85.997
  340.120    9.733    0.466    0.170  234.898   83.691
  340.370    9.675    0.491    0.165  235.513   81.419
  340.620    9.714    0.489    0.165  235.630   81.489
  340.870    9.806    0.473    0.167  235.250   81.558
  341.120   10.372    0.471    0.165  235.382   80.746
  341.370   10.861    0.460    0.163  235.982   80.237
  341.620   11.387    0.451    0.166  238.615   81.196
  341.870   11.718    0.447    0.166  240.707   82.146
  342.120   11.751    0.463    0.164  240.327   81.628
  342.370   11.171    0.468    0.166  238.499   80.522
  342.620   10.613    0.465    0.173  238.090   83.831
  342.870    9.994    0.464    0.167  238.236   87.442
  343.120    9.500    0.463    0.178  238.339   88.392
  343.370    9.500    0.458    0.174  238.954   88.453
  343.620    9.460    0.455    0.164  239.583   87.080
  343.870    9.571    0.468    0.168  240.212   86.553
