~VERSION INFORMATION
 VERS.                 2.0:   CWLS LOG ASCII STANDARD -VERSION 2.0
 WRAP.                  NO:   ONE LINE PER DEPTH STEP
~WELL INFORMATION BLOCK
#MNEM.UNIT           DATA                    DESCRIPTION OF MNEMONIC
#---------    -------------------            -------------------------------
# Generated from Intellog Unique Number	CX_WELLS/WELL/3976
WELL.         HOL BVX UNIGAS LYLE            : Well_name    - WELL
LOC .         00/06-34-071-16W4/0            : Location     - LOCATION
UWI .         00/06-34-071-16W4/0            : Uwi          - UNIQUE WELL ID
ENTR.         TIM                            : Entered      - ENTERED BY
SRVC.         SCHLUMBERGER                   : Scn          - SERVICE COMPANY
DATE.         04/14/92                       : Date         - LOG DATE
STRT.M        289.56                         : top_depth    - START DEPTH
STOP.M        484.56                         : bot_depth    - STOP DEPTH
STEP.M        0.25                           : increment    - STEP LENGTH
 NULL. -999.2500:NULL Value
~CURVE INFORMATION BLOCK
#MNEM UNIT       ERCB CURVE CODE    CURVE DESCRIPTION
#-----------   ------------------   ----------------------------------
DEPT.M        00 001 00 00         : DEPTH        - DEPTH
GR  .API      00 310 00 00         : GR           - GAMMA RAY
NPHI.V/V      00 330 00 00         : PHIN         - NEUTRON POROSITY (SANDSTONE)
ILD .OHMM     00 120 00 00         : RESD         - DEEP RESISTIVITY (DIL)
~PARAMETER INFORMATION
#MNEM.UNIT           DATA             DESCRIPTION OF MNEMONIC
#---------         -----------     ------------------------------
GL  .M        594.055              : gl           - GROUND LEVEL ELEVATION
EREF.M        596.189              : kb           - ELEVATION OF DEPTH REFERENCE
DATM.M        596.189              : datum        - DATUM ELEVATION
TDD .M        486.461              : tdd          - TOTAL DEPTH DRILLER
RUN .         ONE                  : Run          - RUN NUMBER
ENG .         JO                   : Engineer     - RECORDING ENGINEER
WIT .         TIM                  : Witness      - WITNESSED BY
MUD .         GEL                  : Mud_type     - MUD TYPE
MATR.         SANDSTONE            : Logunit      - NEUTRON MATRIX
TMAX.C        26.6667              : BHT          - MAXIMUM RECORDED TEMPERATURE
BHTD.M        486.156              : BHTDEP       - MAXIMUM RECORDED TEMPERATURE
RMT .C        25.5556              : MDTP         - TEMPERATURE OF MUD
MUDD.KG/M     9100                 : MWT          - MUD DENSITY
NEUT.         1                    : NEUTRON      - NEUTRON TYPE
RESI.         0                    : RESIST       - RESISTIVITY TYPE
RM  .OHMM     3.8                  : RM           - RESISTIVITY OF MUD
RMC .OHMM     3.74                 : RMC          - RESISTIVITY OF MUD CAKE
RMF .OHMM     3.74                 : RMF          - RESISTIVITY OF MUD FILTRATE
SUFT.C        4                    : SUFT         - SURFACE TEMPERATURE
~A  DEPTH       GR     PHIN     RESD
# ...
  452.310   47.559    0.485   37.133
  452.560   41.497    0.489   43.150
  452.810   48.191    0.491   56.094
  453.060   55.496    0.491   72.905
  453.310   56.720    0.491   80.106
  453.560   57.953    0.491   77.242
  453.810   58.567    0.491   69.139
  454.060   59.794    0.490   58.504
  454.310   62.847    0.490   47.680
  454.560   65.893    0.487   35.406
  454.810   72.591    0.481   24.400
  455.060   85.967    0.456   18.119
  455.310   92.662    0.403   13.454
  455.560  100.571    0.386    9.627
  455.810  109.696    0.389    8.300
  456.060  115.178    0.398    7.710
  456.310  101.823    0.399    7.717
  456.560   82.395    0.420    8.017
  456.810   61.146    0.437   30.190
  457.060   38.074    0.472   40.730
  457.310   35.659    0.500   38.556
  457.560   37.494    0.512   33.858
  457.810   39.325    0.510   29.739
  458.060   44.805    0.506   24.243
  458.310   63.044    0.492   20.135
  458.560   73.991    0.468   18.018
  458.810   83.115    0.451   16.428
  459.060   80.698    0.467   14.440
  459.310   76.460    0.512   13.663
  459.560   84.367    0.638   12.457
  459.810  105.033    0.668   11.571
  460.060  116.591    0.688   10.749
  460.310  119.033    0.712   10.173
  460.560   86.238    0.632    9.994
  460.810   76.530    0.488   10.003
  461.060   80.194    0.420   10.203
  461.310   77.773    0.345   10.598
  461.560   68.065    0.335   11.221
  461.810   58.965    0.366   11.658
  462.060   52.295    0.379   11.668
  462.310   52.310    0.385   11.676
  462.560   52.930    0.387   11.051
  462.810   54.157    0.397   10.268
  463.060   55.381    0.409    9.538
  463.310   70.580    0.418    9.029
  463.560   78.490    0.411    8.872
  463.810   88.225    0.388    8.712
  464.060  100.994    0.339    8.720
  464.310   99.187    0.323    8.894
  464.560   98.588    0.327    9.070
  464.810   96.778    0.329    9.251
  465.060   96.186    0.335    9.259
  465.310   97.413    0.342    9.265
  465.560   99.247    0.348    9.274
  465.810  101.082    0.353    9.282
  466.060  103.524    0.354    9.291
  466.310  105.356    0.359    9.303
  466.560  110.231    0.363    9.309
  466.810  114.495    0.363    9.320
  467.060  117.548    0.363    9.326
  467.310  116.345    0.369    9.337
  467.560  114.538    0.376    9.172
  467.810  111.506    0.373    8.679
  468.060  106.051    0.364    7.913
  468.310  103.026    0.347    6.702
  468.560  104.864    0.346    6.341
  468.810  101.835    0.352    6.000
  469.060   95.165    0.359    5.786
  469.310   86.065    0.206    5.474
  469.560   67.245    0.150    5.279
  469.810   42.351    0.169    6.134
  470.060   30.213    0.315    7.976
  470.310   27.796    0.341    8.929
  470.560   26.593    0.345    9.631
  470.810   27.212    0.341    9.817
  471.060   27.835    0.338   10.014
  471.310   28.455    0.343   10.600
  471.560   27.249    0.347   10.609
  471.810   29.087    0.362   10.422
  472.060   30.314    0.362   10.244
  472.310   30.329    0.355   10.061
  472.560   29.123    0.348    9.882
  472.810   23.668    0.340    9.891
  473.060   24.291    0.340    9.904
  473.310   24.300    0.338    9.911
  473.560   25.530    0.338    9.739
  473.810   24.330    0.339    9.390
  474.060   21.302    0.341    9.055
  474.310   18.884    0.347    8.413
  474.560   18.289    0.368    8.261
  474.810   17.693    0.383    7.398
  475.060   16.494    0.386    7.130
  475.310   17.113    0.365    6.751
  475.560   18.948    0.330    6.631
  475.810   25.032    0.324    6.514
  476.060   40.838    0.318    6.521
  476.310   57.253    0.369    6.524
  476.560   46.330    0.419    6.411
  476.810   32.978    0.433    6.418
  477.060   26.918    0.429    6.424
  477.310   31.787    0.412    6.674
  477.560   40.911    0.396    7.198
  477.810   42.749    0.381    7.761
  478.060   39.724    0.383    8.854
  478.310   37.306    0.384   10.101
  478.560   33.673    0.379   10.891
  478.810   29.433    0.376   11.745
  479.060   33.698    0.361   12.435
  479.310   38.570    0.263   11.766
  479.560   37.974    0.264   10.340
  479.810   35.556    0.270    9.605
  480.060   36.784    0.302    9.261
  480.310   48.945    0.360    8.930
  480.560   40.453    0.373    9.104
  480.810   22.848    0.360    9.639
  481.060   13.748    0.344   10.017
  481.310   10.726    0.347   10.410
  481.560   12.560    0.351   10.611
  481.810   15.613    0.353   10.623
  482.060   17.448    0.337   10.632
  482.310   16.852    0.303   10.642
  482.560   16.257    0.279   10.455
  482.810   15.659    0.278   10.271
  483.060   15.671    0.285    9.908
  483.310   15.683    0.297    9.915
  483.560   16.910    0.313    9.738
  483.810   18.137    0.323    9.749
  484.060   19.367    0.332    9.756
  484.310   19.380    0.328    9.767
  484.560   19.389    0.327    9.775
