~VERSION INFORMATION
 VERS.                 2.0:   CWLS LOG ASCII STANDARD -VERSION 2.0
 WRAP.                  NO:   ONE LINE PER DEPTH STEP
~WELL INFORMATION BLOCK
#MNEM.UNIT           DATA                    DESCRIPTION OF MNEMONIC
#---------    -------------------            -------------------------------
# Generated from Intellog Unique Number	CS_67_68/WELL/2160
WELL.         02-29-067-06W4                 : Well_name    - WELL
LOC .         00/02-29-067-06W4/0            : Location     - LOCATION
UWI .         00/02-29-067-06W4/0            : Uwi          - UNIQUE WELL ID
ENTR.         SP                             : Entered      - ENTERED BY
SRVC.         SCHLUMBERGER                   : Scn          - SERVICE COMPANY
STRT.M        335                            : top_depth    - START DEPTH
STOP.M        545                            : bot_depth    - STOP DEPTH
STEP.M        0.25                           : increment    - STEP LENGTH
 NULL. -999.2500:NULL Value
~CURVE INFORMATION BLOCK
#MNEM UNIT       ERCB CURVE CODE    CURVE DESCRIPTION
#-----------   ------------------   ----------------------------------
DEPT.M        00 001 00 00         : DEPTH        - DEPTH
ILD .OHMM     00 120 00 00         : RESD         - DEEP RESISTIVITY (DIL)
DPHI.V/V      00 890 00 00         : PHID         - DENSITY POROSITY (LIMESTONE)
NPHI.V/V      00 330 00 00         : PHIN         - NEUTRON POROSITY (LIMESTONE)
GR  .API      00 310 00 00         : GR           - GAMMA RAY
CALI.MM       00 280 01 00         : CAL          - CALIPER
~PARAMETER INFORMATION
#MNEM.UNIT           DATA             DESCRIPTION OF MNEMONIC
#---------         -----------     ------------------------------
GL  .M        659.3                : gl           - GROUND LEVEL ELEVATION
EREF.M        662.17               : kb           - ELEVATION OF DEPTH REFERENCE
DATM.M        662.17               : datum        - DATUM ELEVATION
TDD .M        558                  : tdd          - TOTAL DEPTH DRILLER
RUN .         ONE                  : Run          - RUN NUMBER
ENG .         BILL                 : Engineer     - RECORDING ENGINEER
WIT .         JIM                  : Witness      - WITNESSED BY
MUD .         GEL                  : Mud_type     - MUD TYPE
MATR.         LIMESTONE            : Logunit      - NEUTRON MATRIX
TMAX.C        23                   : BHT          - MAXIMUM RECORDED TEMPERATURE
BHTD.M        558.7                : BHTDEP       - MAXIMUM RECORDED TEMPERATURE
MATR.         1                    : LOGUNIT      - NEUTRON MATRIX
RMT .C        25                   : MDTP         - TEMPERATURE OF MUD
NEUT.         1                    : NEUTRON      - NEUTRON TYPE
RESI.         0                    : RESIST       - RESISTIVITY TYPE
RMC .OHMM     0.25                 : RMC          - RESISTIVITY OF MUD CAKE
RMF .OHMM     0.25                 : RMF          - RESISTIVITY OF MUD FILTRATE
SUFT.C        15                   : SUFT         - SURFACE TEMPERATURE
~A  DEPTH     RESD     PHID     PHIN       GR      CAL
# ...
  517.500    3.451    0.275    0.389   87.654  141.619
  517.750    3.652    0.261    0.402   89.605  142.838
  518.000    3.916    0.241    0.416   90.885  144.565
  518.250    4.160    0.230    0.401   87.836  146.699
  518.500    4.419    0.215    0.386   77.409  147.511
  518.750    4.847    0.196    0.373   70.092  147.714
  519.000    5.316    0.309    0.364   67.409  147.002
  519.250    6.146    0.363    0.410   61.677  146.595
  519.500    7.119    0.402    0.440   51.432  145.477
  519.750    7.691    0.391    0.510   44.908  144.765
  520.000    7.663    0.291    0.318   49.542  144.053
  520.250    6.531    0.132    0.295   56.980  144.053
  520.500    5.714    0.219    0.355   60.029  144.357
  520.750    5.047    0.260    0.385   64.480  145.068
  521.000    4.797    0.275    0.387   73.931  145.880
  521.250    4.789    0.246    0.370   86.308  146.591
  521.500    4.780    0.223    0.353   87.832  146.896
  521.750    4.772    0.229    0.342   83.930  147.302
  522.000    4.764    0.235    0.340   79.722  147.708
  522.250    4.746    0.250    0.362   76.978  148.012
  522.500    4.738    0.262    0.364   91.856  148.317
  522.750    4.756    0.242    0.349  101.673  148.418
  523.000    4.775    0.220    0.355  103.258  148.722
  523.250    4.784    0.216    0.368   97.465  148.519
  523.500    4.803    0.221    0.375   92.342  148.416
  523.750    4.840    0.232    0.383   86.183  148.416
  524.000    5.007    0.246    0.388   81.183  148.009
  524.250    5.289    0.258    0.390   76.549  147.704
  524.500    5.576    0.262    0.393   71.488  147.500
  524.750    5.957    0.263    0.387   74.597  147.703
  525.000    6.233    0.258    0.376   76.426  148.109
  525.250    6.721    0.250    0.370   70.694  148.311
  525.500    7.099    0.276    0.373   66.121  148.108
  525.750    7.386    0.294    0.384   62.035  147.294
  526.000    6.548    0.303    0.397   64.900  146.887
  526.250    5.795    0.298    0.377   75.449  146.582
  526.500    5.080    0.284    0.362   84.961  146.378
  526.750    4.470    0.265    0.363   89.961  146.174
  527.000    4.123    0.242    0.367   90.021  145.869
  527.250    4.298    0.240    0.370   86.972  145.462
  527.500    4.463    0.255    0.383   81.057  145.258
  527.750    4.626    0.264    0.372   79.289  145.156
  528.000    4.804    0.272    0.365   84.654  145.359
  528.250    4.989    0.258    0.385   88.008  145.562
  528.500    5.152    0.278    0.391   62.946  145.663
  528.750    5.290    0.307    0.379   52.702  145.662
  529.000    5.402    0.332    0.372   46.665  145.662
  529.250    5.020    0.344    0.367   41.909  145.255
  529.500    4.182    0.323    0.365   37.945  144.950
  529.750    3.605    0.318    0.363   39.530  145.152
  530.000    3.026    0.331    0.360   57.945  145.863
  530.250    2.648    0.338    0.368   66.969  147.286
  530.500    2.348    0.343    0.383   55.627  149.013
  530.750    2.137    0.354    0.387   38.371  148.707
  531.000    1.960    0.363    0.383   30.992  147.691
  531.250    1.971    0.357    0.379   26.724  146.572
  531.500    2.024    0.361    0.377   30.748  147.181
  531.750    2.138    0.364    0.371   62.089  148.807
  532.000    2.288    0.289    0.372   79.894  150.331
  532.250    2.486    0.267    0.393   88.674  150.940
  532.500    2.716    0.281    0.400   73.856  150.228
  532.750    2.858    0.156    0.383   66.051  149.313
  533.000    3.082    0.128    0.345   68.185  148.195
  533.250    3.355    0.128    0.320   77.636  147.483
  533.500    3.584    0.158    0.315   83.672  146.669
  533.750    3.991    0.180    0.331   88.489  145.856
  534.000    4.427    0.202    0.324   90.928  144.941
  534.250    4.675    0.201    0.317   91.049  144.127
  534.500    4.641    0.205    0.311   91.171  143.517
  534.750    4.395    0.224    0.317   93.244  143.618
  535.000    4.046    0.229    0.342   96.353  144.634
  535.250    3.817    0.215    0.359   93.243  145.751
  535.500    3.753    0.236    0.361   91.109  147.682
  535.750    3.927    0.230    0.352   95.377  149.409
  536.000    4.148    0.212    0.345  102.999  150.222
  536.250    4.373    0.189    0.340  107.206  151.034
  536.500    4.542    0.172    0.352  106.474  151.135
  536.750    4.646    0.182    0.367  103.364  150.830
  537.000    4.682    0.198    0.375  101.351  150.524
  537.250    4.656    0.209    0.377  101.351  150.727
  537.500    4.639    0.184    0.383  109.155  151.540
  537.750    4.666    0.165    0.401  115.314  153.064
  538.000    4.737    0.164    0.412  117.265  155.604
  538.250    4.873    0.170    0.417  117.691  157.026
  538.500    4.976    0.182    0.429  117.630  157.432
  538.750    5.024    0.189    0.444  113.544  156.314
  539.000    5.015    0.177    0.448  109.398  154.382
  539.250    4.940    0.166    0.420  106.348  153.874
  539.500    4.812    0.181    0.392  103.543  153.772
  539.750    4.679    0.230    0.425  102.506  153.771
  540.000    4.566    0.227    0.408  107.750  153.364
  540.250    4.456    0.213    0.391  112.445  153.059
  540.500    4.423    0.202    0.399  116.225  153.058
  540.750    4.449    0.186    0.411  119.396  152.956
  541.000    4.483    0.157    0.421  122.017  153.261
  541.250    4.543    0.173    0.429  122.139  153.768
  541.500    4.613    0.188    0.437  117.809  154.073
  541.750    4.666    0.198    0.436  112.443  154.174
  542.000    4.675    0.180    0.421  107.382  154.072
  542.250    4.658    0.181    0.411  103.845  153.766
  542.500    4.598    0.199    0.406  103.296  153.766
  542.750    4.615    0.213    0.411  108.418  153.867
  543.000    4.921    0.181    0.418  103.112  154.375
  543.250    5.277    0.160    0.431   88.051  155.594
  543.500    6.055    0.125    0.237   75.795  155.085
  543.750    8.032    0.000    0.198   44.758  154.272
  544.000   11.973    0.000    0.174   31.648  153.661
  544.250   19.281    0.000    0.121   26.953  153.051
  544.500   24.771    0.000    0.097   21.708  152.746
  544.750   27.117    0.009    0.091   18.659  152.745
  545.000   27.897    0.017    0.113   27.318  152.745
