~VERSION INFORMATION
 VERS.                 2.0:   CWLS LOG ASCII STANDARD -VERSION 2.0
 WRAP.                  NO:   ONE LINE PER DEPTH STEP
~WELL INFORMATION BLOCK
#MNEM.UNIT           DATA                    DESCRIPTION OF MNEMONIC
#---------    -------------------            -------------------------------
# Generated from Intellog Unique Number	CS_69_70/WELL/850
NULL.         -999.25                        : NULL_VALUE
WELL.         KISSINGER POETROLEUMS          : Well_name    - WELL              
LOC .         00/07-35-070-11W4/0            : Location     - LOCATION          
UWI .         00/07-35-070-11W4/0            : Uwi          - UNIQUE WELL ID    
ENTR.         SP                             : Entered      - ENTERED BY        
SRVC.         SCHLUMBERGER                   : Scn          - SERVICE COMPANY   
STRT.M        290                            : top_depth    - START DEPTH       
STOP.M        515                            : bot_depth    - STOP DEPTH        
STEP.M        0.25                           : increment    - STEP LENGTH       
~CURVE INFORMATION BLOCK
#MNEM UNIT       ERCB CURVE CODE    CURVE DESCRIPTION
#-----------   ------------------   ----------------------------------
DEPT.M        00 001 00 00         : DEPTH        - DEPTH                       
ILD .OHMM     00 120 00 00         : RESD         - DEEP RESISTIVITY (DIL)      
DPHI.V/V      00 890 00 00         : PHID         - DENSITY POROSITY (LIMESTONE)
NPHI.V/V      00 330 00 00         : PHIN         - NEUTRON POROSITY (LIMESTONE)
GR  .API      00 310 00 00         : GR           - GAMMA RAY                   
~PARAMETER INFORMATION       
#MNEM.UNIT           DATA             DESCRIPTION OF MNEMONIC
#---------         -----------     ------------------------------
GL  .M        622                  : gl           - GROUND LEVEL ELEVATION      
EREF.M        625.35               : kb           - ELEVATION OF DEPTH REFERENCE
DATM.M        622                  : datum        - DATUM ELEVATION             
TDD .M        515                  : tdd          - TOTAL DEPTH DRILLER         
RUN .         ONE                  : Run          - RUN NUMBER                  
ENG .         BILL                 : Engineer     - RECORDING ENGINEER          
WIT .         JIM                  : Witness      - WITNESSED BY                
MUD .         GEL                  : Mud_type     - MUD TYPE                    
MATR.         LIMESTONE            : Logunit      - NEUTRON MATRIX              
TMAX.C        18                   : BHT          - MAXIMUM RECORDED TEMPERATURE
BHTD.M        515                  : BHTDEP       - MAXIMUM RECORDED TEMPERATURE
MATR.         1                    : LOGUNIT      - NEUTRON MATRIX              
RMT .C        25                   : MDTP         - TEMPERATURE OF MUD          
NEUT.         1                    : NEUTRON      - NEUTRON TYPE                
RESI.         0                    : RESIST       - RESISTIVITY TYPE            
RMC .OHMM     0.25                 : RMC          - RESISTIVITY OF MUD CAKE     
RMF .OHMM     0.25                 : RMF          - RESISTIVITY OF MUD FILTRATE 
SUFT.C        15                   : SUFT         - SURFACE TEMPERATURE         
~A  DEPTH     RESD     PHID     PHIN       GR
  290.000    3.198    0.223    0.439  122.244
  290.250    3.405    0.232    0.440  124.010
  290.500    3.652    0.199    0.450  125.291
  290.750    3.867    0.190    0.454  121.795
  291.000    3.849    0.204    0.452  119.933
  291.250    3.695    0.214    0.436  120.851
  291.500    3.565    0.202    0.429  119.534
  291.750    3.419    0.210    0.429  120.815
  292.000    3.314    0.220    0.446  120.403
  292.250    3.296    0.222    0.460  117.450
  292.500    3.342    0.231    0.474  114.741
  292.750    3.437    0.249    0.486  113.785
  293.000    3.540    0.268    0.444  117.668
  293.250    3.522    0.254    0.427  115.502
  293.500    3.312    0.234    0.410  114.606
  293.750    3.222    0.223    0.408  114.255
  294.000    3.100    0.235    0.429  116.203
  294.250    3.035    0.259    0.451  116.214
  294.500    3.001    0.277    0.467  114.714
  294.750    3.096    0.282    0.458  111.219
  295.000    3.367    0.316    0.452  108.992
  295.250    3.846    0.357    0.446  105.797
  295.500    4.525    0.444    0.470  100.246
  295.750    5.285    0.291    0.507   95.176
  296.000    6.149    0.257    0.573   89.320
  296.250    7.438    0.244    0.414   83.465
  296.500    8.270    0.239    0.326   79.546
  296.750    7.291    0.245    0.265   76.472
  297.000    6.544    0.278    0.301   73.762
  297.250    5.805    0.305    0.312   71.355
  297.500    5.442    0.298    0.325   70.277
  297.750    5.168    0.291    0.336   75.672
  298.000    4.950    0.303    0.347   76.834
  298.250    4.957    0.318    0.354   74.668
  298.500    5.132    0.323    0.361   72.744
  298.750    5.234    0.301    0.348   74.510
  299.000    5.305    0.303    0.342   82.084
  299.250    5.343    0.319    0.323   84.877
  299.500    5.245    0.328    0.326   85.735
  299.750    5.140    0.322    0.332   79.879
  300.000    5.186    0.313    0.343   73.662
  300.250    5.441    0.300    0.352   70.891
  300.500    5.784    0.171    0.359   89.593
  300.750    6.215    0.058    0.343   98.134
  301.000    6.695   -0.002    0.314   98.389
  301.250    6.981    0.146    0.321   92.956
  301.500    7.092    0.186    0.341   90.428
  301.750    6.674    0.210    0.360   93.947
  302.000    6.271    0.202    0.374  102.910
  302.250    5.933    0.201    0.389  110.786
  302.500    5.803    0.205    0.381  116.907
  302.750    5.882    0.217    0.380  122.485
  303.000    5.920    0.213    0.384  127.335
  303.250    5.967    0.199    0.386  126.499
  303.500    5.677    0.203    0.384  125.059
  303.750    5.731    0.213    0.384  124.526
  304.000    5.978    0.216    0.392  122.543
  304.250    6.185    0.235    0.372  119.288
  304.500    6.111    0.258    0.360  112.102
  304.750    5.981    0.314    0.364   92.032
  305.000    5.691    0.315    0.342   82.064
  305.250    5.409    0.324    0.347   71.914
  305.500    5.167    0.327    0.354   61.038
  305.750    5.005    0.319    0.352   60.566
  306.000    4.899    0.331    0.351   56.888
  306.250    4.922    0.334    0.351   52.303
  306.500    4.984    0.321    0.357   53.222
  306.750    5.078    0.320    0.366   56.380
  307.000    5.149    0.326    0.364   56.693
  307.250    5.212    0.329    0.364   55.858
  307.500    5.162    0.324    0.370   56.112
  307.750    5.008    0.324    0.367   57.273
  308.000    4.991    0.325    0.369   61.882
  308.250    5.165    0.306    0.376   67.338
  308.500    5.356    0.271    0.380   77.995
  308.750    5.507    0.251    0.409   88.228
  309.000    5.553    0.205    0.428   99.431
  309.250    5.319    0.141    0.435  105.431
  309.500    4.901    0.133    0.445  110.645
  309.750    4.434    0.175    0.451  118.580
  310.000    4.024    0.183    0.446  122.644
  310.250    3.574    0.173    0.442  126.648
  310.500    3.115    0.195    0.453  132.286
  310.750    2.817    0.214    0.452  134.293
  311.000    2.847    0.242    0.439  130.373
  311.250    3.367    0.256    0.439  129.117
  311.500    4.086    0.268    0.429  126.042
  311.750    5.135    0.277    0.400  111.114
  312.000    6.440    0.264    0.363  102.536
  312.250    7.312    0.251    0.368   98.918
  312.500    7.871    0.240    0.380   98.265
  312.750    8.142    0.150    0.358   96.707
  313.000    8.141    0.077    0.330   97.080
  313.250    7.891    0.188    0.341   97.758
  313.500    7.584    0.243    0.386   96.317
  313.750    7.246    0.256    0.400  100.018
  314.000    6.932    0.244    0.401  106.746
  314.250    6.578    0.254    0.408  111.112
  314.500    6.424    0.248    0.414  114.752
  314.750    6.302    0.183    0.422  114.945
  315.000    6.116    0.133    0.421  119.372
  315.250    5.786    0.156    0.403  123.860
  315.500    5.431    0.178    0.409  128.046
  315.750    5.085    0.182    0.417  131.082
  316.000    4.763    0.190    0.423  130.610
  316.250    4.561    0.188    0.424  129.411
  316.500    4.359    0.200    0.414  133.417
  316.750    4.341    0.204    0.403  136.696
  317.000    4.556    0.214    0.401  139.428
  317.250    4.883    0.234    0.406  142.101
  317.500    5.339    0.249    0.414  145.079
  317.750    5.746    0.242    0.404  146.117
  318.000    6.081    0.245    0.382  139.536
  318.250    6.328    0.280    0.365  129.628
  318.500    6.358    0.332    0.373  122.018
  318.750    6.292    0.360    0.390  116.766
  319.000    6.123    0.347    0.398  111.577
  319.250    6.049    0.328    0.394  109.957
  319.500    6.151    0.321    0.391  109.363
  319.750    6.414    0.316    0.390  109.315
  320.000    6.613    0.299    0.389  109.326
  320.250    6.732    0.278    0.389  111.394
  320.500    6.794    0.259    0.389  113.100
  320.750    6.776    0.241    0.387  114.139
  321.000    6.670    0.267    0.382  114.272
  321.250    6.525    0.288    0.384  113.135
  321.500    6.363    0.297    0.378  106.010
  321.750    6.514    0.311    0.373  100.881
  322.000    6.624    0.318    0.372   98.897
  322.250    6.502    0.321    0.375   98.725
  322.500    6.597    0.301    0.375   98.919
  322.750    6.764    0.285    0.374   98.388
  323.000    6.931    0.270    0.372   97.979
  323.250    7.081    0.266    0.369  102.828
  323.500    7.160    0.264    0.366  107.434
  323.750    7.166    0.260    0.364  112.587
  324.000    7.076    0.249    0.362  115.745
  324.250    6.931    0.234    0.376  115.333
  324.500    6.801    0.214    0.408  114.379
  324.750    6.815    0.233    0.419  114.631
  325.000    6.886    0.246    0.422  114.401
  325.250    7.012    0.256    0.416  111.872
  325.500    7.139    0.262    0.410  105.715
  325.750    7.250    0.251    0.409  103.973
  326.000    7.304    0.243    0.413  105.435
  326.250    7.238    0.246    0.413  107.746
  326.500    6.780    0.244    0.399  109.331
  326.750    6.089    0.243    0.389  110.250
  327.000    5.286    0.283    0.412  110.624
  327.250    4.811    0.292    0.446  116.685
  327.500    4.265    0.272    0.473  120.870
  327.750    3.998    0.261    0.475  123.180
  328.000    4.229    0.266    0.477  122.768
  328.250    4.661    0.272    0.473  119.332
  328.500    5.084    0.269    0.448  116.261
  328.750    5.331    0.259    0.445  114.880
  329.000    5.465    0.255    0.448  115.013
  329.250    5.536    0.250    0.437  116.295
  329.500    5.719    0.266    0.430  116.185
  329.750    5.982    0.297    0.428  108.335
  330.000    6.285    0.329    0.413  101.694
  330.250    6.604    0.349    0.402   97.229
  330.500    6.883    0.351    0.394   94.398
  330.750    7.250    0.351    0.394   95.439
  331.000    7.456    0.336    0.387   97.264
  331.250    7.583    0.307    0.372   95.703
  331.500    7.373    0.272    0.365   93.356
  331.750    7.131    0.260    0.382   98.510
  332.000    7.322    0.276    0.400  101.969
  332.250    7.609    0.280    0.411  102.162
  332.500    7.864    0.284    0.411   98.544
  332.750    8.022    0.296    0.408   97.044
  333.000    8.021    0.304    0.419   95.967
  333.250    7.795    0.312    0.427   96.281
