~VERSION INFORMATION
 VERS.                 2.0:   CWLS LOG ASCII STANDARD -VERSION 2.0
 WRAP.                  NO:   ONE LINE PER DEPTH STEP
~WELL INFORMATION BLOCK
#MNEM.UNIT           DATA                    DESCRIPTION OF MNEMONIC
#---------    -------------------            -------------------------------
# Generated from Intellog Unique Number	CW_79_81/WELL/2451
WELL.         06-15-080-22W4                 : Well_name    - WELL
LOC .         00/06-15-080-22W4/0            : Location     - LOCATION
UWI .         00/06-15-080-22W4/0            : Uwi          - UNIQUE WELL ID
ENTR.         MAX                            : Entered      - ENTERED BY
SRVC.         SCHLUMBERGER                   : Scn          - SERVICE COMPANY
STRT.M        215                            : top_depth    - START DEPTH
STOP.M        434.75                         : bot_depth    - STOP DEPTH
STEP.M        0.25                           : increment    - STEP LENGTH
 NULL. -999.2500:NULL Value
~CURVE INFORMATION BLOCK
#MNEM UNIT       ERCB CURVE CODE    CURVE DESCRIPTION
#-----------   ------------------   ----------------------------------
DEPT.M        00 001 00 00         : DEPTH        - DEPTH
ILD .OHMM     00 120 00 00         : RESD         - DEEP RESISTIVITY (DIL)
NPHI.V/V      00 330 00 00         : PHIN         - NEUTRON POROSITY (SANDSTONE)
DPHI.V/V      00 890 00 00         : PHID         - DENSITY POROSITY (SANDSTONE)
GR  .API      00 310 00 00         : GR           - GAMMA RAY
CALI.MM       00 280 01 00         : CAL          - CALIPER
~PARAMETER INFORMATION
#MNEM.UNIT           DATA             DESCRIPTION OF MNEMONIC
#---------         -----------     ------------------------------
GL  .M        586                  : gl           - GROUND LEVEL ELEVATION
EREF.M        590.5                : kb           - ELEVATION OF DEPTH REFERENCE
DATM.M        586                  : datum        - DATUM ELEVATION
TDD .M        440                  : tdd          - TOTAL DEPTH DRILLER
RUN .         ONE                  : Run          - RUN NUMBER
ENG .         BILL                 : Engineer     - RECORDING ENGINEER
WIT .         JIM                  : Witness      - WITNESSED BY
MUD .         GEL                  : Mud_type     - MUD TYPE
MATR.         SANDSTONE            : Logunit      - NEUTRON MATRIX
TMAX.C        28                   : BHT          - MAXIMUM RECORDED TEMPERATURE
BHTD.M        440                  : BHTDEP       - MAXIMUM RECORDED TEMPERATURE
MATR.         1                    : LOGUNIT      - NEUTRON MATRIX
RMT .C        17                   : MDTP         - TEMPERATURE OF MUD
NEUT.         1                    : NEUTRON      - NEUTRON TYPE
RESI.         0                    : RESIST       - RESISTIVITY TYPE
RMC .OHMM     7.25                 : RMC          - RESISTIVITY OF MUD CAKE
RMF .OHMM     6.53                 : RMF          - RESISTIVITY OF MUD FILTRATE
SUFT.C        -20.5556             : SUFT         - SURFACE TEMPERATURE
~A  DEPTH     RESD     PHIN     PHID       GR      CAL
# ...
  397.500   13.056    0.367    0.192   93.271  230.344
  397.750   13.812    0.346    0.226   78.217  228.403
  398.000   15.491    0.338    0.245   61.974  224.345
  398.250   18.284    0.352    0.257   57.276  224.794
  398.500   24.042    0.358    0.272   53.458  225.239
  398.750   31.748    0.349    0.280   49.107  225.293
  399.000   38.417    0.332    0.276   44.168  224.956
  399.250   46.684    0.331    0.262   39.851  224.457
  399.500   57.106    0.342    0.277   39.392  223.692
  399.750   63.161    0.330    0.285   39.425  224.936
  400.000   66.583    0.340    0.288   38.922  224.688
  400.250   66.186    0.347    0.288   38.358  224.145
  400.500   62.626    0.346    0.286   38.564  224.002
  400.750   56.936    0.350    0.283   41.177  224.708
  401.000   52.775    0.345    0.280   43.431  225.992
  401.250   47.682    0.340    0.274   43.943  227.241
  401.500   43.326    0.340    0.264   44.444  227.586
  401.750   39.451    0.346    0.257   44.356  227.832
  402.000   36.339    0.355    0.257   43.919  228.280
  402.250   33.981    0.359    0.267   44.336  228.735
  402.500   31.722    0.367    0.277   45.110  228.791
  402.750   29.861    0.369    0.283   45.850  227.657
  403.000   27.388    0.379    0.288   50.852  225.343
  403.250   24.669    0.393    0.287   57.276  223.620
  403.500   22.360    0.400    0.278   63.226  223.474
  403.750   20.955    0.375    0.259   67.861  225.534
  404.000   20.392    0.358    0.246   68.389  227.646
  404.250   19.863    0.350    0.241   69.368  228.873
  404.500   18.175    0.333    0.215   75.673  229.817
  404.750   15.849    0.324    0.158   83.754  230.463
  405.000   13.068    0.325    0.107   90.946  230.908
  405.250    9.846    0.327    0.146   95.631  231.367
  405.500    8.818    0.344    0.169   96.405  231.418
  405.750    8.021    0.359    0.155   90.991  231.873
  406.000    7.224    0.363    0.162   90.371  232.323
  406.250    6.796    0.373    0.177   89.574  232.572
  406.500    6.756    0.386    0.191   83.924  232.720
  406.750    7.173    0.385    0.205   67.816  233.259
  407.000    8.218    0.396    0.226   61.692  233.738
  407.250   10.938    0.383    0.239   63.845  232.987
  407.500   14.471    0.366    0.220   73.644  232.549
  407.750   18.214    0.335    0.182   83.502  232.603
  408.000   18.189    0.310    0.144   91.165  233.147
  408.250   11.309    0.348    0.138  101.452  234.084
  408.500    8.124    0.381    0.172  110.116  234.552
  408.750    7.861    0.395    0.175  111.569  233.812
  409.000    7.882    0.386    0.166  105.031  232.788
  409.250    7.997    0.389    0.169   98.079  232.251
  409.500    8.219    0.402    0.188   90.773  232.199
  409.750    9.342    0.385    0.211   72.650  231.788
  410.000   13.441    0.367    0.243   57.643  231.434
  410.250   17.123    0.364    0.256   56.965  231.094
  410.500   21.437    0.356    0.258   58.063  230.745
  410.750   28.180    0.352    0.252   60.225  230.597
  411.000   37.433    0.353    0.244   62.799  230.650
  411.250   35.104    0.353    0.241   65.403  230.714
  411.500   30.376    0.347    0.233   66.423  230.788
  411.750   25.602    0.335    0.222   68.350  230.043
  412.000   23.902    0.336    0.215   70.273  229.001
  412.250   23.210    0.333    0.203   70.896  228.067
  412.500   22.843    0.324    0.186   69.568  227.237
  412.750   22.779    0.326    0.170   66.490  225.785
  413.000   23.121    0.329    0.172   67.507  224.198
  413.250   23.296    0.325    0.180   67.537  223.469
  413.500   23.238    0.320    0.179   68.814  223.323
  413.750   22.234    0.316    0.177   71.215  223.570
  414.000   20.107    0.315    0.176   75.566  224.309
  414.250   14.931    0.329    0.172   85.228  226.523
  414.500    8.884    0.382    0.160   93.153  229.456
  414.750    7.486    0.455    0.160   96.736  231.094
  415.000    6.917    0.437    0.150   88.068  231.832
  415.250    6.721    0.392    0.139   79.577  231.687
  415.500    6.716    0.356    0.128   73.633  231.152
  415.750    6.852    0.337    0.113   63.875  231.294
  416.000    7.053    0.301    0.097   70.567  231.756
  416.250    7.349    0.328    0.134   81.013  232.599
  416.500    7.812    0.379    0.153   88.266  232.267
  416.750    8.339    0.399    0.162   85.220  231.530
  417.000    8.884    0.383    0.170   73.356  230.982
  417.250    9.533    0.384    0.200   61.211  231.053
  417.500    9.609    0.410    0.253   53.598  231.110
  417.750    8.864    0.477    0.324   67.598  231.548
  418.000    8.394    0.555    0.375   77.337  231.411
  418.250    8.208    0.576    0.364   83.406  231.071
  418.500    8.270    0.530    0.306   86.220  230.820
  418.750    8.519    0.468    0.283   87.946  231.045
  419.000    8.588    0.517    0.308   97.596  231.924
  419.250    8.252    0.533    0.302  104.492  231.978
  419.500    7.525    0.506    0.285  111.745  231.445
  419.750    7.151    0.473    0.252  109.527  230.911
  420.000    7.251    0.453    0.208   99.852  230.668
  420.250    7.818    0.440    0.169   95.885  230.565
  420.500    8.705    0.437    0.201   92.471  229.806
  420.750   10.678    0.425    0.237   89.657  229.844
  421.000   13.618    0.398    0.263   84.362  229.302
  421.250   17.747    0.348    0.309   79.067  228.568
  421.500   22.314    0.290    0.364   73.949  227.931
  421.750   24.741    0.259    0.368   64.813  227.516
  422.000   28.764    0.257    0.336   54.491  227.167
  422.250   32.237    0.293    0.294   48.847  226.822
  422.500   33.767    0.292    0.226   47.457  226.180
  422.750   34.144    0.285    0.165   48.315  225.443
  423.000   34.176    0.289    0.126   50.062  224.709
  423.250   34.494    0.310    0.118   51.998  223.657
  423.500   36.024    0.342    0.170   52.029  222.070
  423.750   38.807    0.370    0.237   50.398  221.330
  424.000   41.818    0.389    0.225   46.464  221.486
  424.250   45.794    0.400    0.196   41.169  222.918
  424.500   51.481    0.395    0.179   34.572  225.136
  424.750   61.970    0.353    0.150   24.913  226.621
  425.000   78.043    0.310    0.082   20.262  225.856
  425.250   92.717    0.312    0.058   19.819  223.938
  425.500  111.932    0.314    0.070   21.330  223.491
  425.750  101.569    0.304    0.086   25.505  224.529
  426.000   56.750    0.277    0.093   35.952  226.264
  426.250   25.576    0.233    0.090   60.725  227.036
  426.500   22.136    0.242    0.095   68.402  226.676
  426.750   23.218    0.283    0.116   54.701  225.936
  427.000   25.937    0.302    0.120   49.346  224.900
  427.250   31.216    0.311    0.142   51.628  224.163
  427.500   40.165    0.326    0.187   55.151  224.416
  427.750   51.688    0.363    0.220   46.075  226.705
  428.000   53.985    0.350    0.218   37.232  227.989
  428.250   52.580    0.319    0.177   37.498  228.049
  428.500   49.661    0.298    0.160   41.672  228.097
  428.750   47.771    0.327    0.176   44.784  228.346
  429.000   47.721    0.393    0.202   43.812  228.305
  429.250   49.962    0.431    0.179   36.950  226.376
  429.500   52.919    0.414    0.162   33.286  224.378
  429.750   53.330    0.376    0.141   34.975  224.038
  430.000   50.778    0.329    0.120   37.550  225.465
  430.250   45.635    0.293    0.110   39.480  227.092
  430.500   41.432    0.275    0.117   39.873  227.837
  430.750   42.961    0.277    0.156   38.532  226.951
  431.000   46.486    0.308    0.239   38.816  226.191
  431.250   51.759    0.342    0.289   40.502  226.635
  431.500   57.669    0.363    0.304   39.349  227.087
  431.750   63.100    0.371    0.304   37.366  227.533
  432.000   64.629    0.365    0.296   36.331  227.875
  432.250   55.005    0.343    0.278   38.136  227.860
  432.500   43.320    0.333    0.247   39.896  227.512
  432.750   42.488    0.335    0.226   40.645  227.555
  433.000   44.039    0.332    0.181   40.675  227.603
  433.250   44.855    0.321    0.147   40.468  227.852
  433.500   43.457    0.301    0.136   40.500  228.205
  433.750   38.749    0.270    0.139   41.248  228.115
