~VERSION INFORMATION
 VERS.                 2.0:   CWLS LOG ASCII STANDARD -VERSION 2.0
 WRAP.                  NO:   ONE LINE PER DEPTH STEP
~WELL INFORMATION BLOCK
#MNEM.UNIT           DATA                    DESCRIPTION OF MNEMONIC
#---------    -------------------            -------------------------------
# Generated from Intellog Unique Number	CS_77_79/WELL/5037
WELL.         MESA HB LEISMER                : Well_name    - WELL
LOC .         00/07-35-078-10W4/0            : Location     - LOCATION
UWI .         00/07-35-078-10W4/0            : Uwi          - UNIQUE WELL ID
ENTR.         JOE                            : Entered      - ENTERED BY
SRVC.         SCHLUMBERGER                   : Scn          - SERVICE COMPANY
STRT.M        231.648                        : top_depth    - START DEPTH
STOP.M        463.148                        : bot_depth    - STOP DEPTH
STEP.M        0.25                           : increment    - STEP LENGTH
 NULL. -999.2500:NULL Value
~CURVE INFORMATION BLOCK
#MNEM UNIT       ERCB CURVE CODE    CURVE DESCRIPTION
#-----------   ------------------   ----------------------------------
DEPT.M        00 001 00 00         : DEPTH        - DEPTH
RHOB.KG/M3    00 350 00 00         : DENS         - BULK DENSITY
GR  .API      00 310 00 00         : GR           - GAMMA RAY
DPHI.V/V      00 890 00 00         : PHID         - DENSITY POROSITY (SANDSTONE)
NPHI.V/V      00 330 00 00         : PHIN         - NEUTRON POROSITY (SANDSTONE)
ILD .OHMM     00 120 00 00         : RESD         - DEEP RESISTIVITY (DIL)
~PARAMETER INFORMATION
#MNEM.UNIT           DATA             DESCRIPTION OF MNEMONIC
#---------         -----------     ------------------------------
GL  .M        657.454              : gl           - GROUND LEVEL ELEVATION
EREF.M        661.416              : kb           - ELEVATION OF DEPTH REFERENCE
DATM.M        661.416              : datum        - DATUM ELEVATION
TDD .M        475.488              : tdd          - TOTAL DEPTH DRILLER
RUN .         ONE                  : Run          - RUN NUMBER
ENG .         BILL                 : Engineer     - RECORDING ENGINEER
WIT .         JIM                  : Witness      - WITNESSED BY
MUD .         GEL                  : Mud_type     - MUD TYPE
MATR.         SANDSTONE            : Logunit      - NEUTRON MATRIX
TMAX.C        23                   : BHT          - MAXIMUM RECORDED TEMPERATURE
BHTD.M        405                  : BHTDEP       - MAXIMUM RECORDED TEMPERATURE
MATR.         1                    : LOGUNIT      - NEUTRON MATRIX
RMT .C        25                   : MDTP         - TEMPERATURE OF MUD
NEUT.         1                    : NEUTRON      - NEUTRON TYPE
RESI.         0                    : RESIST       - RESISTIVITY TYPE
RMC .OHMM     0.25                 : RMC          - RESISTIVITY OF MUD CAKE
RMF .OHMM     0.25                 : RMF          - RESISTIVITY OF MUD FILTRATE
SUFT.C        15                   : SUFT         - SURFACE TEMPERATURE
~A  DEPTH     DENS       GR     PHID     PHIN     RESD
# ...
  377.648   -2.509   77.695    0.286    0.411    6.557
  377.898 -238.041   79.429    0.303    0.458    6.172
  378.148 2399.120   77.673    0.307    0.468    5.975
  378.398 2161.790   75.607    0.314    0.468    5.991
  378.648 2177.010   75.104    0.309    0.468    6.055
  378.898 2190.040   77.094    0.304    0.477    6.108
  379.148 2175.460   79.157    0.313    0.489    6.130
  379.398 2183.430   78.840    0.308    0.480    6.014
  379.648 2211.900   78.502    0.291    0.459    5.907
  379.898 2203.750   77.451    0.296    0.461    5.833
  380.148 2205.190   77.427    0.295    0.466    5.786
  380.398 2221.530   76.775    0.286    0.475    5.606
  380.648 2215.980   76.646    0.289    0.481    5.448
  380.898 2231.640   79.092    0.280    0.493    5.316
  381.148 2225.670   80.935    0.283    0.468    5.232
  381.398 2256.990   84.998    0.265    0.453    5.293
  381.648 2260.760   87.440    0.263    0.474    5.332
  381.898 2284.400   89.533    0.249    0.464    5.883
  382.148 2268.300   87.472    0.258    0.465    6.489
  382.398 2220.370   83.736    0.286    0.461    7.164
  382.648 2191.170   81.249    0.303    0.441    8.633
  382.898 2185.580   77.532    0.307    0.435   11.130
  383.148 2210.460   70.140    0.292    0.424   13.613
  383.398 2270.410   64.968    0.257    0.394   16.839
  383.648 2330.610   62.814    0.222    0.348   19.118
  383.898 2572.950   58.471    0.080    0.283   17.282
  384.148 2698.540   59.426    0.007    0.198   12.893
  384.398 2707.030   62.099    0.002    0.188   10.063
  384.648 2657.100   66.112    0.031    0.224    8.487
  384.898 2613.870   69.019    0.056    0.315    7.147
  385.148 2380.190   72.643    0.193    0.443    6.468
  385.398 2227.060   74.630    0.282    0.449    6.202
  385.648 2225.270   74.792    0.283    0.434    6.171
  385.898 2197.170   74.099    0.300    0.443    6.306
  386.148 2223.190   71.996    0.285    0.442    6.304
  386.398 2256.200   72.912    0.265    0.459    6.312
  386.648 2276.620   74.902    0.253    0.442    6.320
  386.898 2288.020   77.416    0.247    0.435    6.173
  387.148 2266.400   80.952    0.259    0.441    5.961
  387.398 2232.980   87.240    0.279    0.441    5.786
  387.648 2291.910   92.387    0.244    0.438    5.674
  387.898 2298.810   91.401    0.240    0.463    5.691
  388.148 2309.830   88.910    0.234    0.478    5.593
  388.398 2349.050   86.940    0.211    0.481    5.708
  388.648 2397.670   85.776    0.183    0.464    5.693
  388.898 2372.170   86.253    0.198    0.445    5.602
  389.148 2331.400   88.334    0.221    0.427    5.621
  389.398 2296.880   92.029    0.242    0.428    5.511
  389.648 2306.600   94.627    0.236    0.456    5.458
  389.898 2354.080   95.862    0.208    0.473    5.320
  390.148 2341.180   97.920    0.216    0.475    5.332
  390.398 2328.420   98.973    0.223    0.461    5.325
  390.648 2316.010   99.183    0.230    0.453    5.441
  390.898 2329.470   98.649    0.223    0.455    5.643
  391.148 2327.210   97.700    0.224    0.463    5.705
  391.398 2357.720   96.835    0.206    0.471    5.899
  391.648 2373.590   98.464    0.197    0.440    6.087
  391.898 2329.460   99.284    0.223    0.426    6.241
  392.148 2375.330  100.083    0.196    0.433    6.090
  392.398 2349.830  104.199    0.211    0.432    5.547
  392.648 2321.740  105.986    0.227    0.428    5.186
  392.898 2326.310  105.922    0.224    0.436    4.731
  393.148 2362.020  105.040    0.203    0.448    4.284
  393.398 2341.010  102.371    0.216    0.460    3.720
  393.648 2302.760   99.469    0.238    0.475    3.180
  393.898 2330.430   94.458    0.222    0.490    2.882
  394.148 2323.460   91.019    0.226    0.489    2.486
  394.398 2309.340   93.167    0.234    0.497    2.171
  394.648 2340.620   97.886    0.216    0.512    2.040
  394.898 2253.510   97.524    0.267    0.538    1.966
  395.148 2206.640   90.213    0.294    0.579    1.902
  395.398 2239.640   87.940    0.275    0.573    1.939
  395.648 2252.910   88.083    0.267    0.566    1.978
  395.898 2209.630   86.435    0.293    0.567    2.026
  396.148 2196.570   86.272    0.300    0.561    2.122
  396.398 2197.010   88.221    0.300    0.557    2.173
  396.648 2199.770   90.962    0.298    0.547    2.424
  396.898 2231.000   93.035    0.280    0.562    2.721
  397.148 2259.570   91.404    0.263    0.564    3.071
  397.398 2248.380   90.009    0.270    0.531    3.489
  397.648 2302.400   92.006    0.238    0.517    4.135
  397.898 2334.990   96.130    0.219    0.491    4.588
  398.148 2375.220   96.071    0.196    0.463    5.027
  398.398 2385.200   93.680    0.190    0.463    5.626
  398.648 2345.990   92.904    0.213    0.481    5.807
  398.898 2372.750   90.194    0.197    0.476    5.587
  399.148 2405.140   90.351    0.178    0.432    4.985
  399.398 2412.070   91.750    0.174    0.407    4.537
  399.648 2423.390   94.042    0.168    0.417    4.066
  399.898 2443.320   98.131    0.156    0.436    3.870
  400.148 2399.870  101.471    0.181    0.461    3.677
  400.398 2372.790  104.607    0.197    0.475    3.561
  400.648 2353.790  106.006    0.208    0.478    3.410
  400.898 2340.570  106.594    0.216    0.454    3.240
  401.148 2340.640  108.839    0.216    0.461    3.150
  401.398 2346.110  112.371    0.213    0.475    3.053
  401.648 2344.820  111.418    0.214    0.479    3.047
  401.898 2318.970  105.343    0.229    0.475    3.119
  402.148 2319.890  102.006    0.228    0.517    3.328
  402.398 2357.550  105.099    0.206    0.537    3.519
  402.648 2361.520  106.283    0.204    0.542    3.739
  402.898 2334.850  103.561    0.219    0.494    3.860
  403.148 2303.500  100.634    0.238    0.468    3.888
  403.398 2351.830  100.894    0.209    0.471    4.096
  403.648 2369.240  102.591    0.199    0.477    4.319
  403.898 2333.320  102.473    0.220    0.484    4.528
  404.148 2316.270   97.949    0.230    0.495    4.824
  404.398 2342.830   93.056    0.215    0.480    5.124
  404.648 2378.590   92.105    0.194    0.444    5.444
  404.898 2401.920   93.933    0.180    0.428    5.879
  405.148 2412.350   99.144    0.174    0.446    6.304
  405.398 2435.210   96.830    0.161    0.484    6.923
  405.648 2374.780   89.876    0.196    0.471    7.813
  405.898 2433.560   81.691    0.162    0.439    9.084
  406.148 2416.700   77.285    0.172    0.400    9.979
  406.398 2432.210   77.839    0.162    0.379   10.483
  406.648 2361.720   78.633    0.204    0.377   11.083
  406.898 2292.010   78.605    0.244    0.385   11.546
  407.148 2304.310   76.692    0.237    0.392   12.493
  407.398 2307.600   75.044    0.235    0.394   13.934
  407.648 2317.700   73.984    0.229    0.379   16.964
  407.898 2327.990   73.418    0.223    0.403   21.438
  408.148 2286.480   71.339    0.248    0.417   27.723
  408.398 2279.720   70.566    0.252    0.390   38.312
  408.648 2292.670   76.290    0.244    0.380   49.236
  408.898 2236.160   81.151    0.277    0.401   49.910
  409.148 2206.630   79.872    0.294    0.424   41.568
  409.398 2210.230   82.701    0.292    0.389   29.754
  409.648 2236.220   85.310    0.277    0.392   28.204
  409.898 2228.990   87.487    0.281    0.414   29.307
  410.148 2242.960   85.010    0.273    0.428   32.030
  410.398 2265.610   76.424    0.260    0.433   39.753
  410.648 2261.730   61.686    0.262    0.402   54.695
  410.898 2231.680   57.813    0.280    0.380   66.451
  411.148 2194.370   58.875    0.302    0.386   64.292
  411.398 2203.440   63.309    0.296    0.400   58.899
  411.648 2199.480   65.179    0.299    0.412   52.693
  411.898 2208.570   63.519    0.293    0.391   46.712
  412.148 2237.680   64.314    0.276    0.387   41.446
  412.398 2252.480   68.904    0.268    0.406   35.365
  412.648 2251.470   73.003    0.268    0.384   27.235
  412.898 2263.040   77.668    0.261    0.372   19.641
  413.148 2277.540   83.083    0.253    0.381   16.099
  413.398 2279.290   88.954    0.252    0.376   13.399
  413.648 2304.850   94.030    0.237    0.378   11.703
  413.898 2308.100   93.984    0.235    0.391   10.172
