~VERSION INFORMATION
 VERS.                 2.0:   CWLS LOG ASCII STANDARD -VERSION 2.0
 WRAP.                  NO:   ONE LINE PER DEPTH STEP
~WELL INFORMATION BLOCK
#MNEM.UNIT           DATA                    DESCRIPTION OF MNEMONIC
#---------    -------------------            -------------------------------
# Generated from Intellog Unique Number	CW_70_72/WELL/994
NULL.         -999.25                        : NULL_VALUE
WELL.         CHIEFCO ET AL CALLW 09-19      : Well_name    - WELL              
LOC .         09-19-071-20W4                 : Location     - LOCATION          
UWI .         00/09-19-071-20W4/0            : Uwi          - UNIQUE WELL ID    
ENTR.         JAYE                           : Entered      - ENTERED BY        
SRVC.         SCHLUMBERGER                   : Scn          - SERVICE COMPANY   
DATE.         20 JAN 83                      : Date         - LOG DATE          
STRT.M        320                            : top_depth    - START DEPTH       
STOP.M        495                            : bot_depth    - STOP DEPTH        
STEP.M        0.25                           : increment    - STEP LENGTH       
~CURVE INFORMATION BLOCK
#MNEM UNIT       ERCB CURVE CODE    CURVE DESCRIPTION
#-----------   ------------------   ----------------------------------
DEPT.M        00 001 00 00         : DEPTH        - DEPTH                       
DPHI.V/V      00 890 00 00         : PHID         - DENSITY POROSITY (SANDSTONE)
NPHI.V/V      00 330 00 00         : PHIN         - NEUTRON POROSITY (SANDSTONE)
GR  .API      00 310 00 00         : GR           - GAMMA RAY                   
CALI.MM       00 280 01 00         : CAL          - CALIPER                     
ILD .OHMM     00 120 00 00         : RESD         - DEEP RESISTIVITY (DIL)      
~PARAMETER INFORMATION       
#MNEM.UNIT           DATA             DESCRIPTION OF MNEMONIC
#---------         -----------     ------------------------------
GL  .M        593.2                : gl           - GROUND LEVEL ELEVATION      
EREF.M        596.2                : kb           - ELEVATION OF DEPTH REFERENCE
DATM.M        593.2                : datum        - DATUM ELEVATION             
TDD .M        498                  : tdd          - TOTAL DEPTH DRILLER         
RUN .         ONE                  : Run          - RUN NUMBER                  
ENG .         GAGGINO              : Engineer     - RECORDING ENGINEER          
WIT .         BAILEY               : Witness      - WITNESSED BY                
BASE.         EDM                  : Branch       - HOME BASE OF LOGGING UNIT   
MUD .         GEL CHEM             : Mud_type     - MUD TYPE                    
MATR.         SANDSTONE            : Logunit      - NEUTRON MATRIX              
TMAX.C        22.2                 : BHT          - MAXIMUM RECORDED TEMPERATURE
BHTD.M        496.5                : BHTDEP       - MAXIMUM RECORDED TEMPERATURE
RMT .C        32.7                 : MDTP         - TEMPERATURE OF MUD          
MUDD.KG/M     1100                 : MWT          - MUD DENSITY                 
NEUT.         1                    : NEUTRON      - NEUTRON TYPE                
RESI.         0                    : RESIST       - RESISTIVITY TYPE            
RM  .OHMM     11                   : RM           - RESISTIVITY OF MUD          
RMC .OHMM     0                    : RMC          - RESISTIVITY OF MUD CAKE     
RMF .OHMM     9.9                  : RMF          - RESISTIVITY OF MUD FILTRATE 
SUFT.C        0                    : SUFT         - SURFACE TEMPERATURE         
~A  DEPTH     PHID     PHIN       GR      CAL     RESD
# ...
  356.500    0.221    0.438   87.695  167.839    5.612
  356.750    0.192    0.430   88.563  168.143    5.592
  357.000    0.190    0.440   94.845  168.345    5.584
  357.250    0.209    0.459   93.035  168.753    5.596
  357.500    0.250    0.455   89.919  168.847    5.587
  357.750    0.245    0.450   87.239  169.152    5.558
  358.000    0.240    0.448   85.865  169.250    5.518
  358.250    0.256    0.447   81.940  169.554    5.468
  358.500    0.279    0.434   77.890  169.961    5.388
  358.750    0.286    0.415   79.068  170.474    5.260
  359.000    0.283    0.407   81.616  170.363    5.096
  359.250    0.302    0.400   82.981  171.082    4.946
  359.500    0.359    0.377   87.209  175.432    4.437
  359.750    0.503    0.486   92.993  200.736    4.109
  360.000    0.380    0.505   96.661  225.625    4.019
  360.250    0.328    0.525   98.959  204.975    4.096
  360.500    0.258    0.473  101.383  179.760    4.271
  360.750    0.206    0.454  103.743  169.899    4.503
  361.000    0.193    0.445   98.075  166.261    4.730
  361.250    0.208    0.446   92.905  166.149    4.876
  361.500    0.218    0.454   90.536  166.453    4.952
  361.750    0.216    0.455   89.785  167.380    4.944
  362.000    0.216    0.443   89.531  168.826    4.927
  362.250    0.349    0.418   93.697  172.345    4.855
  362.500    0.368    0.410   99.294  207.296    4.829
  362.750    0.515    0.473   91.822  222.849    4.759
  363.000    0.353    0.508   84.161  207.490    4.698
  363.250    0.324    0.485   76.626  185.698    4.569
  363.500    0.297    0.395   67.099  171.584    4.486
  363.750    0.263    0.382   67.530  164.004    4.379
  364.000    0.263    0.387   76.551  162.336    4.274
  364.250    0.269    0.403   77.418  162.640    4.149
  364.500    0.278    0.421   71.874  162.945    4.020
  364.750    0.291    0.408   69.754  163.455    3.865
  365.000    0.307    0.396   69.998  164.175    3.738
  365.250    0.320    0.402   70.492  164.479    3.649
  365.500    0.317    0.419   71.795  165.093    3.657
  365.750    0.293    0.428   74.218  166.019    3.679
  366.000    0.270    0.426   77.326  166.635    3.771
  366.250    0.252    0.415   82.861  167.666    3.910
  366.500    0.231    0.411   91.944  169.008    4.084
  366.750    0.240    0.431   79.305  170.454    4.371
  367.000    0.275    0.418   70.151  172.209    4.481
  367.250    0.353    0.378   57.077  173.033    4.333
  367.500    0.355    0.354   48.048  174.270    4.097
  367.750    0.356    0.338   47.047  175.403    3.830
  368.000    0.367    0.327   47.977  175.605    3.642
  368.250    0.381    0.316   48.533  175.702    3.456
  368.500    0.382    0.305   49.276  175.175    3.323
  368.750    0.380    0.290   50.205  174.753    3.250
  369.000    0.377    0.302   49.080  174.331    3.227
  369.250    0.376    0.323   50.383  174.325    3.258
  369.500    0.371    0.323   53.615  174.421    3.340
  369.750    0.365    0.318   55.291  174.518    3.437
  370.000    0.359    0.323   54.291  174.406    3.510
  370.250    0.375    0.330   54.660  174.296    3.604
  370.500    0.384    0.335   55.963  173.976    3.688
  370.750    0.375    0.338   57.639  173.658    3.731
  371.000    0.370    0.341   60.312  173.548    3.718
  371.250    0.369    0.348   62.984  173.437    3.706
  371.500    0.380    0.358   63.539  173.015    3.707
  371.750    0.375    0.368   63.535  173.112    3.708
  372.000    0.366    0.362   63.406  173.311    3.709
  372.250    0.360    0.352   63.589  173.305    3.724
  372.500    0.372    0.334   63.771  173.505    3.739
  372.750    0.378    0.330   62.522  173.602    3.769
  373.000    0.374    0.341   60.277  173.596    3.813
  373.250    0.380    0.351   58.779  173.484    3.850
  373.500    0.383    0.359   57.655  173.580    3.925
  373.750    0.384    0.361   57.837  173.886    3.978
  374.000    0.381    0.368   61.816  174.293    4.024
  374.250    0.376    0.365   64.986  174.493    4.064
  374.500    0.368    0.355   60.625  174.277    4.088
  374.750    0.357    0.374   56.700  174.167    4.105
  375.000    0.361    0.400   53.584  174.158    4.068
  375.250    0.370    0.392   53.144  174.256    4.001
  375.500    0.366    0.367   54.260  174.249    3.920
  375.750    0.372    0.343   56.060  174.242    3.805
  376.000    0.382    0.363   57.923  174.441    3.722
  376.250    0.386    0.391   63.770  174.642    3.667
  376.500    0.381    0.403   63.641  174.635    3.655
  376.750    0.369    0.395   61.645  174.628    3.629
  377.000    0.362    0.388   60.147  174.623    3.616
  377.250    0.363    0.390   61.947  174.408    3.590
  377.500    0.365    0.392   63.562  174.298    3.591
  377.750    0.360    0.399   65.051  174.289    3.613
  378.000    0.357    0.403   63.740  174.387    3.648
  378.250    0.354    0.409   67.096  174.275    3.649
  378.500    0.350    0.419   70.080  174.062    3.637
  378.750    0.339    0.414   74.743  173.743    3.611
  379.000    0.328    0.397   75.299  173.217    3.598
  379.250    0.313    0.402   67.951  172.796    3.559
  379.500    0.343    0.434   61.723  173.098    3.507
  379.750    0.351    0.429   58.606  173.404    3.462
  380.000    0.350    0.403   62.337  174.018    3.393
  380.250    0.353    0.392   64.573  174.115    3.318
  380.500    0.370    0.380   62.764  172.863    3.215
  380.750    0.362    0.375   68.797  170.782    3.120
  381.000    0.356    0.392   70.597  173.161    3.029
  381.250    0.353    0.400   71.028  176.058    2.974
  381.500    0.359    0.396   70.589  177.711    2.925
  381.750    0.375    0.385   67.783  176.873    2.866
  382.000    0.383    0.364   63.672  175.000    2.835
  382.250    0.378    0.331   60.119  173.229    2.814
  382.500    0.371    0.345   59.680  172.081    2.784
  382.750    0.371    0.344   60.360  171.346    2.769
  383.000    0.383    0.336   63.032  170.820    2.759
  383.250    0.387    0.346   64.273  170.814    2.766
  383.500    0.386    0.351   62.899  171.325    2.766
  383.750    0.378    0.356   64.140  171.734    2.767
  384.000    0.367    0.361   65.069  171.934    2.763
  384.250    0.370    0.358   63.695  172.757    2.759
  384.500    0.379    0.374   61.513  172.958    2.760
  384.750    0.385    0.399   59.392  173.364    2.755
  385.000    0.388    0.412   58.578  173.149    2.751
  385.250    0.383    0.405   59.446  172.936    2.742
  385.500    0.371    0.397   61.185  173.342    2.737
  385.750    0.370    0.400   64.168  173.440    2.743
  386.000    0.375    0.395   65.159  173.640    2.796
  386.250    0.379    0.400   63.848  174.047    2.926
  386.500    0.378    0.422   64.715  174.350    3.222
  386.750    0.368    0.437   65.146  174.553    4.273
  387.000    0.355    0.449   63.773  174.752    5.785
  387.250    0.313    0.436   60.781  175.058    7.306
  387.500    0.038    0.202   56.234  174.946    8.804
  387.750    0.003    0.177   48.200  174.523    9.196
  388.000    0.035    0.157   43.839  174.206    8.421
  388.250    0.078    0.141   46.448  173.784    6.390
  388.500    0.131    0.199   49.494  173.256    5.237
  388.750    0.212    0.237   53.225  173.251    4.448
  389.000    0.253    0.268   57.453  173.243    3.990
  389.250    0.264    0.336   58.506  173.341    3.480
  389.500    0.289    0.376   59.249  173.126    3.127
  389.750    0.320    0.396   62.232  172.912    2.923
  390.000    0.341    0.407   63.348  172.176    2.743
  390.250    0.350    0.406   62.224  171.652    2.688
  390.500    0.349    0.411   65.206  170.919    2.684
  390.750    0.342    0.423   67.754  170.498    2.715
  391.000    0.343    0.432   68.746  170.074    2.778
  391.250    0.341    0.437   68.182  169.757    2.880
  391.500    0.332    0.434   67.119  169.334    3.019
  391.750    0.323    0.422   67.053  169.118    3.136
  392.000    0.304    0.429   68.418  169.008    3.215
  392.250    0.316    0.434   69.098  169.001    3.289
  392.500    0.328    0.434   67.787  169.303    3.328
  392.750    0.321    0.444   68.592  169.505    3.360
