~VERSION INFORMATION
 VERS.                 2.0:   CWLS LOG ASCII STANDARD -VERSION 2.0
 WRAP.                  NO:   ONE LINE PER DEPTH STEP
~WELL INFORMATION BLOCK
#MNEM.UNIT           DATA                    DESCRIPTION OF MNEMONIC
#---------    -------------------            -------------------------------
# Generated from Intellog Unique Number	CS_73_76/WELL/2159
WELL.         WAINOCO OIL & GAS LIMITED      : Well_name    - WELL
LOC .         00/06-05-074-12W4/0            : Location     - LOCATION
UWI .         00/06-05-074-12W4/0            : Uwi          - UNIQUE WELL ID
ENTR.         SP                             : Entered      - ENTERED BY
SRVC.         SCHLUMBERGER                   : Scn          - SERVICE COMPANY
STRT.M        295                            : top_depth    - START DEPTH
STOP.M        530                            : bot_depth    - STOP DEPTH
STEP.M        0.25                           : increment    - STEP LENGTH
 NULL. -999.2500:NULL Value
~CURVE INFORMATION BLOCK
#MNEM UNIT       ERCB CURVE CODE    CURVE DESCRIPTION
#-----------   ------------------   ----------------------------------
DEPT.M        00 001 00 00         : DEPTH        - DEPTH
ILD .OHMM     00 120 00 00         : RESD         - DEEP RESISTIVITY (DIL)
DPHI.V/V      00 890 00 00         : PHID         - DENSITY POROSITY (LIMESTONE)
NPHI.V/V      00 330 00 00         : PHIN         - NEUTRON POROSITY (LIMESTONE)
GR  .API      00 310 00 00         : GR           - GAMMA RAY
~PARAMETER INFORMATION
#MNEM.UNIT           DATA             DESCRIPTION OF MNEMONIC
#---------         -----------     ------------------------------
GL  .M        661.2                : gl           - GROUND LEVEL ELEVATION
EREF.M        664.2                : kb           - ELEVATION OF DEPTH REFERENCE
DATM.M        661.2                : datum        - DATUM ELEVATION
TDD .M        543                  : tdd          - TOTAL DEPTH DRILLER
RUN .         ONE                  : Run          - RUN NUMBER
ENG .         BILL                 : Engineer     - RECORDING ENGINEER
WIT .         JIM                  : Witness      - WITNESSED BY
MUD .         GEL                  : Mud_type     - MUD TYPE
MATR.         LIMESTONE            : Logunit      - NEUTRON MATRIX
TMAX.C        23                   : BHT          - MAXIMUM RECORDED TEMPERATURE
BHTD.M        5432                 : BHTDEP       - MAXIMUM RECORDED TEMPERATURE
MATR.         1                    : LOGUNIT      - NEUTRON MATRIX
RMT .C        25                   : MDTP         - TEMPERATURE OF MUD
NEUT.         1                    : NEUTRON      - NEUTRON TYPE
RESI.         0                    : RESIST       - RESISTIVITY TYPE
RMC .OHMM     0.25                 : RMC          - RESISTIVITY OF MUD CAKE
RMF .OHMM     0.25                 : RMF          - RESISTIVITY OF MUD FILTRATE
SUFT.C        15                   : SUFT         - SURFACE TEMPERATURE
~A  DEPTH     RESD     PHID     PHIN       GR
# ...
  382.000    4.282    0.243    0.482   68.034
  382.250    4.364    0.252    0.450   63.172
  382.500    4.532    0.291    0.437   58.916
  382.750    4.707    0.310    0.431   55.268
  383.000    4.889    0.321    0.437   51.618
  383.250    5.175    0.329    0.447   54.650
  383.500    5.478    0.305    0.453   55.858
  383.750    5.583    0.304    0.454   56.460
  384.000    5.798    0.311    0.449   54.025
  384.250    5.909    0.308    0.443   53.413
  384.500    5.910    0.302    0.437   52.802
  384.750    5.910    0.317    0.430   52.794
  385.000    5.799    0.327    0.435   52.791
  385.250    5.800    0.327    0.436   52.785
  385.500    5.800    0.326    0.431   53.995
  385.750    5.800    0.333    0.437   54.595
  386.000    5.800    0.337    0.442   54.592
  386.250    5.801    0.338    0.444   54.585
  386.500    5.912    0.340    0.436   54.582
  386.750    5.912    0.334    0.424   54.575
  387.000    6.025    0.327    0.410   53.964
  387.250    6.025    0.322    0.404   53.349
  387.500    6.026    0.320    0.399   53.345
  387.750    6.026    0.323    0.407   53.949
  388.000    6.142    0.326    0.412   54.550
  388.250    6.027    0.329    0.421   56.368
  388.500    6.027    0.325    0.436   59.398
  388.750    5.914    0.322    0.446   61.215
  389.000    5.695    0.320    0.451   63.639
  389.250    5.484    0.315    0.456   64.239
  389.500    5.084    0.310    0.457   66.058
  389.750    4.895    0.308    0.453   69.089
  390.000    4.625    0.300    0.452   71.514
  390.250    4.052    0.297    0.455   77.579
  390.500    3.828    0.295    0.467   80.612
  390.750    3.483    0.290    0.510   85.466
  391.000    3.109    0.288    0.546   89.103
  391.250    2.938    0.287    0.565   88.492
  391.500    3.109    0.295    0.576   83.628
  391.750    3.229    0.294    0.516   79.370
  392.000    3.618    0.287    0.493   76.937
  392.250    4.372    0.277    0.477   76.325
  392.500    4.898    0.261    0.460   78.142
  392.750    5.384    0.246    0.453   81.781
  393.000    5.808    0.250    0.433   82.990
  393.250    5.808    0.264    0.429   77.519
  393.500    5.699    0.271    0.417   72.048
  393.750    5.593    0.286    0.409   69.615
  394.000    5.593    0.300    0.407   65.359
  394.250    5.809    0.310    0.409   67.779
  394.500    6.508    0.314    0.409   69.598
  394.750    7.717    0.303    0.367   67.771
  395.000    8.324    0.277    0.338   67.158
  395.250    9.504    0.217    0.275   64.725
  395.500   11.058    0.179    0.123   61.076
  395.750   12.156    0.107    0.091   56.211
  396.000   13.112    0.054    0.057   53.779
  396.250   14.415    0.005    0.036   49.521
  396.500   14.971    0.000    0.024   45.872
  396.750   15.550    0.000    0.019   42.831
  397.000   16.150    0.000    0.020   39.789
  397.250   16.459    0.000    0.037   37.962
  397.500   16.152    0.000    0.063   40.386
  397.750   15.261    0.000    0.095   42.811
  398.000   14.149    0.015    0.141   50.700
  398.250   13.118    0.051    0.168   59.805
  398.500   11.064    0.138    0.206   68.908
  398.750    9.510    0.200    0.271   70.118
  399.000    7.723    0.246    0.369   70.111
  399.250    6.638    0.293    0.418   70.714
  399.500    6.039    0.325    0.433   71.317
  399.750    5.494    0.326    0.424   68.881
  400.000    4.998    0.319    0.421   67.662
  400.250    4.905    0.312    0.423   67.050
  400.500    4.813    0.306    0.429   68.866
  400.750    4.813    0.307    0.434   71.896
  401.000    4.814    0.311    0.443   73.714
  401.250    4.548    0.311    0.450   74.317
  401.500    4.548    0.304    0.455   72.489
  401.750    4.549    0.300    0.458   71.878
  402.000    4.549    0.293    0.461   71.264
  402.250    4.549    0.278    0.469   71.865
  402.500    4.549    0.274    0.474   72.469
  402.750    4.549    0.269    0.476   75.501
  403.000    4.550    0.259    0.453   79.138
  403.250    4.550    0.249    0.437   79.740
  403.500    4.637    0.240    0.425   79.735
  403.750    4.637    0.229    0.418   79.730
  404.000    4.637    0.223    0.417   78.509
  404.250    4.638    0.223    0.417   77.899
  404.500    4.638    0.230    0.420   76.679
  404.750    4.638    0.242    0.422   77.888
  405.000    4.727    0.245    0.427   78.491
  405.250    4.727    0.236    0.443   76.663
  405.500    4.727    0.231    0.450   76.658
  405.750    4.818    0.226    0.464   79.081
  406.000    4.910    0.221    0.470   79.683
  406.250    4.910    0.224    0.464   80.286
  406.500    5.004    0.225    0.459   81.494
  406.750    5.100    0.226    0.458   82.098
  407.000    5.198    0.226    0.455   84.519
  407.250    5.198    0.219    0.442   85.730
  407.500    5.298    0.219    0.435   85.118
  407.750    5.298    0.219    0.421   82.075
  408.000    5.399    0.207    0.414   80.249
  408.250    5.400    0.203    0.411   79.030
  408.500    5.400    0.196    0.424   77.811
  408.750    5.400    0.200    0.441   78.413
  409.000    5.007    0.219    0.452   80.230
  409.250    5.007    0.241    0.462   81.439
  409.500    5.007    0.251    0.470   80.219
  409.750    5.007    0.263    0.458   80.821
  410.000    5.008    0.274    0.479   82.030
  410.250    5.008    0.273    0.487   79.596
  410.500    5.008    0.271    0.501   78.377
  410.750    5.008    0.271    0.503   80.193
  411.000    5.008    0.261    0.502   80.189
  411.250    5.009    0.260    0.495   82.612
  411.500    5.105    0.266    0.478   79.570
  411.750    5.105    0.267    0.473   78.957
  412.000    5.105    0.265    0.463   81.381
  412.250    5.105    0.266    0.453   83.198
  412.500    5.106    0.263    0.450   85.015
  412.750    5.106    0.257    0.448   88.046
  413.000    5.106    0.251    0.450   85.613
  413.250    5.204    0.256    0.453   82.569
  413.500    5.204    0.257    0.458   81.351
  413.750    5.204    0.253    0.475   80.132
  414.000    5.205    0.249    0.480   82.555
  414.250    5.205    0.253    0.485   86.192
  414.500    5.205    0.238    0.486   88.617
  414.750    5.205    0.233    0.490   90.434
  415.000    5.305    0.229    0.490   89.215
  415.250    5.305    0.218    0.489   89.815
  415.500    5.206    0.216    0.486   90.417
  415.750    5.206    0.218    0.483   89.198
  416.000    5.206    0.215    0.479   91.015
  416.250    5.207    0.212    0.478   90.402
  416.500    5.306    0.216    0.479   88.576
  416.750    5.207    0.215    0.483   86.747
  417.000    5.307    0.217    0.468   86.744
  417.250    5.307    0.225    0.461   85.523
  417.500    5.409    0.231    0.446   83.697
  417.750    5.409    0.236    0.441   81.871
  418.000    5.308    0.245    0.445   80.042
  418.250    5.209    0.249    0.454   79.431
  418.500    4.921    0.252    0.463   77.600
  418.750    4.650    0.252    0.469   77.597
  419.000    4.230    0.248    0.478   78.201
  419.250    3.997    0.242    0.492   81.231
  419.500    3.308    0.238    0.507   86.689
  419.750    3.009    0.249    0.532   90.329
  420.000    2.587    0.260    0.544   93.362
  420.250    2.309    0.269    0.585   98.215
  420.500    2.061    0.275    0.608  101.247
  420.750    1.985    0.279    0.619  103.063
  421.000    2.062    0.275    0.632  101.843
  421.250    2.224    0.272    0.617   98.193
  421.500    2.399    0.266    0.597   94.543
  421.750    2.844    0.254    0.552   93.326
  422.000    3.127    0.250    0.520   91.498
  422.250    3.570    0.244    0.497   91.494
  422.500    4.233    0.243    0.472   91.488
  422.750    4.566    0.251    0.462   92.696
  423.000    4.925    0.257    0.461   92.693
  423.250    4.926    0.264    0.465   90.865
  423.500    4.834    0.255    0.469   89.038
  423.750    4.654    0.246    0.473   85.997
  424.000    4.567    0.236    0.473   82.349
  424.250    4.482    0.233    0.478   79.914
  424.500    4.482    0.238    0.482   80.516
  424.750    4.482    0.245    0.487   78.689
  425.000    4.483    0.252    0.491   82.327
  425.250    4.568    0.260    0.472   79.892
