~VERSION INFORMATION
 VERS.                 2.0:   CWLS LOG ASCII STANDARD -VERSION 2.0
 WRAP.                  NO:   ONE LINE PER DEPTH STEP
~WELL INFORMATION BLOCK
#MNEM.UNIT           DATA                    DESCRIPTION OF MNEMONIC
#---------    -------------------            -------------------------------
# Generated from Intellog Unique Number	CW_79_81/WELL/2443
WELL.         04-01-080-22W4                 : Well_name    - WELL
LOC .         00/04-01-080-22W4/0            : Location     - LOCATION
UWI .         00/04-01-080-22W4/0            : Uwi          - UNIQUE WELL ID
ENTR.         MAX                            : Entered      - ENTERED BY
SRVC.         COMPUTALOG                     : Scn          - SERVICE COMPANY
STRT.M        215                            : top_depth    - START DEPTH
STOP.M        474.75                         : bot_depth    - STOP DEPTH
STEP.M        0.25                           : increment    - STEP LENGTH
 NULL. -999.2500:NULL Value
~CURVE INFORMATION BLOCK
#MNEM UNIT       ERCB CURVE CODE    CURVE DESCRIPTION
#-----------   ------------------   ----------------------------------
DEPT.M        00 001 00 00         : DEPTH        - DEPTH
ILD .OHMM     00 120 00 00         : RESD         - DEEP RESISTIVITY (DIL)
NPHI.V/V      00 330 00 00         : PHIN         - NEUTRON POROSITY (SANDSTONE)
DPHI.V/V      00 890 00 00         : PHID         - DENSITY POROSITY (SANDSTONE)
GR  .API      00 310 00 00         : GR           - GAMMA RAY
CALI.MM       00 280 01 00         : CAL          - CALIPER
~PARAMETER INFORMATION
#MNEM.UNIT           DATA             DESCRIPTION OF MNEMONIC
#---------         -----------     ------------------------------
GL  .M        585.4                : gl           - GROUND LEVEL ELEVATION
EREF.M        590                  : kb           - ELEVATION OF DEPTH REFERENCE
DATM.M        585.4                : datum        - DATUM ELEVATION
TDD .M        477                  : tdd          - TOTAL DEPTH DRILLER
RUN .         ONE                  : Run          - RUN NUMBER
ENG .         BILL                 : Engineer     - RECORDING ENGINEER
WIT .         JIM                  : Witness      - WITNESSED BY
MUD .         GEL                  : Mud_type     - MUD TYPE
MATR.         SANDSTONE            : Logunit      - NEUTRON MATRIX
TMAX.C        30                   : BHT          - MAXIMUM RECORDED TEMPERATURE
BHTD.M        477                  : BHTDEP       - MAXIMUM RECORDED TEMPERATURE
MATR.         1                    : LOGUNIT      - NEUTRON MATRIX
RMT .C        20                   : MDTP         - TEMPERATURE OF MUD
NEUT.         1                    : NEUTRON      - NEUTRON TYPE
RESI.         0                    : RESIST       - RESISTIVITY TYPE
RMC .OHMM     8                    : RMC          - RESISTIVITY OF MUD CAKE
RMF .OHMM     10                   : RMF          - RESISTIVITY OF MUD FILTRATE
SUFT.C        -20                  : SUFT         - SURFACE TEMPERATURE
~A  DEPTH     RESD     PHIN     PHID       GR      CAL
# ...
  251.500   14.217    0.381    0.211   91.875  217.475
  251.750   12.320    0.376    0.197   96.532  217.440
  252.000   11.304    0.394    0.205   96.393  217.408
  252.250   11.270    0.436    0.231   84.250  217.374
  252.500   12.463    0.469    0.246   61.997  217.339
  252.750   13.896    0.458    0.261   54.784  217.705
  253.000   15.830    0.431    0.276   47.389  218.074
  253.250   18.624    0.383    0.289   44.373  218.238
  253.500   22.431    0.335    0.294   46.993  218.200
  253.750   26.607    0.340    0.278   54.402  218.081
  254.000   28.521    0.382    0.264   60.378  217.633
  254.250   28.521    0.384    0.279   66.112  217.203
  254.500   26.963    0.371    0.295   69.331  217.070
  254.750   24.268    0.372    0.292   69.789  217.038
  255.000   21.544    0.390    0.267   68.568  217.007
  255.250   19.464    0.401    0.240   68.368  216.963
  255.500   18.176    0.423    0.296   69.848  216.928
  255.750   17.130    0.453    0.307   67.428  216.901
  256.000   16.147    0.464    0.299   66.090  217.164
  256.250   15.283    0.449    0.284   70.268  217.528
  256.500   14.259    0.412    0.269   80.799  217.896
  256.750   12.037    0.366    0.254   96.373  218.422
  257.000    9.548    0.343    0.226  103.596  219.220
  257.250    6.825    0.392    0.205  108.853  219.992
  257.500    5.549    0.409    0.194  110.691  221.057
  257.750    4.843    0.420    0.178  112.950  222.222
  258.000    4.450    0.438    0.157  117.067  223.490
  258.250    4.284    0.474    0.153  122.129  225.218
  258.500    4.251    0.500    0.165  122.357  226.016
  258.750    4.346    0.487    0.167  117.543  226.785
  259.000    4.491    0.472    0.170  113.803  227.554
  259.250    4.609    0.456    0.169  113.182  228.120
  259.500    4.644    0.441    0.163  114.724  228.383
  259.750    4.526    0.434    0.151  114.213  228.427
  260.000    4.291    0.460    0.145  112.943  228.812
  260.250    4.014    0.501    0.206  109.088  228.778
  260.500    3.863    0.456    0.220  103.434  228.744
  260.750    3.960    0.402    0.215   99.937  228.513
  261.000    4.324    0.372    0.208  100.516  228.182
  261.250    4.982    0.354    0.203  104.700  228.225
  261.500    5.867    0.349    0.197  102.931  228.610
  261.750    7.020    0.365    0.198  102.673  228.976
  262.000    7.424    0.371    0.194  103.493  229.340
  262.250    7.314    0.376    0.188  103.233  229.108
  262.500    7.024    0.386    0.181  105.969  228.080
  262.750    6.621    0.410    0.175  122.713  226.272
  263.000    6.373    0.457    0.176  126.191  225.411
  263.250    6.468    0.433    0.236   93.077  224.572
  263.500    7.036    0.403    0.294   77.234  223.737
  263.750    8.324    0.393    0.324   67.621  222.307
  264.000   10.899    0.410    0.328   60.046  220.278
  264.250   16.965    0.445    0.332   57.193  218.077
  264.500   24.411    0.469    0.330   57.426  217.213
  264.750   30.456    0.458    0.330   60.283  217.179
  265.000   36.106    0.468    0.335   63.500  217.743
  265.250   40.445    0.462    0.341   63.719  217.909
  265.500   43.548    0.438    0.344   60.883  217.478
  265.750   47.603    0.415    0.342   58.223  216.956
  266.000   51.425    0.375    0.330   58.204  216.512
  266.250   56.522    0.408    0.335   57.465  216.075
  266.500   59.242    0.425    0.340   59.604  216.543
  266.750   57.675    0.437    0.339   64.980  217.109
  267.000   51.100    0.453    0.333   70.715  217.274
  267.250   40.658    0.478    0.325   70.141  216.758
  267.500   37.967    0.454    0.328   67.375  216.311
  267.750   37.690    0.416    0.311   59.921  217.876
  268.000   38.873    0.421    0.316   60.740  217.939
  268.250   41.775    0.448    0.327   64.437  217.906
  268.500   46.263    0.475    0.334   68.013  218.573
  268.750   51.197    0.477    0.328   70.268  220.045
  269.000   52.391    0.456    0.325   67.254  219.597
  269.250   50.491    0.473    0.312   67.951  219.567
  269.500   47.575    0.488    0.295   72.068  220.136
  269.750   45.554    0.484    0.292   73.968  220.504
  270.000   44.728    0.460    0.306   71.611  220.371
  270.250   44.196    0.428    0.327   67.249  219.431
  270.500   43.194    0.422    0.331   70.725  216.898
  270.750   41.319    0.440    0.336   67.829  216.468
  271.000   38.864    0.465    0.334   66.371  216.633
  271.250   36.935    0.477    0.322   67.071  217.001
  271.500   35.468    0.467    0.306   68.491  217.472
  271.750   33.437    0.447    0.305   66.729  218.230
  272.000   32.185    0.472    0.311   65.211  218.195
  272.250   30.788    0.469    0.311   67.109  217.762
  272.500   30.123    0.442    0.232   65.949  217.631
  272.750   30.233    0.408    0.150   63.412  217.997
  273.000   31.344    0.340    0.095   61.297  218.661
  273.250   34.948    0.160    0.040   62.961  219.191
  273.500   40.510    0.135    0.012   70.186  219.992
  273.750   44.845    0.270    0.132   76.878  220.358
  274.000   46.333    0.375    0.249   74.221  220.424
  274.250   43.205    0.430    0.310   68.327  219.991
  274.500   37.212    0.441    0.317   63.151  219.359
  274.750   30.821    0.432    0.329   60.588  219.322
  275.000   28.564    0.417    0.326   61.070  219.291
  275.250   27.734    0.413    0.325   63.686  219.257
  275.500   27.382    0.426    0.328   65.765  219.224
  275.750   27.282    0.451    0.330   65.627  219.392
  276.000   27.282    0.469    0.330   64.588  219.759
  276.250   27.241    0.444    0.328   66.511  220.116
  276.500   27.034    0.420    0.325   64.244  220.084
  276.750   26.442    0.428    0.325   63.984  219.648
  277.000   25.865    0.422    0.326   61.568  218.919
  277.250   25.301    0.413    0.324   59.509  218.687
  277.500   24.750    0.404    0.321   59.608  219.152
  277.750   24.023    0.387    0.315   62.743  220.084
  278.000   23.123    0.383    0.308   61.723  220.878
  278.250   22.785    0.413    0.308   60.026  221.247
  278.500   22.328    0.447    0.312   59.765  220.712
  278.750   21.923    0.460    0.311   59.746  219.680
  279.000   21.562    0.444    0.308   60.568  218.850
  279.250   20.996    0.403    0.316   63.921  219.213
  279.500   20.520    0.379    0.303   60.406  219.182
  279.750   19.923    0.413    0.280   62.544  219.148
  280.000   19.453    0.434    0.273   65.762  219.115
  280.250   19.100    0.426    0.290   67.180  219.482
  280.500   18.926    0.396    0.318   67.878  220.549
  280.750   18.796    0.377    0.321   72.541  222.421
  281.000   17.552    0.417    0.298   70.770  221.973
  281.250   15.342    0.449    0.274   68.835  221.140
  281.500   13.741    0.449    0.255   68.876  222.109
  281.750   12.739    0.434    0.244   70.054  224.075
  282.000   12.285    0.433    0.246   70.393  226.240
  282.250   12.432    0.486    0.270   65.775  227.800
  282.500   12.722    0.503    0.288   60.761  227.758
  282.750   13.488    0.464    0.306   57.863  226.529
  283.000   14.687    0.437    0.318   56.944  225.594
  283.250   16.600    0.423    0.324   55.246  225.163
  283.500   19.311    0.419    0.322   52.409  224.934
  283.750   22.453    0.411    0.303   50.663  224.091
  284.000   24.446    0.393    0.291   51.645  224.060
  284.250   19.341    0.425    0.297   54.265  224.029
  284.500   15.251    0.453    0.292   56.160  223.999
  284.750   13.188    0.467    0.280   54.821  223.969
  285.000   12.516    0.462    0.273   50.727  224.037
  285.250   12.722    0.428    0.287   47.499  224.393
  285.500   13.324    0.412    0.316   48.228  224.362
  285.750   14.856    0.440    0.324   49.167  224.332
  286.000   17.010    0.432    0.326   50.107  224.891
  286.250   20.094    0.422    0.322   47.450  225.453
  286.500   23.563    0.417    0.317   42.755  225.724
  286.750   24.488    0.401    0.318   42.580  225.772
  287.000   24.677    0.395    0.323   41.810  226.150
  287.250   24.678    0.407    0.322   42.747  226.120
  287.500   24.951    0.394    0.316   43.867  225.790
  287.750   25.229    0.378    0.309   44.929  225.358
