~VERSION INFORMATION
 VERS.                 2.0:   CWLS LOG ASCII STANDARD -VERSION 2.0
 WRAP.                  NO:   ONE LINE PER DEPTH STEP
~WELL INFORMATION BLOCK
#MNEM.UNIT           DATA                    DESCRIPTION OF MNEMONIC
#---------    -------------------            -------------------------------
# Generated from Intellog Unique Number	CS_67_68/WELL/772
WELL.         BURNT LAKE                     : Well_name    - WELL
LOC .         00/07-16-068-03W4/0            : Location     - LOCATION
UWI .         00/07-16-068-03W4/0            : Uwi          - UNIQUE WELL ID
ENTR.         SP                             : Entered      - ENTERED BY
SRVC.         SCHLUMBERGER                   : Scn          - SERVICE COMPANY
STRT.M        370                            : top_depth    - START DEPTH
STOP.M        605                            : bot_depth    - STOP DEPTH
STEP.M        0.25                           : increment    - STEP LENGTH
 NULL. -999.2500:NULL Value
~CURVE INFORMATION BLOCK
#MNEM UNIT       ERCB CURVE CODE    CURVE DESCRIPTION
#-----------   ------------------   ----------------------------------
DEPT.M        00 001 00 00         : DEPTH        - DEPTH
ILD .OHMM     00 120 00 00         : RESD         - DEEP RESISTIVITY (DIL)
DPHI.V/V      00 890 00 00         : PHID         - DENSITY POROSITY (LIMESTONE)
NPHI.V/V      00 330 00 00         : PHIN         - NEUTRON POROSITY (LIMESTONE)
GR  .API      00 310 00 00         : GR           - GAMMA RAY
~PARAMETER INFORMATION
#MNEM.UNIT           DATA             DESCRIPTION OF MNEMONIC
#---------         -----------     ------------------------------
GL  .M        736.44               : gl           - GROUND LEVEL ELEVATION
EREF.M        740.9                : kb           - ELEVATION OF DEPTH REFERENCE
DATM.M        736.44               : datum        - DATUM ELEVATION
TDD .M        608                  : tdd          - TOTAL DEPTH DRILLER
RUN .         ONE                  : Run          - RUN NUMBER
ENG .         BILL                 : Engineer     - RECORDING ENGINEER
WIT .         JIM                  : Witness      - WITNESSED BY
MUD .         GEL                  : Mud_type     - MUD TYPE
MATR.         LIMESTONE            : Logunit      - NEUTRON MATRIX
TMAX.C        25.5                 : BHT          - MAXIMUM RECORDED TEMPERATURE
BHTD.M        608                  : BHTDEP       - MAXIMUM RECORDED TEMPERATURE
MATR.         1                    : LOGUNIT      - NEUTRON MATRIX
RMT .C        25                   : MDTP         - TEMPERATURE OF MUD
NEUT.         1                    : NEUTRON      - NEUTRON TYPE
RESI.         0                    : RESIST       - RESISTIVITY TYPE
RMC .OHMM     0.25                 : RMC          - RESISTIVITY OF MUD CAKE
RMF .OHMM     0.25                 : RMF          - RESISTIVITY OF MUD FILTRATE
SUFT.C        15                   : SUFT         - SURFACE TEMPERATURE
~A  DEPTH     RESD     PHID     PHIN       GR
# ...
  544.000    7.467    0.312    0.383   59.849
  544.250    7.444    0.308    0.392   64.015
  544.500    7.420    0.310    0.402   68.490
  544.750    7.439    0.323    0.406   74.559
  545.000    7.471    0.309    0.395   79.524
  545.250    7.532    0.300    0.391   82.523
  545.500    7.653    0.292    0.397   84.294
  545.750    7.744    0.285    0.408   84.406
  546.000    7.943    0.281    0.409   80.095
  546.250    8.008    0.273    0.396   78.427
  546.500    8.012    0.263    0.384   75.345
  546.750    7.882    0.288    0.375   65.875
  547.000    7.610    0.315    0.366   49.894
  547.250    7.306    0.320    0.358   44.540
  547.500    7.146    0.306    0.347   51.531
  547.750    7.057    0.289    0.342   60.549
  548.000    7.129    0.276    0.355   64.592
  548.250    7.283    0.298    0.377   64.335
  548.500    7.347    0.327    0.382   53.085
  548.750    7.334    0.351    0.384   42.940
  549.000    7.147    0.414    0.507   34.636
  549.250    6.810    0.430    0.471   26.887
  549.500    6.599    0.380    0.432   21.716
  549.750    6.444    0.358    0.402   20.047
  550.000    6.327    0.339    0.385   21.203
  550.250    6.237    0.337    0.372   21.868
  550.500    6.182    0.343    0.376   22.716
  550.750    6.094    0.346    0.379   23.809
  551.000    6.029    0.346    0.375   24.354
  551.250    6.021    0.340    0.367   24.895
  551.500    6.025    0.334    0.364   27.281
  551.750    6.006    0.331    0.366   30.156
  552.000    5.999    0.331    0.366   33.034
  552.250    6.002    0.334    0.367   36.217
  552.500    6.156    0.338    0.362   38.663
  552.750    6.126    0.341    0.360   39.880
  553.000    6.106    0.339    0.362   42.450
  553.250    6.064    0.344    0.370   45.756
  553.500    6.035    0.347    0.381   49.553
  553.750    6.015    0.348    0.391   52.735
  554.000    5.998    0.347    0.403   52.724
  554.250    5.991    0.351    0.405   50.871
  554.500    5.981    0.355    0.394   48.280
  554.750    5.975    0.357    0.386   47.103
  555.000    6.001    0.353    0.378   50.410
  555.250    6.016    0.348    0.375   51.812
  555.500    6.019    0.350    0.386   50.818
  555.750    6.023    0.353    0.379   50.377
  556.000    6.061    0.355    0.373   51.164
  556.250    6.055    0.358    0.374   52.506
  556.500    6.070    0.361    0.386   54.829
  556.750    6.085    0.353    0.391   57.030
  557.000    6.077    0.340    0.372   61.442
  557.250    6.208    0.316    0.350   68.372
  557.500    6.354    0.278    0.332   78.127
  557.750    6.578    0.232    0.323   86.163
  558.000    6.861    0.173    0.335   90.698
  558.250    7.238    0.209    0.356   86.633
  558.500    7.507    0.254    0.378   75.627
  558.750    7.684    0.290    0.389   67.447
  559.000    7.646    0.311    0.375   62.216
  559.250    7.423    0.317    0.368   58.151
  559.500    7.087    0.322    0.365   56.359
  559.750    6.906    0.315    0.364   58.990
  560.000    6.769    0.303    0.370   62.416
  560.250    6.658    0.297    0.374   65.109
  560.500    6.588    0.302    0.372   65.960
  560.750    6.530    0.311    0.366   65.028
  561.000    6.412    0.319    0.359   61.515
  561.250    6.321    0.323    0.354   56.775
  561.500    6.253    0.328    0.350   50.007
  561.750    6.153    0.330    0.347   45.759
  562.000    6.087    0.327    0.353   40.712
  562.250    6.022    0.328    0.363   40.026
  562.500    5.926    0.331    0.356   43.577
  562.750    5.873    0.339    0.343   38.468
  563.000    5.833    0.337    0.335   34.097
  563.250    5.814    0.332    0.354   34.332
  563.500    5.754    0.331    0.366   42.368
  563.750    5.747    0.333    0.374   46.657
  564.000    5.719    0.332    0.371   38.167
  564.250    5.691    0.328    0.354   30.233
  564.500    5.683    0.332    0.346   26.538
  564.750    5.653    0.337    0.351   25.053
  565.000    5.667    0.340    0.354   24.552
  565.250    5.671    0.341    0.347   23.615
  565.500    5.666    0.341    0.347   23.176
  565.750    5.648    0.340    0.353   22.921
  566.000    5.619    0.339    0.361   23.219
  566.250    5.590    0.337    0.350   26.034
  566.500    5.562    0.335    0.336   29.277
  566.750    5.544    0.338    0.352   31.725
  567.000    5.516    0.346    0.371   30.730
  567.250    5.479    0.353    0.376   29.492
  567.500    5.475    0.356    0.364   29.113
  567.750    5.394    0.355    0.354   25.232
  568.000    5.427    0.350    0.351   19.139
  568.250    5.421    0.346    0.353   17.840
  568.500    5.445    0.341    0.358   18.443
  568.750    5.449    0.335    0.352   21.871
  569.000    5.473    0.330    0.348   24.810
  569.250    5.497    0.326    0.347   25.536
  569.500    5.491    0.328    0.352   24.113
  569.750    5.495    0.331    0.361   21.645
  570.000    5.497    0.336    0.354   19.854
  570.250    5.501    0.343    0.346   19.781
  570.500    5.505    0.338    0.339   20.752
  570.750    5.508    0.334    0.334   21.602
  571.000    5.501    0.335    0.330   22.941
  571.250    5.515    0.342    0.329   23.915
  571.500    5.518    0.346    0.337   24.272
  571.750    5.522    0.334    0.345   22.972
  572.000    5.547    0.323    0.345   22.039
  572.250    5.550    0.316    0.335   22.089
  572.500    5.534    0.325    0.328   22.571
  572.750    5.536    0.336    0.327   22.806
  573.000    5.530    0.341    0.342   22.918
  573.250    5.512    0.341    0.352   21.372
  573.500    5.496    0.340    0.357   21.054
  573.750    5.489    0.338    0.354   23.009
  574.000    5.493    0.333    0.346   24.717
  574.250    5.506    0.332    0.341   25.076
  574.500    5.564    0.333    0.334   22.731
  574.750    5.565    0.334    0.329   21.799
  575.000    5.569    0.332    0.333   21.050
  575.250    5.604    0.337    0.340   20.856
  575.500    5.620    0.335    0.332   21.214
  575.750    5.622    0.330    0.324   21.757
  576.000    5.636    0.324    0.318   22.053
  576.250    5.629    0.320    0.323   21.550
  576.500    5.697    0.320    0.334   21.233
  576.750    5.690    0.316    0.331   20.606
  577.000    5.672    0.311    0.316   20.350
  577.250    5.645    0.308    0.304   20.094
  577.500    5.605    0.306    0.299   20.143
  577.750    5.568    0.306    0.304   20.504
  578.000    5.539    0.320    0.313   21.598
  578.250    5.470    0.327    0.323   22.018
  578.500    5.392    0.332    0.328   21.822
  578.750    5.344    0.336    0.341   21.443
  579.000    5.330    0.336    0.340   21.801
  579.250    5.321    0.333    0.329   22.220
  579.500    5.334    0.328    0.325   21.902
  579.750    5.369    0.323    0.322   21.460
  580.000    5.392    0.316    0.320   21.267
  580.250    5.468    0.310    0.321   21.256
  580.500    5.523    0.305    0.320   20.998
  580.750    5.578    0.302    0.316   21.110
  581.000    5.941    0.304    0.314   22.453
  581.250    5.979    0.310    0.315   25.759
  581.500    6.004    0.318    0.320   28.572
  581.750    6.020    0.322    0.321   29.975
  582.000    6.023    0.324    0.319   27.201
  582.250    5.993    0.328    0.315   24.792
  582.500    5.907    0.334    0.317   24.722
  582.750    5.800    0.341    0.329   26.185
  583.000    5.664    0.340    0.329   27.465
  583.250    5.541    0.329    0.318   27.945
  583.500    5.492    0.319    0.311   27.687
  583.750    5.475    0.312    0.311   27.309
  584.000    5.574    0.307    0.314   27.358
  584.250    5.618    0.305    0.322   28.762
  584.500    5.765    0.306    0.332   33.666
  584.750    5.766    0.310    0.317   36.110
  585.000    5.696    0.319    0.306   34.257
  585.250    5.655    0.327    0.306   27.491
  585.500    5.532    0.323    0.314   24.409
  585.750    5.433    0.319    0.317   22.615
  586.000    5.404    0.315    0.319   22.729
  586.250    5.367    0.308    0.322   22.963
  586.500    5.360    0.299    0.323   24.487
  586.750    5.436    0.293    0.316   25.768
  587.000    5.511    0.291    0.318   27.169
  587.250    5.599    0.294    0.322   27.221
