~VERSION INFORMATION
 VERS.                 2.0:   CWLS LOG ASCII STANDARD -VERSION 2.0
 WRAP.                  NO:   ONE LINE PER DEPTH STEP
~WELL INFORMATION BLOCK
#MNEM.UNIT           DATA                    DESCRIPTION OF MNEMONIC
#---------    -------------------            -------------------------------
# Generated from Intellog Unique Number	CW_70_72/WELL/992
NULL.         -999.25                        : NULL_VALUE
WELL.         CNW FRANCIS SOUTH 07-34        : Well_name    - WELL              
LOC .         07-34-072-21W4                 : Location     - LOCATION          
UWI .         00/07-34-072-21W4/0            : Uwi          - UNIQUE WELL ID    
ENTR.         JAYE                           : Entered      - ENTERED BY        
SRVC.         COMPUTALOG                     : Scn          - SERVICE COMPANY   
DATE.         26 JULY 88                     : Date         - LOG DATE          
STRT.M        355                            : top_depth    - START DEPTH       
STOP.M        555                            : bot_depth    - STOP DEPTH        
STEP.M        0.25                           : increment    - STEP LENGTH       
~CURVE INFORMATION BLOCK
#MNEM UNIT       ERCB CURVE CODE    CURVE DESCRIPTION
#-----------   ------------------   ----------------------------------
DEPT.M        00 001 00 00         : DEPTH        - DEPTH                       
DPHI.V/V      00 890 00 00         : PHID         - DENSITY POROSITY (SANDSTONE)
NPHI.V/V      00 330 00 00         : PHIN         - NEUTRON POROSITY (SANDSTONE)
GR  .API      00 310 00 00         : GR           - GAMMA RAY                   
CALI.MM       00 280 01 00         : CAL          - CALIPER                     
ILD .OHMM     00 120 00 00         : RESD         - DEEP RESISTIVITY (DIL)      
~PARAMETER INFORMATION       
#MNEM.UNIT           DATA             DESCRIPTION OF MNEMONIC
#---------         -----------     ------------------------------
GL  .M        642                  : gl           - GROUND LEVEL ELEVATION      
EREF.M        645.4                : kb           - ELEVATION OF DEPTH REFERENCE
DATM.M        642                  : datum        - DATUM ELEVATION             
TDD .M        561                  : tdd          - TOTAL DEPTH DRILLER         
RUN .         ONE                  : Run          - RUN NUMBER                  
ENG .         GAIR/OSYPCHUK        : Engineer     - RECORDING ENGINEER          
WIT .         TOPIC                : Witness      - WITNESSED BY                
BASE.         R.D.                 : Branch       - HOME BASE OF LOGGING UNIT   
MUD .         GEL CHEM             : Mud_type     - MUD TYPE                    
MATR.         SANDSTONE            : Logunit      - NEUTRON MATRIX              
TMAX.C        25                   : BHT          - MAXIMUM RECORDED TEMPERATURE
BHTD.M        560.1                : BHTDEP       - MAXIMUM RECORDED TEMPERATURE
RMT .C        25                   : MDTP         - TEMPERATURE OF MUD          
MUDD.KG/M     1110                 : MWT          - MUD DENSITY                 
NEUT.         1                    : NEUTRON      - NEUTRON TYPE                
RESI.         0                    : RESIST       - RESISTIVITY TYPE            
RM  .OHMM     3.3                  : RM           - RESISTIVITY OF MUD          
RMC .OHMM     4                    : RMC          - RESISTIVITY OF MUD CAKE     
RMF .OHMM     3                    : RMF          - RESISTIVITY OF MUD FILTRATE 
SUFT.C        0                    : SUFT         - SURFACE TEMPERATURE         
~A  DEPTH     PHID     PHIN       GR      CAL     RESD
# ...
  428.000    0.353    0.420   38.564  181.027    5.143
  428.250    0.347    0.410   39.122  183.688    5.138
  428.500    0.337    0.401   39.496  188.181    5.134
  428.750    0.334    0.434   39.627  190.637    5.138
  429.000    0.337    0.447   39.635  190.651    5.133
  429.250    0.333    0.443   39.704  190.156    5.120
  429.500    0.339    0.424   39.529  189.864    5.104
  429.750    0.346    0.419   38.561  189.572    5.073
  430.000    0.341    0.422   38.752  189.179    5.067
  430.250    0.343    0.426   39.798  188.683    5.044
  430.500    0.344    0.435   40.173  187.476    5.068
  430.750    0.335    0.430   39.937  184.741    5.072
  431.000    0.332    0.418   40.739  180.173    5.059
  431.250    0.342    0.404   42.091  179.578    5.072
  431.500    0.345    0.398   42.772  181.321    5.059
  431.750    0.343    0.397   43.084  186.539    5.063
  432.000    0.341    0.405   42.909  186.133    5.049
  432.250    0.341    0.411   42.308  184.111    5.044
  432.500    0.345    0.413   42.254  183.718    5.030
  432.750    0.349    0.419   43.058  183.426    5.016
  433.000    0.347    0.427   44.042  183.133    5.013
  433.250    0.344    0.438   45.517  182.435    5.026
  433.500    0.343    0.440   47.723  179.089    5.067
  433.750    0.342    0.428   51.152  178.391    5.360
  434.000    0.341    0.415   52.565  181.053    5.516
  434.250    0.340    0.400   53.000  185.137    5.613
  434.500    0.339    0.405   53.742  187.799    5.722
  434.750    0.337    0.416   55.032  188.423    5.803
  435.000    0.334    0.438   56.874  188.639    5.797
  435.250    0.330    0.443   58.103  188.348    5.781
  435.500    0.333    0.433   58.966  187.649    5.765
  435.750    0.334    0.430   56.105  186.747    5.781
  436.000    0.335    0.429   52.447  186.150    5.807
  436.250    0.339    0.428   53.249  186.061    5.780
  436.500    0.338    0.440   54.785  186.177    5.691
  436.750    0.336    0.451   54.061  186.496    5.613
  437.000    0.333    0.450   53.946  187.124    5.535
  437.250    0.331    0.446   55.848  187.441    5.470
  437.500    0.330    0.443   56.467  187.758    5.406
  437.750    0.329    0.435   52.444  187.977    5.380
  438.000    0.327    0.425   52.635  188.396    5.395
  438.250    0.325    0.415   55.148  189.022    5.430
  438.500    0.323    0.415   57.660  190.052    5.505
  438.750    0.322    0.419   54.859  190.982    5.602
  439.000    0.328    0.419   56.944  191.607    5.819
  439.250    0.330    0.430   59.762  192.640    6.076
  439.500    0.312    0.450   63.496  193.162    6.534
  439.750    0.284    0.457   64.299  193.277    7.118
  440.000    0.255    0.451   60.214  192.578    7.826
  440.250    0.212    0.441   55.885  190.861    8.732
  440.500    0.166    0.428   55.650  188.331    9.478
  440.750    0.159    0.418   59.385  186.411    9.435
  441.000    0.237    0.457   61.896  185.304    9.254
  441.250    0.296    0.476   64.836  184.910    9.540
  441.500    0.311    0.477   58.309  186.553   10.742
  441.750    0.293    0.431   52.637  188.093   12.714
  442.000    0.259    0.376   48.553  189.839   15.555
  442.250    0.196    0.248   44.591  191.176   26.025
  442.500    0.104    0.211   39.774  191.800   38.490
  442.750    0.043    0.187   41.676  192.324   36.391
  443.000    0.002    0.171   52.495  192.132   27.989
  443.250   -0.008    0.163   56.840  190.722   20.334
  443.500   -0.001    0.224   60.818  189.005   13.399
  443.750    0.173    0.330   62.781  187.999    9.735
  444.000    0.296    0.381   63.888  187.201    8.149
  444.250    0.316    0.419   67.256  187.011    7.131
  444.500    0.321    0.434   64.576  186.820    6.546
  444.750    0.323    0.431   61.653  186.833    6.362
  445.000    0.325    0.417   62.883  186.544    6.205
  445.250    0.330    0.414   63.258  186.556    6.031
  445.500    0.337    0.418   57.830  186.365    5.959
  445.750    0.338    0.421   54.968  185.973    5.954
  446.000    0.333    0.425   55.465  185.782    5.970
  446.250    0.304    0.429   56.755  185.796    5.932
  446.500    0.286    0.435   57.620  186.318    5.861
  446.750    0.268    0.440   57.872  186.946    5.749
  447.000    0.286    0.436   57.880  187.264    5.628
  447.250    0.308    0.419   58.071  187.990    5.430
  447.500    0.321    0.407   58.323  188.612    5.239
  447.750    0.327    0.414   58.515  189.341    5.091
  448.000    0.329    0.422   58.951  189.761    5.059
  448.250    0.332    0.430   59.325  189.876    5.111
  448.500    0.329    0.433   61.166  190.095    5.181
  448.750    0.317    0.433   62.518  190.721    5.263
  449.000    0.321    0.430   59.472  191.139    5.219
  449.250    0.329    0.427   54.900  191.356    5.128
  449.500    0.335    0.424   54.664  191.473    4.947
  449.750    0.331    0.421   58.581  191.689    4.808
  450.000    0.335    0.421   60.421  192.009    4.751
  450.250    0.341    0.426   58.597  191.513    4.755
  450.500    0.347    0.434   57.445  190.712    4.885
  450.750    0.351    0.453   58.615  189.912    5.044
  451.000    0.348    0.463   58.867  189.517    5.336
  451.250    0.342    0.457   58.019  188.208    5.623
  451.500    0.340    0.440   58.883  188.123    5.894
  451.750    0.332    0.430   65.060  188.747    6.064
  452.000    0.274    0.428   70.871  189.980    6.092
  452.250    0.215    0.432   76.498  191.724    5.813
  452.500    0.194    0.440   81.942  193.368    5.577
  452.750    0.191    0.454   85.127  195.110    5.129
  453.000    0.193    0.469   87.211  196.855    4.554
  453.250    0.192    0.481   89.662  197.683    3.905
  453.500    0.190    0.492   94.312  197.800    3.487
  453.750    0.190    0.490  101.711  197.813    3.327
  454.000    0.207    0.481   95.795  197.419    3.417
  454.250    0.225    0.475   86.458  196.415    3.757
  454.500    0.213    0.471   85.001  191.746    4.200
  454.750    0.202    0.468   85.803  184.531    4.669
  455.000    0.219    0.463   85.445  185.259    5.143
  455.250    0.230    0.458   86.247  188.022    5.390
  455.500    0.224    0.455   88.759  191.801    5.577
  455.750    0.224    0.460   88.951  194.259    5.654
  456.000    0.219    0.477   83.829  194.678    5.754
  456.250    0.206    0.485   81.882  194.794    5.877
  456.500    0.209    0.487   78.837  194.910    6.048
  456.750    0.237    0.478   78.784  194.620    6.327
  457.000    0.251    0.468   82.762  194.125    6.767
  457.250    0.244    0.446   82.465  194.035    7.171
  457.500    0.220    0.373   72.762  193.947    7.641
  457.750    0.136    0.343   64.952  193.756    8.009
  458.000    0.088    0.379   73.267  193.464    8.105
  458.250    0.133    0.415   84.391  180.957    8.008
  458.500    0.170    0.431   90.568  178.022    7.812
  458.750    0.204    0.452   89.416  177.015    7.620
  459.000    0.220    0.458   88.814  176.318    7.474
  459.250    0.225    0.451   88.578  176.331    7.399
  459.500    0.212    0.442   88.159  177.059    7.285
  459.750    0.204    0.448   88.167  178.396    7.224
  460.000    0.204    0.461   87.320  181.461    7.179
  460.250    0.213    0.473   86.656  186.362    7.184
  460.500    0.218    0.480   87.763  189.428    7.178
  460.750    0.220    0.474   89.727  192.089    7.145
  461.000    0.216    0.460   90.895  193.834    7.151
  461.250    0.208    0.465   89.743  194.868    7.106
  461.500    0.202    0.470   89.873  195.389    7.098
  461.750    0.196    0.455   91.286  195.709    7.066
  462.000    0.195    0.459   93.432  195.826    7.008
  462.250    0.197    0.453   92.219  195.938    6.886
  462.500    0.199    0.436   89.784  196.258    6.742
  462.750    0.200    0.461   92.174  196.881    6.601
  463.000    0.193    0.476   94.443  197.099    6.391
  463.250    0.185    0.503   95.489  197.318    6.200
  463.500    0.192    0.499   96.657  197.533    5.970
  463.750    0.197    0.484   98.254  197.650    5.665
  464.000    0.196    0.480   97.712  197.766    5.405
  464.250    0.200    0.494   94.850  197.880    5.100
