~VERSION INFORMATION
 VERS.                 2.0:   CWLS LOG ASCII STANDARD -VERSION 2.0
 WRAP.                  NO:   ONE LINE PER DEPTH STEP
~WELL INFORMATION BLOCK
#MNEM.UNIT           DATA                    DESCRIPTION OF MNEMONIC
#---------    -------------------            -------------------------------
# Generated from Intellog Unique Number	CW_73_75/WELL/3524
WELL.         ULSTER MARTIN HILLS            : Well_name    - WELL
LOC .         00/09-09-074-02W5/0            : Location     - LOCATION
UWI .         00/09-09-074-02W5/0            : Uwi          - UNIQUE WELL ID
ENTR.         T                              : Entered      - ENTERED BY
SRVC.         SCHLUMBERGER                   : Scn          - SERVICE COMPANY
STRT.M        355                            : top_depth    - START DEPTH
STOP.M        615                            : bot_depth    - STOP DEPTH
STEP.M        0.25                           : increment    - STEP LENGTH
 NULL. -999.2500:NULL Value
~CURVE INFORMATION BLOCK
#MNEM UNIT       ERCB CURVE CODE    CURVE DESCRIPTION
#-----------   ------------------   ----------------------------------
DEPT.M        00 001 00 00         : DEPTH        - DEPTH
GR  .API      00 310 00 00         : GR           - GAMMA RAY
NPHI.V/V      00 330 00 00         : PHIN         - NEUTRON POROSITY (SANDSTONE)
DPHI.V/V      00 890 00 00         : PHID         - DENSITY POROSITY (SANDSTONE)
ILD .OHMM     00 120 00 00         : RESD         - DEEP RESISTIVITY (DIL)
~PARAMETER INFORMATION
#MNEM.UNIT           DATA             DESCRIPTION OF MNEMONIC
#---------         -----------     ------------------------------
GL  .M        636                  : gl           - GROUND LEVEL ELEVATION
EREF.M        639                  : kb           - ELEVATION OF DEPTH REFERENCE
DATM.M        639                  : datum        - DATUM ELEVATION
TDD .M        620                  : tdd          - TOTAL DEPTH DRILLER
RUN .         ONE                  : Run          - RUN NUMBER
ENG .         BILL                 : Engineer     - RECORDING ENGINEER
WIT .         JIM                  : Witness      - WITNESSED BY
MUD .         GEL                  : Mud_type     - MUD TYPE
MATR.         SANDSTONE            : Logunit      - NEUTRON MATRIX
TMAX.C        21                   : BHT          - MAXIMUM RECORDED TEMPERATURE
BHTD.M        620                  : BHTDEP       - MAXIMUM RECORDED TEMPERATURE
RMT .C        22                   : MDTP         - TEMPERATURE OF MUD
MUDD.KG/M     1130                 : MWT          - MUD DENSITY
NEUT.         1                    : NEUTRON      - NEUTRON TYPE
RESI.         0                    : RESIST       - RESISTIVITY TYPE
RM  .OHMM     3.2                  : RM           - RESISTIVITY OF MUD
RMC .OHMM     3.5                  : RMC          - RESISTIVITY OF MUD CAKE
RMF .OHMM     2.4                  : RMF          - RESISTIVITY OF MUD FILTRATE
SUFT.C        4                    : SUFT         - SURFACE TEMPERATURE
~A  DEPTH       GR     PHIN     PHID     RESD
# ...
  485.500   74.462    0.305    0.132    5.483
  485.750   72.749    0.300    0.126    5.692
  486.000   82.003    0.315    0.171    5.802
  486.250   87.213    0.341    0.197    5.807
  486.500   91.847    0.358    0.213    5.707
  486.750   91.865    0.360    0.231    5.609
  487.000   91.306    0.366    0.228    5.414
  487.250   87.863    0.370    0.233    5.226
  487.500   84.420    0.376    0.221    5.134
  487.750   89.063    0.383    0.201    5.048
  488.000   89.658    0.385    0.192    6.173
  488.250   91.984    0.376    0.192    6.526
  488.500   94.309    0.378    0.199    6.652
  488.750   95.477    0.385    0.203    6.658
  489.000   93.188    0.382    0.206    6.667
  489.250   91.489    0.363    0.205    6.673
  489.500   94.382    0.367    0.200    6.678
  489.750   97.862    0.372    0.198    6.808
  490.000   94.424    0.380    0.194    6.940
  490.250   88.677    0.386    0.192    6.948
  490.500   90.994    0.383    0.189    6.951
  490.750   91.021    0.380    0.189    6.959
  491.000   91.030    0.363    0.189    6.841
  491.250   99.707    0.359    0.189    6.721
  491.500   99.725    0.382    0.188    6.486
  491.750   95.128    0.391    0.187    6.146
  492.000   92.839    0.374    0.184    5.825
  492.250   96.900    0.359    0.196    5.621
  492.500   99.221    0.366    0.218    5.328
  492.750  103.282    0.375    0.219    5.234
  493.000  100.993    0.382    0.220    5.238
  493.250   90.627    0.382    0.227    5.149
  493.500   90.645    0.382    0.251    5.248
  493.750   95.860    0.382    0.261    5.448
  494.000   91.258    0.382    0.223    6.199
  494.250   76.277    0.377    0.194    7.310
  494.500   69.372    0.320    0.170    8.316
  494.750   65.929    0.293    0.124    8.952
  495.000   63.639    0.273    0.103    9.816
  495.250   70.581    0.284    0.091   10.193
  495.500   73.488    0.294    0.115   10.020
  495.750   71.203    0.305    0.137    9.324
  496.000   72.371    0.313    0.146    8.834
  496.250   77.581    0.322    0.154    8.072
  496.500   81.642    0.338    0.161    7.788
  496.750   82.237    0.367    0.164    7.379
  497.000   83.986    0.377    0.179    7.120
  497.250   86.889    0.370    0.192    6.748
  497.500   89.796    0.363    0.185    6.512
  497.750   91.546    0.368    0.181    6.284
  498.000   90.987    0.372    0.175    6.064
  498.250   87.548    0.380    0.180    5.852
  498.500   85.826    0.394    0.184    5.650
  498.750   85.277    0.390    0.197    5.551
  499.000   88.180    0.376    0.208    5.456
  499.250   92.813    0.366    0.202    5.361
  499.500   97.442    0.355    0.225    5.268
  499.750  103.807    0.354    0.259    5.274
  500.000   95.171    0.360    0.274    5.279
  500.250   72.690    0.358    0.278    5.284
  500.500   69.823    0.347    0.236    5.386
  500.750   69.841    0.334    0.204    5.591
  501.000   69.287    0.306    0.160    5.804
  501.250   68.733    0.283    0.145    6.482
  501.500   65.862    0.244    0.123    7.646
  501.750   59.535    0.183    0.086    9.186
  502.000   54.361    0.179    0.066   10.073
  502.250   56.109    0.184    0.093    9.904
  502.500   59.594    0.193    0.124    9.731
  502.750   61.915    0.224    0.167    9.056
  503.000   67.712    0.294    0.195    8.126
  503.250   71.191    0.356    0.220    7.696
  503.500   74.099    0.359    0.248    6.780
  503.750   74.685    0.364    0.275    6.309
  504.000   77.011    0.371    0.271    6.089
  504.250   79.337    0.376    0.242    5.982
  504.500   79.936    0.378    0.236    5.669
  504.750   79.954    0.377    0.239    5.470
  505.000   79.973    0.369    0.252    5.280
  505.250   81.145    0.363    0.268    5.096
  505.500   83.471    0.370    0.271    5.008
  505.750   82.912    0.378    0.269    5.013
  506.000   75.430    0.382    0.255    5.016
  506.250   73.722    0.367    0.257    5.113
  506.500   72.010    0.355    0.252    5.118
  506.750   67.994    0.343    0.243    5.122
  507.000   69.166    0.350    0.231    5.127
  507.250   72.065    0.359    0.236    5.132
  507.500   76.698    0.366    0.253    5.136
  507.750   76.716    0.371    0.262    5.237
  508.000   76.735    0.361    0.266    5.339
  508.250   80.796    0.340    0.266    5.442
  508.500   86.006    0.331    0.267    5.549
  508.750   90.063    0.330    0.267    5.551
  509.000   85.466    0.332    0.260    5.556
  509.250   79.715    0.343    0.247    5.266
  509.500   75.695    0.358    0.237    5.175
  509.750   78.021    0.362    0.246    4.993
  510.000   81.505    0.362    0.257    4.820
  510.250   84.408    0.365    0.265    4.737
  510.500   84.431    0.372    0.267    4.571
  510.750   82.137    0.381    0.266    4.492
  511.000   80.433    0.376    0.266    4.416
  511.250   82.182    0.367    0.264    4.341
  511.500   83.345    0.373    0.266    4.343
  511.750   84.526    0.378    0.273    4.347
  512.000   84.545    0.380    0.276    4.351
  512.250   83.409    0.383    0.272    4.435
  512.500   79.384    0.370    0.228    4.778
  512.750   73.061    0.295    0.192    5.144
  513.000   71.348    0.299    0.159    5.339
  513.250   71.944    0.324    0.178    5.644
  513.500   74.842    0.331    0.211    5.861
  513.750   80.634    0.356    0.241    5.866
  514.000   83.541    0.365    0.241    5.765
  514.250   84.709    0.369    0.213    5.562
  514.500   85.881    0.372    0.197    5.273
  514.750   87.630    0.375    0.191    5.277
  515.000   89.956    0.380    0.186    5.581
  515.250   95.752    0.376    0.185    5.791
  515.500   98.650    0.369    0.193    5.904
  515.750  100.399    0.358    0.217    5.804
  516.000   98.687    0.355    0.237    5.701
  516.250   94.090    0.361    0.243    5.603
  516.500   90.647    0.368    0.255    5.407
  516.750   85.472    0.375    0.255    5.314
  517.000   88.385    0.372    0.212    5.418
  517.250   88.398    0.359    0.177    5.625
  517.500   76.301    0.323    0.158    6.397
  517.750   72.858    0.291    0.132    7.411
  518.000   67.684    0.276    0.107    7.982
  518.250   61.933    0.260    0.075    8.132
  518.500   63.105    0.247    0.054    8.291
  518.750   80.431    0.235    0.117    7.858
  519.000   90.838    0.245    0.171    7.311
  519.250   95.472    0.295    0.196    6.801
  519.500   94.336    0.378    0.185    6.214
  519.750   90.316    0.377    0.193    5.781
  520.000   88.603    0.361    0.180    5.478
  520.250   92.660    0.340    0.172    5.288
  520.500   87.490    0.340    0.174    5.291
  520.750   84.629    0.339    0.172    5.393
  521.000   84.075    0.338    0.172    6.722
  521.250   84.084    0.338    0.173    7.374
  521.500   81.794    0.330    0.174    7.653
  521.750   78.351    0.326    0.172    7.943
  522.000   72.023    0.318    0.136    8.099
  522.250   65.695    0.305    0.062    8.106
  522.500   69.752    0.206    0.036    8.115
  522.750   82.467    0.189    0.020    7.686
  523.000   88.831    0.218    0.064    6.772
  523.250   94.619    0.272    0.096    6.185
  523.500   94.064    0.322    0.180    5.756
  523.750   91.775    0.372    0.185    5.557
  524.000   91.793    0.385    0.194    5.560
  524.250   97.008    0.378    0.200    5.566
  524.500   97.022    0.357    0.189    5.672
  524.750   97.617    0.355    0.180    5.680
  525.000   97.058    0.372    0.176    5.682
  525.250   97.077    0.385    0.186    5.794
  525.500   98.249    0.379    0.193    5.694
  525.750   97.690    0.368    0.166    5.698
  526.000   94.833    0.357    0.161    5.704
  526.250   93.120    0.365    0.187    5.710
  526.500   94.288    0.372    0.194    5.716
  526.750   96.037    0.368    0.201    5.721
  527.000   95.483    0.364    0.199    6.050
  527.250   95.501    0.362    0.195    6.279
  527.500   96.096    0.355    0.194    6.519
  527.750   96.110    0.350    0.194    6.643
  528.000   93.829    0.350    0.188    6.650
  528.250   91.545    0.353    0.183    6.657
  528.500   93.284    0.357    0.181    6.663
  528.750   97.341    0.359    0.163    6.791
