~VERSION INFORMATION
 VERS.                 2.0:   CWLS LOG ASCII STANDARD -VERSION 2.0
 WRAP.                  NO:   ONE LINE PER DEPTH STEP
~WELL INFORMATION BLOCK
#MNEM.UNIT           DATA                    DESCRIPTION OF MNEMONIC
#---------    -------------------            -------------------------------
# Generated from Intellog Unique Number	CW_73_75/WELL/620
WELL.         ANG ET AL FRANCIS 06-36        : Well_name    - WELL
LOC .         00/06-36-074-22W4/0            : Location     - LOCATION
UWI .         00/06-36-074-22W4/0            : Uwi          - UNIQUE WELL ID
ENTR.         JAYE                           : Entered      - ENTERED BY
SRVC.         SCHLUMBERGER                   : Scn          - SERVICE COMPANY
DATE.         27 MAR 88                      : Date         - LOG DATE
STRT.M        350                            : top_depth    - START DEPTH
STOP.M        560                            : bot_depth    - STOP DEPTH
STEP.M        0.25                           : increment    - STEP LENGTH
 NULL. -999.2500:NULL Value
~CURVE INFORMATION BLOCK
#MNEM UNIT       ERCB CURVE CODE    CURVE DESCRIPTION
#-----------   ------------------   ----------------------------------
DEPT.M        00 001 00 00         : DEPTH        - DEPTH
ILD .OHMM     00 120 00 00         : RESD         - DEEP RESISTIVITY (DIL)
DPHI.V/V      00 890 00 00         : PHID         - DENSITY POROSITY (SANDSTONE)
NPHI.V/V      00 330 00 00         : PHIN         - NEUTRON POROSITY (SANDSTONE)
GR  .API      00 310 00 00         : GR           - GAMMA RAY
CALI.MM       00 280 01 00         : CAL          - CALIPER
~PARAMETER INFORMATION
#MNEM.UNIT           DATA             DESCRIPTION OF MNEMONIC
#---------         -----------     ------------------------------
GL  .M        656.8                : gl           - GROUND LEVEL ELEVATION
EREF.M        660                  : kb           - ELEVATION OF DEPTH REFERENCE
DATM.M        656.8                : datum        - DATUM ELEVATION
TDD .M        620                  : tdd          - TOTAL DEPTH DRILLER
RUN .         ONE                  : Run          - RUN NUMBER
ENG .         POWELL               : Engineer     - RECORDING ENGINEER
WIT .         LIEHTENBELT          : Witness      - WITNESSED BY
BASE.         EDM                  : Branch       - HOME BASE OF LOGGING UNIT
MUD .         GEL CHEM             : Mud_type     - MUD TYPE
MATR.         SANDSTONE            : Logunit      - NEUTRON MATRIX
TMAX.C        47                   : BHT          - MAXIMUM RECORDED TEMPERATURE
BHTD.M        619.5                : BHTDEP       - MAXIMUM RECORDED TEMPERATURE
RMT .C        18                   : MDTP         - TEMPERATURE OF MUD
MUDD.KG/M     1170                 : MWT          - MUD DENSITY
NEUT.         1                    : NEUTRON      - NEUTRON TYPE
RESI.         0                    : RESIST       - RESISTIVITY TYPE
RM  .OHMM     1.26                 : RM           - RESISTIVITY OF MUD
RMC .OHMM     0                    : RMC          - RESISTIVITY OF MUD CAKE
RMF .OHMM     3.44                 : RMF          - RESISTIVITY OF MUD FILTRATE
SUFT.C        0                    : SUFT         - SURFACE TEMPERATURE
~A  DEPTH     RESD     PHID     PHIN       GR      CAL
# ...
  459.500    4.270    0.325    0.445   56.428  162.118
  459.750    4.327    0.315    0.455   56.643  161.561
  460.000    4.436    0.300    0.463   57.041  161.404
  460.250    4.547    0.312    0.446   58.904  161.561
  460.500    4.795    0.309    0.446   59.366  162.017
  460.750    5.333    0.318    0.449   57.804  164.816
  461.000    5.954    0.317    0.455   61.318  165.479
  461.250    7.253    0.319    0.451   64.587  164.521
  461.500    9.056    0.322    0.438   64.373  163.758
  461.750   11.546    0.313    0.403   60.066  163.194
  462.000   14.092    0.271    0.358   48.853  162.426
  462.250   14.666    0.245    0.303   42.039  161.562
  462.500   13.882    0.107    0.269   41.215  161.510
  462.750   12.342    0.102    0.257   41.673  161.560
  463.000    9.700    0.074    0.271   42.376  162.228
  463.250    6.118    0.106    0.350   45.464  163.499
  463.500    4.718    0.164    0.342   53.681  164.771
  463.750    4.259    0.182    0.362   64.711  162.684
  464.000    4.147    0.258    0.420   69.997  161.928
  464.250    4.062    0.294    0.443   62.024  163.093
  464.500    4.047    0.308    0.428   57.716  164.367
  464.750    4.070    0.309    0.417   57.016  164.316
  465.000    4.078    0.312    0.415   57.350  163.657
  465.250    4.078    0.320    0.426   58.483  163.202
  465.500    4.110    0.324    0.421   59.490  163.349
  465.750    4.118    0.325    0.419   60.195  164.214
  466.000    4.134    0.325    0.433   59.856  164.875
  466.250    4.134    0.315    0.438   56.405  162.993
  466.500    4.134    0.308    0.448   53.685  160.499
  466.750    4.080    0.300    0.468   53.289  159.631
  467.000    4.080    0.297    0.467   58.819  159.887
  467.250    4.096    0.319    0.444   60.806  160.447
  467.500    4.287    0.309    0.446   59.062  160.909
  467.750    4.590    0.312    0.433   57.628  161.265
  468.000    5.134    0.305    0.431   59.797  161.320
  468.250    5.897    0.304    0.437   59.948  161.161
  468.500    6.826    0.294    0.438   58.818  160.602
  468.750    7.930    0.310    0.422   57.936  159.944
  469.000    8.036    0.303    0.383   56.926  160.097
  469.250    7.563    0.284    0.361   56.223  160.556
  469.500    6.866    0.202    0.331   57.842  160.605
  469.750    5.967    0.190    0.280   59.157  162.793
  470.000    5.041    0.211    0.320   57.842  166.713
  470.250    4.274    0.295    0.400   63.862  164.734
  470.500    3.947    0.309    0.441   61.814  163.459
  470.750    3.489    0.303    0.443   59.891  163.002
  471.000    3.450    0.302    0.433   59.553  163.052
  471.250    3.516    0.314    0.423   61.054  163.099
  471.500    3.604    0.312    0.417   61.633  163.049
  471.750    3.709    0.314    0.428   61.908  162.494
  472.000    3.716    0.324    0.423   62.673  162.141
  472.250    3.744    0.317    0.418   62.277  161.887
  472.500    3.738    0.312    0.441   60.227  161.934
  472.750    3.717    0.316    0.453   59.892  162.084
  473.000    3.717    0.316    0.448   60.410  162.037
  473.250    3.717    0.311    0.456   58.242  162.395
  473.500    3.703    0.308    0.455   58.335  162.443
  473.750    3.725    0.314    0.448   60.320  162.497
  474.000    3.746    0.330    0.457   58.945  162.441
  474.250    3.782    0.324    0.439   58.062  162.294
  474.500    3.804    0.321    0.439   58.092  162.850
  474.750    3.907    0.330    0.439   58.487  162.396
  475.000    4.004    0.332    0.439   58.705  161.529
  475.250    4.144    0.319    0.435   58.672  160.355
  475.500    4.280    0.319    0.436   61.023  160.713
  475.750    4.462    0.315    0.437   64.721  161.890
  476.000    4.715    0.288    0.434   71.413  163.360
  476.250    5.058    0.224    0.433   80.120  165.652
  476.500    5.205    0.208    0.429   84.978  167.339
  476.750    5.406    0.220    0.431   84.642  168.099
  477.000    5.479    0.219    0.445   92.312  167.442
  477.250    5.553    0.220    0.464   91.673  166.681
  477.500    5.627    0.205    0.474   89.745  166.422
  477.750    5.660    0.199    0.473   87.029  166.677
  478.000    5.714    0.206    0.470   86.140  167.337
  478.250    5.758    0.199    0.471   86.479  168.408
  478.500    5.780    0.193    0.465   86.874  169.271
  478.750    5.781    0.210    0.459   84.888  169.732
  479.000    5.748    0.214    0.453   82.721  169.480
  479.250    5.705    0.216    0.448   84.767  167.897
  479.500    5.760    0.234    0.471   87.181  165.304
  479.750    5.815    0.236    0.477   86.786  164.233
  480.000    5.860    0.231    0.464   87.244  163.470
  480.250    5.905    0.235    0.462   88.313  162.812
  480.500    5.984    0.228    0.456   87.550  162.151
  480.750    6.053    0.222    0.439   86.236  161.692
  481.000    6.111    0.219    0.425   87.121  161.340
  481.250    6.147    0.222    0.436   87.642  161.386
  481.500    6.182    0.219    0.447   87.245  162.145
  481.750    6.182    0.213    0.461   86.786  163.420
  482.000    6.159    0.220    0.455   85.412  164.184
  482.250    6.160    0.220    0.460   85.139  164.645
  482.500    6.195    0.217    0.455   86.512  165.107
  482.750    6.219    0.207    0.441   85.564  165.154
  483.000    6.231    0.208    0.439   85.229  165.306
  483.250    6.267    0.203    0.445   89.047  165.053
  483.500    6.328    0.203    0.442   88.345  164.492
  483.750    6.364    0.214    0.444   83.367  164.143
  484.000    6.401    0.211    0.426   83.397  164.192
  484.250    6.414    0.217    0.419   85.015  164.645
  484.500    6.414    0.210    0.430   88.529  165.105
  484.750    6.378    0.215    0.443   85.809  166.174
  485.000    6.366    0.209    0.449   86.514  168.873
  485.250    6.331    0.206    0.439   88.927  169.639
  485.500    6.271    0.213    0.431   87.491  168.061
  485.750    6.224    0.212    0.408   84.897  166.081
  486.000    6.189    0.205    0.425   82.297  164.505
  486.250    6.166    0.217    0.448   82.695  164.046
  486.500    6.097    0.229    0.462   84.680  164.199
  486.750    6.074    0.228    0.470   90.029  165.063
  487.000    6.121    0.216    0.456   92.382  166.637
  487.250    6.250    0.211    0.454   92.474  168.728
  487.500    6.407    0.213    0.452   90.610  171.526
  487.750    6.668    0.202    0.444   87.890  172.292
  488.000    6.861    0.198    0.444   85.843  170.917
  488.250    7.194    0.170    0.462   84.835  169.538
  488.500    7.777    0.181    0.468   98.309  168.070
  488.750    8.765    0.227    0.467   98.645  166.993
  489.000    9.711    0.233    0.463   82.178  165.724
  489.250   10.637    0.215    0.456   72.004  164.959
  489.500   11.240    0.204    0.427   68.613  164.196
  489.750   12.012    0.207    0.421   70.110  163.739
  490.000   12.644    0.239    0.426   73.075  164.197
  490.250   12.912    0.249    0.436   72.737  164.964
  490.500   13.085    0.237    0.452   70.935  165.623
  490.750   12.816    0.231    0.448   70.294  165.982
  491.000   11.138    0.227    0.438   72.832  166.554
  491.250    9.426    0.230    0.417   70.847  166.902
  491.500    8.069    0.212    0.386   69.470  167.257
  491.750    6.933    0.236    0.403   69.074  167.309
  492.000    5.779    0.257    0.433   70.755  167.165
  492.250    5.070    0.253    0.450   73.840  166.903
  492.500    5.004    0.257    0.445   73.627  167.059
  492.750    5.287    0.257    0.436   74.817  167.305
  493.000    5.880    0.255    0.428   78.089  167.464
  493.250    6.332    0.250    0.442   81.601  167.311
  493.500    6.871    0.254    0.472   86.277  167.565
  493.750    7.164    0.263    0.486   83.617  168.430
  494.000    7.399    0.273    0.462   76.621  168.378
  494.250    7.556    0.281    0.459   71.399  167.306
  494.500    7.745    0.268    0.440   69.288  166.442
  494.750    8.075    0.256    0.449   67.791  166.091
  495.000    8.500    0.247    0.448   65.379  166.453
  495.250   11.108    0.197    0.433   62.170  166.596
  495.500   20.581    0.116    0.377   58.536  166.954
  495.750   24.230    0.056    0.342   53.616  167.515
