~VERSION INFORMATION
 VERS.                 2.0:   CWLS LOG ASCII STANDARD -VERSION 2.0
 WRAP.                  NO:   ONE LINE PER DEPTH STEP
~WELL INFORMATION BLOCK
#MNEM.UNIT           DATA                    DESCRIPTION OF MNEMONIC
#---------    -------------------            -------------------------------
# Generated from Intellog Unique Number	CS_67_68/WELL/2160
WELL.         02-29-067-06W4                 : Well_name    - WELL
LOC .         00/02-29-067-06W4/0            : Location     - LOCATION
UWI .         00/02-29-067-06W4/0            : Uwi          - UNIQUE WELL ID
ENTR.         SP                             : Entered      - ENTERED BY
SRVC.         SCHLUMBERGER                   : Scn          - SERVICE COMPANY
STRT.M        335                            : top_depth    - START DEPTH
STOP.M        545                            : bot_depth    - STOP DEPTH
STEP.M        0.25                           : increment    - STEP LENGTH
 NULL. -999.2500:NULL Value
~CURVE INFORMATION BLOCK
#MNEM UNIT       ERCB CURVE CODE    CURVE DESCRIPTION
#-----------   ------------------   ----------------------------------
DEPT.M        00 001 00 00         : DEPTH        - DEPTH
ILD .OHMM     00 120 00 00         : RESD         - DEEP RESISTIVITY (DIL)
DPHI.V/V      00 890 00 00         : PHID         - DENSITY POROSITY (LIMESTONE)
NPHI.V/V      00 330 00 00         : PHIN         - NEUTRON POROSITY (LIMESTONE)
GR  .API      00 310 00 00         : GR           - GAMMA RAY
CALI.MM       00 280 01 00         : CAL          - CALIPER
~PARAMETER INFORMATION
#MNEM.UNIT           DATA             DESCRIPTION OF MNEMONIC
#---------         -----------     ------------------------------
GL  .M        659.3                : gl           - GROUND LEVEL ELEVATION
EREF.M        662.17               : kb           - ELEVATION OF DEPTH REFERENCE
DATM.M        662.17               : datum        - DATUM ELEVATION
TDD .M        558                  : tdd          - TOTAL DEPTH DRILLER
RUN .         ONE                  : Run          - RUN NUMBER
ENG .         BILL                 : Engineer     - RECORDING ENGINEER
WIT .         JIM                  : Witness      - WITNESSED BY
MUD .         GEL                  : Mud_type     - MUD TYPE
MATR.         LIMESTONE            : Logunit      - NEUTRON MATRIX
TMAX.C        23                   : BHT          - MAXIMUM RECORDED TEMPERATURE
BHTD.M        558.7                : BHTDEP       - MAXIMUM RECORDED TEMPERATURE
MATR.         1                    : LOGUNIT      - NEUTRON MATRIX
RMT .C        25                   : MDTP         - TEMPERATURE OF MUD
NEUT.         1                    : NEUTRON      - NEUTRON TYPE
RESI.         0                    : RESIST       - RESISTIVITY TYPE
RMC .OHMM     0.25                 : RMC          - RESISTIVITY OF MUD CAKE
RMF .OHMM     0.25                 : RMF          - RESISTIVITY OF MUD FILTRATE
SUFT.C        15                   : SUFT         - SURFACE TEMPERATURE
~A  DEPTH     RESD     PHID     PHIN       GR      CAL
# ...
  408.000    3.703    0.312    0.477   76.683  147.522
  408.250    3.767    0.305    0.465   73.695  147.419
  408.500    3.796    0.298    0.461   73.085  147.317
  408.750    3.797    0.293    0.447   73.268  147.114
  409.000    3.769    0.292    0.436   73.024  147.418
  409.250    3.671    0.297    0.427   73.145  147.519
  409.500    3.529    0.301    0.426   75.828  147.315
  409.750    3.431    0.306    0.443   77.718  147.315
  410.000    3.342    0.309    0.475   79.608  147.213
  410.250    3.280    0.307    0.503   80.644  147.111
  410.500    3.226    0.312    0.517   73.632  147.110
  410.750    3.160    0.323    0.506   70.278  147.415
  411.000    3.125    0.333    0.494   71.924  147.211
  411.250    3.149    0.325    0.514   72.350  147.414
  411.500    3.167    0.325    0.510   69.911  147.718
  411.750    3.149    0.339    0.488   70.033  148.226
  412.000    3.109    0.342    0.471   72.654  148.632
  412.250    3.017    0.340    0.477   76.984  149.139
  412.500    2.830    0.337    0.481   81.861  149.545
  412.750    2.610    0.334    0.467   86.251  150.764
  413.000    2.519    0.325    0.502   88.995  151.882
  413.250    2.491    0.316    0.541   90.641  153.406
  413.500    2.445    0.321    0.561   91.494  154.726
  413.750    2.404    0.316    0.565   91.982  155.336
  414.000    2.346    0.317    0.563   93.018  155.538
  414.250    2.298    0.330    0.554   93.627  155.030
  414.500    2.197    0.320    0.548   94.359  153.302
  414.750    2.132    0.313    0.544   95.273  151.167
  415.000    2.065    0.316    0.554   95.883  150.150
  415.250    2.077    0.323    0.580   94.053  150.353
  415.500    2.206    0.335    0.589   90.394  151.064
  415.750    2.411    0.347    0.600   83.992  152.181
  416.000    2.684    0.355    0.610   74.418  155.839
  416.250    3.000    0.358    0.578   70.150  160.920
  416.500    3.241    0.363    0.542   67.893  156.753
  416.750    3.548    0.372    0.503   66.612  150.553
  417.000    3.862    0.369    0.471   66.185  147.098
  417.250    4.118    0.362    0.447   66.063  144.963
  417.500    4.341    0.356    0.461   66.002  143.845
  417.750    4.517    0.353    0.463   65.758  143.438
  418.000    4.647    0.352    0.453   65.148  143.234
  418.250    4.691    0.351    0.454   64.659  143.335
  418.500    4.665    0.349    0.456   64.354  143.335
  418.750    4.605    0.348    0.455   65.513  143.537
  419.000    4.554    0.347    0.448   66.915  143.842
  419.250    4.495    0.348    0.445   68.500  143.638
  419.500    4.478    0.352    0.443   70.146  143.434
  419.750    4.453    0.356    0.455   71.548  143.129
  420.000    4.454    0.361    0.465   73.255  142.722
  420.250    4.488    0.364    0.465   70.145  142.417
  420.500    4.540    0.363    0.458   67.889  142.416
  420.750    4.662    0.360    0.451   67.583  142.517
  421.000    4.760    0.357    0.464   69.473  142.517
  421.250    4.860    0.356    0.478   70.449  142.720
  421.500    4.962    0.356    0.463   69.961  142.516
  421.750    5.134    0.360    0.467   72.704  142.312
  422.000    5.362    0.319    0.473   75.326  142.108
  422.250    5.516    0.299    0.472   77.947  141.701
  422.500    5.621    0.288    0.471   79.045  141.498
  422.750    5.643    0.280    0.469   79.471  141.497
  423.000    5.591    0.276    0.460   79.654  141.700
  423.250    5.477    0.289    0.463   79.532  142.004
  423.500    5.345    0.299    0.471   79.105  142.004
  423.750    5.236    0.307    0.480   78.677  142.410
  424.000    5.139    0.310    0.484   78.372  142.409
  424.250    5.054    0.304    0.488   78.616  142.409
  424.500    5.083    0.300    0.487   79.103  142.408
  424.750    5.151    0.298    0.482   79.835  142.001
  425.000    5.171    0.296    0.479   80.749  141.290
  425.250    5.142    0.294    0.481   81.847  139.866
  425.500    5.104    0.296    0.478   80.932  139.967
  425.750    5.086    0.293    0.470   81.236  141.695
  426.000    5.039    0.285    0.464   83.004  143.320
  426.250    4.964    0.288    0.461   83.065  144.336
  426.500    4.909    0.295    0.459   80.443  144.539
  426.750    4.919    0.299    0.463   78.735  143.522
  427.000    5.274    0.302    0.467   81.052  143.115
  427.250    5.285    0.299    0.457   82.698  143.114
  427.500    5.305    0.294    0.458   83.978  143.215
  427.750    5.346    0.289    0.467   85.258  143.012
  428.000    5.377    0.282    0.471   86.234  143.011
  428.250    5.378    0.276    0.469   87.087  143.519
  428.500    5.368    0.272    0.469   87.513  144.230
  428.750    5.308    0.267    0.461   88.245  145.551
  429.000    5.181    0.265    0.453   89.403  146.465
  429.250    5.027    0.262    0.454   90.561  147.074
  429.500    4.870    0.260    0.466   91.659  147.277
  429.750    4.744    0.257    0.476   92.268  147.073
  430.000    4.647    0.256    0.481   90.561  148.089
  430.250    4.552    0.256    0.491   89.707  150.019
  430.500    4.502    0.264    0.508   90.438  151.746
  430.750    4.418    0.281    0.503   90.682  153.778
  431.000    4.255    0.299    0.491   90.072  158.351
  431.250    4.091    0.317    0.505   90.925  163.534
  431.500    3.889    0.334    0.509   92.266  169.732
  431.750    3.689    0.340    0.497   92.814  173.289
  432.000    3.560    0.330    0.512   92.631  165.565
  432.250    3.481    0.316    0.528   91.412  160.584
  432.500    3.436    0.301    0.516   89.704  158.348
  432.750    3.417    0.288    0.517   87.082  157.840
  433.000    3.417    0.278    0.502   84.886  155.502
  433.250    3.476    0.290    0.450   82.752  151.436
  433.500    3.617    0.299    0.432   81.410  147.472
  433.750    3.693    0.323    0.431   83.910  146.760
  434.000    3.771    0.337    0.446   86.531  150.419
  434.250    3.673    0.333    0.468   86.592  156.719
  434.500    3.465    0.318    0.500   84.885  163.426
  434.750    3.459    0.304    0.527   83.787  159.767
  435.000    3.552    0.318    0.526   82.323  153.872
  435.250    3.689    0.330    0.499   81.408  149.501
  435.500    3.809    0.343    0.484   80.005  146.351
  435.750    3.911    0.357    0.478   78.785  144.318
  436.000    4.009    0.360    0.481   77.078  144.012
  436.250    4.085    0.355    0.473   74.700  143.605
  436.500    4.132    0.347    0.485   71.894  143.401
  436.750    4.156    0.353    0.493   69.333  143.096
  437.000    4.118    0.361    0.490   67.626  142.791
  437.250    4.072    0.365    0.483   66.284  142.485
  437.500    4.034    0.367    0.483   64.698  141.672
  437.750    4.004    0.368    0.481   64.027  141.163
  438.000    3.975    0.369    0.480   63.295  140.960
  438.250    3.945    0.370    0.478   62.929  140.959
  438.500    3.931    0.370    0.483   62.685  140.958
  438.750    3.924    0.369    0.488   62.563  140.958
  439.000    3.925    0.368    0.472   62.501  140.958
  439.250    3.910    0.366    0.460   62.257  141.059
  439.500    3.926    0.364    0.450   62.013  141.160
  439.750    3.926    0.364    0.458   61.586  141.261
  440.000    3.912    0.364    0.470   61.829  141.261
  440.250    3.905    0.362    0.479   62.500  141.260
  440.500    3.891    0.357    0.486   63.292  141.565
  440.750    3.876    0.351    0.466   64.207  141.767
  441.000    3.841    0.346    0.447   65.304  141.970
  441.250    3.776    0.340    0.467   65.791  141.868
  441.500    3.707    0.351    0.480   59.267  142.071
  441.750    3.714    0.369    0.465   54.571  141.969
  442.000    3.778    0.372    0.455   57.986  142.070
  442.250    3.938    0.365    0.449   60.302  142.374
  442.500    4.199    0.359    0.450   58.107  142.882
  442.750    4.402    0.354    0.452   56.095  143.796
  443.000    4.571    0.350    0.448   55.545  144.812
  443.250    4.792    0.345    0.443   55.423  145.116
  443.500    4.911    0.342    0.437   55.728  145.217
  443.750    5.034    0.342    0.438   56.886  145.217
  444.000    5.101    0.343    0.441   59.508  145.318
  444.250    5.111    0.344    0.447   62.251  145.216
