~VERSION INFORMATION
 VERS.                 2.0:   CWLS LOG ASCII STANDARD -VERSION 2.0
 WRAP.                  NO:   ONE LINE PER DEPTH STEP
~WELL INFORMATION BLOCK
#MNEM.UNIT           DATA                    DESCRIPTION OF MNEMONIC
#---------    -------------------            -------------------------------
# Generated from Intellog Unique Number	CW_73_75/WELL/2724
WELL.         GASCAN MITSUE 04-24            : Well_name    - WELL
LOC .         00/04-24-073-04W5/0            : Location     - LOCATION
UWI .         00/04-24-073-04W5/0            : Uwi          - UNIQUE WELL ID
ENTR.         JAYE                           : Entered      - ENTERED BY
SRVC.         SCHLUMBERGER                   : Scn          - SERVICE COMPANY
DATE.         1 FEB 82                       : Date         - LOG DATE
STRT.M        360                            : top_depth    - START DEPTH
STOP.M        570                            : bot_depth    - STOP DEPTH
STEP.M        0.25                           : increment    - STEP LENGTH
 NULL. -999.2500:NULL Value
~CURVE INFORMATION BLOCK
#MNEM UNIT       ERCB CURVE CODE    CURVE DESCRIPTION
#-----------   ------------------   ----------------------------------
DEPT.M        00 001 00 00         : DEPTH        - DEPTH
DPHI.V/V      00 890 00 00         : PHID         - DENSITY POROSITY (SANDSTONE)
NPHI.V/V      00 330 00 00         : PHIN         - NEUTRON POROSITY (SANDSTONE)
GR  .API      00 310 00 00         : GR           - GAMMA RAY
CALI.MM       00 280 01 00         : CAL          - CALIPER
ILD .OHMM     00 120 00 00         : RESD         - DEEP RESISTIVITY (DLL)
~PARAMETER INFORMATION
#MNEM.UNIT           DATA             DESCRIPTION OF MNEMONIC
#---------         -----------     ------------------------------
GL  .M        587                  : gl           - GROUND LEVEL ELEVATION
EREF.M        591.3                : kb           - ELEVATION OF DEPTH REFERENCE
DATM.M        587                  : datum        - DATUM ELEVATION
TDD .M        1624                 : tdd          - TOTAL DEPTH DRILLER
RUN .         ONE                  : Run          - RUN NUMBER
ENG .         WALTERHOUSE          : Engineer     - RECORDING ENGINEER
WIT .         IRELAND              : Witness      - WITNESSED BY
BASE.         EDM                  : Branch       - HOME BASE OF LOGGING UNIT
MUD .         GEL CHEM             : Mud_type     - MUD TYPE
MATR.         SANDSTONE            : Logunit      - NEUTRON MATRIX
TMAX.C        51.6                 : BHT          - MAXIMUM RECORDED TEMPERATURE
BHTD.M        1624                 : BHTDEP       - MAXIMUM RECORDED TEMPERATURE
RMT .C        51.6                 : MDTP         - TEMPERATURE OF MUD
MUDD.KG/M     1110                 : MWT          - MUD DENSITY
NEUT.         0                    : NEUTRON      - NEUTRON TYPE
RESI.         1                    : RESIST       - RESISTIVITY TYPE
RM  .OHMM     0                    : RM           - RESISTIVITY OF MUD
RMC .OHMM     0                    : RMC          - RESISTIVITY OF MUD CAKE
RMF .OHMM     0                    : RMF          - RESISTIVITY OF MUD FILTRATE
SUFT.C        0                    : SUFT         - SURFACE TEMPERATURE
~A  DEPTH     PHID     PHIN       GR      CAL     RESD
  360.000    0.565    0.536   81.156  350.224    2.473
  360.250    0.590    0.543   82.726  376.686    2.442
  360.500    0.633    0.551   83.297  364.934    2.403
  360.750    0.613    0.515   81.245  360.472    2.382
  361.000    0.528    0.504   81.878  362.465    2.438
  361.250    0.595    0.529   84.636  364.563    2.509
  361.500    0.652    0.513   89.643  374.677    2.627
  361.750    0.627    0.499   89.027  359.697    2.755
  362.000    0.653    0.521   81.914  345.655    2.873
  362.250    0.679    0.548   77.049  476.868    2.929
  362.500    0.713    0.565   71.123  472.614    2.970
  362.750    0.725    0.577   63.448  411.507    3.046
  363.000    0.736    0.589   65.082  365.394    3.188
  363.250    0.746    0.472   70.400  322.093    3.439
  363.500    0.617    0.444   77.343  284.727    3.874
  363.750    0.511    0.424   69.606  264.645    4.147
  364.000    0.490    0.418   63.991  255.184    4.742
  364.250    0.482    0.428   66.438  248.536    5.736
  364.500    0.472    0.404   68.257  241.261    6.810
  364.750    0.460    0.383   66.954  231.072    7.979
  365.000    0.416    0.370   64.215  223.173    9.402
  365.250    0.371    0.361   61.286  229.852   10.162
  365.500    0.295    0.337   56.610  236.531   10.226
  365.750    0.234    0.245   54.869  240.607    9.800
  366.000    0.234    0.277   55.753  239.684    8.911
  366.250    0.257    0.348   62.135  237.303    8.428
  366.500    0.297    0.388   62.518  236.590    7.897
  366.750    0.323    0.383   55.155  240.353    6.190
  367.000    0.352    0.354   54.789  270.356    4.991
  367.250    0.600    0.442   60.045  290.467    3.616
  367.500    0.602    0.476   72.299  292.355    2.619
  367.750    0.651    0.504   82.367  299.867    2.140
  368.000    0.707    0.522   84.313  320.603    1.953
  368.250    0.721    0.513   77.574  315.516    2.044
  368.500    0.734    0.494   66.962  312.928    2.400
  368.750    0.549    0.523   62.848  366.358    2.925
  369.000    0.494    0.499   67.792  275.471    3.729
  369.250    0.427    0.434   68.614  255.182    4.658
  369.500    0.367    0.373   68.185  255.301    5.396
  369.750    0.305    0.363   70.630  255.004    5.681
  370.000    0.290    0.366   70.639  253.041    5.825
  370.250    0.273    0.360   65.712  248.994    5.873
  370.500    0.221    0.345   61.598  244.843    5.714
  370.750    0.183    0.332   63.044  244.129    5.314
  371.000    0.209    0.340   66.176  255.077    4.969
  371.250    0.708    0.438   69.558  372.961    5.039
  371.500    0.733    0.467   70.754  380.057    5.354
  371.750    0.755    0.457   69.826  353.103    5.787
  372.000    0.493    0.416   64.649  297.098    6.046
  372.250    0.324    0.362   58.348  262.752    6.142
  372.500    0.220    0.353   61.419  260.999    5.942
  372.750    0.222    0.379   67.613  274.548    5.402
  373.000    0.334    0.406   74.993  307.882    4.785
  373.250    0.698    0.425   75.877  397.757    4.159
  373.500    0.590    0.461   73.074  367.055    3.788
  373.750    0.567    0.447   77.331  332.187    3.393
  374.000    0.666    0.482   80.152  299.819    3.114
  374.250    0.706    0.524   78.598  344.296    3.285
  374.500    0.631    0.534   81.856  333.377    3.959
  374.750    0.551    0.466   85.488  277.060    4.175
  375.000    0.429    0.377   89.371  258.749    4.412
  375.250    0.297    0.345   88.380  260.638    4.680
  375.500    0.375    0.360   82.891  263.464    4.745
  375.750    0.391    0.398   73.716  261.189    5.080
  376.000    0.402    0.411   63.479  237.775    5.679
  376.250    0.373    0.395   52.867  219.984    6.115
  376.500    0.352    0.353   44.067  221.352    6.329
  376.750    0.317    0.341   44.763  229.178    6.418
  377.000    0.291    0.342   49.395  233.046    6.458
  377.250    0.318    0.355   52.153  233.476    6.355
  377.500    0.340    0.356   49.475  229.742    6.205
  377.750    0.348    0.349   46.798  228.402    6.003
  378.000    0.345    0.346   49.056  227.585    5.829
  378.250    0.328    0.355   53.625  226.663    5.639
  378.500    0.314    0.352   59.319  230.226    5.384
  378.750    0.309    0.341   61.577  234.084    5.248
  379.000    0.329    0.341   61.586  237.432    5.321
  379.250    0.298    0.347   62.094  238.487    5.497
  379.500    0.256    0.341   63.790  239.126    5.787
  379.750    0.279    0.328   63.799  238.413    6.137
  380.000    0.318    0.327   62.934  237.699    6.784
  380.250    0.324    0.350   63.317  237.401    7.416
  380.500    0.310    0.361   65.888  236.686    7.910
  380.750    0.306    0.348   69.395  236.598    8.080
  381.000    0.312    0.350   73.527  238.279    7.643
  381.250    0.362    0.387   70.100  241.521    6.362
  381.500    0.576    0.449   63.299  248.200    4.812
  381.750    0.769    0.473   56.123  264.145    4.013
  382.000    0.848    0.568   48.947  455.750    3.554
  382.250    0.857    0.611   48.019  384.231    3.281
  382.500    0.714    0.581   60.461  350.925    2.978
  382.750    0.680    0.568   79.524  305.229    2.941
  383.000    0.694    0.552   78.221  432.590    3.251
  383.250    0.702    0.527   75.856  370.545    3.560
  383.500    0.458    0.474   82.487  300.901    4.009
  383.750    0.448    0.416   89.493  266.449    4.645
  384.000    0.432    0.366   82.879  264.174    5.588
  384.250    0.379    0.348   76.079  251.590    6.709
  384.500    0.276    0.317   73.713  237.860    7.816
  384.750    0.293    0.292   74.222  235.792    7.491
  385.000    0.443    0.387   74.731  244.657    5.187
  385.250    0.525    0.474   69.054  246.650    3.364
  385.500    0.706    0.544   61.191  297.481    2.559
  385.750    0.722    0.578   58.452  533.440    2.791
  386.000    0.779    0.605   59.836  518.253    2.977
  386.250    0.806    0.579   58.782  494.110    3.206
  386.500    0.834    0.561   66.912  407.805    3.530
  386.750    0.624    0.569   78.104  350.655    3.991
  387.000    0.602    0.545   88.296  323.285    4.446
  387.250    0.609    0.455   92.679  300.185    4.859
  387.500    0.507    0.422   83.067  258.028    5.087
  387.750    0.447    0.385   73.516  239.613    4.986
  388.000    0.355    0.366   50.659  232.236    4.611
  388.250    0.341    0.307   40.485  228.814    4.280
  388.500    0.350    0.318   41.056  226.332    3.798
  388.750    0.351    0.330   39.377  224.263    3.389
  389.000    0.352    0.328   42.511  221.674    3.235
  389.250    0.357    0.321   46.518  221.272    3.256
  389.500    0.365    0.328   49.900  221.184    3.376
  389.750    0.365    0.340   47.222  221.509    3.555
  390.000    0.361    0.344   48.982  224.649    3.763
  390.250    0.345    0.349   56.236  227.164    4.075
  390.500    0.342    0.357   57.433  228.114    4.289
  390.750    0.356    0.365   55.193  228.858    4.365
  391.000    0.365    0.362   54.764  229.184    4.426
  391.250    0.351    0.362   56.209  229.719    4.463
  391.500    0.354    0.372   56.344  230.464    4.559
  391.750    0.361    0.377   56.914  230.999    4.692
  392.000    0.363    0.374   55.112  231.327    4.894
  392.250    0.361    0.374   53.121  231.444    5.084
  392.500    0.351    0.378   53.379  231.775    5.223
  392.750    0.339    0.370   54.700  231.996    5.376
  393.000    0.350    0.356   57.084  232.114    5.492
  393.250    0.348    0.347   59.967  232.546    5.600
  393.500    0.338    0.345   59.850  233.288    5.710
  393.750    0.340    0.353   57.798  235.281    5.756
  394.000    0.331    0.365   59.243  237.484    5.837
  394.250    0.313    0.365   61.626  238.643    5.918
  394.500    0.330    0.370   64.697  239.282    5.944
  394.750    0.334    0.393   67.579  240.130    5.772
  395.000    0.405    0.387   73.211  243.373    5.357
  395.250    0.508    0.408   77.092  266.086    4.460
  395.500    0.538    0.510   81.538  331.388    3.529
  395.750    0.537    0.494   85.982  334.631    3.079
  396.000    0.540    0.481   96.549  317.360    2.847
  396.250    0.545    0.486   82.626  292.489    2.876
