~VERSION INFORMATION
 VERS.                 2.0:   CWLS LOG ASCII STANDARD -VERSION 2.0
 WRAP.                  NO:   ONE LINE PER DEPTH STEP
~WELL INFORMATION BLOCK
#MNEM.UNIT           DATA                    DESCRIPTION OF MNEMONIC
#---------    -------------------            -------------------------------
# Generated from Intellog Unique Number	CX_WELLS/WELL/3124
WELL.         UNIVERSAL                      : Well_name    - WELL
LOC .         00/06-09-083-03W4/0            : Location     - LOCATION
UWI .         00/06-09-083-03W400            : Uwi          - UNIQUE WELL ID
ENTR.         TIM                            : Entered      - ENTERED BY
SRVC.         SCHLUMBERGER                   : Scn          - SERVICE COMPANY
STRT.F        300                            : top_depth    - START DEPTH
STOP.F        979.954                        : bot_depth    - STOP DEPTH
STEP.F        0.82                           : increment    - STEP LENGTH
 NULL. -999.2500:NULL Value
~CURVE INFORMATION BLOCK
#MNEM UNIT       ERCB CURVE CODE    CURVE DESCRIPTION
#-----------   ------------------   ----------------------------------
DEPT.F        00 001 00 00         : DEPTH        - DEPTH
GR  .API      00 310 00 00         : GR           - GAMMA RAY
NPHI.V/V      00 330 00 00         : PHIN         - NEUTRON POROSITY (SANDSTONE)
DPHI.V/V      00 890 00 00         : PHID         - DENSITY POROSITY (SANDSTONE)
ILD .OHMM     00 120 00 00         : RESD         - DEEP RESISTIVITY (OTHER)
~PARAMETER INFORMATION
#MNEM.UNIT           DATA             DESCRIPTION OF MNEMONIC
#---------         -----------     ------------------------------
GL  .F        1568                 : gl           - GROUND LEVEL ELEVATION
EREF.F        1578.5               : kb           - ELEVATION OF DEPTH REFERENCE
DATM.F        1578.5               : datum        - DATUM ELEVATION
TDD .F        1000                 : tdd          - TOTAL DEPTH DRILLER
RUN .         ONE                  : Run          - RUN NUMBER
ENG .         BILL                 : Engineer     - RECORDING ENGINEER
WIT .         JIM                  : Witness      - WITNESSED BY
MUD .         GEL                  : Mud_type     - MUD TYPE
MATR.         SANDSTONE            : Logunit      - NEUTRON MATRIX
TMAX.F        68                   : BHT          - MAXIMUM RECORDED TEMPERATURE
BHTD.F        1000                 : BHTDEP       - MAXIMUM RECORDED TEMPERATURE
MATR.         1                    : LOGUNIT      - NEUTRON MATRIX
RMT .F        68                   : MDTP         - TEMPERATURE OF MUD
NEUT.         1                    : NEUTRON      - NEUTRON TYPE
RESI.         5.65                 : RESIST       - RESISTIVITY TYPE
RMC .OHMM     6.4                  : RMC          - RESISTIVITY OF MUD CAKE
RMF .OHMM     5.2                  : RMF          - RESISTIVITY OF MUD FILTRATE
SUFT.F        37.4                 : SUFT         - SURFACE TEMPERATURE
~A  DEPTH       GR     PHIN     PHID     RESD
  300.000  100.645    0.497    0.337   12.449
  300.820   95.931    0.496    0.329   13.952
  301.640   86.381    0.493    0.329   14.224
  302.461   61.809    0.492    0.334   14.519
  303.281   59.133    0.489    0.340   14.815
  304.101   55.772    0.483    0.352   15.110
  304.921   55.148    0.471    0.363   15.146
  305.741   55.209    0.458    0.376   15.448
  306.562   54.585    0.439    0.374   15.479
  307.382   53.961    0.440    0.365   15.498
  308.202   53.338    0.448    0.367   15.250
  309.022   53.428    0.456    0.373   15.274
  309.843   53.474    0.455    0.373   15.293
  310.663   52.850    0.455    0.366   15.311
  311.483   51.542    0.460    0.367   15.066
  312.303   53.655    0.465    0.375   14.807
  313.123   57.152    0.469    0.371   14.553
  313.944   59.266    0.468    0.361   14.051
  314.764   62.063    0.461    0.352   13.567
  315.584   64.176    0.463    0.344   13.345
  316.404   66.989    0.469    0.344   13.115
  317.224   67.719    0.468    0.340   12.900
  318.045   69.832    0.465    0.336   12.679
  318.865   71.261    0.464    0.330   12.471
  319.685   72.006    0.462    0.321   12.252
  320.505   72.751    0.462    0.314   11.834
  321.325   72.142    0.467    0.304   11.631
  322.146   71.503    0.475    0.285   11.436
  322.966   68.842    0.486    0.272   11.668
  323.786   66.165    0.495    0.262   12.591
  324.606   64.173    0.503    0.266   13.332
  325.427   63.565    0.494    0.295   14.123
  326.247   60.903    0.488    0.301   14.399
  327.067   58.896    0.479    0.313   14.697
  327.887   58.272    0.478    0.323   14.185
  328.707   59.002    0.478    0.330   13.440
  329.528   61.130    0.477    0.339   12.499
  330.348   64.612    0.480    0.347   11.625
  331.168   70.131    0.489    0.342   11.639
  331.988   78.433    0.496    0.327   11.448
  332.808   80.546    0.501    0.318   11.265
  333.629   78.539    0.500    0.313   11.071
  334.449   77.915    0.499    0.313   10.681
  335.269   77.976    0.493    0.316   10.317
  336.089   78.036    0.482    0.324   10.326
  336.909   78.097    0.462    0.331   10.342
  337.730   80.240    0.468    0.330   10.553
  338.550   80.286    0.475    0.331   10.973
  339.370   80.346    0.484    0.335   11.624
  340.190   79.038    0.482    0.329   12.077
  341.010   66.098    0.477    0.323   12.553
  341.831   55.895    0.466    0.328   13.308
  342.651   56.625    0.459    0.341   13.822
  343.471   58.054    0.463    0.356   14.097
  344.291   56.776    0.472    0.368   14.659
  345.112   54.100    0.479    0.376   14.957
  345.932   50.739    0.489    0.379   15.261
  346.752   46.694    0.485    0.374   15.571
  347.572   43.318    0.480    0.362   15.888
  348.392   40.642    0.474    0.359   15.920
  349.213   37.965    0.467    0.362   16.244
  350.033   35.988    0.462    0.364   16.263
  350.853   34.680    0.460    0.367   16.289
  351.673   34.741    0.454    0.368   16.328
  352.493   34.786    0.450    0.364   16.355
  353.314   34.847    0.444    0.363   16.687
  354.134   34.922    0.436    0.363   16.707
  354.954   35.652    0.432    0.362   16.741
  355.774   37.765    0.431    0.364   16.768
  356.594   42.646    0.441    0.366   16.486
  357.415   43.391    0.442    0.369   16.506
  358.235   43.451    0.440    0.372   16.229
  359.055   46.249    0.440    0.373   16.255
  359.875   48.347    0.441    0.373   16.592
  360.696   51.160    0.449    0.371   17.260
  361.516   53.273    0.468    0.366   17.597
  362.336   54.033    0.473    0.360   17.962
  363.156   54.078    0.473    0.358   18.335
  363.976   54.154    0.471    0.355   18.349
  364.797   54.214    0.469    0.355   18.379
  365.617   54.260    0.467    0.353   18.416
  366.437   55.035    0.466    0.351   18.453
  367.257   55.080    0.467    0.352   18.482
  368.077   55.141    0.468    0.360   18.504
  368.898   55.186    0.472    0.364   18.549
  369.718   55.262    0.478    0.361   18.571
  370.538   55.322    0.481    0.358   18.941
  371.358   55.383    0.487    0.364   18.979
  372.178   55.443    0.488    0.370   19.002
  372.999   55.504    0.480    0.367   19.032
  373.819   53.512    0.471    0.362   18.735
  374.639   49.467    0.461    0.353   18.750
  375.459   50.212    0.456    0.346   18.796
  376.280   50.272    0.445    0.344   18.811
  377.100   49.648    0.442    0.354   18.502
  377.920   48.355    0.446    0.365   18.532
  378.740   45.679    0.459    0.372   18.554
  379.560   42.303    0.458    0.378   18.584
  380.381   39.627    0.458    0.381   18.614
  381.201   39.003    0.464    0.385   18.659
  382.021   39.094    0.475    0.394   18.696
  382.841   39.839    0.486    0.396   18.711
  383.661   41.283    0.496    0.390   18.397
  384.482   42.013    0.495    0.384   18.088
  385.302   43.426    0.484    0.374   17.144
  386.122   46.239    0.478    0.366   16.243
  386.942   49.036    0.470    0.364   14.290
  387.762   51.834    0.459    0.357   13.290
  388.583   56.015    0.445    0.349   13.311
  389.403   59.482    0.440    0.341   13.327
  390.223   62.964    0.470    0.347   13.609
  391.043   65.761    0.492    0.348   13.370
  391.864   66.506    0.504    0.349   12.440
  392.684   63.829    0.499    0.353   11.357
  393.504   61.153    0.491    0.352   10.562
  394.324   65.349    0.468    0.348   10.385
  395.144   66.763    0.444    0.340   10.215
  395.965   68.192    0.446    0.333   10.231
  396.785   68.253    0.453    0.324   10.055
  397.605   66.945    0.456    0.320    9.894
  398.425   66.336    0.460    0.320    9.902
  399.245   65.712    0.463    0.327    9.918
  400.066   65.089    0.471    0.333   10.124
  400.886   65.149    0.478    0.337   10.334
  401.706   63.841    0.485    0.341   10.540
  402.526   63.233    0.490    0.345   10.557
  403.346   62.624    0.481    0.351   10.574
  404.167   62.685    0.476    0.354   10.400
  404.987   62.715    0.461    0.352   10.222
  405.807   62.776    0.455    0.347   10.054
  406.627   62.182    0.463    0.342    9.704
  407.448   61.528    0.472    0.332    9.545
  408.268   59.551    0.479    0.321    9.377
  409.088   58.912    0.480    0.310    9.572
  409.908   58.973    0.484    0.296   10.325
  410.728   58.349    0.493    0.290   11.345
  411.549   55.672    0.502    0.297   12.700
  412.369   54.380    0.497    0.332   14.222
  413.189   55.124    0.488    0.353   14.777
  414.009   55.185    0.481    0.366   15.659
  414.829   55.245    0.470    0.365   15.977
  415.650   53.953    0.456    0.368   16.302
  416.470   53.329    0.447    0.368   16.634
  417.290   51.337    0.456    0.370   16.972
  418.110   49.330    0.468    0.372   17.000
  418.930   47.337    0.475    0.373   17.345
  419.751   48.097    0.477    0.373   17.366
  420.571   48.857    0.475    0.376   17.408
  421.391   49.602    0.467    0.379   17.429
  422.211   50.331    0.465    0.384   17.464
  423.031   50.407    0.461    0.381   17.485
  423.852   50.468    0.463    0.375   17.520
  424.672   49.829    0.472    0.366   17.548
  425.492   48.536    0.479    0.370   17.260
  426.312   48.581    0.489    0.375   17.274
  427.133   49.326    0.490    0.377   16.984
  427.953   52.124    0.483    0.372   16.706
  428.773   53.553    0.478    0.368   16.425
  429.593   52.944    0.471    0.368   15.853
  430.413   53.005    0.468    0.370   15.884
  431.234   53.080    0.466    0.374   15.618
  432.054   53.126    0.464    0.376   15.637
  432.874   53.870    0.459    0.379   15.662
  433.694   54.615    0.456    0.380   15.693
  434.514   54.691    0.451    0.377   15.712
  435.335   54.736    0.457    0.374   15.448
  436.155   53.459    0.460    0.374   15.195
  436.975   53.504    0.461    0.374   15.225
  437.795   53.565    0.462    0.374   15.244
  438.615   54.309    0.467    0.373   15.280
  439.436   54.385    0.478    0.371   15.299
  440.256   54.431    0.480    0.369   15.317
  441.076   53.807    0.479    0.366   15.342
  441.896   52.514    0.476    0.361   15.372
