~VERSION INFORMATION
 VERS.                 2.0:   CWLS LOG ASCII STANDARD -VERSION 2.0
 WRAP.                  NO:   ONE LINE PER DEPTH STEP
~WELL INFORMATION BLOCK
#MNEM.UNIT           DATA                    DESCRIPTION OF MNEMONIC
#---------    -------------------            -------------------------------
# Generated from Intellog Unique Number	CS_73_76/WELL/783
WELL.         SULPETRO BRENDA CLYDE LAKE     : Well_name    - WELL
LOC .         00/08-08-073-09W4/2            : Location     - LOCATION
UWI .         00/08-08-073-09W4/2            : Uwi          - UNIQUE WELL ID
ENTR.         SP                             : Entered      - ENTERED BY
SRVC.         SCHLUMBERGER                   : Scn          - SERVICE COMPANY
STRT.M        290                            : top_depth    - START DEPTH
STOP.M        485                            : bot_depth    - STOP DEPTH
STEP.M        0.25                           : increment    - STEP LENGTH
 NULL. -999.2500:NULL Value
~CURVE INFORMATION BLOCK
#MNEM UNIT       ERCB CURVE CODE    CURVE DESCRIPTION
#-----------   ------------------   ----------------------------------
DEPT.M        00 001 00 00         : DEPTH        - DEPTH
ILD .OHMM     00 120 00 00         : RESD         - DEEP RESISTIVITY (DIL)
DPHI.V/V      00 890 00 00         : PHID         - DENSITY POROSITY (LIMESTONE)
NPHI.V/V      00 330 00 00         : PHIN         - NEUTRON POROSITY (LIMESTONE)
GR  .API      00 310 00 00         : GR           - GAMMA RAY
~PARAMETER INFORMATION
#MNEM.UNIT           DATA             DESCRIPTION OF MNEMONIC
#---------         -----------     ------------------------------
GL  .M        662.52               : gl           - GROUND LEVEL ELEVATION
EREF.M        666.7                : kb           - ELEVATION OF DEPTH REFERENCE
DATM.M        662.52               : datum        - DATUM ELEVATION
TDD .M        497.8                : tdd          - TOTAL DEPTH DRILLER
RUN .         ONE                  : Run          - RUN NUMBER
ENG .         BILL                 : Engineer     - RECORDING ENGINEER
WIT .         JIM                  : Witness      - WITNESSED BY
MUD .         GEL                  : Mud_type     - MUD TYPE
MATR.         LIMESTONE            : Logunit      - NEUTRON MATRIX
TMAX.C        21                   : BHT          - MAXIMUM RECORDED TEMPERATURE
BHTD.M        497.8                : BHTDEP       - MAXIMUM RECORDED TEMPERATURE
MATR.         1                    : LOGUNIT      - NEUTRON MATRIX
RMT .C        25                   : MDTP         - TEMPERATURE OF MUD
NEUT.         1                    : NEUTRON      - NEUTRON TYPE
RESI.         0                    : RESIST       - RESISTIVITY TYPE
RMC .OHMM     0.25                 : RMC          - RESISTIVITY OF MUD CAKE
RMF .OHMM     0.25                 : RMF          - RESISTIVITY OF MUD FILTRATE
SUFT.C        15                   : SUFT         - SURFACE TEMPERATURE
~A  DEPTH     RESD     PHID     PHIN       GR
# ...
  420.500    6.665    0.223    0.404   85.855
  420.750    6.787    0.222    0.413   86.436
  421.000    6.661    0.223    0.420   88.222
  421.250    6.659    0.214    0.409   88.808
  421.500    6.536    0.208    0.395   89.998
  421.750    6.416    0.205    0.384   91.786
  422.000    5.433    0.198    0.377   95.390
  422.250    4.688    0.194    0.375  100.200
  422.500    4.045    0.214    0.409  103.202
  422.750    3.554    0.222    0.432  105.001
  423.000    3.301    0.236    0.465  106.792
  423.250    3.552    0.238    0.465  104.345
  423.500    3.823    0.234    0.441  100.696
  423.750    4.428    0.244    0.426   96.436
  424.000    5.036    0.253    0.416   93.996
  424.250    5.321    0.256    0.407   93.976
  424.500    5.418    0.235    0.394   98.186
  424.750    5.126    0.219    0.384  103.604
  425.000    4.848    0.195    0.378  106.001
  425.250    4.672    0.185    0.389  107.188
  425.500    4.585    0.191    0.403  102.930
  425.750    4.584    0.194    0.414   98.069
  426.000    4.754    0.199    0.411   93.814
  426.250    4.932    0.201    0.411   89.557
  426.500    5.406    0.184    0.421   91.348
  426.750    6.148    0.164    0.426   93.139
  427.000    7.810    0.130    0.184   83.437
  427.250   10.105    0.043    0.163   73.733
  427.500   10.676    0.003    0.157   65.855
  427.750   10.287    0.000    0.186   59.779
  428.000    9.207    0.059    0.259   68.227
  428.250    8.241    0.129    0.317   89.963
  428.500    7.941    0.158    0.352   95.998
  428.750    7.512    0.161    0.375   98.998
  429.000    7.107    0.165    0.392   98.369
  429.250    6.847    0.174    0.398  102.577
  429.500    6.720    0.186    0.396  104.362
  429.750    6.719    0.195    0.382  104.950
  430.000    6.716    0.198    0.383  105.537
  430.250    6.715    0.196    0.388  103.690
  430.500    6.713    0.192    0.387  102.466
  430.750    6.589    0.190    0.392  102.440
  431.000    6.466    0.186    0.394  103.023
  431.250    6.465    0.184    0.377  101.788
  431.500    6.345    0.182    0.390  100.555
  431.750    6.227    0.180    0.406   99.916
  432.000    6.226    0.179    0.414  100.505
  432.250    6.109    0.194    0.418  102.301
  432.500    5.996    0.198    0.382  104.091
  432.750    5.995    0.193    0.363  107.689
  433.000    5.776    0.169    0.369  108.884
  433.250    5.670    0.161    0.381  108.254
  433.500    5.565    0.177    0.393  104.603
  433.750    5.264    0.191    0.389  100.346
  434.000    4.980    0.194    0.386   97.904
  434.250    4.711    0.181    0.403   96.675
  434.500    4.216    0.177    0.407   97.852
  434.750    3.774    0.171    0.386   99.049
  435.000    3.317    0.180    0.374  100.226
  435.250    2.969    0.200    0.368  100.814
  435.500    2.657    0.227    0.386  101.377
  435.750    2.561    0.234    0.413  101.965
  436.000    2.422    0.234    0.417  102.558
  436.250    2.378    0.232    0.414  102.537
  436.500    2.377    0.235    0.430   99.486
  436.750    2.333    0.235    0.436  101.885
  437.000    2.332    0.226    0.446  105.487
  437.250    2.374    0.221    0.451  107.283
  437.500    2.418    0.214    0.464  110.284
  437.750    2.418    0.211    0.471  113.885
  438.000    2.554    0.206    0.465  110.236
  438.250    2.905    0.196    0.421  104.159
  438.500    3.243    0.188    0.389  100.509
  438.750    3.490    0.183    0.375   96.860
  439.000    3.688    0.183    0.373   93.815
  439.250    3.896    0.183    0.396   93.189
  439.500    3.967    0.187    0.413   95.582
  439.750    4.191    0.192    0.405   97.376
  440.000    4.268    0.195    0.398   98.556
  440.250    4.427    0.191    0.391   95.501
  440.500    4.508    0.181    0.397   94.884
  440.750    4.676    0.192    0.414   90.621
  441.000    4.675    0.228    0.422   83.945
  441.250    4.760    0.250    0.420   79.092
  441.500    4.847    0.267    0.415   71.208
  441.750    4.936    0.258    0.412   66.344
  442.000    5.026    0.256    0.406   66.911
  442.250    5.025    0.254    0.407   67.500
  442.500    5.117    0.260    0.409   68.091
  442.750    5.116    0.276    0.399   68.660
  443.000    5.209    0.282    0.395   68.636
  443.250    5.208    0.268    0.406   69.220
  443.500    5.206    0.262    0.422   69.203
  443.750    5.205    0.255    0.431   72.198
  444.000    5.108    0.259    0.427   73.391
  444.250    5.107    0.265    0.399   72.160
  444.500    5.106    0.257    0.365   69.707
  444.750    5.011    0.260    0.344   70.297
  445.000    4.917    0.261    0.351   71.487
  445.250    4.916    0.255    0.373   72.069
  445.500    5.007    0.248    0.396   71.431
  445.750    5.005    0.247    0.403   71.412
  446.000    5.097    0.257    0.392   71.993
  446.250    5.095    0.256    0.384   72.578
  446.500    5.093    0.242    0.391   74.971
  446.750    5.186    0.233    0.384   76.763
  447.000    5.582    0.233    0.387   77.346
  447.250    5.479    0.244    0.401   76.111
  447.500    5.477    0.243    0.379   76.089
  447.750    5.476    0.243    0.390   77.279
  448.000    5.474    0.246    0.412   79.068
  448.250    5.472    0.239    0.419   79.653
  448.500    5.471    0.228    0.428   79.625
  448.750    5.469    0.222    0.407   79.001
  449.000    5.468    0.221    0.391   79.583
  449.250    5.466    0.225    0.393   79.554
  449.500    5.464    0.225    0.411   78.930
  449.750    5.463    0.219    0.418   79.507
  450.000    5.461    0.211    0.424   81.905
  450.250    5.460    0.212    0.395   83.701
  450.500    5.359    0.211    0.386   87.909
  450.750    5.164    0.201    0.374   94.531
  451.000    4.708    0.200    0.381  101.163
  451.250    4.373    0.197    0.389  107.189
  451.500    4.136    0.188    0.382  108.985
  451.750    4.534    0.176    0.370  104.721
  452.000    5.251    0.164    0.363  102.885
  452.250    5.447    0.149    0.343  100.448
  452.500    5.651    0.133    0.344   96.189
  452.750    5.969    0.151    0.360   93.747
  453.000    6.192    0.160    0.340   93.723
  453.250    6.305    0.180    0.326   93.697
  453.500    6.540    0.170    0.308   92.465
  453.750    6.910    0.165    0.319   89.419
  454.000    7.301    0.173    0.333   85.157
  454.250    7.714    0.186    0.337   80.896
  454.500    8.301    0.191    0.341   79.067
  454.750    8.770    0.184    0.326   74.804
  455.000    9.266    0.209    0.312   72.977
  455.250   11.136    0.251    0.303   68.716
  455.500   12.665    0.270    0.302   69.905
  455.750   14.142    0.253    0.326   77.137
  456.000   15.789    0.242    0.352   81.956
  456.250   16.992    0.232    0.366   84.955
  456.500   17.626    0.240    0.372   89.165
  456.750   16.981    0.232    0.375   92.165
  457.000   16.363    0.231    0.370   91.541
  457.250   15.768    0.251    0.354   82.445
  457.500   15.764    0.254    0.345   70.323
  457.750   17.926    0.248    0.338   60.621
  458.000   18.942    0.248    0.344   60.605
  458.250   21.149    0.253    0.339   64.808
  458.500   21.936    0.257    0.322   67.200
  458.750   21.927    0.250    0.326   68.996
  459.000   21.524    0.241    0.333   70.794
  459.250   19.988    0.234    0.344   73.180
  459.500   18.223    0.233    0.348   74.370
  459.750   17.239    0.228    0.356   77.372
  460.000   16.613    0.223    0.354   81.580
  460.250   14.597    0.215    0.345   85.791
  460.500   13.558    0.209    0.343   90.610
  460.750   11.912    0.209    0.344   97.236
  461.000   11.270    0.199    0.354  100.839
  461.250   10.662    0.190    0.355  103.239
  461.500   10.273    0.189    0.348   99.585
  461.750    9.898    0.198    0.336  100.773
  462.000    9.537    0.184    0.325  108.615
  462.250    9.535    0.175    0.329  122.496
  462.500    9.890    0.167    0.338  138.202
  462.750   10.642    0.182    0.347  136.361
  463.000   11.454    0.193    0.354  128.479
  463.250   13.026    0.209    0.347  113.337
  463.500   15.370    0.218    0.336   93.353
  463.750   15.944    0.225    0.334   82.446
