~VERSION INFORMATION
 VERS.                 2.0:   CWLS LOG ASCII STANDARD -VERSION 2.0
 WRAP.                  NO:   ONE LINE PER DEPTH STEP
~WELL INFORMATION BLOCK
#MNEM.UNIT           DATA                    DESCRIPTION OF MNEMONIC
#---------    -------------------            -------------------------------
# Generated from Intellog Unique Number	CW_70_72/WELL/199
NULL.         -999.25                        : NULL_VALUE
WELL.         GULF NORCEN MITSUE 02-36       : Well_name    - WELL              
LOC .         02-36-072-04W5                 : Location     - LOCATION          
UWI .         00/02-36-072-04W5/0            : Uwi          - UNIQUE WELL ID    
ENTR.         JAYE                           : Entered      - ENTERED BY        
SRVC.         COMPUTALOG                     : Scn          - SERVICE COMPANY   
DATE.         20 JAN 83                      : Date         - LOG DATE          
STRT.M        375                            : top_depth    - START DEPTH       
STOP.M        580                            : bot_depth    - STOP DEPTH        
STEP.M        0.25                           : increment    - STEP LENGTH       
~CURVE INFORMATION BLOCK
#MNEM UNIT       ERCB CURVE CODE    CURVE DESCRIPTION
#-----------   ------------------   ----------------------------------
DEPT.M        00 001 00 00         : DEPTH        - DEPTH                       
DPHI.V/V      00 890 00 00         : PHID         - DENSITY POROSITY (SANDSTONE)
NPHI.V/V      00 330 00 00         : PHIN         - NEUTRON POROSITY (SANDSTONE)
GR  .API      00 310 00 00         : GR           - GAMMA RAY                   
CALI.MM       00 280 01 00         : CAL          - CALIPER                     
ILD .OHMM     00 120 00 00         : RESD         - DEEP RESISTIVITY (DIL)      
~PARAMETER INFORMATION       
#MNEM.UNIT           DATA             DESCRIPTION OF MNEMONIC
#---------         -----------     ------------------------------
GL  .M        588.1                : gl           - GROUND LEVEL ELEVATION      
EREF.M        592.9                : kb           - ELEVATION OF DEPTH REFERENCE
DATM.M        588.1                : datum        - DATUM ELEVATION             
TDD .M        1647                 : tdd          - TOTAL DEPTH DRILLER         
RUN .         ONE                  : Run          - RUN NUMBER                  
ENG .         AASLAND              : Engineer     - RECORDING ENGINEER          
WIT .         FITZGERALD           : Witness      - WITNESSED BY                
BASE.         EDM                  : Branch       - HOME BASE OF LOGGING UNIT   
MUD .         GEL CHEM             : Mud_type     - MUD TYPE                    
MATR.         SANDSTONE            : Logunit      - NEUTRON MATRIX              
TMAX.C        52                   : BHT          - MAXIMUM RECORDED TEMPERATURE
BHTD.M        1645.6               : BHTDEP       - MAXIMUM RECORDED TEMPERATURE
RMT .C        21                   : MDTP         - TEMPERATURE OF MUD          
MUDD.KG/M     1100                 : MWT          - MUD DENSITY                 
NEUT.         1                    : NEUTRON      - NEUTRON TYPE                
RESI.         0                    : RESIST       - RESISTIVITY TYPE            
RM  .OHMM     0.37                 : RM           - RESISTIVITY OF MUD          
RMC .OHMM     0.38                 : RMC          - RESISTIVITY OF MUD CAKE     
RMF .OHMM     0.34                 : RMF          - RESISTIVITY OF MUD FILTRATE 
SUFT.C        0                    : SUFT         - SURFACE TEMPERATURE         
~A  DEPTH     PHID     PHIN       GR      CAL     RESD
# ...
  557.500    0.103    0.372   79.205  289.136    7.473
  557.750    0.128    0.375   78.590  288.214    8.309
  558.000    0.149    0.373   77.100  285.730    9.169
  558.250    0.168    0.375   75.046  277.718    9.965
  558.500    0.192    0.375   70.301  267.723   10.406
  558.750    0.208    0.362   63.241  262.109    9.690
  559.000    0.188    0.363   59.872  271.829    8.836
  559.250    0.171    0.362   59.883  272.264    7.785
  559.500    0.154    0.340   61.960  270.408    7.058
  559.750    0.132    0.320   68.418  278.146    7.067
  560.000    0.109    0.324   72.746  286.819    7.254
  560.250    0.136    0.342   76.513  286.944    7.855
  560.500    0.145    0.393   70.141  279.454    8.470
  560.750    0.141    0.381   67.399  273.942    8.643
  561.000    0.157    0.369   66.597  267.914    8.655
  561.250    0.165    0.351   64.981  265.635    8.214
  561.500    0.151    0.343   68.309  275.772    8.224
  561.750    0.141    0.357   68.070  282.778    8.110
  562.000    0.130    0.355   63.450  288.639    8.340
  562.250    0.118    0.341   62.900  283.026    8.543
  562.500    0.105    0.330   63.911  282.733    8.653
  562.750    0.103    0.355   65.675  285.566    8.630
  563.000    0.104    0.381   67.501  284.646    8.446
  563.250    0.131    0.362   69.514  280.285    8.077
  563.500    0.126    0.338   71.716  278.842    7.710
  563.750    0.106    0.327   71.916  283.763    7.374
  564.000    0.088    0.338   71.551  288.372    6.934
  564.250    0.111    0.352   71.375  290.789    6.606
  564.500    0.128    0.343   73.325  292.685    6.139
  564.750    0.125    0.333   75.590  292.809    5.630
  565.000    0.121    0.333   73.537  292.828    5.086
  565.250    0.113    0.342   72.170  292.951    4.128
  565.500    0.109    0.340   73.684  295.476    3.231
  565.750    0.106    0.341   76.761  297.683    2.573
  566.000    0.172    0.361   81.029  298.432    1.995
  566.250    0.315    0.416   77.911  294.695    1.629
  566.500    0.367    0.444   72.602  295.550    1.463
  566.750    0.418    0.543   67.607  279.712    1.426
  567.000    0.480    0.551   62.549  276.498    1.453
  567.250    0.520    0.554   62.186  274.432    1.494
  567.500    0.552    0.571   63.574  267.878    1.596
  567.750    0.475    0.551   67.590  267.794    1.711
  568.000    0.426    0.524   71.481  275.843    1.856
  568.250    0.409    0.521   71.743  279.929    2.068
  568.500    0.444    0.545   68.624  277.758    2.344
  568.750    0.467    0.541   66.696  275.482    2.723
  569.000    0.427    0.514   67.209  276.336    3.287
  569.250    0.294    0.419   68.659  278.024    4.029
  569.500    0.168    0.419   71.361  277.416    4.762
  569.750    0.149    0.419   74.126  276.184    5.346
  570.000    0.145    0.416   75.639  275.785    5.614
  570.250    0.128    0.404   74.085  272.987    5.784
  570.500    0.102    0.388   71.406  272.798    6.029
  570.750    0.128    0.366   73.921  269.583    6.247
  571.000    0.157    0.375   76.998  270.853    6.400
  571.250    0.158    0.370   78.950  267.952    6.395
  571.500    0.116    0.358   78.710  263.695    6.270
  571.750    0.094    0.347   77.784  259.749    6.054
  572.000    0.065    0.332   76.794  255.702    5.902
  572.250    0.050    0.312   74.801  255.093    5.988
  572.500    0.156    0.332   72.874  254.695    6.147
  572.750    0.260    0.422   75.950  254.713    6.272
  573.000    0.213    0.414   80.468  254.212    6.450
  573.250    0.131    0.381   78.665  249.119    6.533
  573.500    0.088    0.331   76.926  247.469    6.565
  573.750    0.185    0.306   77.373  251.243    6.738
  574.000    0.244    0.356   78.698  253.556    6.942
  574.250    0.300    0.380   81.213  248.986    7.276
  574.500    0.156    0.395   81.476  253.907    7.759
  574.750    0.117    0.371   80.297  253.093    8.134
  575.000    0.091    0.342   78.995  248.417    8.268
  575.250    0.074    0.315   80.194  246.244    8.168
  575.500    0.061    0.342   83.022  245.536    7.813
  575.750    0.071    0.361   85.723  243.572    7.852
  576.000    0.089    0.366   90.868  238.477    8.340
  576.250    0.096    0.364   89.064  240.791    9.205
  576.500    0.110    0.356   77.622  242.479   10.431
  576.750    0.135    0.327   68.120  237.178   12.355
  577.000    0.197    0.295   59.871  231.148   14.108
  577.250    0.251    0.270   49.369  226.368   17.328
  577.500    0.219    0.255   43.935  222.007   20.994
  577.750    0.104    0.232   38.877  224.425   29.182
  578.000    0.057    0.116   31.316  228.093   35.090
  578.250    0.031    0.084   26.383  230.720   33.758
  578.500    0.007    0.078   22.389  226.671   31.793
  578.750   -0.007    0.081   19.773  225.334   30.119
  579.000   -0.018    0.079   17.844  225.251   29.879
  579.250   -0.017    0.074   16.978  224.853   30.834
  579.500   -0.019    0.071   16.364  223.409   33.391
  579.750   -0.019    0.074   16.187  224.053   34.394
  580.000   -0.014    0.081   16.011  222.717   36.058
