~VERSION INFORMATION
 VERS.                 2.0:   CWLS LOG ASCII STANDARD -VERSION 2.0
 WRAP.                  NO:   ONE LINE PER DEPTH STEP
~WELL INFORMATION BLOCK
#MNEM.UNIT           DATA                    DESCRIPTION OF MNEMONIC
#---------    -------------------            -------------------------------
# Generated from Intellog Unique Number	CW_82_90/WELL/3068
WELL.         07-36-086-22W4                 : Well_name    - WELL
LOC .         00/07-36-086-22W4/0            : Location     - LOCATION
UWI .         00/07-36-086-22W4/0            : Uwi          - UNIQUE WELL ID
ENTR.         MAX                            : Entered      - ENTERED BY
SRVC.         SCHLUMBERGER                   : Scn          - SERVICE COMPANY
STRT.M        152.4                          : top_depth    - START DEPTH
STOP.M        350.4                          : bot_depth    - STOP DEPTH
STEP.M        0.25                           : increment    - STEP LENGTH
 NULL. -999.2500:NULL Value
~CURVE INFORMATION BLOCK
#MNEM UNIT       ERCB CURVE CODE    CURVE DESCRIPTION
#-----------   ------------------   ----------------------------------
DEPT.M        00 001 00 00         : DEPTH        - DEPTH
ILD .OHMM     00 120 00 00         : RESD         - DEEP RESISTIVITY (DIL)
NPHI.V/V      00 330 00 00         : PHIN         - NEUTRON POROSITY (SANDSTONE)
DPHI.V/V      00 890 00 00         : PHID         - DENSITY POROSITY (SANDSTONE)
CALI.MM       00 280 01 00         : CAL          - CALIPER
GR  .API      00 310 00 00         : GR           - GAMMA RAY
~PARAMETER INFORMATION
#MNEM.UNIT           DATA             DESCRIPTION OF MNEMONIC
#---------         -----------     ------------------------------
GL  .M        567.842              : gl           - GROUND LEVEL ELEVATION
EREF.M        571.195              : kb           - ELEVATION OF DEPTH REFERENCE
DATM.M        567.842              : datum        - DATUM ELEVATION
TDD .M        350.215              : tdd          - TOTAL DEPTH DRILLER
RUN .         ONE                  : Run          - RUN NUMBER
ENG .         BILL                 : Engineer     - RECORDING ENGINEER
WIT .         JIM                  : Witness      - WITNESSED BY
MUD .         GEL                  : Mud_type     - MUD TYPE
MATR.         SANDSTONE            : Logunit      - NEUTRON MATRIX
TMAX.C        15.5556              : BHT          - MAXIMUM RECORDED TEMPERATURE
BHTD.M        350.215              : BHTDEP       - MAXIMUM RECORDED TEMPERATURE
MATR.         1                    : LOGUNIT      - NEUTRON MATRIX
RMT .C        9.44444              : MDTP         - TEMPERATURE OF MUD
NEUT.         1                    : NEUTRON      - NEUTRON TYPE
RESI.         0                    : RESIST       - RESISTIVITY TYPE
RMC .OHMM     7.05                 : RMC          - RESISTIVITY OF MUD CAKE
RMF .OHMM     7.05                 : RMF          - RESISTIVITY OF MUD FILTRATE
SUFT.C        -23.3333             : SUFT         - SURFACE TEMPERATURE
~A  DEPTH     RESD     PHIN     PHID      CAL       GR
  152.400   47.006    0.327    0.156  240.062   51.315
  152.650   41.072    0.321    0.153  240.050   52.184
  152.900   36.865    0.320    0.179  239.546   52.178
  153.150   33.388    0.354    0.226  242.498   51.295
  153.400   30.511    0.391    0.308  260.756   50.123
  153.650   29.427    0.438    0.337  306.166   48.368
  153.900   30.220    0.481    0.361  291.838   50.401
  154.150   30.480    0.486    0.324  280.473   52.438
  154.400   29.397    0.487    0.295  301.691   54.763
  154.650   29.916    0.399    0.197  252.803   56.798
  154.900   29.908    0.373    0.156  231.559   58.542
  155.150   28.587    0.391    0.118  230.563   64.075
  155.400   25.891    0.440    0.144  230.059   74.273
  155.650   14.313    0.481    0.178  231.036   87.680
  155.900    9.727    0.505    0.205  232.506  101.960
  156.150    6.976    0.551    0.238  233.977  112.451
  156.400    5.933    0.591    0.260  235.448  116.525
  156.650    5.570    0.603    0.271  235.928  113.313
  156.900    5.619    0.562    0.270  234.437  110.681
  157.150    6.089    0.536    0.265  232.454  111.258
  157.400    6.659    0.516    0.259  232.441  113.876
  157.650    6.900    0.511    0.265  232.432  113.870
  157.900    6.714    0.537    0.273  232.421   96.662
  158.150    6.417    0.546    0.270  232.409   91.407
  158.400    6.358    0.557    0.269  233.386   87.027
  158.650    6.707    0.575    0.266  233.374   85.855
  158.900    8.096    0.588    0.262  233.366   85.264
  159.150    8.933    0.564    0.269  233.355   84.091
  159.400   10.880    0.550    0.268  233.345   72.424
  159.650   15.295    0.515    0.257  232.841   66.878
  159.900   19.137    0.493    0.262  233.320   59.873
  160.150   23.099    0.476    0.300  234.300   55.202
  160.400   28.640    0.470    0.333  238.733   51.988
  160.650   28.120    0.464    0.345  234.772   50.816
  160.900   25.931    0.471    0.351  235.255   50.519
  161.150   24.563    0.492    0.358  234.748   53.135
  161.400   24.553    0.496    0.362  233.753   58.377
  161.650   24.990    0.484    0.363  234.235   60.121
  161.900   24.982    0.482    0.357  232.250   60.115
  162.150   25.198    0.488    0.351  229.277   59.526
  162.400   25.879    0.514    0.344  228.279   58.353
  162.650   27.055    0.529    0.347  226.788   57.472
  162.900   27.537    0.511    0.352  226.284   57.464
  163.150   27.282    0.495    0.349  226.271   57.751
  163.400   26.788    0.498    0.339  226.261   58.036
  163.650   26.303    0.520    0.342  226.743   58.903
  163.900   23.189    0.514    0.357  227.720   60.064
  164.150   20.814    0.461    0.353  230.180   61.225
  164.400   21.373    0.462    0.333  231.647   61.800
  164.650   23.368    0.490    0.349  231.146   61.502
  164.900   22.542    0.531    0.348  228.667   60.039
  165.150   25.782    0.515    0.349  227.666   58.575
  165.400   27.446    0.501    0.359  225.179   56.237
  165.650   28.695    0.496    0.361  226.166   53.022
  165.900   29.733    0.494    0.368  225.662   49.809
  166.150   30.810    0.479    0.358  225.157   46.595
  166.400   31.925    0.471    0.351  224.156   45.715
  166.650   33.081    0.484    0.356  223.655   44.833
  166.900   33.668    0.495    0.349  223.150   43.661
  167.150   33.659    0.500    0.344  223.633   42.488
  167.400   33.644    0.490    0.343  223.622   43.939
  167.650   33.335    0.490    0.350  223.609   45.099
  167.900   32.729    0.496    0.351  223.602   45.969
  168.150   32.426    0.498    0.348  223.590   46.253
  168.400   32.125    0.495    0.350  223.580   46.539
  168.650   32.116    0.484    0.354  223.567   46.825
  168.900   31.818    0.478    0.361  223.065   47.109
  169.150   31.807    0.483    0.344  222.561   48.561
  169.400   31.797    0.471    0.330  223.536   48.845
  169.650   31.786    0.457    0.336  223.525   47.673
  169.900   31.774    0.459    0.344  223.515   45.918
  170.150   31.479    0.471    0.342  223.997   45.619
  170.400   31.189    0.474    0.332  224.482   45.614
  170.650   30.899    0.468    0.342  224.471   43.857
  170.900   30.613    0.460    0.347  223.964   44.144
  171.150   30.604    0.461    0.349  223.957   44.427
  171.400   30.868    0.472    0.342  224.438   44.422
  171.650   31.416    0.490    0.328  224.426   43.540
  171.900   31.976    0.502    0.311  224.419   41.493
  172.150   33.133    0.498    0.293  224.406   39.738
  172.400   34.641    0.478    0.277  224.890   37.982
  172.650   36.545    0.469    0.291  224.879   38.851
  172.900   36.533    0.457    0.283  224.869   41.178
  173.150   34.919    0.461    0.300  224.858   43.504
  173.400   31.910    0.468    0.323  224.844   43.788
  173.650   30.501    0.459    0.341  225.329   43.491
  173.900   30.490    0.457    0.342  225.813   45.233
  174.150   27.863    0.461    0.335  225.802   48.434
  174.400   22.456    0.464    0.331  226.287   52.219
  174.650   17.777    0.470    0.318  227.263   58.044
  174.900   14.072    0.495    0.305  227.253   68.534
  175.150   11.755    0.529    0.289  227.243   64.738
  175.400   11.236    0.502    0.297  227.230   55.110
  175.650   11.961    0.482    0.314  225.245   48.397
  175.900   17.906    0.478    0.324  225.727   47.806
  176.150   25.403    0.483    0.325  226.211   49.551
  176.400   30.388    0.486    0.328  225.708   52.752
  176.650   29.304    0.487    0.329  225.203   54.787
  176.900   25.606    0.469    0.329  225.685   56.238
  177.150   16.638    0.462    0.326  226.662   59.439
  177.400   11.512    0.469    0.320  224.676   65.556
  177.650    9.446    0.494    0.311  225.160   74.005
  177.900    9.028    0.515    0.281  225.643   76.331
  178.150    9.271    0.541    0.258  225.138   71.077
  178.400   10.796    0.527    0.250  225.128   60.282
  178.650   13.508    0.500    0.300  225.116   53.860
  178.900   20.588    0.466    0.321  224.119   53.856
  179.150   21.719    0.437    0.314  224.109   57.931
  179.400   17.505    0.444    0.307  225.578   64.631
  179.650   10.778    0.453    0.294  225.568   67.831
  179.900   13.729    0.479    0.280  225.557   64.618
  180.150   16.871    0.489    0.266  225.547   60.529
  180.400   19.823    0.465    0.261  225.536   58.774
  180.650   22.875    0.456    0.274  225.526   59.350
  180.900   22.662    0.451    0.306  225.021   61.968
  181.150   17.780    0.468    0.305  224.515   64.586
  181.400   13.701    0.499    0.292  224.012   64.871
  181.650   12.977    0.509    0.288  224.001   67.489
  181.900   13.692    0.484    0.287  223.992   70.107
  182.150   14.188    0.475    0.282  223.980   64.270
  182.400   16.669    0.487    0.271  223.969   59.890
  182.650   14.829    0.470    0.268  223.959   60.757
  182.900   11.530    0.498    0.263  224.440   63.667
  183.150   10.632    0.533    0.241  224.924   69.201
  183.400   10.532    0.555    0.243  225.408   76.776
  183.650   10.719    0.546    0.248  226.385   77.936
  183.900   10.910    0.521    0.264  226.375   73.556
  184.150   10.906    0.490    0.297  225.869   75.008
  184.400   10.708    0.491    0.288  225.366   79.665
  184.650   10.236    0.494    0.272  225.356   81.701
  184.900    9.523    0.521    0.268  225.344   85.194
  185.150   10.046    0.531    0.279  224.838   65.652
  185.400   11.086    0.498    0.296  224.337   54.567
  185.650   13.501    0.446    0.306  223.830   49.895
  185.900   18.477    0.412    0.304  223.328   46.390
  186.150   23.749    0.411    0.314  223.809   45.216
  186.400   31.357    0.415    0.302  225.773   44.626
  186.650   39.941    0.415    0.297  227.246   44.329
  186.900   40.648    0.414    0.302  229.208   44.032
  187.150   38.160    0.413    0.307  229.198   43.151
  187.400   40.620    0.416    0.300  227.210   44.602
  187.650   38.481    0.441    0.310  226.214   48.969
  187.900   30.189    0.489    0.316  226.202   53.628
  188.150   22.645    0.500    0.314  225.206   56.246
  188.400   17.766    0.496    0.316  223.220   55.365
  188.650   19.778    0.488    0.325  224.691   55.358
