~VERSION INFORMATION
 VERS.                 2.0:   CWLS LOG ASCII STANDARD -VERSION 2.0
 WRAP.                  NO:   ONE LINE PER DEPTH STEP
~WELL INFORMATION BLOCK
#MNEM.UNIT           DATA                    DESCRIPTION OF MNEMONIC
#---------    -------------------            -------------------------------
# Generated from Intellog Unique Number	CW_70_72/WELL/879
NULL.         -999.25                        : NULL_VALUE
WELL.         ICG ET AL CALL W 07-10         : Well_name    - WELL              
LOC .         07-10-072-20W4                 : Location     - LOCATION          
UWI .         00/07-10-072-20W4/0            : Uwi          - UNIQUE WELL ID    
ENTR.         JAYE                           : Entered      - ENTERED BY        
SRVC.         SCHLUMBERGER                   : Scn          - SERVICE COMPANY   
DATE.         22 MAR 77                      : Date         - LOG DATE          
STRT.M        320.04                         : top_depth    - START DEPTH       
STOP.M        503.04                         : bot_depth    - STOP DEPTH        
STEP.M        0.25                           : increment    - STEP LENGTH       
~CURVE INFORMATION BLOCK
#MNEM UNIT       ERCB CURVE CODE    CURVE DESCRIPTION
#-----------   ------------------   ----------------------------------
DEPT.M        00 001 00 00         : DEPTH        - DEPTH                       
DPHI.V/V      00 890 00 00         : PHID         - DENSITY POROSITY (SANDSTONE)
NPHI.V/V      00 330 00 00         : PHIN         - NEUTRON POROSITY (SANDSTONE)
GR  .API      00 310 00 00         : GR           - GAMMA RAY                   
CALI.MM       00 280 01 00         : CAL          - CALIPER                     
ILD .OHMM     00 120 00 00         : RESD         - DEEP RESISTIVITY (DIL)      
~PARAMETER INFORMATION       
#MNEM.UNIT           DATA             DESCRIPTION OF MNEMONIC
#---------         -----------     ------------------------------
GL  .M        594.36               : gl           - GROUND LEVEL ELEVATION      
EREF.M        597.408              : kb           - ELEVATION OF DEPTH REFERENCE
DATM.M        594.36               : datum        - DATUM ELEVATION             
TDD .M        504.444              : tdd          - TOTAL DEPTH DRILLER         
RUN .         ONE                  : Run          - RUN NUMBER                  
ENG .         WORONUK              : Engineer     - RECORDING ENGINEER          
WIT .         GREEN                : Witness      - WITNESSED BY                
BASE.         EDM                  : Branch       - HOME BASE OF LOGGING UNIT   
MUD .         GEL CHEM             : Mud_type     - MUD TYPE                    
MATR.         SANDSTONE            : Logunit      - NEUTRON MATRIX              
TMAX.C        22.7778              : BHT          - MAXIMUM RECORDED TEMPERATURE
BHTD.M        504.444              : BHTDEP       - MAXIMUM RECORDED TEMPERATURE
RMT .C        17.2222              : MDTP         - TEMPERATURE OF MUD          
MUDD.KG/M     1140                 : MWT          - MUD DENSITY                 
NEUT.         1                    : NEUTRON      - NEUTRON TYPE                
RESI.         0                    : RESIST       - RESISTIVITY TYPE            
RM  .OHMM     4.75                 : RM           - RESISTIVITY OF MUD          
RMC .OHMM     0                    : RMC          - RESISTIVITY OF MUD CAKE     
RMF .OHMM     5.46                 : RMF          - RESISTIVITY OF MUD FILTRATE 
SUFT.C        -17.7778             : SUFT         - SURFACE TEMPERATURE         
~A  DEPTH     PHID     PHIN       GR      CAL     RESD
# ...
  356.540    0.210    0.534  156.986  160.756    2.833
  356.790    0.210    0.525  155.370  159.556    3.446
  357.040    0.225    0.521  145.794  154.451    4.199
  357.290    0.244    0.508  121.275  152.236    5.278
  357.540    0.230    0.458  107.143  151.551    6.999
  357.790    0.181    0.371   97.328  150.973    6.752
  358.040    0.171    0.425   98.018  150.811    6.097
  358.290    0.189    0.454  103.874  150.743    5.355
  358.540    0.198    0.466  113.739  150.682    4.979
  358.790    0.213    0.463  119.838  150.424    5.030
  359.040    0.206    0.464  125.390  150.153    5.062
  359.290    0.225    0.476  121.891  149.675    5.019
  359.540    0.215    0.486  123.979  149.299    4.932
  359.790    0.217    0.490  124.431  148.926    4.776
  360.040    0.236    0.483  121.415  148.561    4.649
  360.290    0.265    0.476  115.791  147.886    4.484
  360.540    0.267    0.464  112.167  147.298    4.247
  360.790    0.291    0.449  107.695  147.138    4.038
  361.040    0.302    0.477  103.163  147.070    3.975
  361.290    0.289    0.496   99.601  148.043    4.067
  361.540    0.296    0.485   99.321  149.423    4.168
  361.790    0.280    0.471  103.660  151.000    4.337
  362.040    0.292    0.452  108.057  152.480    4.445
  362.290    0.282    0.454  109.235  151.494    4.547
  362.540    0.272    0.455  110.779  151.324    4.697
  362.790    0.243    0.438  112.806  152.601    4.734
  363.040    0.244    0.450  113.133  154.903    4.756
  363.290    0.231    0.459  114.373  157.517    4.708
  363.540    0.209    0.484  115.672  158.994    4.695
  363.790    0.214    0.528  117.214  159.758    4.655
  364.040    0.216    0.524  121.612  160.415    4.599
  364.290    0.200    0.498  124.126  161.071    4.603
  364.540    0.193    0.490  124.212  161.727    4.684
  364.790    0.203    0.518  122.048  162.696    4.722
  365.040    0.208    0.545  113.567  163.254    4.761
  365.290    0.216    0.546  104.114  161.540    4.782
  365.540    0.276    0.508   91.319  155.305    4.787
  365.790    0.280    0.479   84.052  150.100    4.808
  366.040    0.295    0.448   80.309  146.335    4.830
  366.290    0.276    0.430   80.028  144.731    4.869
  366.540    0.255    0.435   83.820  144.869    4.883
  366.790    0.270    0.450   85.362  146.349    4.877
  367.040    0.286    0.441   84.050  148.961    4.855
  367.290    0.299    0.441   86.442  151.986    4.832
  367.540    0.298    0.438   92.055  150.585    4.827
  367.790    0.266    0.436  100.585  147.745    4.849
  368.040    0.235    0.449  112.759  148.507    4.898
  368.290    0.220    0.465  118.067  151.427    4.956
  368.540    0.205    0.476  111.349  155.070    5.043
  368.790    0.197    0.491  104.509  158.708    5.094
  369.040    0.221    0.477   95.599  155.355    5.041
  369.290    0.260    0.456   82.137  147.574    4.890
  369.540    0.257    0.452   84.652  144.220    4.692
  369.790    0.263    0.453   84.735  143.951    4.568
  370.040    0.284    0.443   81.539  143.993    4.472
  370.290    0.299    0.427   83.082  144.238    4.402
  370.540    0.316    0.441   82.012  144.077    4.342
  370.790    0.299    0.442   78.026  143.803    4.337
  371.040    0.297    0.428   78.172  143.950    4.316
  371.290    0.292    0.424   79.717  143.678    4.289
  371.540    0.272    0.441   81.501  144.134    4.253
  371.790    0.268    0.449   80.672  144.585    4.209
  372.040    0.280    0.446   78.509  145.343    4.174
  372.290    0.305    0.435   75.618  145.803    4.124
  372.540    0.321    0.437   74.125  145.733    4.031
  372.790    0.321    0.448   72.931  145.570    3.960
  373.040    0.333    0.450   69.734  145.919    3.913
  373.290    0.344    0.436   68.484  146.064    3.837
  373.540    0.348    0.426   71.848  146.304    3.764
  373.790    0.345    0.422   74.788  146.354    3.719
  374.040    0.336    0.417   71.835  146.488    3.661
  374.290    0.333    0.432   69.673  146.528    3.650
  374.540    0.337    0.430   68.601  146.876    3.640
  374.790    0.342    0.420   65.103  147.331    3.630
  375.040    0.352    0.432   63.060  149.013    3.626
  375.290    0.346    0.445   59.559  151.008    3.622
  375.540    0.343    0.455   61.954  152.089    3.645
  375.790    0.363    0.456   63.435  149.135    3.655
  376.040    0.360    0.456   63.035  146.396    3.664
  376.290    0.347    0.454   61.234  147.981    3.674
  376.540    0.333    0.452   61.015  149.359    3.753
  376.790    0.326    0.445   63.532  150.227    3.882
  377.040    0.340    0.433   65.376  151.193    4.228
  377.290    0.334    0.414   67.162  151.742    4.563
  377.540    0.304    0.419   70.711  152.816    4.817
  377.790    0.284    0.445   75.835  153.673    4.892
  378.040    0.162    0.454   75.316  154.023    4.745
  378.290    0.107    0.432   74.060  151.184    4.388
  378.540    0.217    0.432   70.561  144.226    4.058
  378.790    0.325    0.447   67.852  143.342    3.908
  379.040    0.325    0.454   64.171  149.145    3.868
  379.290    0.330    0.448   63.767  152.782    3.885
  379.540    0.333    0.441   68.166  141.096    3.917
  379.790    0.311    0.436   72.927  140.732    3.914
  380.040    0.320    0.434   79.025  141.794    3.895
  380.290    0.318    0.441   80.387  143.279    3.870
  380.540    0.309    0.453   75.185  144.446    3.858
  380.790    0.320    0.447   72.778  145.625    3.876
  381.040    0.333    0.439   76.754  145.970    3.893
  381.290    0.323    0.452   80.058  146.421    3.911
  381.540    0.316    0.443   84.881  146.158    3.943
  381.790    0.314    0.448   89.827  145.779    3.976
  382.040    0.308    0.456   94.525  145.613    4.001
  382.290    0.291    0.458   94.490  145.350    4.004
  382.540    0.298    0.455   89.166  145.282    4.008
  382.790    0.309    0.457   81.171  145.227    4.011
  383.040    0.322    0.472   81.986  145.363    4.028
  383.290    0.317    0.473   82.618  145.612    4.018
  383.540    0.309    0.465   80.087  145.861    3.984
  383.790    0.320    0.453   79.626  146.102    3.922
  384.040    0.326    0.451   79.709  146.551    3.874
  384.290    0.320    0.470   79.007  146.802    3.878
  384.540    0.315    0.488   77.088  146.943    3.953
  384.790    0.314    0.495   75.166  146.980    4.097
  385.040    0.315    0.480   72.514  147.229    4.373
  385.290    0.301    0.461   68.650  147.887    4.987
  385.540    0.260    0.429   63.266  149.675    5.889
  385.790    0.215    0.349   57.885  153.522    6.942
  386.040    0.047    0.227   55.296  156.029    8.109
  386.290    0.036    0.205   54.833  157.106    7.779
  386.540    0.049    0.202   59.291  156.419    6.118
  386.790    0.072    0.227   64.297  154.710    4.993
  387.040    0.157    0.305   68.880  151.870    4.274
  387.290    0.235    0.412   71.877  147.282    3.852
  387.540    0.320    0.440   75.122  143.515    3.662
  387.790    0.345    0.476   79.276  142.116    3.692
  388.040    0.326    0.491   82.215  141.538    3.764
  388.290    0.310    0.475   81.328  141.275    3.823
  388.540    0.339    0.472   76.614  141.418    3.846
  388.790    0.326    0.472   77.795  141.558    3.857
  389.040    0.305    0.476   79.213  141.806    3.889
  389.290    0.317    0.472   77.535  142.157    3.921
  389.540    0.334    0.469   77.562  142.503    3.916
  389.790    0.341    0.475   79.468  143.574    3.941
  390.040    0.333    0.490   80.159  144.125    4.070
  390.290    0.327    0.500   79.574  144.789    4.195
  390.540    0.315    0.504   82.636  145.133    4.268
  390.790    0.333    0.486   86.731  145.476    4.335
  391.040    0.327    0.492   85.478  145.932    4.387
  391.290    0.314    0.489   81.127  146.278    4.279
  391.540    0.324    0.477   80.852  146.633    3.842
  391.790    0.333    0.478   80.384  147.184    3.679
  392.040    0.346    0.468   79.376  147.124    3.716
  392.290    0.339    0.487   77.638  147.467    3.859
  392.540    0.339    0.513   75.780  147.513    4.059
  392.790    0.348    0.522   76.653  147.753    4.214
