~VERSION INFORMATION
 VERS.                 2.0:   CWLS LOG ASCII STANDARD -VERSION 2.0
 WRAP.                  NO:   ONE LINE PER DEPTH STEP
~WELL INFORMATION BLOCK
#MNEM.UNIT           DATA                    DESCRIPTION OF MNEMONIC
#---------    -------------------            -------------------------------
# Generated from Intellog Unique Number	CS_73_76/WELL/2914
WELL.         HOME HB LEISMER                : Well_name    - WELL
LOC .         00/07-35-075-08W4/0            : Location     - LOCATION
UWI .         00/07-35-075-08W4/0            : Uwi          - UNIQUE WELL ID
ENTR.         SP                             : Entered      - ENTERED BY
SRVC.         SCHLUMBERGER                   : Scn          - SERVICE COMPANY
STRT.M        235                            : top_depth    - START DEPTH
STOP.M        465                            : bot_depth    - STOP DEPTH
STEP.M        0.25                           : increment    - STEP LENGTH
 NULL. -999.2500:NULL Value
~CURVE INFORMATION BLOCK
#MNEM UNIT       ERCB CURVE CODE    CURVE DESCRIPTION
#-----------   ------------------   ----------------------------------
DEPT.M        00 001 00 00         : DEPTH        - DEPTH
ILD .OHMM     00 120 00 00         : RESD         - DEEP RESISTIVITY (DIL)
DPHI.V/V      00 890 00 00         : PHID         - DENSITY POROSITY (LIMESTONE)
NPHI.V/V      00 330 00 00         : PHIN         - NEUTRON POROSITY (LIMESTONE)
GR  .API      00 310 00 00         : GR           - GAMMA RAY
~PARAMETER INFORMATION
#MNEM.UNIT           DATA             DESCRIPTION OF MNEMONIC
#---------         -----------     ------------------------------
GL  .M        637.83               : gl           - GROUND LEVEL ELEVATION
EREF.M        641.29               : kb           - ELEVATION OF DEPTH REFERENCE
DATM.M        637.83               : datum        - DATUM ELEVATION
TDD .M        407                  : tdd          - TOTAL DEPTH DRILLER
RUN .         ONE                  : Run          - RUN NUMBER
ENG .         BILL                 : Engineer     - RECORDING ENGINEER
WIT .         JIM                  : Witness      - WITNESSED BY
MUD .         GEL                  : Mud_type     - MUD TYPE
MATR.         LIMESTONE            : Logunit      - NEUTRON MATRIX
TMAX.C        21                   : BHT          - MAXIMUM RECORDED TEMPERATURE
BHTD.M        407                  : BHTDEP       - MAXIMUM RECORDED TEMPERATURE
MATR.         1                    : LOGUNIT      - NEUTRON MATRIX
RMT .C        25                   : MDTP         - TEMPERATURE OF MUD
NEUT.         1                    : NEUTRON      - NEUTRON TYPE
RESI.         0                    : RESIST       - RESISTIVITY TYPE
RMC .OHMM     0.25                 : RMC          - RESISTIVITY OF MUD CAKE
RMF .OHMM     0.25                 : RMF          - RESISTIVITY OF MUD FILTRATE
SUFT.C        15                   : SUFT         - SURFACE TEMPERATURE
~A  DEPTH     RESD     PHID     PHIN       GR
# ...
  322.000    4.066    0.232    0.458  119.889
  322.250    4.141    0.222    0.398  107.697
  322.500    4.219    0.218    0.375   92.456
  322.750    4.296    0.252    0.396   83.312
  323.000    4.714    0.264    0.434   79.656
  323.250    4.892    0.262    0.421   76.610
  323.500    5.675    0.253    0.437   93.687
  323.750    6.227    0.252    0.428  105.885
  324.000    6.706    0.262    0.439  109.547
  324.250    6.959    0.255    0.387  105.892
  324.500    7.356    0.245    0.338  104.065
  324.750    7.493    0.241    0.331  102.238
  325.000    7.490    0.253    0.351   97.973
  325.250    7.488    0.234    0.362   94.317
  325.500    7.625    0.243    0.348   91.270
  325.750    7.624    0.250    0.356   97.981
  326.000    7.764    0.242    0.325   99.203
  326.250    7.763    0.243    0.345  107.742
  326.500    7.339    0.260    0.316  114.453
  326.750    6.440    0.266    0.280  117.505
  327.000    5.149    0.260    0.296  118.117
  327.250    4.435    0.270    0.390  124.218
  327.500    3.892    0.268    0.473  110.196
  327.750    3.611    0.265    0.489   99.833
  328.000    3.544    0.265    0.449  105.933
  328.250    3.543    0.263    0.401  110.204
  328.500    3.609    0.247    0.444  110.207
  328.750    3.959    0.260    0.479  108.990
  329.000    4.186    0.277    0.529  110.213
  329.250    4.508    0.260    0.525  105.338
  329.500    4.678    0.263    0.473   98.633
  329.750    4.763    0.253    0.404   91.319
  330.000    4.942    0.253    0.423   93.760
  330.250    5.034    0.248    0.457   98.032
  330.500    5.524    0.263    0.511   90.107
  330.750    6.291    0.279    0.451   91.940
  331.000    7.031    0.263    0.381   94.991
  331.250    7.434    0.253    0.358   90.725
  331.500    7.858    0.238    0.375   88.289
  331.750    8.154    0.255    0.399   96.829
  332.000    8.304    0.279    0.411  104.759
  332.250    8.458    0.282    0.386   93.785
  332.500    8.615    0.268    0.383  101.106
  332.750    8.612    0.248    0.401  104.157
  333.000    8.451    0.250    0.415  102.331
  333.250    8.293    0.243    0.419   97.456
  333.500    7.987    0.230    0.401   95.019
  333.750    7.984    0.231    0.418  107.217
  334.000    7.982    0.204    0.403  104.781
  334.250    8.130    0.202    0.419   95.638
  334.500    8.279    0.225    0.386   97.470
  334.750    8.433    0.230    0.419   99.302
  335.000    8.589    0.244    0.441   96.256
  335.250    8.747    0.242    0.382   95.649
  335.500    8.909    0.251    0.380   92.603
  335.750    9.073    0.256    0.429   94.435
  336.000    9.241    0.261    0.457  102.974
  336.250    9.413    0.257    0.445  106.027
  336.500    9.585    0.259    0.421  104.200
  336.750    9.582    0.267    0.422  106.032
  337.000    9.579    0.249    0.445  102.986
  337.250    9.577    0.248    0.421  106.648
  337.500    9.398    0.244    0.385  104.821
  337.750    8.885    0.250    0.327   96.897
  338.000    8.399    0.239    0.358   99.338
  338.250    8.090    0.224    0.384   98.122
  338.500    7.939    0.220    0.396   92.637
  338.750    7.505    0.219    0.373   93.859
  339.000    7.365    0.217    0.386   99.960
  339.250    6.962    0.214    0.373  102.402
  339.500    6.832    0.218    0.393   96.307
  339.750    6.580    0.226    0.413  101.798
  340.000    6.456    0.225    0.424  107.288
  340.250    6.219    0.220    0.424  111.559
  340.500    6.103    0.226    0.411  104.855
  340.750    5.663    0.220    0.382   95.711
  341.000    4.444    0.275    0.396  107.910
  341.250    3.757    0.291    0.392  118.888
  341.500    3.359    0.282    0.410  120.721
  341.750    2.893    0.273    0.446  114.626
  342.000    2.735    0.286    0.469  112.189
  342.250    2.586    0.275    0.487  106.704
  342.500    2.538    0.268    0.503   90.243
  342.750    2.944    0.276    0.522   95.124
  343.000    3.291    0.271    0.535   93.907
  343.250    4.037    0.276    0.509   92.081
  343.500    4.349    0.270    0.503   90.255
  343.750    4.952    0.328    0.438   93.306
  344.000    5.334    0.272    0.374   98.796
  344.250    6.075    0.237    0.392   93.312
  344.500    6.665    0.252    0.450   92.705
  344.750    7.314    0.266    0.470   86.001
  345.000    7.589    0.283    0.452   82.344
  345.250    7.875    0.302    0.407   81.127
  345.500    8.171    0.317    0.396   75.642
  345.750    8.477    0.316    0.402   67.108
  346.000    8.635    0.310    0.416   59.794
  346.250    8.795    0.316    0.431   67.115
  346.500    9.125    0.325    0.396   70.775
  346.750    9.293    0.334    0.385   65.901
  347.000    9.465    0.337    0.384   58.586
  347.250    9.463    0.333    0.371   56.759
  347.500    9.284    0.330    0.374   57.982
  347.750   10.000    0.337    0.386   61.643
  348.000    9.813    0.338    0.375   61.646
  348.250    9.808    0.338    0.374   65.917
  348.500    9.805    0.332    0.405   61.043
  348.750    9.803    0.335    0.435   62.874
  349.000    9.620    0.335    0.445   65.316
  349.250    9.618    0.330    0.416   60.441
  349.500    9.614    0.338    0.393   57.395
  349.750    9.434    0.339    0.372   56.178
  350.000    9.430    0.339    0.347   57.400
  350.250    9.254    0.337    0.341   67.769
  350.500    9.251    0.333    0.360   73.260
  350.750    9.248    0.330    0.385   69.604
  351.000    9.246    0.326    0.378   67.778
  351.250    9.072    0.327    0.377   71.439
  351.500    9.070    0.330    0.368   67.783
  351.750    9.067    0.344    0.379   61.689
  352.000    8.897    0.346    0.369   64.740
  352.250    8.895    0.342    0.353   61.694
  352.500    8.728    0.338    0.356   58.038
  352.750    8.726    0.339    0.390   68.408
  353.000    8.562    0.345    0.374   70.239
  353.250    8.401    0.350    0.375   70.853
  353.500    8.244    0.347    0.355   69.636
  353.750    8.088    0.344    0.385   69.028
  354.000    8.086    0.338    0.367   75.129
  354.250    7.935    0.333    0.347   69.645
  354.500    7.932    0.333    0.341   66.598
  354.750    7.784    0.330    0.358   63.552
  355.000    7.638    0.304    0.368   77.579
  355.250    7.636    0.307    0.360   75.143
  355.500    7.778    0.319    0.369   66.609
  355.750    7.774    0.332    0.394   59.295
  356.000    8.218    0.334    0.410   58.688
  356.250    8.527    0.340    0.361   56.252
  356.500    9.015    0.347    0.340   53.207
  356.750    9.893    0.350    0.387   50.770
  357.000   11.478    0.345    0.414   48.334
  357.250   12.831    0.031    0.095   50.775
  357.500   12.589    0.000    0.088   58.705
  357.750   11.046    0.000    0.106   61.147
  358.000   10.251    0.158    0.221   61.760
  358.250    9.692    0.296    0.320   63.592
  358.500    8.664    0.321    0.388   66.034
  358.750    8.345    0.335    0.426   66.646
  359.000    8.038    0.344    0.356   69.089
  359.250    7.888    0.329    0.334   64.213
  359.500    8.032    0.345    0.345   57.508
  359.750    8.181    0.352    0.362   56.901
  360.000    8.179    0.351    0.391   61.782
  360.250    8.330    0.326    0.398   64.834
  360.500    8.485    0.337    0.388   63.617
  360.750    8.481    0.334    0.391   66.669
  361.000    8.478    0.341    0.396   63.623
  361.250    8.635    0.338    0.388   65.455
  361.500    8.632    0.340    0.375   69.726
  361.750    8.629    0.352    0.379   63.022
  362.000    8.789    0.359    0.388   59.365
  362.250    8.786    0.347    0.386   64.247
  362.500    8.783    0.336    0.378   59.372
  362.750    8.619    0.333    0.360   56.325
  363.000    8.617    0.333    0.363   63.646
  363.250    8.776    0.329    0.337   64.258
  363.500    8.774    0.327    0.323   64.261
  363.750    8.936    0.322    0.326   63.044
  364.000    8.934    0.329    0.341   62.437
  364.250    9.098    0.343    0.354   61.831
  364.500    9.097    0.347    0.367   62.443
  364.750    9.263    0.358    0.368   67.934
  365.000    9.261    0.366    0.357   66.108
  365.250    9.259    0.367    0.330   64.281
