~VERSION INFORMATION
 VERS.                 2.0:   CWLS LOG ASCII STANDARD -VERSION 2.0
 WRAP.                  NO:   ONE LINE PER DEPTH STEP
~WELL INFORMATION BLOCK
#MNEM.UNIT           DATA                    DESCRIPTION OF MNEMONIC
#---------    -------------------            -------------------------------
# Generated from Intellog Unique Number	CS_69_70/WELL/799
WELL.         AEC FISHER                     : Well_name    - WELL
LOC .         00/06-06-069-04W4/0            : Location     - LOCATION
UWI .         00/06-06-069-04W4/0            : Uwi          - UNIQUE WELL ID
ENTR.         SP                             : Entered      - ENTERED BY
SRVC.         SCHLUMBERGER                   : Scn          - SERVICE COMPANY
STRT.M        340                            : top_depth    - START DEPTH
STOP.M        595                            : bot_depth    - STOP DEPTH
STEP.M        0.25                           : increment    - STEP LENGTH
 NULL. -999.2500:NULL Value
~CURVE INFORMATION BLOCK
#MNEM UNIT       ERCB CURVE CODE    CURVE DESCRIPTION
#-----------   ------------------   ----------------------------------
DEPT.M        00 001 00 00         : DEPTH        - DEPTH
ILD .OHMM     00 120 00 00         : RESD         - DEEP RESISTIVITY (DIL)
DPHI.V/V      00 890 00 00         : PHID         - DENSITY POROSITY (LIMESTONE)
NPHI.V/V      00 330 00 00         : PHIN         - NEUTRON POROSITY (LIMESTONE)
GR  .API      00 310 00 00         : GR           - GAMMA RAY
~PARAMETER INFORMATION
#MNEM.UNIT           DATA             DESCRIPTION OF MNEMONIC
#---------         -----------     ------------------------------
GL  .M        695.6                : gl           - GROUND LEVEL ELEVATION
EREF.M        699.3                : kb           - ELEVATION OF DEPTH REFERENCE
DATM.M        695.6                : datum        - DATUM ELEVATION
TDD .M        600                  : tdd          - TOTAL DEPTH DRILLER
RUN .         ONE                  : Run          - RUN NUMBER
ENG .         BILL                 : Engineer     - RECORDING ENGINEER
WIT .         JIM                  : Witness      - WITNESSED BY
MUD .         GEL                  : Mud_type     - MUD TYPE
MATR.         LIMESTONE            : Logunit      - NEUTRON MATRIX
TMAX.C        22                   : BHT          - MAXIMUM RECORDED TEMPERATURE
BHTD.M        600                  : BHTDEP       - MAXIMUM RECORDED TEMPERATURE
MATR.         1                    : LOGUNIT      - NEUTRON MATRIX
RMT .C        25                   : MDTP         - TEMPERATURE OF MUD
NEUT.         1                    : NEUTRON      - NEUTRON TYPE
RESI.         0                    : RESIST       - RESISTIVITY TYPE
RMC .OHMM     0.25                 : RMC          - RESISTIVITY OF MUD CAKE
RMF .OHMM     0.25                 : RMF          - RESISTIVITY OF MUD FILTRATE
SUFT.C        15                   : SUFT         - SURFACE TEMPERATURE
~A  DEPTH     RESD     PHID     PHIN       GR
# ...
  427.000    6.262    0.308    0.430   77.411
  427.250    6.147    0.306    0.440   79.352
  427.500    6.001    0.314    0.447   79.340
  427.750    5.924    0.317    0.440   83.172
  428.000    5.848    0.307    0.451   92.921
  428.250    5.730    0.266    0.495  105.536
  428.500    5.625    0.256    0.513  108.941
  428.750    5.469    0.260    0.532  109.599
  429.000    4.998    0.262    0.544  108.611
  429.250    4.251    0.267    0.556  107.869
  429.500    3.706    0.271    0.548  106.880
  429.750    3.219    0.267    0.539  105.651
  430.000    2.936    0.282    0.553  103.930
  430.250    2.838    0.292    0.566  102.761
  430.500    2.807    0.278    0.558  101.957
  430.750    2.900    0.270    0.554  101.030
  431.000    3.052    0.270    0.576   99.738
  431.250    3.298    0.267    0.591   97.531
  431.500    3.646    0.263    0.488   87.026
  431.750    4.015    0.258    0.469   81.648
  432.000    4.540    0.260    0.456   83.101
  432.250    4.879    0.258    0.469   88.884
  432.500    5.135    0.253    0.465   86.188
  432.750    5.436    0.255    0.454   81.417
  433.000    5.646    0.264    0.457   78.846
  433.250    5.777    0.260    0.452   79.078
  433.500    5.933    0.250    0.446   81.811
  433.750    6.037    0.247    0.454   84.362
  434.000    6.177    0.257    0.457   85.144
  434.250    6.284    0.260    0.457   85.011
  434.500    6.322    0.253    0.458   86.037
  434.750    6.265    0.238    0.465   87.122
  435.000    6.104    0.225    0.474   87.781
  435.250    6.014    0.211    0.484   88.502
  435.500    5.815    0.210    0.476   89.468
  435.750    5.666    0.227    0.470   89.762
  436.000    5.530    0.234    0.473   89.689
  436.250    5.368    0.234    0.486   89.739
  436.500    5.142    0.246    0.482   89.117
  436.750    4.944    0.238    0.467   87.520
  437.000    4.771    0.245    0.465   84.885
  437.250    4.737    0.265    0.511   81.944
  437.500    4.828    0.253    0.518   80.348
  437.750    4.978    0.237    0.513   81.374
  438.000    5.094    0.255    0.525   83.862
  438.250    5.105    0.268    0.524   87.024
  438.500    5.020    0.259    0.512   90.611
  438.750    4.719    0.247    0.516   94.139
  439.000    4.572    0.241    0.500   97.666
  439.250    4.437    0.250    0.482   95.458
  439.500    4.315    0.234    0.476   92.578
  439.750    4.300    0.216    0.504   90.004
  440.000    4.277    0.248    0.521   88.226
  440.250    4.254    0.281    0.486   83.272
  440.500    4.200    0.302    0.444   81.859
  440.750    4.193    0.267    0.439   85.934
  441.000    4.195    0.243    0.464   89.276
  441.250    4.204    0.246    0.476   90.181
  441.500    4.221    0.258    0.482   90.353
  441.750    4.230    0.272    0.491   87.048
  442.000    4.224    0.283    0.477   79.900
  442.250    4.146    0.271    0.464   80.315
  442.500    4.093    0.263    0.479   83.415
  442.750    4.010    0.268    0.505   86.514
  443.000    3.878    0.274    0.522   89.614
  443.250    3.728    0.281    0.533   92.531
  443.500    3.538    0.301    0.538   90.567
  443.750    3.513    0.319    0.506   86.714
  444.000    3.567    0.317    0.481   80.845
  444.250    3.848    0.316    0.468   79.979
  444.500    4.096    0.314    0.469   81.920
  444.750    4.511    0.285    0.468   82.581
  445.000    4.783    0.156    0.464   76.653
  445.250    5.160    0.143    0.427   55.962
  445.500    5.586    0.136    0.384   50.460
  445.750    6.015    0.165    0.334   55.511
  446.000    6.391    0.235    0.384   60.501
  446.250    6.613    0.279    0.410   64.698
  446.500    6.652    0.300    0.421   67.129
  446.750    5.659    0.315    0.435   69.375
  447.000    5.299    0.309    0.469   70.522
  447.250    5.105    0.328    0.470   69.655
  447.500    4.936    0.343    0.457   67.510
  447.750    4.827    0.341    0.450   65.241
  448.000    4.811    0.336    0.446   64.558
  448.250    4.785    0.333    0.451   65.158
  448.500    4.777    0.331    0.454   66.181
  448.750    4.779    0.331    0.455   66.843
  449.000    4.808    0.329    0.459   67.198
  449.250    4.836    0.324    0.469   66.455
  449.500    4.865    0.269    0.477   61.380
  449.750    4.922    0.186    0.287   58.929
  450.000    5.018    0.116    0.260   59.222
  450.250    5.869    0.204    0.401   60.858
  450.500    7.196    0.250    0.436   63.287
  450.750    7.475    0.280    0.454   66.689
  451.000    6.908    0.311    0.452   68.814
  451.250    6.160    0.324    0.456   70.876
  451.500    5.431    0.328    0.476   72.025
  451.750    4.806    0.329    0.495   71.769
  452.000    4.535    0.328    0.472   71.698
  452.250    4.443    0.327    0.454   76.442
  452.500    4.478    0.315    0.468   79.909
  452.750    4.556    0.296    0.492   82.643
  453.000    4.653    0.278    0.501   82.204
  453.250    4.752    0.275    0.510   79.752
  453.500    4.872    0.284    0.489   77.240
  453.750    4.957    0.295    0.455   75.338
  454.000    5.062    0.305    0.447   73.802
  454.250    5.122    0.309    0.442   72.449
  454.500    5.123    0.305    0.437   73.596
  454.750    5.086    0.298    0.431   75.963
  455.000    4.992    0.263    0.427   78.271
  455.250    4.658    0.252    0.440   80.819
  455.500    4.378    0.258    0.466   81.847
  455.750    4.162    0.273    0.489   82.018
  456.000    4.078    0.286    0.508   81.396
  456.250    3.973    0.288    0.488   84.436
  456.500    3.930    0.280    0.506   86.377
  456.750    3.976    0.287    0.504   87.402
  457.000    4.114    0.295    0.494   87.452
  457.250    4.314    0.290    0.468   86.768
  457.500    4.490    0.272    0.453   86.757
  457.750    4.646    0.258    0.451   87.170
  458.000    4.763    0.251    0.472   87.650
  458.250    4.746    0.256    0.489   88.676
  458.500    3.940    0.271    0.502   89.457
  458.750    3.155    0.279    0.508   89.995
  459.000    2.689    0.278    0.519   91.325
  459.250    2.411    0.279    0.542   93.448
  459.500    2.275    0.284    0.560   95.448
  459.750    2.192    0.288    0.549   95.318
  460.000    2.180    0.280    0.537   88.291
  460.250    2.214    0.273    0.524   87.060
  460.500    2.269    0.265    0.516   92.780
  460.750    2.349    0.262    0.511   95.760
  461.000    2.430    0.260    0.509   97.700
  461.250    2.539    0.263    0.524   97.017
  461.500    2.672    0.272    0.549   91.821
  461.750    2.760    0.285    0.573   79.183
  462.000    2.916    0.307    0.560   70.327
  462.250    3.372    0.323    0.501   65.374
  462.500    5.002    0.330    0.470   61.763
  462.750    7.704    0.339    0.457   59.130
  463.000   11.845    0.346    0.446   56.495
  463.250   15.779    0.345    0.479   56.057
  463.500   20.745    0.339    0.471   57.571
  463.750   23.061    0.334    0.447   58.718
  464.000   23.864    0.337    0.437   58.158
  464.250   24.009    0.343    0.449   55.218
  464.500   23.611    0.351    0.444   55.755
  464.750   22.961    0.357    0.469   58.548
  465.000   22.202    0.359    0.484   60.063
  465.250   21.671    0.357    0.480   59.870
  465.500   20.836    0.355    0.464   53.940
  465.750   20.377    0.350    0.450   56.308
  466.000   20.616    0.347    0.446   58.736
  466.250   20.817    0.339    0.443   59.947
  466.500   21.020    0.334    0.446   57.373
  466.750   20.988    0.336    0.456   55.898
  467.000   20.565    0.337    0.464   56.129
  467.250   19.846    0.340    0.455   56.302
  467.500   18.585    0.344    0.458   56.046
  467.750   18.279    0.342    0.457   54.936
  468.000   19.094    0.342    0.454   53.644
  468.250   20.713    0.346    0.448   51.865
  468.500   21.719    0.343    0.439   56.428
  468.750   21.522    0.341    0.434   58.794
  469.000   19.890    0.340    0.455   60.065
  469.250   18.626    0.345    0.457   57.064
  469.500   17.808    0.348    0.447   56.380
  469.750   17.482    0.342    0.435   57.225
  470.000   17.290    0.340    0.427   58.432
  470.250   17.166    0.335    0.428   58.971
