~VERSION INFORMATION
 VERS.                 2.0:   CWLS LOG ASCII STANDARD -VERSION 2.0
 WRAP.                  NO:   ONE LINE PER DEPTH STEP
~WELL INFORMATION BLOCK
#MNEM.UNIT           DATA                    DESCRIPTION OF MNEMONIC
#---------    -------------------            -------------------------------
# Generated from Intellog Unique Number	CS_67_68/WELL/2172
WELL.         MANNVILLE ET AL ATMORE         : Well_name    - WELL
LOC .         00/06-31-067-15W4/0            : Location     - LOCATION
UWI .         00/06-31-067-15W4/0            : Uwi          - UNIQUE WELL ID
ENTR.         SP                             : Entered      - ENTERED BY
SRVC.         SCHLUMBERGER                   : Scn          - SERVICE COMPANY
STRT.M        359.664                        : top_depth    - START DEPTH
STOP.M        536.914                        : bot_depth    - STOP DEPTH
STEP.M        0.25                           : increment    - STEP LENGTH
 NULL. -999.2500:NULL Value
~CURVE INFORMATION BLOCK
#MNEM UNIT       ERCB CURVE CODE    CURVE DESCRIPTION
#-----------   ------------------   ----------------------------------
DEPT.M        00 001 00 00         : DEPTH        - DEPTH
CALI.MM       00 280 01 00         : CAL          - CALIPER
GR  .API      00 310 00 00         : GR           - GAMMA RAY
DPHI.V/V      00 890 00 00         : PHID         - DENSITY POROSITY (SANDSTONE)
NPHI.V/V      00 330 00 00         : PHIN         - NEUTRON POROSITY (SANDSTONE)
ILD .OHMM     00 120 00 00         : RESD         - DEEP RESISTIVITY (DIL)
~PARAMETER INFORMATION
#MNEM.UNIT           DATA             DESCRIPTION OF MNEMONIC
#---------         -----------     ------------------------------
GL  .M        606.095              : gl           - GROUND LEVEL ELEVATION
EREF.M        607.162              : kb           - ELEVATION OF DEPTH REFERENCE
DATM.M        607.162              : datum        - DATUM ELEVATION
TDD .M        539.496              : tdd          - TOTAL DEPTH DRILLER
RUN .         ONE                  : Run          - RUN NUMBER
ENG .         BILL                 : Engineer     - RECORDING ENGINEER
WIT .         JIM                  : Witness      - WITNESSED BY
MUD .         GEL                  : Mud_type     - MUD TYPE
MATR.         SANDSTONE            : Logunit      - NEUTRON MATRIX
TMAX.C        17.7778              : BHT          - MAXIMUM RECORDED TEMPERATURE
BHTD.M        539.496              : BHTDEP       - MAXIMUM RECORDED TEMPERATURE
MATR.         1                    : LOGUNIT      - NEUTRON MATRIX
RMT .C        25                   : MDTP         - TEMPERATURE OF MUD
NEUT.         1                    : NEUTRON      - NEUTRON TYPE
RESI.         0                    : RESIST       - RESISTIVITY TYPE
RMC .OHMM     0.25                 : RMC          - RESISTIVITY OF MUD CAKE
RMF .OHMM     0.25                 : RMF          - RESISTIVITY OF MUD FILTRATE
SUFT.C        15                   : SUFT         - SURFACE TEMPERATURE
~A  DEPTH      CAL       GR     PHID     PHIN     RESD
# ...
  432.664  176.850  109.370    0.210    0.450    2.644
  432.914  184.033  111.618    0.232    0.463    2.552
  433.164  187.459  110.520    0.248    0.468    2.451
  433.414  176.355  103.582    0.271    0.444    2.399
  433.664  166.048   93.655    0.241    0.427    2.427
  433.914  161.019   85.921    0.246    0.410    2.731
  434.164  159.905   78.599    0.212    0.394    4.013
  434.414  161.307   73.513    0.119    0.355    5.156
  434.664  162.455   69.968    0.047    0.214    5.924
  434.914  163.867   72.576    0.093    0.208    6.602
  435.164  165.122   73.997    0.139    0.251    7.252
  435.414  165.468   78.575    0.185    0.294    7.559
  435.664  164.610   80.564    0.233    0.339    4.644
  435.914  163.996   80.673    0.277    0.374    3.380
  436.164  163.201   82.598    0.282    0.433    2.995
  436.414  162.214   85.578    0.268    0.441    2.875
  436.664  161.236   88.604    0.248    0.441    2.933
  436.914  161.281   90.380    0.248    0.441    2.973
  437.164  161.275   91.832    0.265    0.444    2.923
  437.414  161.289   93.201    0.278    0.445    2.809
  437.664  161.969   93.827    0.267    0.443    2.711
  437.914  162.558   94.324    0.257    0.445    2.689
  438.164  162.488   95.595    0.252    0.437    2.688
  438.414  161.553   96.536    0.255    0.435    2.712
  438.664  161.101   97.231    0.256    0.433    2.782
  438.914  161.663   97.856    0.253    0.433    2.827
  439.164  162.116   97.365    0.253    0.439    2.883
  439.414  162.364   94.469    0.243    0.435    2.929
  439.664  162.615   92.311    0.247    0.437    2.972
  439.914  162.881   90.701    0.250    0.435    2.988
  440.164  163.146   89.600    0.241    0.434    2.999
  440.414  163.227   90.383    0.230    0.441    3.051
  440.664  162.801   93.606    0.217    0.448    3.156
  440.914  162.770   95.597    0.205    0.443    3.277
  441.164  162.839   97.314    0.197    0.428    3.440
  441.414  162.888   95.210    0.205    0.402    3.674
  441.664  162.393   87.711    0.207    0.372    3.868
  441.914  161.874   85.145    0.210    0.352    3.965
  442.164  160.415   88.510    0.221    0.375    3.985
  442.414  159.427   92.504    0.230    0.403    3.904
  442.664  158.346   94.787    0.224    0.426    3.728
  442.914  158.918   94.577    0.204    0.433    3.598
  443.164  159.036   94.711    0.223    0.436    3.435
  443.414  158.765   96.509    0.210    0.436    3.382
  443.664  158.233   98.383    0.219    0.441    3.356
  443.914  157.711   99.783    0.209    0.452    3.362
  444.164  157.484  100.461    0.184    0.448    3.393
  444.414  157.958  100.800    0.177    0.434    3.477
  444.664  159.102  100.623    0.167    0.428    3.553
  444.914  161.284   99.749    0.195    0.425    3.607
  445.164  162.799   99.183    0.216    0.429    3.639
  445.414  164.087   98.450    0.230    0.432    3.679
  445.664  165.010   98.094    0.228    0.422    3.698
  445.914  165.223   98.475    0.214    0.418    3.708
  446.164  164.545   99.645    0.207    0.423    3.707
  446.414  163.622  101.145    0.191    0.431    3.700
  446.664  163.016  102.973    0.171    0.440    3.693
  446.914  163.658  104.083    0.175    0.444    3.731
  447.164  165.028  104.683    0.189    0.441    3.789
  447.414  166.648  104.401    0.197    0.437    3.831
  447.664  169.277  104.602    0.183    0.440    3.854
  447.914  171.049  105.801    0.193    0.447    3.887
  448.164  172.215  105.265    0.196    0.444    3.922
  448.414  172.292  105.160    0.187    0.439    3.958
  448.664  172.289  106.759    0.179    0.440    3.973
  448.914  172.005  108.310    0.176    0.429    4.003
  449.164  171.343  109.948    0.181    0.418    4.053
  449.414  171.577  111.691    0.182    0.409    4.076
  449.664  171.788  112.461    0.182    0.422    4.103
  449.914  172.118  112.789    0.185    0.432    4.100
  450.164  171.282  112.867    0.192    0.440    4.074
  450.414  168.686  109.975    0.194    0.447    4.036
  450.664  168.898  110.670    0.189    0.454    3.969
  450.914  170.467  111.969    0.182    0.448    3.901
  451.164  172.340  112.828    0.176    0.440    3.838
  451.414  172.833  113.577    0.170    0.439    3.777
  451.664  173.086  114.155    0.158    0.449    3.766
  451.914  172.296  114.455    0.178    0.458    3.787
  452.164  171.184  114.106    0.189    0.466    3.825
  452.414  170.677  113.556    0.174    0.454    3.889
  452.664  169.843  113.522    0.168    0.455    4.002
  452.914  169.864  113.454    0.169    0.450    4.112
  453.164  169.845  112.682    0.175    0.441    4.243
  453.414  169.820  110.630    0.163    0.436    4.356
  453.664  169.632  108.985    0.154    0.435    4.459
  453.914  169.434  112.900    0.157    0.438    4.531
  454.164  169.366  113.815    0.166    0.437    4.572
  454.414  169.024  112.780    0.173    0.436    4.566
  454.664  168.400  111.109    0.177    0.443    4.565
  454.914  167.896  113.039    0.173    0.432    4.538
  455.164  166.493  115.712    0.166    0.427    4.518
  455.414  164.980  117.369    0.150    0.429    4.427
  455.664  164.604  117.975    0.161    0.437    4.329
  455.914  165.778  117.052    0.172    0.441    4.195
  456.164  167.211  116.923    0.163    0.433    4.055
  456.414  168.223  117.465    0.160    0.449    3.944
  456.664  167.076  118.356    0.176    0.464    3.876
  456.914  164.951  117.524    0.204    0.478    3.847
  457.164  163.035  113.736    0.210    0.464    3.838
  457.414  164.004  109.653    0.199    0.433    3.865
  457.664  166.308  107.282    0.188    0.422    3.914
  457.914  167.805  107.461    0.184    0.436    3.972
  458.164  168.835  107.511    0.185    0.447    4.013
  458.414  168.313  107.618    0.182    0.436    4.048
  458.664  166.952  107.489    0.181    0.436    4.057
  458.914  165.712  106.762    0.182    0.451    4.023
  459.164  164.176  102.813    0.188    0.461    3.925
  459.414  161.363   98.058    0.200    0.469    3.744
  459.664  160.032   96.382    0.227    0.457    3.543
  459.914  159.679   95.026    0.238    0.446    3.356
  460.164  159.721   93.327    0.253    0.436    3.158
  460.414  158.980   89.136    0.265    0.430    2.976
  460.664  157.762   84.336    0.276    0.446    2.812
  460.914  155.329   80.795    0.287    0.450    2.607
  461.164  152.043   72.680    0.300    0.442    2.358
  461.414  149.810   68.932    0.300    0.437    2.152
  461.664  146.960   67.626    0.296    0.435    1.966
  461.914  146.621   68.658    0.299    0.437    1.847
  462.164  151.816   72.196    0.297    0.430    1.786
  462.414  155.537   75.562    0.290    0.425    1.791
  462.664  153.529   77.536    0.285    0.420    1.799
  462.914  155.357   78.059    0.287    0.423    1.812
  463.164  159.070   77.603    0.300    0.428    1.838
  463.414  161.785   76.589    0.293    0.434    1.861
  463.664  162.857   74.996    0.290    0.437    1.882
  463.914  162.796   73.789    0.289    0.430    1.889
  464.164  162.637   71.092    0.288    0.427    1.888
  464.414  163.187   71.254    0.296    0.431    1.887
  464.664  163.658   72.124    0.297    0.431    1.882
  464.914  164.098   72.174    0.294    0.429    1.913
  465.164  164.263   72.341    0.279    0.430    2.021
  465.414  164.150   73.619    0.244    0.419    2.204
  465.664  164.016   75.240    0.204    0.382    2.397
  465.914  164.028   73.467    0.228    0.361    2.557
  466.164  164.104   70.514    0.269    0.397    2.585
  466.414  164.260   68.784    0.297    0.421    2.466
  466.664  164.455   66.846    0.289    0.425    2.283
  466.914  164.378   64.897    0.292    0.436    2.202
  467.164  163.829   65.361    0.295    0.449    2.129
  467.414  163.183   68.102    0.283    0.434    2.086
  467.664  162.102   69.228    0.274    0.420    2.052
  467.914  161.116   69.747    0.264    0.428    2.037
  468.164  160.714   69.579    0.256    0.425    2.021
  468.414  159.605   69.779    0.264    0.417    2.021
  468.664  157.441   69.824    0.272    0.418    2.020
  468.914  157.763   70.279    0.275    0.419    2.027
