~VERSION INFORMATION
 VERS.                 2.0:   CWLS LOG ASCII STANDARD -VERSION 2.0
 WRAP.                  NO:   ONE LINE PER DEPTH STEP
~WELL INFORMATION BLOCK
#MNEM.UNIT           DATA                    DESCRIPTION OF MNEMONIC
#---------    -------------------            -------------------------------
# Generated from Intellog Unique Number	CN_91_93/WELL/1073
WELL.         06-03-091-19W4                 : Well_name    - WELL
LOC .         00/06-03-091-19W4/0            : Location     - LOCATION
UWI .         00/06-03-091-19W4/0            : Uwi          - UNIQUE WELL ID
ENTR.         JOETTE                         : Entered      - ENTERED BY
SRVC.         SCHLUMBERGER                   : Scn          - SERVICE COMPANY
DATE.         02/04/92                       : Date         - LOG DATE
STRT.F        410.105                        : top_depth    - START DEPTH
STOP.F        770.997                        : bot_depth    - STOP DEPTH
STEP.F        0.82                           : increment    - STEP LENGTH
 NULL. -999.2500:NULL Value
~CURVE INFORMATION BLOCK
#MNEM UNIT       ERCB CURVE CODE    CURVE DESCRIPTION
#-----------   ------------------   ----------------------------------
DEPT.F        00 001 00 00         : DEPTH        - DEPTH
ILD .OHMM     00 120 00 00         : RESD         - DEEP RESISTIVITY (DIL)
NPHI.V/V      00 330 00 00         : PHIN         - NEUTRON POROSITY (SANDSTONE)
CALI.IN       00 280 01 00         : CAL          - CALIPER
GR  .API      00 310 00 00         : GR           - GAMMA RAY
~PARAMETER INFORMATION
#MNEM.UNIT           DATA             DESCRIPTION OF MNEMONIC
#---------         -----------     ------------------------------
GL  .M        518.3                : gl           - GROUND LEVEL ELEVATION
EREF.M        518.3                : kb           - ELEVATION OF DEPTH REFERENCE
DATM.M        518.3                : datum        - DATUM ELEVATION
TDD .M        238                  : tdd          - TOTAL DEPTH DRILLER
RUN .         ONE                  : Run          - RUN NUMBER
ENG .         JO                   : Engineer     - RECORDING ENGINEER
WIT .         TIM                  : Witness      - WITNESSED BY
MUD .         GEL                  : Mud_type     - MUD TYPE
MATR.         SANDSTONE            : Logunit      - NEUTRON MATRIX
TMAX.F        59                   : BHT          - MAXIMUM RECORDED TEMPERATURE
BHTD.F        780.84               : BHTDEP       - MAXIMUM RECORDED TEMPERATURE
RMT .F        59                   : MDTP         - TEMPERATURE OF MUD
MUDD.LB/G     10.1667              : MWT          - MUD DENSITY
NEUT.         1                    : NEUTRON      - NEUTRON TYPE
RESI.         0                    : RESIST       - RESISTIVITY TYPE
RM  .OHMM     7.4                  : RM           - RESISTIVITY OF MUD
RMC .OHMM     19.8                 : RMC          - RESISTIVITY OF MUD CAKE
RMF .OHMM     6.5                  : RMF          - RESISTIVITY OF MUD FILTRATE
SUFT.F        39.2                 : SUFT         - SURFACE TEMPERATURE
~A  DEPTH     RESD     PHIN      CAL       GR
  410.105    5.777    0.526    8.474   89.561
  410.925    5.671    0.546    8.381   93.487
  411.745    5.568    0.563    8.405   95.629
  412.566    5.728    0.555    8.428   92.419
  413.386    5.676    0.510    8.393   94.271
  414.206    5.625    0.501    8.300   94.919
  415.026    5.732    0.506    8.323   94.682
  415.846    6.353    0.519    8.386   95.932
  416.667    7.040    0.532    8.410   95.695
  417.487    8.174    0.544    8.432   94.285
  418.307    8.407    0.515    8.456   91.357
  419.127    8.977    0.498    8.500   86.058
  419.948   10.136    0.496    8.523   85.227
  420.768   10.821    0.495    8.567   84.099
  421.588   10.724    0.496    8.532   75.834
  422.408   10.143    0.499    8.515   75.590
  423.228    8.823    0.487    8.461   85.767
  424.049    7.746    0.474    8.406   92.971
  424.869    6.801    0.486    8.391   97.507
  425.689    5.860    0.497    8.391   97.567
  426.509    5.242    0.532    8.380   96.424
  427.329    4.958    0.543    8.402   95.310
  428.150    4.734    0.514    8.407   96.857
  428.970    4.520    0.511    8.433   99.304
  429.790    4.355    0.538    8.435  100.844
  430.610    4.120    0.555    8.438  100.302
  431.430    3.897    0.592    8.443   98.282
  432.251    3.755    0.588    8.446   98.343
  433.071    3.756    0.570    8.450   97.519
  433.891    3.757    0.563    8.416   96.390
  434.711    3.758    0.564    8.419   95.871
  435.531    3.902    0.565    8.403   95.025
  436.352    3.940    0.597    8.388   93.591
  437.172    3.832    0.595    8.413   93.957
  437.992    3.833    0.589    8.454   94.902
  438.812    4.093    0.588    8.557   93.773
  439.633    4.621    0.570    8.557   93.240
  440.453    5.217    0.550    8.645   92.713
  441.273    6.057    0.542    8.666   92.484
  442.093    7.507    0.534    8.690   91.943
  442.913    9.303    0.486    8.655   88.435
  443.734   11.637    0.468    8.620   86.994
  444.554   13.017    0.479    8.546   82.001
  445.374   16.589    0.452    8.472   75.818
  446.194   17.064    0.441    8.436   71.411
  447.014   16.598    0.430    8.401   66.722
  447.835   16.296    0.428    8.347   66.783
  448.655   15.414    0.402    8.293   67.735
  449.475   14.311    0.413    8.257   70.167
  450.295   13.411    0.421    8.262   76.479
  451.115   12.685    0.423    8.262   76.845
  451.936   11.137    0.435    8.272   80.466
  452.756    9.687    0.457    8.313   92.724
  453.576    8.746    0.479    8.355   88.919
  454.396    9.251    0.465    8.398   82.431
  455.217   10.841    0.436    8.402   74.762
  456.037   12.241    0.390    8.328   69.760
  456.857   12.591    0.392    8.255   66.269
  457.677   12.832    0.408    8.219   67.808
  458.497   13.446    0.419    8.185   68.159
  459.318   15.042    0.436    8.189   66.435
  460.138   16.515    0.450    8.231   60.252
  460.958   17.632    0.467    8.313   54.657
  461.778   19.180    0.406    8.336   51.744
  462.598   20.477    0.410    8.361   52.697
  463.419   21.461    0.430    8.344   55.151
  464.239   22.281    0.432    8.329   51.331
  465.059   24.011    0.434    8.314   46.635
  465.879   25.876    0.421    8.317   44.912
  466.699   26.864    0.395    8.317   45.270
  467.520   26.131    0.381    8.307   48.898
  468.340   23.157    0.379    8.290   52.245
  469.160   19.587    0.353    8.255   51.406
  469.980   14.140    0.335    8.220   55.331
  470.801   12.649    0.354    8.146   67.590
  471.621   10.899    0.414    8.092   81.929
  472.441    9.393    0.465    8.173   93.601
  473.261    9.222    0.483    8.295   90.978
  474.081    9.846    0.480    8.338   88.370
  474.902   10.512    0.485    8.342   87.234
  475.722    9.851    0.487    8.342   84.017
  476.542    8.649    0.483    8.333   78.726
  477.362    7.181    0.477    8.316   79.084
  478.182    6.423    0.477    8.280   86.882
  479.003    5.586    0.487    8.267   91.403
  479.823    4.859    0.516    8.249   93.255
  480.643    6.549    0.536    8.215   88.253
  481.463    9.247    0.522    8.215   79.982
  482.283   11.675    0.492    8.223   72.312
  483.104   13.555    0.422    8.226   71.778
  483.924   14.473    0.423    8.230   79.272
  484.744   14.612    0.449    8.234   80.537
  485.564   14.891    0.476    8.257   77.014
  486.385   15.751    0.448    8.284   73.507
  487.205   15.464    0.442    8.285   73.568
  488.025   14.764    0.438    8.285   71.860
  488.845   13.965    0.434    8.294   70.419
  489.665   13.209    0.422    8.277   69.892
  490.486   12.379    0.416    8.262   72.027
  491.306   11.709    0.419    8.266   78.346
  492.126   11.284    0.430    8.328   76.333
  492.946   11.715    0.451    8.430   73.993
  493.766   13.858    0.440    8.317   70.783
  494.587   17.015    0.448    8.243   69.067
  495.407   21.483    0.426    8.207   68.823
  496.227   16.401    0.388    8.192   72.162
  497.047   11.841    0.391    8.216   77.574
  497.867    7.861    0.408    8.220   87.157
  498.688    6.649    0.430    8.220   88.704
  499.508    6.407    0.469    8.248   80.447
  500.328   10.117    0.495    8.271   77.222
  501.148   12.422    0.501    8.275   71.924
  501.969   13.639    0.505    8.240   63.362
  502.789   14.426    0.509    8.166   61.349
  503.609   14.839    0.509    8.072   62.309
  504.429   14.843    0.448    7.998   62.362
  505.249   15.126    0.444    8.041   67.767
  506.070   13.405    0.449    8.143   78.547
  506.890   10.822    0.455    8.143   81.885
  507.710    8.418    0.489    8.230   82.236
  508.530    8.659    0.504    8.291   82.891
  509.350    9.074    0.499    8.291   81.770
  510.171    8.744    0.475    8.299   80.054
  510.991    6.994    0.460    8.264   78.903
  511.811    5.646    0.463    8.252   73.315
  512.631    4.644    0.483    8.214   74.267
  513.451    4.733    0.499    8.179   79.687
  514.272    5.101    0.490    8.186   76.767
  515.092    7.135    0.485    8.167   72.963
  515.912   17.783    0.479    8.152   70.950
  516.732   27.820    0.444    8.097   68.922
  517.552   36.123    0.368    8.082   65.712
  518.373   38.926    0.362    8.144   63.089
  519.193   40.417    0.348    8.207   60.184
  520.013   39.681    0.338    8.191   56.669
  520.833   37.533    0.350    8.156   53.178
  521.654   33.886    0.337    8.160   51.744
  522.474   29.201    0.325    8.164   55.068
  523.294   27.364    0.353    8.187   64.360
  524.114   29.490    0.412    8.211   61.448
  524.934   29.224    0.351    8.195   58.223
  525.755   21.495    0.314    8.141   63.940
  526.575   18.012    0.310    8.165   70.542
  527.395   14.954    0.352    8.247   79.232
  528.215   12.649    0.446    8.310   83.166
  529.035   10.308    0.452    8.310   84.416
  529.856    8.017    0.471    8.338   91.315
  530.676    7.655    0.493    8.321   97.032
  531.496    8.173    0.490    8.286   94.722
  532.316    8.328    0.496    8.252   92.701
  533.136    7.661    0.485    8.235   98.106
  533.957    7.246    0.458    8.240  108.283
  534.777    6.665    0.473    8.263  108.046
  535.597    6.188    0.486    8.326   97.396
  536.417    6.485    0.457    8.368   82.598
  537.238    8.112    0.438    8.393   82.049
  538.058    9.596    0.428    8.397   82.407
  538.878   11.142    0.433    8.380   78.008
  539.698   11.675    0.439    8.380   73.007
  540.518   12.582    0.452    8.312   71.878
  541.339   13.185    0.438    8.197   77.298
  542.159   13.948    0.419    8.104   83.603
  542.979   14.481    0.431    8.049   86.354
  543.799   14.757    0.436    8.053   86.407
  544.619   14.354    0.431    8.096   87.955
  545.440   13.963    0.431    8.178   79.980
  546.260   14.097    0.439    8.260   78.257
  547.080   14.773    0.417    8.323   84.264
  547.900   16.373    0.423    8.327   79.567
  548.720   17.157    0.402    8.312   72.195
  549.541   17.323    0.340    8.277   68.086
  550.361   16.234    0.314    8.222   70.235
  551.181   15.355    0.349    8.168   78.918
  552.001   15.216    0.370    8.093   87.609
