~VERSION INFORMATION
 VERS.                 2.0:   CWLS LOG ASCII STANDARD -VERSION 2.0
 WRAP.                  NO:   ONE LINE PER DEPTH STEP
~WELL INFORMATION BLOCK
#MNEM.UNIT           DATA                    DESCRIPTION OF MNEMONIC
#---------    -------------------            -------------------------------
# Generated from Intellog Unique Number	CS_77_79/WELL/899
WELL.         BRALORNE RESOURCES LIMITED     : Well_name    - WELL
LOC .         00/07-16-077-14W4/0            : Location     - LOCATION
UWI .         00/07-16-077-14W4/0            : Uwi          - UNIQUE WELL ID
ENTR.         SP                             : Entered      - ENTERED BY
SRVC.         SCHLUMBERGER                   : Scn          - SERVICE COMPANY
STRT.M        280                            : top_depth    - START DEPTH
STOP.M        530                            : bot_depth    - STOP DEPTH
STEP.M        0.25                           : increment    - STEP LENGTH
 NULL. -999.2500:NULL Value
~CURVE INFORMATION BLOCK
#MNEM UNIT       ERCB CURVE CODE    CURVE DESCRIPTION
#-----------   ------------------   ----------------------------------
DEPT.M        00 001 00 00         : DEPTH        - DEPTH
ILD .OHMM     00 120 00 00         : RESD         - DEEP RESISTIVITY (DIL)
DPHI.V/V      00 890 00 00         : PHID         - DENSITY POROSITY (LIMESTONE)
NPHI.V/V      00 330 00 00         : PHIN         - NEUTRON POROSITY (LIMESTONE)
GR  .API      00 310 00 00         : GR           - GAMMA RAY
~PARAMETER INFORMATION
#MNEM.UNIT           DATA             DESCRIPTION OF MNEMONIC
#---------         -----------     ------------------------------
GL  .M        683.2                : gl           - GROUND LEVEL ELEVATION
EREF.M        686.9                : kb           - ELEVATION OF DEPTH REFERENCE
DATM.M        683.2                : datum        - DATUM ELEVATION
TDD .M        530                  : tdd          - TOTAL DEPTH DRILLER
RUN .         ONE                  : Run          - RUN NUMBER
ENG .         BILL                 : Engineer     - RECORDING ENGINEER
WIT .         JIM                  : Witness      - WITNESSED BY
MUD .         GEL                  : Mud_type     - MUD TYPE
MATR.         LIMESTONE            : Logunit      - NEUTRON MATRIX
TMAX.C        30                   : BHT          - MAXIMUM RECORDED TEMPERATURE
BHTD.M        530                  : BHTDEP       - MAXIMUM RECORDED TEMPERATURE
MATR.         1                    : LOGUNIT      - NEUTRON MATRIX
RMT .C        25                   : MDTP         - TEMPERATURE OF MUD
NEUT.         1                    : NEUTRON      - NEUTRON TYPE
RESI.         0                    : RESIST       - RESISTIVITY TYPE
RMC .OHMM     0.25                 : RMC          - RESISTIVITY OF MUD CAKE
RMF .OHMM     0.25                 : RMF          - RESISTIVITY OF MUD FILTRATE
SUFT.C        15                   : SUFT         - SURFACE TEMPERATURE
~A  DEPTH     RESD     PHID     PHIN       GR
# ...
  410.500    5.912    0.253    0.376   92.133
  410.750    5.483    0.268    0.446   92.757
  411.000    5.484    0.285    0.451   93.378
  411.250    5.384    0.300    0.444   93.389
  411.500    5.385    0.295    0.429   92.790
  411.750    5.595    0.285    0.414   88.515
  412.000    5.813    0.279    0.422   82.403
  412.250    6.039    0.267    0.425   78.129
  412.500    6.274    0.263    0.406   79.975
  412.750    6.517    0.260    0.400   88.559
  413.000    6.644    0.259    0.408   93.466
  413.250    6.522    0.257    0.398   96.540
  413.500    6.282    0.255    0.382   94.716
  413.750    6.166    0.257    0.371   95.337
  414.000    6.053    0.262    0.370   95.962
  414.250    6.054    0.268    0.377   92.913
  414.500    6.056    0.270    0.387   91.698
  414.750    6.292    0.269    0.390   91.099
  415.000    6.293    0.266    0.383   88.659
  415.250    6.539    0.271    0.372   84.385
  415.500    6.665    0.275    0.366   81.333
  415.750    7.058    0.282    0.377   80.733
  416.000    7.472    0.297    0.383   82.582
  416.250    7.617    0.301    0.370   84.432
  416.500    8.064    0.301    0.361   85.053
  416.750    8.539    0.309    0.360   83.841
  417.000    8.541    0.326    0.360   77.114
  417.250    8.708    0.334    0.356   67.329
  417.500    8.548    0.340    0.356   61.833
  417.750    8.389    0.345    0.366   62.459
  418.000    8.235    0.345    0.355   63.079
  418.250    8.084    0.349    0.349   62.480
  418.500    8.086    0.350    0.345   63.101
  418.750    8.089    0.351    0.355   63.112
  419.000    8.091    0.353    0.370   63.735
  419.250    8.093    0.355    0.371   63.132
  419.500    8.096    0.357    0.372   63.144
  419.750    8.098    0.360    0.374   64.993
  420.000    8.101    0.360    0.384   65.002
  420.250    7.954    0.359    0.389   62.568
  420.500    7.955    0.357    0.388   61.355
  420.750    8.110    0.352    0.372   61.366
  421.000    7.960    0.349    0.366   61.378
  421.250    7.813    0.345    0.357   61.999
  421.500    7.965    0.342    0.358   62.620
  421.750    8.434    0.346    0.363   64.470
  422.000    8.437    0.351    0.372   62.642
  422.250    8.440    0.352    0.374   58.982
  422.500    8.442    0.351    0.379   58.991
  422.750    8.444    0.350    0.375   60.839
  423.000    8.446    0.351    0.370   63.301
  423.250    8.450    0.351    0.364   62.700
  423.500    8.453    0.348    0.364   60.874
  423.750    8.456    0.345    0.363   60.273
  424.000    8.142    0.342    0.364   60.894
  424.250    7.993    0.340    0.368   62.742
  424.500    7.995    0.340    0.375   62.755
  424.750    7.998    0.345    0.374   61.542
  425.000    7.851    0.350    0.367   61.550
  425.250    7.854    0.353    0.362   62.787
  425.500    7.855    0.354    0.364   64.635
  425.750    8.008    0.356    0.375   64.033
  426.000    7.861    0.357    0.387   64.048
  426.250    7.716    0.356    0.391   63.446
  426.500    7.574    0.354    0.390   63.454
  426.750    7.576    0.353    0.384   66.528
  427.000    7.579    0.354    0.373   66.538
  427.250    7.873    0.356    0.370   63.489
  427.500    7.583    0.352    0.372   59.826
  427.750    7.304    0.347    0.364   60.452
  428.000    7.306    0.343    0.360   61.685
  428.250    7.038    0.347    0.364   61.697
  428.500    7.593    0.348    0.380   59.873
  428.750    7.596    0.348    0.380   60.495
  429.000    7.599    0.347    0.380   62.960
  429.250    7.458    0.345    0.381   64.806
  429.500    7.460    0.344    0.383   65.430
  429.750    7.322    0.340    0.387   66.661
  430.000    7.188    0.339    0.391   67.896
  430.250    7.056    0.339    0.389   67.296
  430.500    6.926    0.340    0.382   64.857
  430.750    7.060    0.345    0.365   63.035
  431.000    7.062    0.347    0.359   63.042
  431.250    7.201    0.345    0.376   64.277
  431.500    7.202    0.344    0.376   60.616
  431.750    7.482    0.345    0.373   60.014
  432.000    7.922    0.346    0.389   61.258
  432.250    8.388    0.346    0.389   61.877
  432.500    8.715    0.341    0.389   62.497
  432.750    8.883    0.339    0.390   61.895
  433.000    9.229    0.332    0.393   60.070
  433.250    9.587    0.316    0.390   58.857
  433.500    9.961    0.302    0.374   60.092
  433.750    9.965    0.296    0.355   57.042
  434.000    9.968    0.322    0.334   52.768
  434.250    9.784    0.334    0.340   54.620
  434.500    9.787    0.339    0.358   55.853
  434.750    9.606    0.335    0.374   60.153
  435.000    9.079    0.346    0.382   61.997
  435.250    8.581    0.351    0.376   63.232
  435.500    8.423    0.354    0.362   62.632
  435.750    8.112    0.352    0.352   60.804
  436.000    7.813    0.351    0.357   56.529
  436.250    7.817    0.347    0.369   58.990
  436.500    7.673    0.344    0.380   61.450
  436.750    7.675    0.342    0.390   62.073
  437.000    7.678    0.342    0.396   60.247
  437.250    7.680    0.344    0.401   59.649
  437.500    7.538    0.342    0.405   61.496
  437.750    7.398    0.342    0.410   62.732
  438.000    7.263    0.344    0.411   62.131
  438.250    7.264    0.343    0.401   62.142
  438.500    7.268    0.340    0.384   65.215
  438.750    7.409    0.327    0.370   65.224
  439.000    7.553    0.316    0.364   64.014
  439.250    7.699    0.310    0.354   62.799
  439.500    7.702    0.314    0.344   61.583
  439.750    7.704    0.329    0.353   59.758
  440.000    7.707    0.337    0.363   59.775
  440.250    7.565    0.338    0.371   59.170
  440.500    7.567    0.336    0.380   57.958
  440.750    7.289    0.335    0.386   58.577
  441.000    7.154    0.335    0.386   62.880
  441.250    7.156    0.336    0.376   63.498
  441.500    7.024    0.337    0.365   62.899
  441.750    7.027    0.336    0.357   62.295
  442.000    7.029    0.336    0.350   62.307
  442.250    7.303    0.335    0.344   60.482
  442.500    7.731    0.331    0.356   56.208
  442.750    8.998    0.326    0.356   57.443
  443.000   10.275    0.248    0.343   61.128
  443.250   11.959    0.211    0.322   62.975
  443.500   15.300    0.148    0.126   56.866
  443.750   19.948    0.066    0.122   53.206
  444.000   23.661    0.034    0.117   51.374
  444.250   23.667    0.034    0.124   47.101
  444.500   21.134    0.053    0.135   44.663
  444.750   16.530    0.091    0.171   43.450
  445.000   12.688    0.264    0.231   42.239
  445.250   11.116    0.302    0.285   47.148
  445.500    8.695    0.319    0.323   52.669
  445.750    7.335    0.321    0.364   59.412
  446.000    6.802    0.318    0.376   65.548
  446.250    6.429    0.317    0.386   64.335
  446.500    6.554    0.321    0.386   64.959
  446.750    6.681    0.321    0.384   65.585
  447.000    6.811    0.319    0.371   65.590
  447.250    6.944    0.318    0.352   58.258
  447.500    7.079    0.318    0.365   57.043
  447.750    7.082    0.320    0.373   63.176
  448.000    7.083    0.322    0.374   68.085
  448.250    7.087    0.328    0.372   66.262
  448.500    6.956    0.327    0.363   63.825
  448.750    6.957    0.325    0.350   61.388
  449.000    6.959    0.324    0.340   61.394
  449.250    6.963    0.323    0.349   63.243
  449.500    6.965    0.322    0.363   65.091
  449.750    6.967    0.320    0.367   66.330
  450.000    6.969    0.319    0.376   65.725
  450.250    6.840    0.317    0.383   67.574
  450.500    6.842    0.310    0.384   73.096
  450.750    6.716    0.304    0.389   78.006
  451.000    6.593    0.297    0.384   79.238
  451.250    6.594    0.293    0.378   71.292
  451.500    6.474    0.284    0.388   75.589
  451.750    6.354    0.279    0.393   81.721
  452.000    6.357    0.277    0.385   84.793
  452.250    6.480    0.278    0.370   86.643
  452.500    6.482    0.278    0.363   88.490
  452.750    6.608    0.279    0.369   90.337
  453.000    6.610    0.281    0.363   91.572
  453.250    6.488    0.287    0.367   91.584
  453.500    6.368    0.283    0.388   89.145
  453.750    6.133    0.263    0.394   83.650
