~VERSION INFORMATION
 VERS.                 2.0:   CWLS LOG ASCII STANDARD -VERSION 2.0
 WRAP.                  NO:   ONE LINE PER DEPTH STEP
~WELL INFORMATION BLOCK
#MNEM.UNIT           DATA                    DESCRIPTION OF MNEMONIC
#---------    -------------------            -------------------------------
# Generated from Intellog Unique Number	CW_76_78/WELL/194
WELL.         06-17-077-25W4                 : Well_name    - WELL
LOC .         00/06-17-077-25W4/0            : Location     - LOCATION
UWI .         00/06-17-077-25W4/0            : Uwi          - UNIQUE WELL ID
ENTR.         JJ                             : Entered      - ENTERED BY
SRVC.         WESTERN ATLAS                  : Scn          - SERVICE COMPANY
DATE.         5 JAN 71                       : Date         - LOG DATE
STRT.M        536.448                        : top_depth    - START DEPTH
STOP.M        664.448                        : bot_depth    - STOP DEPTH
STEP.M        0.25                           : increment    - STEP LENGTH
 NULL. -999.2500:NULL Value
~CURVE INFORMATION BLOCK
#MNEM UNIT       ERCB CURVE CODE    CURVE DESCRIPTION
#-----------   ------------------   ----------------------------------
DEPT.M        00 001 00 00         : DEPTH        - DEPTH
NPHI.V/V      00 330 00 00         : PHIN         - NEUTRON POROSITY (SANDSTONE)
GR  .API      00 310 00 00         : GR           - GAMMA RAY
CALI.MM       00 280 01 00         : CAL          - CALIPER
DELT.US/F     00 520 00 00         : DELT         - SONIC TRAVEL TIME
ILD .OHMM     00 120 00 00         : RESD         - DEEP RESISTIVITY (DIL)
~PARAMETER INFORMATION
#MNEM.UNIT           DATA             DESCRIPTION OF MNEMONIC
#---------         -----------     ------------------------------
GL  .M        722.376              : gl           - GROUND LEVEL ELEVATION
EREF.M        726.338              : kb           - ELEVATION OF DEPTH REFERENCE
DATM.M        722.376              : datum        - DATUM ELEVATION
TDD .M        664.464              : tdd          - TOTAL DEPTH DRILLER
RUN .         ONE                  : Run          - RUN NUMBER
ENG .         HALLSTROM            : Engineer     - RECORDING ENGINEER
WIT .         KVILL                : Witness      - WITNESSED BY
BASE.         R.D.                 : Branch       - HOME BASE OF LOGGING UNIT
MUD .         GEL-CHEM             : Mud_type     - MUD TYPE
MATR.         SANDSTONE            : Logunit      - NEUTRON MATRIX
TMAX.C        30                   : BHT          - MAXIMUM RECORDED TEMPERATURE
BHTD.M        664.464              : BHTDEP       - MAXIMUM RECORDED TEMPERATURE
RMT .C        16.1111              : MDTP         - TEMPERATURE OF MUD
MUDD.KG/M     1116                 : MWT          - MUD DENSITY
NEUT.         1                    : NEUTRON      - NEUTRON TYPE
RESI.         0                    : RESIST       - RESISTIVITY TYPE
RM  .OHMM     7                    : RM           - RESISTIVITY OF MUD
RMC .OHMM     3.9                  : RMC          - RESISTIVITY OF MUD CAKE
RMF .OHMM     7                    : RMF          - RESISTIVITY OF MUD FILTRATE
SUFT.C        5                    : SUFT         - SURFACE TEMPERATURE
~A  DEPTH     PHIN       GR      CAL     DELT     RESD
# ...
  572.948    0.270   68.811  224.293  329.123    9.953
  573.198    0.269   68.753  227.582  326.075   10.098
  573.448    0.267   68.844  229.120  338.931   10.183
  573.698    0.278   69.131  227.037  333.126   10.246
  573.948    0.283   71.076  225.675  335.136   10.091
  574.198    0.290   72.093  225.870  346.875    9.416
  574.448    0.297   74.965  227.710  336.274    8.701
  574.698    0.302   81.156  229.969  313.257    8.066
  574.948    0.276   79.584  233.158  364.607    7.470
  575.198    0.266   78.603  232.316  360.246    7.274
  575.448    0.258   75.130  229.822  351.684    7.219
  575.698    0.246   71.707  228.772  346.270    7.504
  575.948    0.242   67.894  227.928  344.869    8.048
  576.198    0.240   64.274  227.602  332.822    8.692
  576.448    0.234   60.850  226.349  317.161    9.716
  576.698    0.232   58.062  224.991  303.931   10.821
  576.948    0.251   57.662  222.600  295.043   11.324
  577.198    0.270   59.559  220.932  270.119   11.829
  577.448    0.277   60.333  219.884  331.588    9.614
  577.698    0.272   61.204  220.385  368.878    9.558
  577.948    0.261   59.782  221.193  374.567   10.563
  578.198    0.251   54.700  222.007  357.795   11.987
  578.448    0.268   55.715  219.409  330.967   12.951
  578.698    0.281   57.514  217.432  304.796   12.796
  578.948    0.277   59.313  219.068  323.428    9.741
  579.198    0.276   61.161  220.602  323.468    8.785
  579.448    0.277   63.204  220.586  291.783    8.750
  579.698    0.277   65.587  220.569  350.359    9.355
  579.948    0.277   68.215  221.072  346.784    9.939
  580.198    0.267   65.816  220.228  342.035   10.363
  580.448    0.251   62.003  217.631  339.842   10.868
  580.698    0.242   58.775  218.957  331.604   11.532
  580.948    0.235   57.106  221.320  312.992   12.296
  581.198    0.230   56.661  223.884  292.470   13.000
  581.448    0.225   55.678  224.901  290.345   14.344
  581.698    0.211   53.084  225.095  317.191   15.828
  581.948    0.197   51.709  225.596  297.454   17.392
  582.198    0.216   55.266  227.229  221.226   18.076
  582.448    0.239   61.504  227.941  247.612   12.183
  582.698    0.254   64.816  228.643  285.694    9.508
  582.948    0.260   67.150  229.253  299.333   10.273
  583.198    0.257   68.071  229.547  304.368   11.257
  583.448    0.245   66.648  229.736  321.359   12.581
  583.698    0.237   64.591  229.515  330.272   14.146
  583.948    0.227   63.120  228.363  315.334   14.969
  584.198    0.220   62.917  227.212  235.554   15.933
  584.448    0.233   63.544  228.953  270.548   14.058
  584.698    0.246   64.854  230.691  308.234   11.263
  584.948    0.255   67.824  231.504  321.215   10.249
  585.198    0.256   70.257  231.075  316.922    9.895
  585.448    0.256   67.712  230.234  309.806    9.798
  585.698    0.260   68.631  228.048  325.676    9.704
  585.948    0.265   68.381  229.786  320.660    9.688
  586.198    0.271   66.469  232.457  315.973    9.652
  586.448    0.276   66.853  232.442  328.499    9.656
  586.698    0.278   66.699  231.084  341.090    9.701
  586.948    0.272   63.616  228.900  311.174    9.705
  587.198    0.278   64.195  228.470  293.872    9.710
  587.448    0.286   66.384  229.691  330.572    9.714
  587.698    0.277   71.355  230.606  345.066    9.678
  587.948    0.271   69.444  231.005  342.021    9.625
  588.198    0.281   67.485  229.855  337.268    9.649
  588.448    0.284   67.330  228.185  341.054    9.633
  588.698    0.276   67.372  226.516  333.475    9.638
  588.948    0.285   68.731  226.294  319.854    9.661
  589.198    0.282   67.016  226.797  337.239    9.705
  589.448    0.275   62.616  227.504  341.486    9.810
  589.698    0.283   63.048  228.623  324.447    9.875
  589.948    0.284   65.626  230.158  339.730    9.879
  590.198    0.273   67.327  230.971  334.251    9.844
  590.448    0.274   69.175  230.128  326.278    9.788
  590.698    0.273   71.218  226.805  313.574    9.712
  590.948    0.275   68.771  225.450  330.175    9.537
  591.198    0.279   68.275  226.051  337.705    9.382
  591.448    0.281   69.878  227.587  325.330    9.366
  591.698    0.272   69.529  230.256  320.314    9.370
  591.948    0.262   69.815  231.583  345.123    9.415
  592.198    0.255   68.782  227.230  349.501    9.780
  592.448    0.246   64.627  222.045  340.675   10.764
  592.698    0.242   62.276  219.865  322.913   11.348
  592.948    0.258   61.195  217.160  295.757   11.852
  593.198    0.269   60.309  215.597  286.008   12.116
  593.448    0.273   59.717  214.649  309.898   12.400
  593.698    0.262   58.343  214.533  322.490   12.965
  593.948    0.251   57.408  215.136  326.010   14.669
  594.198    0.235   55.985  215.845  321.389   19.791
  594.448    0.233   53.197  216.966  260.665   22.974
  594.698    0.245   47.675  216.849  239.946   29.236
  594.948    0.261   46.935  213.734  229.607   32.539
  595.198    0.261   49.076  212.893  278.527   28.026
  595.448    0.256   52.924  213.702  290.328   21.573
  595.698    0.275   58.235  214.201  279.861   16.480
  595.948    0.299   62.621  214.394  282.793   12.326
  596.198    0.306   66.028  214.896  300.178    9.671
  596.448    0.305   67.438  215.293  326.958    8.916
  596.698    0.292   65.527  216.002  328.577    9.720
  596.948    0.282   64.738  216.914  326.057   10.664
  597.198    0.279   66.098  218.242  324.979   11.389
  597.448    0.272   69.116  221.737  316.221   11.613
  597.698    0.271   70.621  226.060  298.000   10.578
  597.948    0.270   71.102  228.319  308.880    9.702
  598.198    0.269   72.265  229.744  329.158    9.087
  598.448    0.266   74.503  229.425  311.131    8.872
  598.698    0.261   77.424  228.583  312.621    9.697
  598.948    0.254   72.780  228.566  338.416   11.060
  599.198    0.243   67.357  228.551  337.668   14.303
  599.448    0.228   60.224  228.531  321.485   16.927
  599.698    0.217   55.190  227.797  293.145   22.529
  599.948    0.222   54.499  226.126  269.799   28.571
  600.198    0.233   56.542  223.015  258.739   33.913
  600.448    0.233   54.972  218.351  305.095   36.677
  600.698    0.225   54.478  217.197  315.452   42.559
  600.948    0.212   54.762  218.525  283.434   44.883
  601.198    0.203   55.976  220.472  262.782   44.247
  601.448    0.210   59.873  220.974  256.518   36.795
  601.698    0.206   61.623  220.339  281.787   32.241
  601.948    0.196   63.566  221.561  261.004   27.448
  602.198    0.218   68.049  223.612  230.366   23.034
  602.448    0.245   71.261  224.835  276.592   20.119
  602.698    0.251   73.013  225.338  299.036   16.705
  602.948    0.256   75.153  225.524  309.127   14.352
  603.198    0.258   76.365  225.304  318.563   13.336
  603.448    0.263   76.894  224.878  313.939   12.261
  603.698    0.263   78.350  224.448  312.342   11.366
  603.948    0.264   80.636  224.744  317.641   10.611
  604.198    0.266   82.728  225.965  323.398    9.735
  604.448    0.266   84.137  227.499  325.017    8.740
  604.698    0.263   81.055  225.524  331.298    8.084
  604.948    0.262   73.141  218.794  338.306    8.449
  605.198    0.258   72.109  216.298  318.047   10.033
  605.448    0.251   69.320  218.247  320.322   11.097
  605.698    0.247   65.897  220.709  307.945   11.642
  605.948    0.263   65.888  220.385  265.749   11.786
  606.198    0.282   67.492  217.475  264.211   11.850
  606.448    0.296   68.802  217.665  331.133   11.875
  606.698    0.304   67.233  213.622  327.694   11.540
  606.948    0.310   66.445  205.757  329.112   11.864
  607.198    0.309   68.585  202.745  322.847   12.448
  607.448    0.302   71.507  209.858  315.926   12.293
  607.698    0.293   72.912  220.379  308.547   11.157
  607.948    0.288   73.638  224.599  337.561   10.222
  608.198    0.287   73.338  225.613  343.578    9.507
  608.448    0.287   70.403  223.841  339.681    9.152
  608.698    0.285   66.199  221.245  326.782    9.216
  608.948    0.281   58.969  220.092  331.289   10.180
  609.198    0.286   50.713  226.173  339.675   11.464
