~VERSION INFORMATION
 VERS.                 2.0:   CWLS LOG ASCII STANDARD -VERSION 2.0
 WRAP.                  NO:   ONE LINE PER DEPTH STEP
~WELL INFORMATION BLOCK
#MNEM.UNIT           DATA                    DESCRIPTION OF MNEMONIC
#---------    -------------------            -------------------------------
# Generated from Intellog Unique Number	CW_76_78/WELL/3097
WELL.         04-30-078-23W4                 : Well_name    - WELL
LOC .         00/04-30-078-23W4/0            : Location     - LOCATION
UWI .         00/04-30-078-23W4/0            : Uwi          - UNIQUE WELL ID
ENTR.         MAX                            : Entered      - ENTERED BY
SRVC.         SCHLUMBERGER                   : Scn          - SERVICE COMPANY
DATE.         4 MAR 84                       : Date         - LOG DATE
STRT.M        270                            : top_depth    - START DEPTH
STOP.M        520                            : bot_depth    - STOP DEPTH
STEP.M        0.25                           : increment    - STEP LENGTH
 NULL. -999.2500:NULL Value
~CURVE INFORMATION BLOCK
#MNEM UNIT       ERCB CURVE CODE    CURVE DESCRIPTION
#-----------   ------------------   ----------------------------------
DEPT.M        00 001 00 00         : DEPTH        - DEPTH
GR  .API      00 310 00 00         : GR           - GAMMA RAY
ILD .OHMM     00 120 00 00         : RESD         - DEEP RESISTIVITY (DIL)
NPHI.V/V      00 330 00 00         : PHIN         - NEUTRON POROSITY (SANDSTONE)
DPHI.V/V      00 890 00 00         : PHID         - DENSITY POROSITY (SANDSTONE)
~PARAMETER INFORMATION
#MNEM.UNIT           DATA             DESCRIPTION OF MNEMONIC
#---------         -----------     ------------------------------
GL  .M        587.9                : gl           - GROUND LEVEL ELEVATION
EREF.M        591.6                : kb           - ELEVATION OF DEPTH REFERENCE
DATM.M        587.9                : datum        - DATUM ELEVATION
TDD .M        525                  : tdd          - TOTAL DEPTH DRILLER
RUN .         ONE                  : Run          - RUN NUMBER
MUD .         GEL CHEM             : Mud_type     - MUD TYPE
MATR.         SANDSTONE            : Logunit      - NEUTRON MATRIX
TMAX.C        11                   : BHT          - MAXIMUM RECORDED TEMPERATURE
BHTD.M        524                  : BHTDEP       - MAXIMUM RECORDED TEMPERATURE
RMT .C        11                   : MDTP         - TEMPERATURE OF MUD
MUDD.KG/M     1130                 : MWT          - MUD DENSITY
NEUT.         1                    : NEUTRON      - NEUTRON TYPE
RESI.         0                    : RESIST       - RESISTIVITY TYPE
RM  .OHMM     9                    : RM           - RESISTIVITY OF MUD
RMC .OHMM     13.8                 : RMC          - RESISTIVITY OF MUD CAKE
RMF .OHMM     13.8                 : RMF          - RESISTIVITY OF MUD FILTRATE
SUFT.C        4                    : SUFT         - SURFACE TEMPERATURE
~A  DEPTH       GR     RESD     PHIN     PHID
# ...
  444.000  100.036   17.451    0.367    0.133
  444.250  100.057   15.371    0.369    0.124
  444.500   95.202   14.048    0.360    0.110
  444.750   87.908   12.831    0.365    0.095
  445.000   79.394   12.160    0.357    0.047
  445.250   73.929   13.104    0.319    0.024
  445.500   76.395   14.374    0.271    0.035
  445.750   80.678   21.540    0.263    0.056
  446.000   89.850   27.364    0.280    0.065
  446.250   98.407   30.600    0.307    0.095
  446.500  100.257   30.619    0.315    0.108
  446.750  102.718   28.492    0.313    0.105
  447.000  107.012   26.512    0.318    0.106
  447.250  110.077   24.670    0.332    0.106
  447.500  108.879   22.971    0.339    0.111
  447.750  105.852   22.568    0.350    0.115
  448.000  103.436   20.619    0.358    0.122
  448.250  100.409   17.513    0.365    0.126
  448.500   97.382   15.996    0.353    0.124
  448.750   95.575   15.730    0.339    0.119
  449.000   94.992   16.952    0.326    0.116
  449.250   93.180   18.252    0.297    0.097
  449.500   86.495   20.397    0.282    0.075
  449.750   90.790   25.450    0.302    0.108
  450.000   96.304   25.961    0.319    0.120
  450.250   95.710   24.157    0.329    0.122
  450.500   93.903   23.310    0.337    0.120
  450.750   93.315   23.347    0.347    0.116
  451.000   89.679   23.369    0.357    0.114
  451.250   85.433   23.405    0.355    0.107
  451.500   83.631   23.002    0.348    0.094
  451.750   84.262   22.202    0.338    0.074
  452.000   86.728   22.237    0.327    0.056
  452.250   88.567   22.258    0.320    0.085
  452.500   95.295   21.888    0.345    0.123
  452.750   97.146   21.511    0.372    0.148
  453.000   82.536   20.017    0.380    0.155
  453.250   76.461   18.626    0.375    0.183
  453.500   69.172   18.311    0.351    0.195
  453.750   66.140   21.233    0.336    0.211
  454.000   62.504   30.664    0.339    0.223
  454.250   58.868   33.036    0.347    0.231
  454.500   53.402   39.004    0.350    0.242
  454.750   48.547   49.550    0.342    0.250
  455.000   43.697   72.903    0.335    0.259
  455.250   41.274   99.654    0.335    0.264
  455.500   38.248  133.749    0.340    0.270
  455.750   34.617  155.143    0.342    0.276
  456.000   34.029  158.208    0.345    0.281
  456.250   32.831  152.661    0.349    0.281
  456.500   31.634  144.726    0.346    0.281
  456.750   32.270  137.203    0.337    0.278
  457.000   32.281  137.289    0.336    0.274
  457.250   32.923  137.546    0.337    0.273
  457.500   32.945  137.675    0.337    0.272
  457.750   33.576  140.351    0.339    0.272
  458.000   33.603  143.168    0.344    0.272
  458.250   33.004  148.741    0.349    0.272
  458.500   32.416  154.435    0.342    0.270
  458.750   33.047  160.397    0.337    0.269
  459.000   34.288  160.597    0.335    0.268
  459.250   34.310  157.929    0.333    0.267
  459.500   34.332  152.344    0.328    0.265
  459.750   34.968  136.705    0.318    0.264
  460.000   34.990  127.168    0.311    0.264
  460.250   36.236  114.077    0.307    0.264
  460.500   36.857  100.477    0.312    0.263
  460.750   38.103   83.794    0.323    0.260
  461.000   39.954   72.442    0.334    0.259
  461.250   41.195   62.648    0.342    0.258
  461.500   42.436   52.229    0.337    0.254
  461.750   44.292   42.767    0.330    0.255
  462.000   47.361   38.352    0.325    0.256
  462.250   50.426   34.404    0.324    0.256
  462.500   54.715   30.312    0.332    0.254
  462.750   57.785   28.198    0.337    0.249
  463.000   63.299   26.230    0.338    0.242
  463.250   65.754   23.545    0.341    0.233
  463.500   70.048   22.307    0.344    0.222
  463.750   70.070   21.532    0.349    0.221
  464.000   67.653   21.167    0.353    0.226
  464.250   65.846   20.438    0.354    0.226
  464.500   68.306   20.080    0.340    0.220
  464.750   74.424   19.036    0.316    0.211
  465.000   81.152   17.392    0.303    0.194
  465.250   89.099   16.179    0.319    0.154
  465.500   92.169   14.791    0.335    0.140
  465.750   87.313   14.013    0.349    0.125
  466.000   75.757   13.522    0.346    0.133
  466.250   73.335   12.815    0.340    0.155
  466.500   67.875   12.831    0.347    0.161
  466.750   63.629   13.832    0.355    0.171
  467.000   59.987   15.173    0.362    0.229
  467.250   55.137   18.925    0.368    0.244
  467.500   52.715   26.348    0.368    0.250
  467.750   52.127   45.712    0.368    0.245
  468.000   55.202   55.984    0.364    0.240
  468.250   57.052   56.071    0.354    0.232
  468.500   60.737   52.159    0.351    0.225
  468.750   63.807   45.941    0.344    0.208
  469.000   66.872   34.315    0.319    0.164
  469.250   70.557   29.137    0.295    0.136
  469.500   74.841   24.741    0.298    0.104
  469.750   83.397   19.884    0.325    0.112
  470.000  103.543   17.191    0.334    0.145
  470.250  108.442   15.421    0.343    0.142
  470.500  115.169   13.340    0.353    0.141
  470.750  114.587   11.967    0.366    0.143
  471.000  112.170   11.338    0.371    0.143
  471.250  115.240   10.749    0.353    0.144
  471.500  113.432   10.759    0.340    0.147
  471.750  110.400   10.779    0.351    0.149
  472.000   97.625   10.597    0.370    0.149
  472.250   86.667   10.222    0.383    0.151
  472.500   83.641    9.342    0.390    0.153
  472.750   78.175    8.690    0.367    0.172
  473.000   73.320   10.453    0.356    0.186
  473.250   67.855   13.775    0.353    0.199
  473.500   67.272   19.177    0.346    0.203
  473.750   68.507   26.231    0.340    0.194
  474.000   70.358   24.852    0.337    0.181
  474.250   72.818   22.713    0.336    0.175
  474.500   75.278   22.322    0.333    0.176
  474.750   75.910   21.546    0.327    0.182
  475.000   72.894   20.803    0.331    0.165
  475.250   70.477   20.829    0.332    0.139
  475.500   68.055   22.433    0.332    0.122
  475.750   71.740   23.730    0.305    0.104
  476.000   75.414   21.287    0.272    0.085
  476.250   80.313   18.409    0.258    0.124
  476.500   85.211   16.220    0.311    0.135
  476.750   90.725   14.814    0.313    0.139
  477.000   91.351   12.579    0.323    0.135
  477.250   88.325   11.284    0.332    0.127
  477.500   84.084   10.122    0.338    0.119
  477.750   81.672    9.419    0.343    0.113
  478.000   79.245    9.431    0.344    0.145
  478.250   75.608    9.620    0.347    0.168
  478.500   79.898    9.807    0.349    0.194
  478.750   88.460   10.189    0.351    0.202
  479.000   94.578   10.017    0.371    0.228
  479.250  101.306    9.490    0.404    0.244
  479.500  107.424    9.160    0.454    0.261
  479.750  105.616    9.008    0.472    0.299
  480.000   95.884    8.698    0.483    0.315
  480.250   90.424    8.703    0.493    0.337
  480.500   88.001    8.556    0.514    0.370
  480.750   87.413    8.414    0.547    0.435
  481.000   92.922    8.121    0.572    0.385
  481.250  100.259    7.981    0.483    0.314
  481.500  106.388    7.294    0.485    0.264
  481.750  110.068    6.913    0.492    0.241
  482.000  113.132    6.550    0.498    0.229
  482.250  112.550    6.681    0.506    0.224
  482.500  108.298    7.067    0.495    0.205
  482.750  102.833    7.476    0.468    0.150
  483.000   97.368    7.762    0.454    0.094
  483.250   92.512    8.362    0.424    0.053
  483.500   88.266    9.521    0.384    0.170
  483.750   90.117    9.709    0.372    0.198
  484.000  105.990    9.548    0.408    0.203
  484.250  109.065    9.383    0.432    0.193
  484.500   96.278    8.575    0.444    0.173
  484.750   85.326    7.835    0.457    0.147
  485.000   82.909    7.423    0.461    0.167
  485.250   78.054    7.710    0.458    0.195
  485.500   72.589    8.937    0.443    0.219
  485.750   65.904   10.747    0.418    0.245
  486.000   68.980   22.392    0.377    0.267
  486.250   73.873   29.517    0.363    0.262
  486.500   77.552   29.017    0.360    0.250
  486.750   75.135   28.009    0.357    0.240
  487.000   72.109   29.628    0.360    0.252
  487.250   68.473   33.722    0.364    0.267
