~VERSION INFORMATION
 VERS.                 2.0:   CWLS LOG ASCII STANDARD -VERSION 2.0
 WRAP.                  NO:   ONE LINE PER DEPTH STEP
~WELL INFORMATION BLOCK
#MNEM.UNIT           DATA                    DESCRIPTION OF MNEMONIC
#---------    -------------------            -------------------------------
# Generated from Intellog Unique Number	CW_79_81/WELL/185
WELL.         01-27-079-23W4                 : Well_name    - WELL
LOC .         00/01-27-079-23W4/0            : Location     - LOCATION
UWI .         00/01-27-079-23W4/0            : Uwi          - UNIQUE WELL ID
ENTR.         MAX                            : Entered      - ENTERED BY
SRVC.         COMPUTALOG                     : Scn          - SERVICE COMPANY
STRT.M        225                            : top_depth    - START DEPTH
STOP.M        465                            : bot_depth    - STOP DEPTH
STEP.M        0.25                           : increment    - STEP LENGTH
 NULL. -999.2500:NULL Value
~CURVE INFORMATION BLOCK
#MNEM UNIT       ERCB CURVE CODE    CURVE DESCRIPTION
#-----------   ------------------   ----------------------------------
DEPT.M        00 001 00 00         : DEPTH        - DEPTH
GR  .API      00 310 00 00         : GR           - GAMMA RAY
ILD .OHMM     00 120 00 00         : RESD         - DEEP RESISTIVITY (DIL)
NPHI.V/V      00 330 00 00         : PHIN         - NEUTRON POROSITY (SANDSTONE)
DPHI.V/V      00 890 00 00         : PHID         - DENSITY POROSITY (SANDSTONE)
CALI.MM       00 280 01 00         : CAL          - CALIPER
~PARAMETER INFORMATION
#MNEM.UNIT           DATA             DESCRIPTION OF MNEMONIC
#---------         -----------     ------------------------------
GL  .M        563.6                : gl           - GROUND LEVEL ELEVATION
EREF.M        568.6                : kb           - ELEVATION OF DEPTH REFERENCE
DATM.M        563.6                : datum        - DATUM ELEVATION
TDD .M        580                  : tdd          - TOTAL DEPTH DRILLER
RUN .         ONE                  : Run          - RUN NUMBER
ENG .         BILL                 : Engineer     - RECORDING ENGINEER
WIT .         JIM                  : Witness      - WITNESSED BY
MUD .         GEL                  : Mud_type     - MUD TYPE
MATR.         SANDSTONE            : Logunit      - NEUTRON MATRIX
TMAX.C        28                   : BHT          - MAXIMUM RECORDED TEMPERATURE
BHTD.M        580                  : BHTDEP       - MAXIMUM RECORDED TEMPERATURE
RMT .C        15.6                 : MDTP         - TEMPERATURE OF MUD
MUDD.KG/M     1180                 : MWT          - MUD DENSITY
NEUT.         1                    : NEUTRON      - NEUTRON TYPE
RESI.         0                    : RESIST       - RESISTIVITY TYPE
RM  .OHMM     6.3                  : RM           - RESISTIVITY OF MUD
RMC .OHMM     4.7                  : RMC          - RESISTIVITY OF MUD CAKE
RMF .OHMM     7                    : RMF          - RESISTIVITY OF MUD FILTRATE
SUFT.C        -10                  : SUFT         - SURFACE TEMPERATURE
~A  DEPTH       GR     RESD     PHIN     PHID      CAL
# ...
  334.500   67.946   13.755    0.414    0.275  219.708
  334.750   71.835   13.007    0.418    0.267  220.674
  335.000   79.334   10.418    0.429    0.246  222.145
  335.250   81.417    9.495    0.431    0.220  223.616
  335.500   82.901    8.495    0.431    0.197  225.580
  335.750   84.385    8.183    0.432    0.197  226.558
  336.000   86.770    8.174    0.443    0.208  228.025
  336.250   88.858    8.023    0.436    0.217  228.498
  336.500   87.631    8.092    0.421    0.215  229.464
  336.750   87.013    8.314    0.428    0.211  229.431
  337.000   88.798    8.308    0.463    0.208  229.399
  337.250   91.782    8.227    0.476    0.208  228.862
  337.500   89.959    8.221    0.468    0.213  228.325
  337.750   84.228    8.293    0.457    0.225  226.785
  338.000   78.195    8.519    0.442    0.241  224.749
  338.250   70.658    8.753    0.434    0.254  223.722
  338.500   69.135    8.911    0.424    0.260  223.189
  338.750   72.723    8.823    0.423    0.259  223.149
  339.000   71.201    8.738    0.425    0.254  223.120
  339.250   72.379    8.732    0.420    0.248  223.084
  339.500   73.565    9.137    0.425    0.253  223.052
  339.750   72.641    9.563    0.433    0.260  223.020
  340.000   70.820    9.730    0.433    0.268  222.983
  340.250   68.093   10.002    0.428    0.274  223.452
  340.500   65.065   11.063    0.411    0.278  223.420
  340.750   64.747   11.902    0.406    0.277  223.384
  341.000   67.732   11.678    0.399    0.272  223.351
  341.250   72.523   10.740    0.401    0.260  223.323
  341.500   77.013   10.156    0.405    0.246  223.291
  341.750   80.301    9.693    0.409    0.242  223.259
  342.000   84.490    9.422    0.410    0.231  223.724
  342.250   85.371    9.330    0.411    0.235  225.688
  342.500   86.857    9.498    0.417    0.243  228.161
  342.750   88.641    9.940    0.416    0.266  230.141
  343.000   86.811   10.994    0.409    0.252  232.610
  343.250   83.790   13.584    0.404    0.217  233.079
  343.500   77.758   17.252    0.395    0.193  232.040
  343.750   72.923   22.116    0.366    0.162  228.500
  344.000   69.599   25.854    0.316    0.151  226.969
  344.250   60.558   29.671    0.240    0.067  226.933
  344.500   52.722   32.517    0.235    0.014  225.397
  344.750   53.004   35.634    0.260    0.055  224.860
  345.000   55.991   35.612    0.302    0.113  224.832
  345.250   61.684   31.572    0.314    0.137  227.301
  345.500   63.463   30.969    0.319    0.135  229.273
  345.750   63.446   31.823    0.326    0.127  229.738
  346.000   63.725   32.396    0.340    0.177  229.204
  346.250   66.113   28.985    0.385    0.194  228.170
  346.500   72.407   18.432    0.405    0.208  226.635
  346.750   78.098   16.955    0.425    0.241  225.596
  347.000   76.876   15.169    0.439    0.249  224.562
  347.250   75.053   13.698    0.439    0.258  224.534
  347.500   76.236   12.716    0.435    0.258  224.990
  347.750   78.617   12.247    0.424    0.255  225.455
  348.000   80.404   11.795    0.426    0.249  225.932
  348.250   81.284   11.467    0.441    0.240  225.904
  348.500   81.267   11.148    0.446    0.226  226.870
  348.750   81.243   10.838    0.441    0.219  227.836
  349.000   81.527   10.438    0.432    0.213  228.805
  349.250   83.908   10.054    0.427    0.213  230.280
  349.500   84.793    9.773    0.429    0.212  231.246
  349.750   83.571    9.500    0.432    0.209  232.212
  350.000   80.847    8.771    0.423    0.210  233.778
  350.250   82.037    8.692    0.422    0.212  234.292
  350.500   81.464    8.613    0.432    0.218  235.293
  350.750   79.128    8.613    0.441    0.216  235.320
  351.000   80.023    8.692    0.438    0.215  235.347
  351.250   80.625    8.692    0.422    0.209  235.861
  351.500   78.290    8.693    0.410    0.204  236.372
  351.750   78.894    8.693    0.418    0.206  237.869
  352.000   80.670    8.693    0.425    0.213  238.873
  352.250   80.979    8.614    0.424    0.214  239.387
  352.500   80.407    8.614    0.427    0.214  240.397
  352.750   79.248    8.536    0.438    0.208  240.908
  353.000   80.732    8.459    0.439    0.204  242.405
  353.250   80.157    8.382    0.435    0.201  242.916
  353.500   77.527    8.306    0.435    0.201  243.433
  353.750   77.835    8.231    0.441    0.210  242.967
  354.000   79.029    8.231    0.449    0.220  242.988
  354.250   79.628    8.538    0.444    0.230  243.015
  354.500   80.525    9.184    0.433    0.235  243.042
  354.750   78.189   10.436    0.444    0.238  242.577
  355.000   75.556   13.230    0.442    0.241  242.577
  355.250   73.810   15.450    0.437    0.244  242.144
  355.500   74.121   18.043    0.430    0.255  241.672
  355.750   73.839   18.714    0.422    0.270  241.203
  356.000   74.737   18.043    0.415    0.273  240.737
  356.250   77.986   16.621    0.416    0.251  240.761
  356.500   80.646   15.172    0.421    0.229  240.788
  356.750   79.190   13.353    0.416    0.189  240.812
  357.000   79.205   11.331    0.418    0.183  241.333
  357.250   80.983    9.703    0.430    0.199  241.841
  357.500   80.115    9.442    0.449    0.214  241.871
  357.750   74.545    9.528    0.450    0.221  241.895
  358.000   73.093    9.973    0.434    0.222  241.432
  358.250   73.106   11.128    0.419    0.225  240.960
  358.500   74.885   11.437    0.408    0.226  240.007
  358.750   78.428   11.542    0.406    0.224  240.031
  359.000   78.440   11.333    0.407    0.222  239.568
  359.250   77.279   11.027    0.415    0.225  239.596
  359.500   79.057   10.536    0.426    0.228  239.614
  359.750   82.017   10.346    0.420    0.224  240.128
  360.000   80.853   10.066    0.423    0.218  241.141
  360.250   79.104   10.067    0.434    0.212  241.159
  360.500   81.470   10.067    0.435    0.213  241.679
  360.750   82.367    9.885    0.431    0.218  241.697
  361.000   78.855    9.707    0.428    0.216  242.214
  361.250   78.282    9.445    0.427    0.211  242.241
  361.500   78.882    9.190    0.426    0.207  242.265
  361.750   79.779    9.107    0.426    0.206  242.286
  362.000   79.795    8.942    0.420    0.211  242.310
  362.250   79.811    8.861    0.416    0.217  242.340
  362.500   79.824    8.701    0.423    0.215  242.365
  362.750   80.132    8.622    0.439    0.208  242.392
  363.000   82.208    8.622    0.449    0.208  241.923
  363.250   83.103    8.781    0.467    0.214  240.967
  363.500   83.411    8.781    0.468    0.222  239.527
  363.750   80.192   10.932    0.451    0.229  237.592
  364.000   80.794   11.338    0.426    0.243  236.143
  364.250   81.692   12.650    0.422    0.257  234.694
  364.500   81.413   15.183    0.419    0.258  233.254
  364.750   78.782   18.558    0.413    0.250  232.298
  365.000   72.623   21.476    0.375    0.203  231.346
  365.250   62.936   22.685    0.309    0.055  230.384
  365.500   55.014   24.852    0.251    0.049  229.431
  365.750   48.267   26.735    0.236    0.088  228.968
  366.000   46.521   29.829    0.241    0.098  228.995
  366.250   48.593   31.508    0.248    0.082  229.022
  366.500   50.959   30.939    0.267    0.144  229.527
  366.750   53.030   29.291    0.303    0.165  230.047
  367.000   56.576   26.983    0.329    0.151  230.072
  367.250   53.946   25.314    0.351    0.134  230.096
  367.500   54.841   25.314    0.367    0.165  231.587
  367.750   61.027   23.533    0.395    0.219  233.081
  368.000   63.691   22.280    0.412    0.232  235.557
  368.250   65.761   21.093    0.418    0.247  237.541
  368.500   67.541   20.338    0.422    0.255  238.545
  368.750   68.142   19.610    0.427    0.261  239.549
  369.000   70.511   19.256    0.429    0.261  239.579
  369.250   72.878   19.610    0.429    0.250  239.603
  369.500   74.656   20.904    0.438    0.250  239.625
  369.750   74.668   22.694    0.437    0.261  239.162
  370.000   71.159   23.753    0.428    0.257  238.693
  370.250   70.881   24.863    0.426    0.245  238.720
  370.500   70.604   25.091    0.422    0.232  239.240
  370.750   70.320   25.322    0.414    0.215  239.748
