~VERSION INFORMATION
 VERS.                 2.0:   CWLS LOG ASCII STANDARD -VERSION 2.0
 WRAP.                  NO:   ONE LINE PER DEPTH STEP
~WELL INFORMATION BLOCK
#MNEM.UNIT           DATA                    DESCRIPTION OF MNEMONIC
#---------    -------------------            -------------------------------
# Generated from Intellog Unique Number	CS_69_70/WELL/906
NULL.         -999.25                        : NULL_VALUE
WELL.         HUSKY OIL OPERATION LTD.       : Well_name    - WELL              
LOC .         00/09-12-070-06W4/0            : Location     - LOCATION          
UWI .         00/09-12-070-06W4/0            : Uwi          - UNIQUE WELL ID    
ENTR.         SP                             : Entered      - ENTERED BY        
SRVC.         SCHLUMBERGER                   : Scn          - SERVICE COMPANY   
STRT.M        315                            : top_depth    - START DEPTH       
STOP.M        560                            : bot_depth    - STOP DEPTH        
STEP.M        0.25                           : increment    - STEP LENGTH       
~CURVE INFORMATION BLOCK
#MNEM UNIT       ERCB CURVE CODE    CURVE DESCRIPTION
#-----------   ------------------   ----------------------------------
DEPT.M        00 001 00 00         : DEPTH        - DEPTH                       
ILD .OHMM     00 120 00 00         : RESD         - DEEP RESISTIVITY (DIL)      
DPHI.V/V      00 890 00 00         : PHID         - DENSITY POROSITY (LIMESTONE)
NPHI.V/V      00 330 00 00         : PHIN         - NEUTRON POROSITY (LIMESTONE)
GR  .API      00 310 00 00         : GR           - GAMMA RAY                   
~PARAMETER INFORMATION       
#MNEM.UNIT           DATA             DESCRIPTION OF MNEMONIC
#---------         -----------     ------------------------------
GL  .M        675.2                : gl           - GROUND LEVEL ELEVATION      
EREF.M        678.8                : kb           - ELEVATION OF DEPTH REFERENCE
DATM.M        675.2                : datum        - DATUM ELEVATION             
TDD .M        567                  : tdd          - TOTAL DEPTH DRILLER         
RUN .         ONE                  : Run          - RUN NUMBER                  
ENG .         BILL                 : Engineer     - RECORDING ENGINEER          
WIT .         JIM                  : Witness      - WITNESSED BY                
MUD .         GEL                  : Mud_type     - MUD TYPE                    
MATR.         LIMESTONE            : Logunit      - NEUTRON MATRIX              
TMAX.C        25                   : BHT          - MAXIMUM RECORDED TEMPERATURE
BHTD.M        567                  : BHTDEP       - MAXIMUM RECORDED TEMPERATURE
MATR.         1                    : LOGUNIT      - NEUTRON MATRIX              
RMT .C        25                   : MDTP         - TEMPERATURE OF MUD          
NEUT.         1                    : NEUTRON      - NEUTRON TYPE                
RESI.         0                    : RESIST       - RESISTIVITY TYPE            
RMC .OHMM     0.25                 : RMC          - RESISTIVITY OF MUD CAKE     
RMF .OHMM     0.25                 : RMF          - RESISTIVITY OF MUD FILTRATE 
SUFT.C        15                   : SUFT         - SURFACE TEMPERATURE         
~A  DEPTH     RESD     PHID     PHIN       GR
# ...
  358.500    7.981    0.296    0.464   92.896
  358.750    8.290    0.289    0.434   91.090
  359.000    8.292    0.285    0.413   90.488
  359.250    8.452    0.287    0.400   87.477
  359.500    8.456    0.289    0.402   85.670
  359.750    8.460    0.297    0.419   86.273
  360.000    8.624    0.299    0.429   87.478
  360.250    8.790    0.285    0.429   90.491
  360.500    8.794    0.275    0.418   94.709
  360.750    8.636    0.271    0.409   95.915
  361.000    8.482    0.271    0.402   95.313
  361.250    8.175    0.269    0.402   94.109
  361.500    8.028    0.263    0.408   93.507
  361.750    7.883    0.268    0.412   93.508
  362.000    7.599    0.272    0.420   94.111
  362.250    7.602    0.268    0.439   96.521
  362.500    7.607    0.265    0.448  100.739
  362.750    7.753    0.262    0.451   95.920
  363.000    7.904    0.257    0.428   92.306
  363.250    8.056    0.249    0.418   86.885
  363.500    8.060    0.248    0.418   84.476
  363.750    8.063    0.257    0.423   91.104
  364.000    8.530    0.266    0.435   94.116
  364.250    9.368    0.270    0.454   91.707
  364.500   10.480    0.279    0.454   85.684
  364.750   11.507    0.209    0.451   79.058
  365.000   12.639    0.029    0.453   66.409
  365.250   12.881    0.022    0.235   53.156
  365.500   12.888    0.046    0.179   46.530
  365.750   12.654    0.094    0.211   56.170
  366.000   11.114    0.175    0.277   62.194
  366.250   10.132    0.269    0.308   58.581
  366.500    9.586    0.318    0.396   53.160
  366.750    9.069    0.335    0.397   51.353
  367.000    8.905    0.344    0.405   52.559
  367.250    8.586    0.340    0.413   53.764
  367.500    8.589    0.339    0.420   56.175
  367.750    8.593    0.343    0.424   57.380
  368.000    8.440    0.337    0.412   58.586
  368.250    8.445    0.334    0.417   60.996
  368.500    8.447    0.344    0.425   64.612
  368.750    8.296    0.349    0.415   65.817
  369.000    8.299    0.352    0.412   67.022
  369.250    8.305    0.355    0.411   65.818
  369.500    8.307    0.354    0.417   64.614
  369.750    8.313    0.351    0.407   64.012
  370.000    8.315    0.342    0.397   66.423
  370.250    8.320    0.333    0.392   71.845
  370.500    8.325    0.327    0.409   74.858
  370.750    8.327    0.335    0.425   79.076
  371.000    8.333    0.339    0.425   80.281
  371.250    8.336    0.335    0.405   74.860
  371.500    8.186    0.333    0.401   68.837
  371.750    8.191    0.332    0.398   65.825
  372.000    8.195    0.328    0.414   64.019
  372.250    8.199    0.317    0.417   68.237
  372.500    8.202    0.308    0.408   71.852
  372.750    8.360    0.298    0.405   73.057
  373.000    8.365    0.285    0.400   74.865
  373.250    8.526    0.278    0.408   77.276
  373.500    8.530    0.289    0.428   78.481
  373.750    8.534    0.301    0.435   79.686
  374.000    8.699    0.310    0.421   80.290
  374.250    8.703    0.323    0.413   80.290
  374.500    8.708    0.315    0.412   85.713
  374.750    8.712    0.300    0.417   88.725
  375.000    8.717    0.281    0.418   94.751
  375.250    8.720    0.265    0.428   95.956
  375.500    8.563    0.280    0.446   89.933
  375.750    8.254    0.286    0.469   81.500
  376.000    7.665    0.293    0.478   73.067
  376.250    7.119    0.304    0.475   68.248
  376.500    6.862    0.310    0.457   69.454
  376.750    6.739    0.314    0.435   71.261
  377.000    6.742    0.315    0.424   70.057
  377.250    6.746    0.301    0.436   69.456
  377.500    6.624    0.310    0.446   70.661
  377.750    6.628    0.315    0.458   70.662
  378.000    6.631    0.310    0.474   68.856
  378.250    6.513    0.308    0.476   67.049
  378.500    6.515    0.306    0.448   64.640
  378.750    6.518    0.308    0.452   68.255
  379.000    6.401    0.309    0.457   72.473
  379.250    6.404    0.310    0.454   75.486
  379.500    6.407    0.314    0.442   71.269
  379.750    6.410    0.315    0.442   67.656
  380.000    6.534    0.316    0.447   65.247
  380.250    6.536    0.316    0.451   66.452
  380.500    6.662    0.308    0.458   65.248
  380.750    7.049    0.305    0.465   61.032
  381.000    7.458    0.310    0.443   59.225
  381.250    7.745    0.320    0.424   56.817
  381.500    7.893    0.332    0.413   56.215
  381.750    8.046    0.343    0.404   55.011
  382.000    7.901    0.338    0.398   55.614
  382.250    7.905    0.337    0.391   56.819
  382.500    8.058    0.337    0.389   56.820
  382.750    8.214    0.332    0.404   54.411
  383.000    8.373    0.328    0.420   50.798
  383.250    8.533    0.324    0.434   50.196
  383.500    8.698    0.337    0.418   50.799
  383.750    8.702    0.338    0.408   53.209
  384.000    8.871    0.322    0.397   55.017
  384.250    8.874    0.311    0.417   56.222
  384.500    8.880    0.340    0.440   58.633
  384.750    8.883    0.354    0.457   57.429
  385.000    8.887    0.356    0.443   54.417
  385.250    8.892    0.356    0.441   54.418
  385.500    9.063    0.343    0.453   56.829
  385.750    9.068    0.335    0.458   56.830
  386.000    9.072    0.333    0.463   56.830
  386.250    9.075    0.337    0.466   57.433
  386.500    9.080    0.327    0.464   58.036
  386.750    8.753    0.320    0.465   58.640
  387.000    8.438    0.332    0.469   59.845
  387.250    7.983    0.334    0.450   60.448
  387.500    7.839    0.322    0.441   62.256
  387.750    7.417    0.321    0.441   66.474
  388.000    7.149    0.327    0.427   68.281
  388.250    7.020    0.321    0.435   65.873
  388.500    6.768    0.327    0.469   62.259
  388.750    6.524    0.329    0.475   61.055
  389.000    6.288    0.332    0.466   59.851
  389.250    6.061    0.337    0.460   63.466
  389.500    5.843    0.328    0.457   67.684
  389.750    5.738    0.317    0.464   74.311
  390.000    5.740    0.314    0.471   75.516
  390.250    5.851    0.316    0.476   70.095
  390.500    5.964    0.320    0.480   73.108
  390.750    6.078    0.310    0.467   74.314
  391.000    6.312    0.309    0.459   73.109
  391.250    6.679    0.320    0.457   68.291
  391.500    6.807    0.333    0.453   64.677
  391.750    7.068    0.334    0.447   62.871
  392.000    7.205    0.333    0.443   62.871
  392.250    6.945    0.333    0.441   62.872
  392.500    6.571    0.338    0.447   62.873
  392.750    6.217    0.340    0.464   62.874
  393.000    5.993    0.332    0.475   64.079
  393.250    5.996    0.323    0.459   65.887
  393.500    5.888    0.318    0.443   67.093
  393.750    5.891    0.315    0.421   70.708
  394.000    5.785    0.313    0.410   73.118
  394.250    5.787    0.313    0.412   68.300
  394.500    5.375    0.305    0.431   67.095
  394.750    5.181    0.305    0.461   65.289
  395.000    5.088    0.315    0.448   63.482
  395.250    5.090    0.324    0.436   67.097
  395.500    4.999    0.318    0.429   70.713
  395.750    5.001    0.306    0.437   72.520
  396.000    4.821    0.309    0.465   73.124
  396.250    4.394    0.316    0.473   73.125
  396.500    3.788    0.324    0.464   73.728
  396.750    3.453    0.329    0.460   76.138
  397.000    3.090    0.332    0.454   82.163
  397.250    2.765    0.316    0.471   87.585
  397.500    2.616    0.309    0.492   91.201
  397.750    2.569    0.304    0.524   96.020
  398.000    2.667    0.295    0.484   98.431
  398.250    3.040    0.293    0.470   96.624
  398.500    3.338    0.295    0.513   87.589
  398.750    3.666    0.300    0.576   79.156
  399.000    4.101    0.295    0.549   77.349
  399.250    4.588    0.307    0.528   76.748
  399.500    4.945    0.328    0.486   76.146
  399.750    5.331    0.310    0.476   74.339
  400.000    5.535    0.299    0.471   71.328
  400.250    5.642    0.298    0.452   69.522
  400.500    5.240    0.300    0.430   68.317
  400.750    4.957    0.307    0.426   71.330
  401.000    4.274    0.315    0.420   74.343
  401.250    3.969    0.310    0.413   74.946
  401.500    3.755    0.312    0.414   77.356
  401.750    3.827    0.318    0.443   82.176
