~VERSION INFORMATION
 VERS.                 2.0:   CWLS LOG ASCII STANDARD -VERSION 2.0
 WRAP.                  NO:   ONE LINE PER DEPTH STEP
~WELL INFORMATION BLOCK
#MNEM.UNIT           DATA                    DESCRIPTION OF MNEMONIC
#---------    -------------------            -------------------------------
# Generated from Intellog Unique Number	CC_84_87/WELL/1045
NULL.         -999.25                        : NULL_VALUE
WELL.         PARA ET AL GRANOR              : Location     - LOCATION          
UWI .         00/01-21-084-17W400            : Uwi          - UNIQUE WELL ID    
ENTR.         JHS                            : Entered      - ENTERED BY        
SRVC.         COMPUTALOG                     : Scn          - SERVICE COMPANY   
DATE.         17 FEB 82                      : Date         - LOG DATE
STRT.M        95                             : top_depth    - START DEPTH       
STOP.M        293                            : bot_depth    - STOP DEPTH        
STEP.M        0.3                            : increment    - STEP LENGTH       
~CURVE INFORMATION BLOCK
#MNEM UNIT       ERCB CURVE CODE    CURVE DESCRIPTION
#-----------   ------------------   ----------------------------------
DEPT.M        00 001 00 00         : DEPTH        - DEPTH                       
DPHI.V/V      00 890 00 00         : PHID         - DENSITY POROSITY (LIMESTONE)
NPHI.V/V      00 330 00 00         : PHIN         - NEUTRON POROSITY (LIMESTONE)
GR  .API      00 310 00 00         : GR           - GAMMA RAY                   
ILD .OHMM     00 120 00 00         : RESD         - DEEP RESISTIVITY (DIL)      
~PARAMETER INFORMATION       
#MNEM.UNIT           DATA             DESCRIPTION OF MNEMONIC
#---------         -----------     ------------------------------
GL  .M        520.21               : gl           - GROUND LEVEL ELEVATION      
EREF.M        523.81               : kb           - ELEVATION OF DEPTH REFERENCE
DATM.M        523.81               : datum        - DATUM ELEVATION             
TDD .M        293                  : tdd          - TOTAL DEPTH DRILLER         
RUN .         ONE                  : Run          - RUN NUMBER                  
ENG .         BILL                 : Engineer     - RECORDING ENGINEER          
WIT .         JIM                  : Witness      - WITNESSED BY                
MUD .         GEL                  : Mud_type     - MUD TYPE                    
MATR.         LIMESTONE            : Logunit      - NEUTRON MATRIX              
TMAX.C        22                   : BHT          - MAXIMUM RECORDED TEMPERATURE
BHTD.M        293                  : BHTDEP       - MAXIMUM RECORDED TEMPERATURE
MATR.         1                    : LOGUNIT      - NEUTRON MATRIX              
RMT .C        25                   : MDTP         - TEMPERATURE OF MUD          
NEUT.         1                    : NEUTRON      - NEUTRON TYPE                
RESI.         0                    : RESIST       - RESISTIVITY TYPE            
RMC .OHMM     0.25                 : RMC          - RESISTIVITY OF MUD CAKE     
RMF .OHMM     0.25                 : RMF          - RESISTIVITY OF MUD FILTRATE 
SUFT.C        15                   : SUFT         - SURFACE TEMPERATURE         
~A  DEPTH     PHID     PHIN       GR     RESD
# ...
  147.201    0.328    0.441   52.780   15.867
  147.501    0.332    0.465   52.199   15.867
  147.801    0.332    0.491   54.054   15.868
  148.101    0.332    0.437   54.079   15.868
  148.401    0.332    0.418   52.884   15.578
  148.701    0.333    0.447   54.743   15.578
  149.001    0.335    0.494   55.989   15.292
  149.301    0.341    0.485   54.793   14.737
  149.601    0.347    0.448   56.041   14.467
  149.901    0.345    0.418   58.510   14.202
  150.201    0.346    0.433   58.532   14.202
  150.501    0.343    0.490   57.339   14.203
  150.801    0.339    0.518   56.147   14.203
  151.101    0.343    0.503   56.790   14.203
  151.401    0.340    0.445   58.028   13.943
  151.701    0.328    0.419   59.273   13.944
  152.001    0.309    0.410   58.691   13.944
  152.301    0.304    0.409   58.106   13.688
  152.601    0.322    0.420   59.358   13.689
  152.901    0.341    0.400   59.988   13.689
  153.201    0.344    0.406   60.629   13.689
  153.501    0.334    0.429   62.483   13.690
  153.801    0.340    0.438   63.730   13.192
  154.101    0.340    0.412   63.144   12.951
  154.401    0.331    0.407   61.345   12.713
  154.701    0.318    0.407   63.199   12.480
  155.001    0.314    0.431   65.666   12.027
  155.301    0.307    0.437   67.521   11.807
  155.601    0.301    0.431   67.556   11.807
  155.901    0.301    0.406   66.354   12.028
  156.201    0.310    0.418   66.992   12.028
  156.501    0.318    0.429   67.625   12.254
  156.801    0.321    0.437   67.044   12.716
  157.101    0.322    0.447   69.508   12.954
  157.401    0.326    0.461   71.971   14.477
  157.701    0.319    0.427   71.389   16.481
  158.001    0.300    0.433   65.927   18.763
  158.301    0.294    0.426   58.636   20.207
  158.601    0.300    0.437   53.175   21.361
  158.901    0.311    0.432   43.446   21.362
  159.201    0.307    0.409   42.250   21.762
  159.501    0.303    0.370   44.108   21.763
  159.801    0.300    0.379   45.352   22.170
  160.101    0.295    0.478   45.379   22.171
  160.401    0.300    0.482   42.967   22.171
  160.701    0.316    0.446   40.558   20.974
  161.001    0.319    0.446   38.750   19.841
  161.301    0.319    0.405   39.387   18.769
  161.601    0.312    0.365   43.684   15.596
  161.901    0.288    0.338   47.977   14.217
  162.201    0.262    0.332   57.151   13.450
  162.501    0.247    0.426   60.835   13.203
  162.801    0.267    0.395   56.594   13.203
  163.101    0.285    0.376   52.965   14.219
  163.401    0.278    0.417   52.991   13.959
  163.701    0.280    0.447   56.676   10.379
  164.001    0.275    0.414   57.920    5.231
  164.301    0.253    0.345   64.044    3.818
  164.601    0.226    0.338   78.099    3.293
  164.901    0.221    0.426  106.783    3.173
  165.201    0.229    0.438  114.130    3.293
  165.501    0.246    0.393  115.986    3.546
  165.801    0.279    0.411  115.399    3.890
  166.101    0.294    0.411  115.428    4.037
  166.401    0.304    0.379  116.061    4.037
  166.701    0.307    0.387  115.483    4.113
  167.001    0.295    0.430  116.119    4.268
  167.301    0.273    0.435  117.975    4.268
  167.601    0.250    0.411  119.831    4.348
  167.901    0.249    0.397  120.463    4.348
  168.201    0.266    0.424  119.884    4.430
  168.501    0.307    0.450  117.468    4.513
  168.801    0.302    0.454  113.834    4.430
  169.101    0.291    0.452  114.471    4.430
  169.401    0.259    0.463  116.938    4.269
  169.701    0.254    0.399  118.794    4.191
  170.001    0.277    0.408  118.210    4.114
  170.301    0.303    0.424  113.361    4.114
  170.601    0.315    0.424  110.950    4.349
  170.901    0.328    0.432  107.923    5.044
  171.201    0.380    0.468  101.849    6.184
  171.501    0.360    0.503   95.783    7.040
  171.801    0.304    0.428   97.027    7.582
  172.101    0.241    0.425   98.886    7.868
  172.401    0.223    0.437  100.126    8.015
  172.701    0.228    0.384   98.328    8.165
  173.001    0.233    0.393   95.910    8.165
  173.301    0.230    0.457   94.722    8.166
  173.601    0.219    0.449   96.573    8.166
  173.901    0.219    0.403  100.870    8.319
  174.201    0.208    0.386   98.460    8.319
  174.501    0.203    0.400   99.701    8.319
  174.801    0.208    0.392   99.735    8.017
  175.101    0.217    0.365  102.812    7.726
  175.401    0.212    0.351  104.659    7.445
  175.701    0.204    0.365  107.124    7.445
  176.001    0.220    0.410  105.932    7.309
  176.301    0.308    0.423  102.302    7.446
  176.601    0.342    0.379   87.081    7.446
  176.901    0.382    0.400   84.667    7.446
  177.201    0.396    0.419   85.304    7.446
  177.501    0.385    0.424   88.381    7.727
  177.801    0.313    0.418   93.895    8.019
  178.101    0.239    0.406   89.043    8.322
  178.401    0.217    0.367   81.753    8.322
  178.701    0.195    0.372   80.562    7.728
  179.001    0.212    0.392   84.245    6.542
  179.301    0.251    0.391   86.709    6.189
  179.601    0.352    0.386   86.127    6.189
  179.901    0.396    0.497   89.816    6.422
  180.201    0.402    0.493   92.280    6.665
  180.501    0.252    0.469   90.478    6.917
  180.801    0.206    0.393   91.725    6.665
  181.101    0.224    0.366   92.968    5.143
  181.401    0.267    0.333   91.776    4.354
  181.701    0.298    0.395   93.629    3.969
  182.001    0.300    0.386   97.925    3.825
  182.301    0.265    0.411  100.395    4.043
  182.601    0.264    0.433   99.196    4.777
  182.901    0.254    0.428   90.687    6.077
  183.201    0.254    0.400   87.054    7.048
  183.501    0.245    0.397   87.689    7.314
  183.801    0.243    0.374   87.109    7.048
  184.101    0.245    0.364   87.743    6.191
  184.401    0.229    0.384   89.602    5.749
  184.701    0.214    0.385   90.846    5.644
  185.001    0.215    0.390   93.315    5.644
  185.301    0.222    0.379   95.167    5.541
  185.601    0.229    0.391   95.806    5.645
  185.901    0.238    0.387   95.220    5.858
  186.201    0.246    0.366   92.197    5.967
  186.501    0.235    0.378   91.613    6.193
  186.801    0.225    0.444   93.472    6.193
  187.101    0.205    0.452   97.154    6.193
  187.401    0.218    0.423  100.840    6.193
  187.701    0.260    0.433  101.481    5.968
  188.001    0.275    0.438  103.333    5.859
  188.301    0.270    0.403  102.143    5.859
  188.601    0.260    0.411   99.730    5.969
  188.901    0.255    0.451   96.707    6.194
  189.201    0.281    0.434   93.681    6.310
  189.501    0.293    0.399   92.496    6.428
  189.801    0.273    0.373   91.296    6.548
  190.101    0.253    0.376   85.833    6.923
  190.401    0.257    0.448   79.151    7.052
  190.701    0.286    0.444   69.422    6.796
  191.001    0.301    0.407   68.230    7.053
  191.301    0.280    0.418   71.912    7.053
  191.601    0.245    0.432   81.088    6.797
  191.901    0.257    0.456   89.040    6.797
  192.201    0.264    0.471   88.461    8.489
  192.501    0.255    0.474   85.437   10.028
  192.801    0.147    0.427   82.414   10.800
  193.101    0.130    0.305   80.615   10.800
  193.401    0.154    0.304   81.249   10.217
  193.701    0.216    0.343   84.321   10.217
  194.001    0.224    0.359   88.013   10.801
  194.301    0.229    0.403   87.426   12.526
  194.601    0.219    0.455   81.353   16.847
  194.901    0.144    0.329   72.840   22.242
  195.201    0.054    0.223   55.182   26.277
  195.501    0.051    0.272   42.404   28.827
  195.801    0.037    0.221   46.091   28.828
  196.101    0.009    0.173   52.212   20.277
  196.401    0.002    0.154   55.288   15.078
  196.701    0.015    0.148   60.193   12.763
  197.001    0.096    0.222   69.370   10.804
  197.301    0.163    0.335   82.199    9.668
  197.601    0.232    0.388   90.153    9.146
  197.901    0.230    0.413   90.181    9.146
  198.201    0.226    0.407   90.817    9.146
  198.501    0.212    0.396   94.504    8.979
  198.801    0.211    0.404   96.356    8.814
  199.101    0.206    0.424   93.945    8.494
