~VERSION INFORMATION
 VERS.                 2.0:   CWLS LOG ASCII STANDARD -VERSION 2.0
 WRAP.                  NO:   ONE LINE PER DEPTH STEP
~WELL INFORMATION BLOCK
#MNEM.UNIT           DATA                    DESCRIPTION OF MNEMONIC
#---------    -------------------            -------------------------------
# Generated from Intellog Unique Number	CW_70_72/WELL/1028
NULL.         -999.25                        : NULL_VALUE
WELL.         MANNVILLE ET AL PETER 09-34    : Well_name    - WELL              
LOC .         09-34-072-01W5                 : Location     - LOCATION          
UWI .         00/09-34-072-01W5/0            : Uwi          - UNIQUE WELL ID    
ENTR.         JAYE                           : Entered      - ENTERED BY        
SRVC.         WESTERN ATLAS                  : Scn          - SERVICE COMPANY   
DATE.         7 SEPT 80                      : Date         - LOG DATE          
STRT.M        440                            : top_depth    - START DEPTH       
STOP.M        695                            : bot_depth    - STOP DEPTH        
STEP.M        0.25                           : increment    - STEP LENGTH       
~CURVE INFORMATION BLOCK
#MNEM UNIT       ERCB CURVE CODE    CURVE DESCRIPTION
#-----------   ------------------   ----------------------------------
DEPT.M        00 001 00 00         : DEPTH        - DEPTH                       
DPHI.V/V      00 890 00 00         : PHID         - DENSITY POROSITY (SANDSTONE)
NPHI.V/V      00 330 00 00         : PHIN         - NEUTRON POROSITY (SANDSTONE)
GR  .API      00 310 00 00         : GR           - GAMMA RAY                   
CALI.MM       00 280 01 00         : CAL          - CALIPER                     
ILD .OHMM     00 120 00 00         : RESD         - DEEP RESISTIVITY (DIL)      
~PARAMETER INFORMATION       
#MNEM.UNIT           DATA             DESCRIPTION OF MNEMONIC
#---------         -----------     ------------------------------
GL  .M        651.1                : gl           - GROUND LEVEL ELEVATION      
EREF.M        654                  : kb           - ELEVATION OF DEPTH REFERENCE
DATM.M        651.1                : datum        - DATUM ELEVATION             
TDD .M        696                  : tdd          - TOTAL DEPTH DRILLER         
RUN .         ONE                  : Run          - RUN NUMBER                  
ENG .         IRELAND              : Engineer     - RECORDING ENGINEER          
WIT .         KELLY                : Witness      - WITNESSED BY                
BASE.         EDM                  : Branch       - HOME BASE OF LOGGING UNIT   
MUD .         GEL-CHEM             : Mud_type     - MUD TYPE                    
MATR.         SANDSTONE            : Logunit      - NEUTRON MATRIX              
TMAX.C        27.1                 : BHT          - MAXIMUM RECORDED TEMPERATURE
BHTD.M        697                  : BHTDEP       - MAXIMUM RECORDED TEMPERATURE
RMT .C        21.6                 : MDTP         - TEMPERATURE OF MUD          
MUDD.KG/M     1210                 : MWT          - MUD DENSITY                 
NEUT.         1                    : NEUTRON      - NEUTRON TYPE                
RESI.         0                    : RESIST       - RESISTIVITY TYPE            
RM  .OHMM     1.84                 : RM           - RESISTIVITY OF MUD          
RMC .OHMM     0                    : RMC          - RESISTIVITY OF MUD CAKE     
RMF .OHMM     1.47                 : RMF          - RESISTIVITY OF MUD FILTRATE 
SUFT.C        32                   : SUFT         - SURFACE TEMPERATURE         
~A  DEPTH     PHID     PHIN       GR      CAL     RESD
# ...
  476.500    0.216    0.534   97.564  189.369    4.009
  476.750    0.237    0.479   94.491  181.446    3.944
  477.000    0.242    0.452   88.797  175.377    3.881
  477.250    0.242    0.452   85.659  168.903    3.847
  477.500    0.254    0.458   88.374  163.153    3.778
  477.750    0.255    0.466   93.698  167.051    3.621
  478.000    0.258    0.491  101.824  166.801    3.443
  478.250    0.280    0.496   89.722  160.119    3.189
  478.500    0.301    0.450   78.679  156.866    3.010
  478.750    0.313    0.431   67.698  156.192    2.847
  479.000    0.322    0.424   68.546  156.871    2.770
  479.250    0.318    0.422   71.628  159.111    2.756
  479.500    0.298    0.418   77.949  160.524    2.859
  479.750    0.268    0.401   86.763  160.884    3.039
  480.000    0.243    0.426   89.039  160.114    3.230
  480.250    0.252    0.452   79.737  158.827    3.473
  480.500    0.278    0.433   72.054  157.855    3.727
  480.750    0.279    0.399   77.940  157.915    3.814
  481.000    0.261    0.402   78.536  158.589    3.868
  481.250    0.228    0.436   75.837  162.596    3.930
  481.500    0.200    0.470   73.318  167.216    4.084
  481.750    0.169    0.415   69.619  163.644    4.341
  482.000    0.145    0.312   68.597  159.351    4.676
  482.250    0.232    0.375   68.320  156.402    5.008
  482.500    0.280    0.407   64.061  154.798    5.146
  482.750    0.299    0.466   57.687  153.826    4.941
  483.000    0.310    0.453   52.932  152.741    4.349
  483.250    0.318    0.433   50.411  152.076    3.785
  483.500    0.308    0.412   47.898  151.830    3.415
  483.750    0.302    0.403   45.255  151.876    3.127
  484.000    0.301    0.429   44.357  152.146    3.003
  484.250    0.300    0.449   46.262  152.316    2.988
  484.500    0.299    0.428   49.159  152.380    3.088
  484.750    0.296    0.412   52.806  152.635    3.191
  485.000    0.294    0.419   53.464  152.702    3.260
  485.250    0.302    0.438   52.317  153.074    3.281
  485.500    0.302    0.452   52.294  153.744    3.302
  485.750    0.293    0.440   54.195  154.531    3.279
  486.000    0.289    0.425   57.529  157.184    3.257
  486.250    0.276    0.432   63.789  163.054    3.296
  486.500    0.261    0.457   66.501  168.712    3.355
  486.750    0.306    0.487   60.745  162.341    3.390
  487.000    0.331    0.484   53.498  157.004    3.298
  487.250    0.332    0.452   47.995  154.783    3.166
  487.500    0.333    0.442   46.725  154.320    3.040
  487.750    0.340    0.433   46.888  154.291    2.875
  488.000    0.323    0.426   47.918  154.338    2.791
  488.250    0.323    0.420   49.196  154.613    2.783
  488.500    0.330    0.409   52.219  154.767    2.790
  488.750    0.321    0.424   55.120  154.941    2.802
  489.000    0.308    0.433   57.766  155.198    2.842
  489.250    0.298    0.418   58.550  155.361    2.926
  489.500    0.295    0.433   60.517  155.733    3.052
  489.750    0.296    0.439   63.600  156.102    3.226
  490.000    0.291    0.420   65.502  156.587    3.359
  490.250    0.284    0.406   70.022  157.573    3.484
  490.500    0.268    0.419   76.092  160.122    3.586
  490.750    0.246    0.415   83.290  166.090    3.671
  491.000    0.231    0.434   89.422  175.379    3.702
  491.250    0.206    0.485   93.193  178.346    3.718
  491.500    0.214    0.500   90.489  172.905    3.707
  491.750    0.223    0.499   88.159  167.056    3.731
  492.000    0.230    0.484   87.449  163.795    3.769
  492.250    0.241    0.458   87.796  163.025    3.786
  492.500    0.248    0.434   88.517  163.600    3.739
  492.750    0.239    0.425   89.048  165.113    3.735
  493.000    0.230    0.444   89.394  168.400    3.845
  493.250    0.214    0.519   85.446  170.209    4.157
  493.500    0.300    0.602   70.544  172.345    4.589
  493.750    0.362    0.686   48.483  174.177    5.065
  494.000    0.704    0.759   35.447  175.792    5.591
  494.250    0.721    0.902   64.800  176.782    6.011
  494.500    0.338    0.535   76.287  177.147    6.235
  494.750    0.283    0.477   83.109  175.754    6.193
  495.000    0.262    0.432   87.936  174.876    4.961
  495.250    0.250    0.420   87.536  175.047    4.425
  495.500    0.255    0.434   86.889  177.173    4.154
  495.750    0.264    0.483   88.791  179.518    4.071
  496.000    0.278    0.522   90.631  178.749    4.013
  496.250    0.288    0.551   84.318  171.439    4.001
  496.500    0.297    0.470   73.027  161.749    4.020
  496.750    0.292    0.425   63.974  158.596    4.052
  497.000    0.283    0.412   64.445  157.309    4.102
  497.250    0.283    0.418   66.473  156.333    4.136
  497.500    0.285    0.431   68.189  156.179    4.250
  497.750    0.297    0.444   68.102  156.554    4.342
  498.000    0.308    0.448   65.956  157.026    4.386
  498.250    0.302    0.449   62.384  157.189    4.364
  498.500    0.307    0.446   62.790  157.247    4.222
  498.750    0.309    0.442   64.261  157.110    3.993
  499.000    0.304    0.436   65.852  157.052    3.726
  499.250    0.296    0.426   67.068  157.008    3.491
  499.500    0.297    0.416   67.289  156.970    3.371
  499.750    0.308    0.409   64.276  157.133    3.273
  500.000    0.315    0.405   64.439  157.191    3.184
  500.250    0.316    0.411   65.410  157.256    3.109
  500.500    0.310    0.423   66.126  157.306    3.099
  500.750    0.308    0.434   66.535  157.261    3.102
  501.000    0.309    0.437   65.701  157.122    3.128
  501.250    0.297    0.435   66.361  156.866    3.160
  501.500    0.301    0.431   67.514  156.607    3.198
  501.750    0.314    0.428   66.306  156.457    3.237
  502.000    0.329    0.424   63.661  156.207    3.251
  502.250    0.341    0.420   60.524  155.954    3.187
  502.500    0.351    0.418   59.878  155.716    3.048
  502.750    0.350    0.417   61.653  155.657    2.932
  503.000    0.338    0.419   62.934  155.616    2.907
  503.250    0.324    0.423   61.789  155.890    2.970
  503.500    0.316    0.440   61.580  156.046    3.134
  503.750    0.321    0.488   63.293  156.217    3.262
  504.000    0.323    0.495   66.062  156.690    3.441
  504.250    0.312    0.466   69.460  157.273    3.597
  504.500    0.291    0.464   73.543  157.943    3.738
  504.750    0.271    0.477   77.625  159.142    3.870
  505.000    0.214    0.443   75.608  159.933    3.969
  505.250    0.174    0.350   72.839  160.301    4.040
  505.500    0.187    0.349   73.872  160.458    4.035
  505.750    0.258    0.408   68.864  160.730    3.881
  506.000    0.290    0.462   62.491  160.684    3.636
  506.250    0.319    0.471   61.222  160.428    3.452
  506.500    0.324    0.470   62.748  160.176    3.289
  506.750    0.324    0.469   65.024  160.652    3.181
  507.000    0.313    0.451   67.735  162.474    3.142
  507.250    0.295    0.453   70.698  163.778    3.186
  507.500    0.272    0.452   75.339  164.670    3.298
  507.750    0.257    0.450   80.978  165.771    3.493
  508.000    0.237    0.441   81.882  167.175    3.692
  508.250    0.215    0.427   83.415  168.165    3.859
  508.500    0.207    0.408   86.497  168.854    4.002
  508.750    0.210    0.396   92.820  169.425    4.058
  509.000    0.203    0.418   96.280  169.802    4.054
  509.250    0.194    0.435   92.209  170.168    4.034
  509.500    0.189    0.450   90.065  170.121    4.068
  509.750    0.203    0.451   89.539  170.182    4.086
  510.000    0.217    0.444   91.069  170.145    4.066
  510.250    0.215    0.433   93.409  169.993    4.069
  510.500    0.205    0.421   93.566  169.950    4.103
  510.750    0.193    0.435   90.179  169.382    4.129
  511.000    0.182    0.452   90.219  168.512    4.063
  511.250    0.183    0.449   92.060  167.222    4.020
  511.500    0.179    0.433   93.958  165.310    3.925
  511.750    0.174    0.428   85.653  163.711    3.826
  512.000    0.192    0.451   67.454  162.831    3.687
  512.250    0.227    0.448   59.584  161.852    3.540
  512.500    0.251    0.420   54.515  160.876    3.424
  512.750    0.273    0.402   51.500  160.002    3.238
