~VERSION INFORMATION
 VERS.                 2.0:   CWLS LOG ASCII STANDARD -VERSION 2.0
 WRAP.                  NO:   ONE LINE PER DEPTH STEP
~WELL INFORMATION BLOCK
#MNEM.UNIT           DATA                    DESCRIPTION OF MNEMONIC
#---------    -------------------            -------------------------------
# Generated from Intellog Unique Number	CC_80_83/WELL/1184
NULL.         -999.25                        : NULL_VALUE
WELL.         CWWE KEANE                     : Well_name    - WELL
LOC .         07-15-080-14W4                 : Location     - LOCATION          
UWI .         00/07-15-080-14W4/0            : Uwi          - UNIQUE WELL ID    
ENTR.         DW                             : Entered      - ENTERED BY        
SRVC.         SCHLUMBERGER                   : Scn          - SERVICE COMPANY   
DATE.         23 DEC 84                      : Date         - LOG DATE
STRT.M        255                            : top_depth    - START DEPTH       
STOP.M        494.99                         : bot_depth    - STOP DEPTH        
STEP.M        0.3                            : increment    - STEP LENGTH       
~CURVE INFORMATION BLOCK
#MNEM UNIT       ERCB CURVE CODE    CURVE DESCRIPTION
#-----------   ------------------   ----------------------------------
DEPT.M        00 001 00 00         : DEPTH        - DEPTH                       
DPHI.V/V      00 890 00 00         : PHID         - DENSITY POROSITY (LIMESTONE)
NPHI.V/V      00 330 00 00         : PHIN         - NEUTRON POROSITY (LIMESTONE)
GR  .API      00 310 00 00         : GR           - GAMMA RAY                   
ILD .OHMM     00 120 00 00         : RESD         - DEEP RESISTIVITY (DIL)      
~PARAMETER INFORMATION       
#MNEM.UNIT           DATA             DESCRIPTION OF MNEMONIC
#---------         -----------     ------------------------------
GL  .M        674.75               : gl           - GROUND LEVEL ELEVATION      
EREF.M        678.8                : kb           - ELEVATION OF DEPTH REFERENCE
DATM.M        678.8                : datum        - DATUM ELEVATION             
TDD .M        504                  : tdd          - TOTAL DEPTH DRILLER         
RUN .         ONE                  : Run          - RUN NUMBER                  
ENG .         BILL                 : Engineer     - RECORDING ENGINEER          
WIT .         JIM                  : Witness      - WITNESSED BY                
MUD .         GEL                  : Mud_type     - MUD TYPE                    
MATR.         LIMESTONE            : Logunit      - NEUTRON MATRIX              
TMAX.C        20                   : BHT          - MAXIMUM RECORDED TEMPERATURE
BHTD.M        503                  : BHTDEP       - MAXIMUM RECORDED TEMPERATURE
MATR.         1                    : LOGUNIT      - NEUTRON MATRIX              
RMT .C        25                   : MDTP         - TEMPERATURE OF MUD          
NEUT.         1                    : NEUTRON      - NEUTRON TYPE                
RESI.         0                    : RESIST       - RESISTIVITY TYPE            
RMC .OHMM     0.25                 : RMC          - RESISTIVITY OF MUD CAKE     
RMF .OHMM     0.25                 : RMF          - RESISTIVITY OF MUD FILTRATE 
SUFT.C        15                   : SUFT         - SURFACE TEMPERATURE         
~A  DEPTH     PHID     PHIN       GR     RESD
  255.000    0.201    0.533   81.177    3.326
  255.300    0.133    0.536   74.974    3.325
  255.600    0.170    0.513   84.260    3.262
  255.900    0.224    0.464   93.547    3.261
  256.200    0.229    0.473   97.259    3.261
  256.500    0.220    0.522   91.674    3.323
  256.800    0.231    0.548   87.327    3.451
  257.100    0.241    0.510   87.940    3.585
  257.400    0.237    0.474   93.510    3.724
  257.700    0.231    0.494   90.405    3.867
  258.000    0.229    0.512   84.820    3.941
  258.300    0.229    0.515   83.574    3.866
  258.600    0.236    0.503   92.241    3.720
  258.900    0.241    0.527   89.754    3.580
  259.200    0.239    0.523   89.128    3.512
  259.500    0.220    0.532   92.218    3.445
  259.800    0.216    0.513   86.633    3.511
  260.100    0.223    0.486   87.245    3.717
  260.400    0.234    0.478   89.097    3.935
  260.700    0.240    0.499   91.567    4.166
  261.000    0.214    0.516   90.322    4.165
  261.300    0.216    0.527   89.694    4.085
  261.600    0.241    0.469   90.306    4.007
  261.900    0.230    0.493   89.059    3.856
  262.200    0.224    0.504   85.953    3.856
  262.500    0.236    0.480   85.326    4.005
  262.800    0.240    0.468   91.514    4.004
  263.100    0.199    0.487   87.790    4.159
  263.400    0.091    0.542   80.346    4.320
  263.700    0.109    0.507   72.283    5.328
  264.000    0.182    0.329   63.599    7.653
  264.300    0.299    0.361   62.973   10.995
  264.600    0.331    0.396   64.203   14.916
  264.900    0.318    0.406   67.295   16.096
  265.200    0.308    0.424   71.006   14.351
  265.500    0.300    0.429   72.237   13.043
  265.800    0.288    0.407   72.230   12.316
  266.100    0.210    0.394   79.039   10.570
  266.400    0.229    0.411   84.608    9.072
  266.700    0.278    0.424   73.447    8.090
  267.000    0.299    0.426   68.480    9.069
  267.300    0.316    0.425   68.474   11.618
  267.600    0.328    0.426   64.747   12.779
  267.900    0.309    0.429   64.740   13.274
  268.200    0.300    0.420   69.689   13.019
  268.500    0.304    0.405   72.161   12.772
  268.799    0.250    0.406   68.437   11.829
  269.099    0.007    0.445   60.373   11.605
  269.399    0.065    0.305   51.071   11.826
  269.699    0.196    0.322   49.203   13.007
  269.999    0.247    0.373   71.505   12.280
  270.299    0.241    0.393   65.920   11.161
  270.599    0.219    0.383   64.673    9.952
  270.899    0.234    0.396   83.256    8.542
  271.199    0.244    0.448   95.641    6.793
  271.499    0.257    0.489   98.113    5.005
  271.799    0.263    0.509   92.528    3.618
  272.099    0.241    0.522   85.085    3.617
  272.399    0.238    0.511   75.780    4.055
  272.699    0.268    0.423   69.578    5.001
  272.999    0.288    0.420   62.134    6.167
  273.299    0.292    0.408   70.180    7.182
  273.599    0.286    0.410   74.510    7.460
  273.899    0.281    0.397   71.406    8.050
  274.199    0.266    0.390   71.398    9.199
  274.499    0.180    0.382   75.109   11.129
  274.799    0.222    0.383   72.622   12.476
  275.099    0.257    0.394   74.475   12.715
  275.399    0.207    0.402   86.860   12.236
  275.699    0.223    0.403   91.191   10.911
  275.999    0.221    0.403   89.322    9.014
  276.299    0.214    0.427   88.697    8.192
  276.599    0.211    0.392   94.266    7.588
  276.899    0.216    0.404   95.499    7.444
  277.199    0.222    0.442   91.153    7.585
  277.499    0.243    0.438   88.667    8.504
  277.799    0.262    0.396   79.984    9.533
  278.099    0.258    0.396   77.497   10.686
  278.399    0.249    0.397   81.208   11.532
  278.699    0.264    0.376   79.341   11.529
  278.999    0.267    0.384   76.855   11.749
  279.299    0.279    0.374   74.988   11.973
  279.599    0.275    0.361   68.784   12.201
  279.899    0.286    0.371   65.678   12.673
  280.199    0.311    0.370   66.290   13.417
  280.499    0.328    0.386   68.142   14.205
  280.799    0.325    0.403   76.809   15.038
  281.099    0.295    0.411   81.140   15.618
  281.399    0.277    0.411   86.088   15.616
  281.699    0.296    0.400   84.843   15.613
  281.999    0.322    0.401   81.117   15.611
  282.299    0.320    0.397   82.969   15.606
  282.599    0.315    0.392   79.243   15.309
  282.899    0.311    0.403   79.855   15.017
  283.199    0.292    0.410   79.228   15.013
  283.499    0.268    0.391   77.362   15.010
  283.799    0.270    0.357   72.396   16.827
  284.099    0.314    0.346   33.969   17.478
  284.399    0.317    0.325   30.243   17.475
  284.699    0.246    0.331   55.023   16.499
  284.999    0.244    0.382   62.451   15.579
  285.299    0.268    0.390   59.963   14.993
  285.599    0.241    0.382   62.436   14.156
  285.899    0.259    0.394   58.709   13.113
  286.199    0.264    0.392   61.181   11.692
  286.499    0.113    0.401   76.666   10.627
  286.799    0.118    0.415   85.954    8.948
  287.099    0.159    0.429   89.664    8.133
  287.399    0.203    0.440  106.388    7.115
  287.699    0.163    0.456   98.943    6.344
  287.999    0.184    0.458  100.176    5.990
  288.299    0.188    0.447  100.787    5.655
  288.599    0.152    0.462   95.823    5.340
  288.899    0.184    0.471  103.869    5.042
  289.199    0.182    0.466  103.864    4.945
  289.499    0.098    0.449   95.800    5.236
  289.799    0.105    0.409   93.314    6.098
  290.099    0.173    0.404  101.362    6.333
  290.399    0.184    0.431  106.312    6.213
  290.699    0.192    0.480  107.543    5.435
  290.999    0.207    0.504  109.396    4.160
  291.299    0.227    0.515  112.486    3.781
  291.599    0.233    0.492  111.858    3.853
  291.899    0.238    0.440  106.895    4.662
  292.199    0.258    0.403   95.733    6.826
  292.499    0.269    0.406   93.866   10.187
  292.799    0.223    0.414   95.098   11.205
  293.099    0.203    0.426   96.947   11.639
  293.398    0.208    0.395   98.181   11.636
  293.698    0.239    0.379   88.259   11.198
  293.998    0.244    0.387   87.631   10.373
  294.298    0.188    0.394  105.593    9.427
  294.598    0.191    0.423  108.685    7.789
  294.898    0.203    0.430  108.058    7.495
  295.198    0.207    0.405  103.093    8.088
  295.498    0.242    0.392   97.509    9.420
  295.798    0.252    0.389   93.162   10.560
  296.098    0.253    0.398   92.535   11.180
  296.398    0.262    0.409   90.050   11.613
  296.698    0.265    0.410   78.268   11.834
  296.998    0.256    0.399   82.599   12.059
  297.298    0.258    0.402   91.886   12.289
  297.598    0.271    0.389   94.977   12.764
  297.898    0.281    0.373   90.630   12.761
  298.198    0.286    0.379   94.342   13.005
  298.498    0.262    0.395   95.574   13.002
  298.798    0.272    0.408   79.454   12.999
  299.098    0.281    0.434   64.575   12.511
  299.398    0.270    0.435   64.567   11.811
  299.698    0.280    0.414   70.136   11.367
  299.998    0.327    0.403   68.888   11.150
  300.298    0.330    0.413   69.502   10.730
  300.598    0.313    0.433   76.930   10.526
  300.898    0.263    0.424   84.978   10.524
  301.198    0.286    0.392   84.350   10.724
  301.498    0.286    0.427   86.203   10.722
  301.798    0.215    0.459   80.618   12.020
  302.098    0.106    0.358   69.457   13.221
  302.398    0.186    0.323   60.773   14.266
  302.698    0.231    0.372   70.061   14.262
  302.998    0.285    0.453   77.489   13.991
  303.298    0.287    0.454   82.439   12.960
  303.598    0.251    0.422   84.291   12.005
  303.898    0.247    0.434   76.847   11.776
  304.198    0.266    0.428   76.840   11.773
  304.498    0.250    0.427   76.832   11.999
  304.798    0.249    0.432   73.106   12.703
  305.098    0.254    0.443   73.718   13.194
  305.398    0.256    0.439   74.951   13.445
  305.698    0.266    0.427   73.083   13.188
  305.998    0.284    0.426   73.697   12.692
  306.298    0.284    0.422   77.406   12.214
  306.598    0.271    0.410   84.215   11.981
  306.898    0.266    0.422   89.165   10.683
