~VERSION INFORMATION
 VERS.                 2.0:   CWLS LOG ASCII STANDARD -VERSION 2.0
 WRAP.                  NO:   ONE LINE PER DEPTH STEP
~WELL INFORMATION BLOCK
#MNEM.UNIT           DATA                    DESCRIPTION OF MNEMONIC
#---------    -------------------            -------------------------------
# Generated from Intellog Unique Number	CS_69_70/WELL/620
NULL.         -999.25                        : NULL_VALUE
WELL.         MAYNARD ENERGY                 : Well_name    - WELL              
LOC .         00/03-20-070-15W4/0            : Location     - LOCATION          
UWI .         00/03-20-070-15W4/0            : Uwi          - UNIQUE WELL ID    
ENTR.         SP                             : Entered      - ENTERED BY        
SRVC.         SCHLUMBERGER                   : Scn          - SERVICE COMPANY   
STRT.M        270                            : top_depth    - START DEPTH       
STOP.M        489                            : bot_depth    - STOP DEPTH        
STEP.M        0.25                           : increment    - STEP LENGTH       
~CURVE INFORMATION BLOCK
#MNEM UNIT       ERCB CURVE CODE    CURVE DESCRIPTION
#-----------   ------------------   ----------------------------------
DEPT.M        00 001 00 00         : DEPTH        - DEPTH                       
ILD .OHMM     00 120 00 00         : RESD         - DEEP RESISTIVITY (DIL)      
DPHI.V/V      00 890 00 00         : PHID         - DENSITY POROSITY (LIMESTONE)
NPHI.V/V      00 330 00 00         : PHIN         - NEUTRON POROSITY (LIMESTONE)
GR  .API      00 310 00 00         : GR           - GAMMA RAY                   
~PARAMETER INFORMATION       
#MNEM.UNIT           DATA             DESCRIPTION OF MNEMONIC
#---------         -----------     ------------------------------
GL  .M        566.63               : gl           - GROUND LEVEL ELEVATION      
EREF.M        569.83               : kb           - ELEVATION OF DEPTH REFERENCE
DATM.M        566.63               : datum        - DATUM ELEVATION             
TDD .M        495                  : tdd          - TOTAL DEPTH DRILLER         
RUN .         ONE                  : Run          - RUN NUMBER                  
ENG .         BILL                 : Engineer     - RECORDING ENGINEER          
WIT .         JIM                  : Witness      - WITNESSED BY                
MUD .         GEL                  : Mud_type     - MUD TYPE                    
MATR.         LIMESTONE            : Logunit      - NEUTRON MATRIX              
TMAX.C        21                   : BHT          - MAXIMUM RECORDED TEMPERATURE
BHTD.M        495                  : BHTDEP       - MAXIMUM RECORDED TEMPERATURE
MATR.         1                    : LOGUNIT      - NEUTRON MATRIX              
RMT .C        25                   : MDTP         - TEMPERATURE OF MUD          
NEUT.         1                    : NEUTRON      - NEUTRON TYPE                
RESI.         0                    : RESIST       - RESISTIVITY TYPE            
RMC .OHMM     0.25                 : RMC          - RESISTIVITY OF MUD CAKE     
RMF .OHMM     0.25                 : RMF          - RESISTIVITY OF MUD FILTRATE 
SUFT.C        15                   : SUFT         - SURFACE TEMPERATURE         
~A  DEPTH     RESD     PHID     PHIN       GR
# ...
  357.000    3.738    0.290    0.471   86.284
  357.250    3.625    0.269    0.472   89.978
  357.500    3.512    0.259    0.469   93.068
  357.750    3.383    0.272    0.464   94.891
  358.000    3.262    0.284    0.461   96.232
  358.250    3.206    0.263    0.455   97.271
  358.500    3.198    0.238    0.442   96.983
  358.750    3.207    0.248    0.435   95.789
  359.000    3.280    0.262    0.430   93.512
  359.250    3.419    0.279    0.427   91.415
  359.500    3.525    0.280    0.425   90.580
  359.750    3.729    0.269    0.425   90.112
  360.000    3.867    0.258    0.426   90.426
  360.250    4.006    0.263    0.426   91.527
  360.500    4.120    0.279    0.425   91.543
  360.750    4.194    0.285    0.424   91.432
  361.000    4.325    0.276    0.423   91.142
  361.250    4.455    0.246    0.422   90.613
  361.500    4.553    0.227    0.420   90.204
  361.750    4.692    0.227    0.419   90.338
  362.000    4.774    0.225    0.419   90.958
  362.250    4.847    0.226    0.412   91.876
  362.500    4.864    0.230    0.408   93.762
  362.750    4.816    0.236    0.402   95.646
  363.000    4.727    0.263    0.401   96.740
  363.250    4.598    0.284    0.398  100.254
  363.500    4.477    0.284    0.392  101.293
  363.750    4.404    0.283    0.378  101.245
  364.000    4.429    0.221    0.362   95.347
  364.250    4.608    0.192    0.344   90.111
  364.500    5.185    0.162    0.319   85.899
  364.750    5.876    0.126    0.284   82.172
  365.000    6.762    0.103    0.255   76.153
  365.250    8.119    0.075    0.237   71.820
  365.500    9.711    0.059    0.222   67.368
  365.750   10.556    0.050    0.220   63.701
  366.000    8.924    0.185    0.241   61.482
  366.250    7.398    0.226    0.291   66.744
  366.500    5.783    0.262    0.383   71.951
  366.750    4.785    0.296    0.409   74.434
  367.000    4.063    0.312    0.413   77.645
  367.250    3.600    0.296    0.409   82.070
  367.500    3.544    0.296    0.410   82.923
  367.750    3.520    0.298    0.413   84.022
  368.000    3.610    0.296    0.418   84.276
  368.250    3.838    0.293    0.425   84.539
  368.500    4.001    0.297    0.432   84.605
  368.750    4.124    0.298    0.440   84.744
  369.000    4.165    0.291    0.449   85.117
  369.250    4.198    0.291    0.456   85.429
  369.500    4.093    0.292    0.451   85.569
  369.750    3.955    0.292    0.442   85.516
  370.000    3.696    0.291    0.434   85.051
  370.250    3.502    0.288    0.428   84.215
  370.500    3.462    0.285    0.421   82.540
  370.750    3.373    0.305    0.419   81.830
  371.000    3.333    0.318    0.418   81.661
  371.250    3.342    0.313    0.425   82.278
  371.500    3.497    0.304    0.427   84.100
  371.750    3.644    0.297    0.426   86.409
  372.000    3.766    0.292    0.421   87.932
  372.250    3.945    0.286    0.418   88.306
  372.500    4.206    0.282    0.414   87.353
  372.750    4.344    0.292    0.410   84.471
  373.000    4.434    0.282    0.408   82.792
  373.250    4.418    0.273    0.406   82.626
  373.500    4.378    0.276    0.405   84.394
  373.750    4.371    0.271    0.401   86.697
  374.000    4.534    0.257    0.400   90.636
  374.250    4.632    0.242    0.403   92.152
  374.500    4.779    0.230    0.409   94.581
  374.750    4.901    0.233    0.412   94.109
  375.000    5.016    0.234    0.415   93.280
  375.250    5.106    0.234    0.417   92.567
  375.500    5.163    0.240    0.414   91.316
  375.750    5.188    0.228    0.412   91.391
  376.000    5.196    0.217    0.409   92.189
  376.250    5.019    0.212    0.407   93.285
  376.500    4.978    0.220    0.408   95.110
  376.750    4.841    0.226    0.411   96.269
  377.000    4.687    0.225    0.411   97.613
  377.250    4.615    0.220    0.412   98.168
  377.500    4.681    0.220    0.410   99.029
  377.750    4.713    0.228    0.404  100.128
  378.000    4.763    0.225    0.402  101.464
  378.250    4.828    0.221    0.403  104.498
  378.500    4.878    0.214    0.405  105.534
  378.750    4.895    0.209    0.410  105.426
  379.000    4.903    0.204    0.414  104.232
  379.250    4.920    0.201    0.418  102.020
  379.500    4.945    0.201    0.419  101.243
  379.750    4.962    0.205    0.417   99.687
  380.000    4.970    0.213    0.411   97.648
  380.250    4.971    0.221    0.401   94.647
  380.500    4.955    0.223    0.396   92.907
  380.750    4.859    0.225    0.391   89.910
  381.000    4.794    0.215    0.386   88.233
  381.250    4.706    0.210    0.382   86.495
  381.500    4.674    0.225    0.380   85.360
  381.750    4.601    0.251    0.378   85.071
  382.000    4.537    0.265    0.379   86.111
  382.250    4.456    0.274    0.380   88.484
  382.500    4.400    0.263    0.382   88.851
  382.750    4.335    0.269    0.384   89.593
  383.000    4.255    0.276    0.385   89.239
  383.250    4.182    0.278    0.385   88.166
  383.500    4.118    0.270    0.386   87.457
  383.750    3.957    0.258    0.389   88.922
  384.000    3.762    0.253    0.397   90.320
  384.250    3.397    0.248    0.414   92.745
  384.500    3.000    0.245    0.433   96.984
  384.750    2.651    0.251    0.456  100.797
  385.000    2.343    0.256    0.480  104.794
  385.250    2.222    0.263    0.513  106.978
  385.500    2.109    0.274    0.537  107.174
  385.750    2.069    0.283    0.519  106.404
  386.000    1.997    0.293    0.495  105.692
  386.250    2.021    0.290    0.476  104.439
  386.500    2.168    0.263    0.463  102.888
  386.750    2.486    0.243    0.449  100.794
  387.000    2.689    0.231    0.438  100.376
  387.250    3.047    0.221    0.427   98.999
  387.500    3.316    0.209    0.418   96.841
  387.750    3.657    0.199    0.416   95.529
  388.000    3.877    0.192    0.416   95.239
  388.250    4.032    0.193    0.417   95.498
  388.500    4.146    0.203    0.417   95.569
  388.750    4.204    0.202    0.416   95.701
  389.000    4.204    0.214    0.412   95.904
  389.250    4.091    0.223    0.411   95.799
  389.500    4.075    0.226    0.407   95.564
  389.750    4.117    0.221    0.400   95.153
  390.000    4.353    0.234    0.386   94.084
  390.250    4.540    0.254    0.360   93.247
  390.500    5.117    0.251    0.333   90.847
  390.750    5.296    0.195    0.302   85.249
  391.000    5.403    0.102    0.285   81.219
  391.250    5.297    0.089    0.279   78.517
  391.500    4.762    0.138    0.290   80.765
  391.750    3.910    0.215    0.310   83.433
  392.000    3.545    0.235    0.326   84.713
  392.250    3.286    0.243    0.347   84.909
  392.500    3.051    0.236    0.363   84.076
  392.750    2.930    0.227    0.373   78.479
  393.000    2.825    0.230    0.379   71.190
  393.250    2.672    0.247    0.382   65.472
  393.500    2.567    0.252    0.382   63.856
  393.750    2.526    0.275    0.381   64.411
  394.000    2.527    0.292    0.379   64.667
  394.250    2.560    0.302    0.383   65.045
  394.500    2.601    0.293    0.391   64.632
  394.750    2.626    0.298    0.397   63.861
  395.000    2.676    0.308    0.403   63.882
  395.250    2.701    0.315    0.407   63.948
  395.500    2.701    0.325    0.396   64.326
  395.750    2.702    0.330    0.389   65.736
  396.000    2.710    0.333    0.385   68.882
  396.250    2.719    0.320    0.390   70.648
  396.500    2.736    0.308    0.399   71.805
  396.750    2.785    0.299    0.407   72.900
  397.000    2.859    0.294    0.403   74.543
  397.250    2.884    0.292    0.400   75.823
  397.500    2.876    0.293    0.399   76.920
  397.750    2.861    0.298    0.398   78.146
  398.000    2.910    0.306    0.395   78.643
  398.250    2.951    0.314    0.390   78.710
  398.500    3.017    0.313    0.389   77.819
  398.750    3.107    0.285    0.387   76.685
  399.000    3.237    0.263    0.380   75.195
  399.250    3.376    0.241    0.374   74.843
  399.500    3.490    0.229    0.372   76.183
  399.750    3.637    0.224    0.375   79.516
  400.000    3.775    0.224    0.387   83.996
  400.250    3.882    0.232    0.403   89.441
