~VERSION INFORMATION
 VERS.                 2.0:   CWLS LOG ASCII STANDARD -VERSION 2.0
 WRAP.                  NO:   ONE LINE PER DEPTH STEP
~WELL INFORMATION BLOCK
#MNEM.UNIT           DATA                    DESCRIPTION OF MNEMONIC
#---------    -------------------            -------------------------------
# Generated from Intellog Unique Number	CW_70_72/WELL/773
NULL.         -999.25                        : NULL_VALUE
WELL.         CANOXY SMITH 06-29             : Well_name    - WELL              
LOC .         06-29-071-01W5                 : Location     - LOCATION          
UWI .         00/06-29-071-01W5/0            : Uwi          - UNIQUE WELL ID    
ENTR.         JAYE                           : Entered      - ENTERED BY        
SRVC.         SCHLUMBERGER                   : Scn          - SERVICE COMPANY   
DATE.         31 DEC 76                      : Date         - LOG DATE          
STRT.M        387.096                        : top_depth    - START DEPTH       
STOP.M        646.096                        : bot_depth    - STOP DEPTH        
STEP.M        0.25                           : increment    - STEP LENGTH       
~CURVE INFORMATION BLOCK
#MNEM UNIT       ERCB CURVE CODE    CURVE DESCRIPTION
#-----------   ------------------   ----------------------------------
DEPT.M        00 001 00 00         : DEPTH        - DEPTH                       
DPHI.V/V      00 890 00 00         : PHID         - DENSITY POROSITY (SANDSTONE)
NPHI.V/V      00 330 00 00         : PHIN         - NEUTRON POROSITY (SANDSTONE)
GR  .API      00 310 00 00         : GR           - GAMMA RAY                   
CALI.MM       00 280 01 00         : CAL          - CALIPER                     
ILD .OHMM     00 120 00 00         : RESD         - DEEP RESISTIVITY (DIL)      
~PARAMETER INFORMATION       
#MNEM.UNIT           DATA             DESCRIPTION OF MNEMONIC
#---------         -----------     ------------------------------
GL  .M        585.826              : gl           - GROUND LEVEL ELEVATION      
EREF.M        588.874              : kb           - ELEVATION OF DEPTH REFERENCE
DATM.M        585.826              : datum        - DATUM ELEVATION             
TDD .M        660.806              : tdd          - TOTAL DEPTH DRILLER         
RUN .         ONE                  : Run          - RUN NUMBER                  
BASE.         EDM                  : Branch       - HOME BASE OF LOGGING UNIT   
MATR.         SANDSTONE            : Logunit      - NEUTRON MATRIX              
TMAX.C        27.2222              : BHT          - MAXIMUM RECORDED TEMPERATURE
BHTD.M        660.502              : BHTDEP       - MAXIMUM RECORDED TEMPERATURE
RMT .C        8.33333              : MDTP         - TEMPERATURE OF MUD          
MUDD.KG/M     0                    : MWT          - MUD DENSITY                 
NEUT.         1                    : NEUTRON      - NEUTRON TYPE                
RESI.         0                    : RESIST       - RESISTIVITY TYPE            
RM  .OHMM     4.28                 : RM           - RESISTIVITY OF MUD          
RMC .OHMM     0                    : RMC          - RESISTIVITY OF MUD CAKE     
RMF .OHMM     3.46                 : RMF          - RESISTIVITY OF MUD FILTRATE 
SUFT.C        -17.7778             : SUFT         - SURFACE TEMPERATURE         
~A  DEPTH     PHID     PHIN       GR      CAL     RESD
# ...
  496.596    0.259    0.425   74.954  164.243    2.061
  496.846    0.273    0.430   75.586  164.495    2.095
  497.096    0.277    0.434   75.307  164.634    2.122
  497.346    0.270    0.429   72.053  165.088    2.134
  497.596    0.258    0.420   68.010  166.157    2.154
  497.846    0.273    0.410   68.824  167.232    2.177
  498.096    0.266    0.411   72.554  167.377    2.222
  498.346    0.259    0.426   75.430  166.899    2.267
  498.596    0.261    0.417   77.215  166.220    2.296
  498.846    0.273    0.402   77.605  165.961    2.330
  499.096    0.265    0.407   77.325  165.793    2.373
  499.346    0.258    0.416   77.715  166.039    2.408
  499.596    0.253    0.431   78.407  166.085    2.466
  499.846    0.250    0.439   77.706  166.118    2.507
  500.096    0.258    0.438   77.179  165.751    2.568
  500.346    0.256    0.434   77.023  165.482    2.664
  500.596    0.243    0.428   78.261  165.417    2.774
  500.846    0.228    0.427   79.562  165.572    2.836
  501.096    0.216    0.440   79.891  165.709    2.815
  501.346    0.226    0.432   79.974  165.650    2.718
  501.596    0.222    0.411   80.181  165.376    2.638
  501.846    0.236    0.401   80.815  165.323    2.599
  502.096    0.248    0.420   81.264  165.154    2.561
  502.346    0.254    0.439   81.895  164.891    2.547
  502.596    0.244    0.443   83.016  164.314    2.542
  502.846    0.238    0.430   83.948  164.151    2.565
  503.096    0.221    0.414   85.247  163.979    2.584
  503.346    0.221    0.415   85.758  163.508    2.607
  503.596    0.260    0.432   86.207  163.032    2.617
  503.846    0.266    0.436   87.811  162.148    2.612
  504.096    0.256    0.434   85.648  163.528    2.597
  504.346    0.246    0.433   81.544  165.522    2.597
  504.596    0.252    0.440   81.627  166.694    2.582
  504.846    0.250    0.446   85.236  166.946    2.563
  505.096    0.245    0.447   88.418  166.984    2.548
  505.346    0.225    0.435   89.721  167.028    2.553
  505.596    0.248    0.410   89.136  166.656    2.571
  505.846    0.238    0.391   89.827  166.391    2.614
  506.096    0.231    0.402   90.523  166.121    2.672
  506.346    0.231    0.419   90.550  165.239    2.737
  506.596    0.226    0.428   89.719  164.973    2.930
  506.846    0.223    0.425   85.734  165.937    3.327
  507.096    0.209    0.414   81.873  168.551    3.806
  507.346    0.190    0.377   77.039  171.057    4.864
  507.596    0.173    0.332   73.540  170.796    8.288
  507.846    0.151    0.227   69.011  172.071   12.620
  508.096    0.085    0.220   62.717  174.061   19.358
  508.346    0.069    0.228   53.996  176.572   19.680
  508.596    0.058    0.200   53.169  170.443   15.255
  508.846    0.018    0.158   56.411  165.652   10.944
  509.096   -0.012    0.144   61.781  167.440    8.360
  509.346   -0.010    0.162   68.612  168.304    6.976
  509.596    0.059    0.196   73.614  166.392    5.378
  509.846    0.098    0.236   79.409  164.991    4.414
  510.096    0.105    0.284   82.166  164.113    3.773
  510.346    0.135    0.378   82.858  163.840    3.328
  510.596    0.215    0.404   82.578  163.684    2.909
  510.846    0.231    0.412   84.062  163.519    2.908
  511.096    0.216    0.420   85.303  163.768    3.074
  511.346    0.222    0.424   85.749  164.420    3.195
  511.596    0.221    0.430   84.135  165.899    3.272
  511.846    0.215    0.431   80.879  167.276    3.345
  512.096    0.204    0.419   81.333  167.116    3.375
  512.346    0.214    0.407   84.572  165.203    3.387
  512.596    0.211    0.391   88.606  164.226    3.393
  512.846    0.218    0.394   88.021  163.844    3.405
  513.096    0.233    0.408   84.827  163.372    3.405
  513.346    0.204    0.423   82.849  163.000    3.411
  513.596    0.213    0.441   82.992  162.120    3.423
  513.846    0.231    0.444   83.445  161.745    3.410
  514.096    0.206    0.429   83.836  161.276    3.372
  514.346    0.190    0.425   84.099  162.448    3.298
  514.596    0.173    0.428   84.001  164.554    3.279
  514.846    0.186    0.432   82.753  165.821    3.310
  515.096    0.203    0.423   82.956  166.583    3.383
  515.346    0.224    0.424   84.257  167.556    3.459
  515.596    0.210    0.427   85.678  168.723    3.575
  515.846    0.192    0.413   88.436  170.620    3.729
  516.096    0.178    0.393   91.618  173.226    3.862
  516.346    0.156    0.401   95.230  174.605    4.036
  516.596    0.164    0.433   98.228  173.312    4.157
  516.846    0.179    0.422  101.290  172.218    4.425
  517.096    0.174    0.402  103.805  176.373    4.685
  517.346    0.154    0.395  105.713  179.500    4.988
  517.596    0.138    0.391  106.586  179.854    5.194
  517.846    0.130    0.385  106.367  178.965    5.329
  518.096    0.140    0.373  102.321  176.848    5.212
  518.346    0.150    0.354   98.095  172.879    4.788
  518.596    0.142    0.327   98.121  172.515    4.254
  518.846    0.123    0.372   98.448  173.269    3.865
  519.096    0.139    0.401   97.013  173.105    3.524
  519.346    0.162    0.419   96.007  169.240    3.303
  519.596    0.179    0.429   97.064  168.465    3.219
  519.846    0.196    0.423   98.545  168.811    3.183
  520.096    0.191    0.430  100.453  169.880    3.182
  520.346    0.206    0.417  102.665  170.745    3.200
  520.596    0.215    0.400  104.935  171.408    3.277
  520.846    0.179    0.400  107.570  172.167    3.338
  521.096    0.155    0.418  106.684  172.512    3.418
  521.346    0.163    0.437  102.214  172.658    3.494
  521.596    0.179    0.436  100.296  173.217    3.566
  521.846    0.185    0.426  100.805  173.457    3.618
  522.096    0.180    0.421  101.680  173.500    3.665
  522.346    0.173    0.430  102.737  173.333    3.712
  522.596    0.160    0.434  102.946  172.973    3.753
  522.846    0.146    0.431  101.935  172.907    3.773
  523.096    0.123    0.430  100.624  172.743    3.794
  523.346    0.137    0.419   98.584  172.375    3.814
  523.596    0.159    0.412   94.416  171.900    3.842
  523.846    0.157    0.431   94.443  171.421    3.870
  524.096    0.146    0.425   95.013  170.743    3.899
  524.346    0.164    0.421   96.980  170.475    3.898
  524.596    0.187    0.411   99.314  170.620    3.948
  524.846    0.178    0.393  102.193  172.820    4.036
  525.096    0.165    0.386  105.738  177.285    4.119
  525.346    0.146    0.409  109.589  179.591    4.226
  525.596    0.139    0.432  114.350  179.839    4.384
  525.846    0.149    0.434  109.516  179.675    4.384
  526.096    0.143    0.433  102.617  179.304    3.852
  526.346    0.121    0.431   98.997  175.644    2.997
  526.596    0.136    0.423  100.360  172.394    2.683
  526.846    0.150    0.406  102.325  173.257    2.872
  527.096    0.165    0.398  104.476  175.359    3.173
  527.346    0.147    0.405  106.081  177.972    3.505
  527.596    0.145    0.405  105.680  179.654    3.943
  527.846    0.143    0.412  104.124  180.317    4.396
  528.096    0.131    0.412  103.115  179.844    4.715
  528.346    0.125    0.405  100.468  179.476    4.502
  528.596    0.142    0.372  100.071  179.620    4.174
  528.846    0.141    0.371  102.886  180.586    4.022
  529.096    0.170    0.383  106.619  181.854    3.977
  529.346    0.186    0.408  108.827  183.445    3.955
  529.596    0.160    0.433  110.187  184.613    3.969
  529.846    0.157    0.446  110.637  186.093    4.020
  530.096    0.157    0.438  110.660  187.267    4.148
  530.346    0.137    0.420  109.350  187.720    4.240
  530.596    0.140    0.409  106.943  187.349    4.399
  530.846    0.163    0.429  101.503  186.260    4.675
  531.096    0.174    0.445   98.612  184.449    5.032
  531.346    0.153    0.447   98.877  181.509    5.427
  531.596    0.164    0.442   99.753  179.800    5.842
  531.846    0.175    0.432  100.933  178.298    6.335
  532.096    0.151    0.417  102.595  177.312    6.806
  532.346    0.134    0.373   99.948  176.635    7.193
  532.596    0.117    0.383   91.591  176.164    7.353
  532.846    0.097    0.391   91.128  176.303    7.165
