~VERSION INFORMATION
 VERS.                 2.0:   CWLS LOG ASCII STANDARD -VERSION 2.0
 WRAP.                  NO:   ONE LINE PER DEPTH STEP
~WELL INFORMATION BLOCK
#MNEM.UNIT           DATA                    DESCRIPTION OF MNEMONIC
#---------    -------------------            -------------------------------
# Generated from Intellog Unique Number	CS_73_76/WELL/1034
WELL.         ALLIED ROXANNA MINERALS LT     : Well_name    - WELL
LOC .         00/06-08-075-16W4/0            : Location     - LOCATION
UWI .         00/06-08-075-16W4/0            : Uwi          - UNIQUE WELL ID
ENTR.         SP                             : Entered      - ENTERED BY
SRVC.         SCHLUMBERGER                   : Scn          - SERVICE COMPANY
STRT.M        323.088                        : top_depth    - START DEPTH
STOP.M        542.338                        : bot_depth    - STOP DEPTH
STEP.M        0.25                           : increment    - STEP LENGTH
 NULL. -999.2500:NULL Value
~CURVE INFORMATION BLOCK
#MNEM UNIT       ERCB CURVE CODE    CURVE DESCRIPTION
#-----------   ------------------   ----------------------------------
DEPT.M        00 001 00 00         : DEPTH        - DEPTH
GR  .API      00 310 00 00         : GR           - GAMMA RAY
DPHI.V/V      00 890 00 00         : PHID         - DENSITY POROSITY (SANDSTONE)
NPHI.V/V      00 330 00 00         : PHIN         - NEUTRON POROSITY (SANDSTONE)
ILD .OHMM     00 120 00 00         : RESD         - DEEP RESISTIVITY (DIL)
~PARAMETER INFORMATION
#MNEM.UNIT           DATA             DESCRIPTION OF MNEMONIC
#---------         -----------     ------------------------------
GL  .M        675.437              : gl           - GROUND LEVEL ELEVATION
EREF.M        678.485              : kb           - ELEVATION OF DEPTH REFERENCE
DATM.M        675.437              : datum        - DATUM ELEVATION
TDD .M        554.736              : tdd          - TOTAL DEPTH DRILLER
RUN .         ONE                  : Run          - RUN NUMBER
ENG .         BILL                 : Engineer     - RECORDING ENGINEER
WIT .         JIM                  : Witness      - WITNESSED BY
MUD .         GEL                  : Mud_type     - MUD TYPE
MATR.         SANDSTONE            : Logunit      - NEUTRON MATRIX
TMAX.C        22.7778              : BHT          - MAXIMUM RECORDED TEMPERATURE
BHTD.M        554.736              : BHTDEP       - MAXIMUM RECORDED TEMPERATURE
MATR.         1                    : LOGUNIT      - NEUTRON MATRIX
RMT .C        25                   : MDTP         - TEMPERATURE OF MUD
NEUT.         1                    : NEUTRON      - NEUTRON TYPE
RESI.         0                    : RESIST       - RESISTIVITY TYPE
RMC .OHMM     0.25                 : RMC          - RESISTIVITY OF MUD CAKE
RMF .OHMM     0.25                 : RMF          - RESISTIVITY OF MUD FILTRATE
SUFT.C        15                   : SUFT         - SURFACE TEMPERATURE
~A  DEPTH       GR     PHID     PHIN     RESD
# ...
  410.088   70.580    0.321    0.561    6.721
  410.338   72.612    0.315    0.560    6.842
  410.588   73.889    0.310    0.578    7.063
  410.838   72.944    0.308    0.563    7.247
  411.088   71.330    0.314    0.550    7.341
  411.338   68.910    0.317    0.543    7.320
  411.588   69.713    0.314    0.537    5.190
  411.838   71.756    0.304    0.538    4.342
  412.088   72.494    0.294    0.566    3.791
  412.338   72.770    0.278    0.563    3.603
  412.588   74.660    0.256    0.551    3.550
  412.838   77.667    0.230    0.529    3.608
  413.088   79.632    0.216    0.516    3.953
  413.338   81.573    0.220    0.516    4.316
  413.588   84.025    0.232    0.531    4.646
  413.838   87.075    0.237    0.543    4.741
  414.088   88.657    0.237    0.565    4.734
  414.338   90.056    0.240    0.596    4.614
  414.588   88.362    0.244    0.611    4.470
  414.838   86.092    0.242    0.588    4.250
  415.088   88.667    0.236    0.584    4.120
  415.338   91.093    0.237    0.601    3.984
  415.588   89.679    0.234    0.627    3.930
  415.838   89.356    0.229    0.617    3.929
  416.088   88.342    0.229    0.579    3.929
  416.338   89.360    0.247    0.586    3.924
  416.588   92.046    0.252    0.588    4.093
  416.838   93.998    0.267    0.588    4.668
  417.088   92.646    0.280    0.565    5.157
  417.338   82.004    0.301    0.526    5.825
  417.588   73.047    0.318    0.479    6.569
  417.838   66.896    0.328    0.467    7.312
  418.088   62.354    0.333    0.490    7.748
  418.338   65.509    0.321    0.517    7.658
  418.588   71.003    0.305    0.498    6.426
  418.838   75.620    0.296    0.487    5.350
  419.088   76.820    0.282    0.505    4.519
  419.338   80.524    0.272    0.483    3.859
  419.588   86.508    0.253    0.509    3.285
  419.838   91.605    0.243    0.558    2.848
  420.088   90.854    0.234    0.614    2.391
  420.338   90.709    0.234    0.650    2.144
  420.588   95.796    0.246    0.669    1.942
  420.838   99.666    0.251    0.674    1.841
  421.088   95.806    0.239    0.639    1.761
  421.338   92.753    0.238    0.669    1.770
  421.588   91.005    0.241    0.694    1.667
  421.838   94.565    0.228    0.712    1.756
  422.088   98.935    0.266    0.718    1.784
  422.338  105.308    0.277    0.688    2.135
  422.588  101.431    0.270    0.661    2.436
  422.838   97.084    0.283    0.616    3.023
  423.088   91.161    0.298    0.575    3.724
  423.338   84.531    0.308    0.600    4.301
  423.588   80.367    0.317    0.545    4.948
  423.838   76.722    0.311    0.510    5.413
  424.088   75.094    0.307    0.526    5.562
  424.338   71.898    0.312    0.530    5.531
  424.588   68.276    0.324    0.521    5.475
  424.838   65.132    0.329    0.516    5.431
  425.088   63.126    0.324    0.515    5.314
  425.338   67.931    0.311    0.503    5.238
  425.588   73.857    0.294    0.513    5.190
  425.838   79.010    0.269    0.539    5.152
  426.088   81.011    0.255    0.556    5.212
  426.338   78.225    0.246    0.565    5.532
  426.588   76.150    0.235    0.550    6.356
  426.838   68.032    0.212    0.488    6.948
  427.088   60.905    0.082    0.245    8.587
  427.338   53.006    0.014    0.173   14.355
  427.588   46.461   -0.001    0.149   20.234
  427.838   40.786    0.005    0.159   23.572
  428.088   41.740    0.012    0.173   26.816
  428.338   43.297    0.016    0.178   28.635
  428.588   44.874    0.023    0.179   27.721
  428.838   47.381    0.042    0.175   22.210
  429.088   51.332    0.064    0.172   17.763
  429.338   56.217    0.092    0.196   13.364
  429.588   61.525    0.127    0.313   10.007
  429.838   68.185    0.191    0.480    7.762
  430.088   71.145    0.223    0.536    6.424
  430.338   76.654    0.242    0.553    5.677
  430.588   80.140    0.260    0.543    5.198
  430.838   82.874    0.257    0.537    5.049
  431.088   82.744    0.257    0.526    5.047
  431.338   81.458    0.259    0.511    5.049
  431.588   78.224    0.248    0.502    5.042
  431.838   76.839    0.240    0.509    5.087
  432.088   76.101    0.228    0.532    5.049
  432.338   77.795    0.223    0.540    4.973
  432.588   79.659    0.220    0.532    4.966
  432.838   82.297    0.221    0.529    4.967
  433.088   84.300    0.233    0.540    5.098
  433.338   85.082    0.249    0.547    5.197
  433.588   82.666    0.263    0.546    5.278
  433.838   79.858    0.272    0.567    5.214
  434.088   77.505    0.278    0.588    5.176
  434.338   73.776    0.276    0.611    5.036
  434.588   75.429    0.267    0.603    4.904
  434.838   77.606    0.253    0.577    4.774
  435.088   78.532    0.244    0.571    4.637
  435.338   77.820    0.237    0.574    4.593
  435.588   77.915    0.260    0.567    4.563
  435.838   78.478    0.278    0.565    4.630
  436.088   78.922    0.290    0.547    4.817
  436.338   79.528    0.297    0.536    5.036
  436.588   74.903    0.300    0.581    5.478
  436.838   68.476    0.303    0.574    6.244
  437.088   64.015    0.297    0.536    7.245
  437.338   62.387    0.278    0.492    7.867
  437.588   59.457    0.259    0.444    8.452
  437.838   56.959    0.235    0.404    8.996
  438.088   54.294    0.224    0.333    7.891
  438.338   52.380    0.231    0.303    7.207
  438.588   52.927    0.244    0.322    6.260
  438.838   55.579    0.281    0.525    5.512
  439.088   58.267    0.306    0.556    5.067
  439.338   61.285    0.337    0.567    4.726
  439.588   63.039    0.345    0.576    4.518
  439.838   63.270    0.352    0.551    4.530
  440.088   61.866    0.340    0.512    4.532
  440.338   59.838    0.344    0.535    4.554
  440.588   58.475    0.343    0.549    4.606
  440.838   57.644    0.343    0.556    4.694
  441.088   59.988    0.346    0.541    4.703
  441.338   62.428    0.335    0.527    4.759
  441.588   64.286    0.330    0.514    4.839
  441.838   67.654    0.328    0.518    4.923
  442.088   69.641    0.330    0.542    4.977
  442.338   69.090    0.332    0.552    5.072
  442.588   68.482    0.336    0.528    5.155
  442.838   68.814    0.346    0.519    5.214
  443.088   71.216    0.341    0.539    5.256
  443.338   72.067    0.333    0.546    5.308
  443.588   73.160    0.325    0.550    5.197
  443.838   75.252    0.316    0.558    4.970
  444.088   76.133    0.312    0.570    4.445
  444.338   76.118    0.311    0.579    3.920
  444.588   74.302    0.303    0.554    3.505
  444.838   76.471    0.275    0.537    3.167
  445.088   79.103    0.256    0.549    3.107
  445.338   82.516    0.241    0.574    3.255
  445.588   85.608    0.241    0.608    3.360
  445.838   87.081    0.243    0.582    3.679
  446.088   85.576    0.244    0.507    3.792
  446.338   82.783    0.245    0.511    3.927
  446.588   84.214    0.233    0.532    3.936
  446.838   87.388    0.228    0.559    4.021
  447.088   88.294    0.237    0.572    4.019
  447.338   88.944    0.240    0.563    4.019
  447.588   84.737    0.239    0.549    4.018
  447.838   81.434    0.252    0.530    4.017
  448.088   83.566    0.261    0.530    4.016
  448.338   86.615    0.268    0.534    4.010
  448.588   87.576    0.263    0.538    4.140
  448.838   89.291    0.256    0.541    4.179
  449.088   91.857    0.255    0.571    4.465
  449.338   92.819    0.254    0.595    4.541
  449.588   90.801    0.257    0.615    4.643
  449.838   87.605    0.262    0.601    4.641
  450.088   87.059    0.263    0.576    4.618
  450.338   89.562    0.253    0.565    4.563
  450.588   92.207    0.248    0.553    4.523
  450.838   93.197    0.240    0.540    4.568
  451.088   90.979    0.236    0.548    4.707
  451.338   89.875    0.235    0.569    4.841
  451.588   89.648    0.237    0.577    4.871
  451.838   90.179    0.233    0.560    4.877
  452.088   90.185    0.224    0.566    4.748
  452.338   89.473    0.224    0.574    4.710
  452.588   88.935    0.239    0.572    4.769
  452.838   89.416    0.247    0.571    4.805
  453.088   91.877    0.250    0.569    4.945
  453.338   92.169    0.244    0.561    4.958
