~VERSION INFORMATION
 VERS.                 2.0:   CWLS LOG ASCII STANDARD -VERSION 2.0
 WRAP.                  NO:   ONE LINE PER DEPTH STEP
~WELL INFORMATION BLOCK
#MNEM.UNIT           DATA                    DESCRIPTION OF MNEMONIC
#---------    -------------------            -------------------------------
# Generated from Intellog Unique Number	CC_80_83/WELL/1172
NULL.         -999.25                        : NULL_VALUE
WELL.         HPCI PCEJ CHARD                : Well_name
LOC .         07-06-080-06W4                 : Location     - LOCATION          
UWI .         00/07-06-080-06W400            : Uwi          - UNIQUE WELL ID    
ENTR.         DW                             : Entered      - ENTERED BY        
SRVC.         SCHLUMBERGER                   : Scn          - SERVICE COMPANY   
DATE.         17 JAN 85                      : Date         - LOG DATE
STRT.M        120                            : top_depth    - START DEPTH       
STOP.M        359.997                        : bot_depth    - STOP DEPTH        
STEP.M        0.3                            : increment    - STEP LENGTH       
~CURVE INFORMATION BLOCK
#MNEM UNIT       ERCB CURVE CODE    CURVE DESCRIPTION
#-----------   ------------------   ----------------------------------
DEPT.M        00 001 00 00         : DEPTH        - DEPTH                       
DPHI.V/V      00 890 00 00         : PHID         - DENSITY POROSITY (LIMESTONE)
NPHI.V/V      00 330 00 00         : PHIN         - NEUTRON POROSITY (LIMESTONE)
GR  .API      00 310 00 00         : GR           - GAMMA RAY                   
ILD .OHMM     00 120 00 00         : RESD         - DEEP RESISTIVITY (DIL)      
~PARAMETER INFORMATION       
#MNEM.UNIT           DATA             DESCRIPTION OF MNEMONIC
#---------         -----------     ------------------------------
GL  .M        552                  : gl           - GROUND LEVEL ELEVATION      
EREF.M        555.25               : kb           - ELEVATION OF DEPTH REFERENCE
DATM.M        555.25               : datum        - DATUM ELEVATION             
TDD .M        380                  : tdd          - TOTAL DEPTH DRILLER         
RUN .         ONE                  : Run          - RUN NUMBER                  
ENG .         BILL                 : Engineer     - RECORDING ENGINEER          
WIT .         JIM                  : Witness      - WITNESSED BY                
MUD .         GEL                  : Mud_type     - MUD TYPE                    
MATR.         LIMESTONE            : Logunit      - NEUTRON MATRIX              
TMAX.C        20                   : BHT          - MAXIMUM RECORDED TEMPERATURE
BHTD.M        380                  : BHTDEP       - MAXIMUM RECORDED TEMPERATURE
MATR.         1                    : LOGUNIT      - NEUTRON MATRIX              
RMT .C        25                   : MDTP         - TEMPERATURE OF MUD          
NEUT.         1                    : NEUTRON      - NEUTRON TYPE                
RESI.         0                    : RESIST       - RESISTIVITY TYPE            
RMC .OHMM     0.25                 : RMC          - RESISTIVITY OF MUD CAKE     
RMF .OHMM     0.25                 : RMF          - RESISTIVITY OF MUD FILTRATE 
SUFT.C        15                   : SUFT         - SURFACE TEMPERATURE         
~A  DEPTH     PHID     PHIN       GR     RESD
# ...
  224.401    0.251    0.567  104.458    3.942
  224.701    0.245    0.550  107.553    3.655
  225.001    0.247    0.542  110.649    3.586
  225.301    0.289    0.535  111.275    3.587
  225.601    0.308    0.531  101.419    3.944
  225.901    0.289    0.534   97.113    4.680
  226.201    0.253    0.510   90.955    5.346
  226.501    0.263    0.511   89.734    5.879
  226.801    0.309    0.530   90.359    6.224
  227.101    0.276    0.510   91.605    6.466
  227.401    0.272    0.493   92.848    6.466
  227.701    0.256    0.496   91.625    6.717
  228.001    0.248    0.468   89.787    7.969
  228.301    0.254    0.424   89.799    8.437
  228.601    0.303    0.424   86.107    8.280
  228.901    0.328    0.444   85.505    7.531
  229.201    0.336    0.491   86.129    7.532
  229.501    0.335    0.513   86.757    7.824
  229.801    0.310    0.460   86.767    9.642
  230.101    0.305    0.460   84.312   10.807
  230.401    0.323    0.464   81.854   11.884
  230.701    0.314    0.473   83.098   12.114
  231.001    0.296    0.472   85.576   11.887
  231.301    0.299    0.456   80.653   11.665
  231.601    0.319    0.425   76.349   12.119
  231.901    0.311    0.444   75.127   12.352
  232.201    0.298    0.467   76.987   12.590
  232.501    0.291    0.456   77.612   12.592
  232.801    0.310    0.428   80.707   12.124
  233.101    0.303    0.427   84.418   11.897
  233.401    0.285    0.438   85.664   11.676
  233.701    0.276    0.428   85.674   11.457
  234.001    0.270    0.433   86.916   11.459
  234.301    0.252    0.438   83.844   11.460
  234.601    0.245    0.420   83.238   11.034
  234.901    0.264    0.430   91.884   10.229
  235.201    0.285    0.451   85.728   10.230
  235.501    0.276    0.462   81.422    9.484
  235.801    0.269    0.465   81.432    9.485
  236.101    0.259    0.452   85.758    9.667
  236.401    0.253    0.462   88.853    9.854
  236.701    0.253    0.460   90.717    9.855
  237.001    0.256    0.428   91.958    9.671
  237.301    0.261    0.444   91.972    9.137
  237.601    0.295    0.466   92.597    8.311
  237.901    0.333    0.483   96.307    7.851
  238.201    0.268    0.488   96.937    6.619
  238.501    0.246    0.488   95.097    5.907
  238.801    0.331    0.498   99.424    5.581
  239.101    0.291    0.532  104.984    5.174
  239.401    0.267    0.585  107.464    4.445
  239.701    0.290    0.575  109.323    3.748
  240.001    0.270    0.549  109.954    3.282
  240.301    0.289    0.539  108.730    3.221
  240.601    0.302    0.528  106.891    3.221
  240.901    0.336    0.569  103.201    3.346
  241.201    0.344    0.523   95.191    3.970
  241.501    0.334    0.500   84.722    6.028
  241.801    0.338    0.478   85.347    7.864
  242.101    0.322    0.479   90.908    8.814
  242.401    0.288    0.489   90.301    9.331
  242.701    0.130    0.484   81.061    9.333
  243.001    0.166    0.338   81.688    9.695
  243.301    0.213    0.361   89.717    9.882
  243.601    0.244    0.438   95.895    9.698
  243.901    0.250    0.487  102.689    9.162
  244.201    0.252    0.505  102.699    7.872
  244.501    0.252    0.520   94.077    7.297
  244.801    0.244    0.508  100.255    7.298
  245.101    0.237    0.485  111.367    7.162
  245.401    0.251    0.485  110.761    6.767
  245.701    0.236    0.510  105.220    6.515
  246.001    0.229    0.561  102.764    6.155
  246.301    0.296    0.550  112.645    5.390
  246.601    0.320    0.561  108.953    4.544
  246.901    0.303    0.584   98.481    3.484
  247.201    0.322    0.573   99.110    2.775
  247.501    0.294    0.563   98.502    2.524
  247.801    0.272    0.573   99.131    2.477
  248.101    0.250    0.536   98.522    2.622
  248.401    0.255    0.556   97.302    2.829
  248.701    0.279    0.525   98.544    3.053
  249.001    0.302    0.509   99.171    3.554
  249.301    0.294    0.511   97.334    3.908
  249.601    0.300    0.504   92.409    4.298
  249.901    0.276    0.493   83.786    4.638
  250.201    0.131    0.436   72.078    5.297
  250.501    0.097    0.302   70.238    6.528
  250.801    0.096    0.258   69.016    7.456
  251.101    0.051    0.249   62.861    9.727
  251.401    0.238    0.294   69.655   13.953
  251.701    0.299    0.413   78.915   16.872
  252.001    0.320    0.449   87.560   21.191
  252.301    0.283    0.444   90.039   20.404
  252.601    0.275    0.469   89.437   13.440
  252.901    0.282    0.507   88.827   10.704
  253.201    0.310    0.515   88.221    8.688
  253.501    0.306    0.486   89.467    8.208
  253.801    0.289    0.469   91.328    7.904
  254.101    0.283    0.459   91.954    7.756
  254.401    0.279    0.456   94.431    7.756
  254.701    0.272    0.456   98.144    7.757
  255.001    0.260    0.460  100.619    7.907
  255.301    0.238    0.465  101.865    8.059
  255.601    0.236    0.464  101.877    8.373
  255.901    0.250    0.439  100.036    9.034
  256.201    0.267    0.410   96.962    9.208
  256.501    0.263    0.417   96.356    9.036
  256.801    0.268    0.456   99.452    8.537
  257.101    0.262    0.507  100.695    7.619
  257.401    0.264    0.482  101.323    7.477
  257.701    0.265    0.467  101.950    7.064
  258.001    0.255    0.491  105.044    6.932
  258.301    0.247    0.480  108.757    6.802
  258.601    0.230    0.456  109.382    6.427
  258.901    0.229    0.445  101.375    6.307
  259.201    0.239    0.435   98.302    6.677
  259.501    0.291    0.440   95.846    7.204
  259.801    0.295    0.462   90.923    8.075
  260.101    0.287    0.473   87.234    8.388
  260.401    0.302    0.473   85.396    8.389
  260.701    0.311    0.460   90.338    8.233
  261.001    0.280    0.442   98.368    8.078
  261.301    0.261    0.507  100.845    7.632
  261.601    0.254    0.467  100.856    7.075
  261.901    0.249    0.460  103.334    5.965
  262.201    0.287    0.514  103.344    5.529
  262.501    0.284    0.524  100.888    5.126
  262.801    0.270    0.515  100.897    5.030
  263.101    0.259    0.496  107.077    5.225
  263.401    0.248    0.484  110.170    5.428
  263.701    0.250    0.513  105.248    5.429
  264.001    0.267    0.528   99.091    5.227
  264.301    0.300    0.519   89.853    5.033
  264.601    0.328    0.505   85.544    5.130
  264.901    0.323    0.491   80.621    5.329
  265.201    0.298    0.463   77.548    6.568
  265.501    0.292    0.456   81.261    8.407
  265.801    0.301    0.453   88.670    9.071
  266.101    0.262    0.454   90.534    9.246
  266.401    0.261    0.519   94.242    8.735
  266.701    0.285    0.559  101.038    6.327
  267.001    0.273    0.534  101.665    4.582
  267.301    0.283    0.509   89.341    4.168
  267.601    0.311    0.484   88.122    4.249
  267.901    0.308    0.483   88.746    4.946
  268.201    0.257    0.449   70.872    6.095
  268.501    0.077    0.410   71.499    7.951
  268.801    0.174    0.432   78.910    8.579
  269.101    0.313    0.444   85.704    8.745
  269.401    0.303    0.467   83.867    8.420
  269.701    0.292    0.501   88.810    7.806
  270.001    0.261    0.483   91.288    7.516
  270.301    0.247    0.478   83.898    6.967
  270.601    0.292    0.495   87.609    6.101
  270.901    0.318    0.534   93.787    5.343
  271.201    0.314    0.541   93.184    4.678
  271.501    0.291    0.561   91.959    4.175
  271.801    0.260    0.535   90.118    3.871
  272.101    0.323    0.510   88.279    4.021
  272.401    0.352    0.506   88.290    4.681
  272.701    0.320    0.505  100.020    5.246
  273.001    0.230    0.468  101.880    5.769
  273.301    0.238    0.453  100.040    5.993
  273.601    0.236    0.427   95.117    6.109
  273.901    0.232    0.439   94.510    6.467
  274.201    0.237    0.452  103.157    7.112
  274.501    0.228    0.445  104.402    7.821
  274.801    0.226    0.433  107.495    8.125
  275.101    0.249    0.427  103.188    7.676
  275.401    0.258    0.444   92.714    7.252
  275.701    0.252    0.465   86.559    5.999
  276.001    0.261    0.465   90.269    4.869
  276.301    0.325    0.537   92.747    4.028
