~VERSION INFORMATION
 VERS.                 2.0:   CWLS LOG ASCII STANDARD -VERSION 2.0
 WRAP.                  NO:   ONE LINE PER DEPTH STEP
~WELL INFORMATION BLOCK
#MNEM.UNIT           DATA                    DESCRIPTION OF MNEMONIC
#---------    -------------------            -------------------------------
# Generated from Intellog Unique Number	CS_67_68/WELL/2186
WELL.         GLOBEL ATMORE                  : Well_name    - WELL
LOC .         00/08-26-067-18W4/0            : Location     - LOCATION
UWI .         00/08-26-067-18W4/0            : Uwi          - UNIQUE WELL ID
ENTR.         JHS                            : Entered      - ENTERED BY
SRVC.         SCHLUMBERGER                   : Scn          - SERVICE COMPANY
STRT.M        350                            : top_depth    - START DEPTH
STOP.M        560                            : bot_depth    - STOP DEPTH
STEP.M        0.25                           : increment    - STEP LENGTH
 NULL. -999.2500:NULL Value
~CURVE INFORMATION BLOCK
#MNEM UNIT       ERCB CURVE CODE    CURVE DESCRIPTION
#-----------   ------------------   ----------------------------------
DEPT.M        00 001 00 00         : DEPTH        - DEPTH
DPHI.V/V      00 890 00 00         : PHID         - DENSITY POROSITY (LIMESTONE)
NPHI.V/V      00 330 00 00         : PHIN         - NEUTRON POROSITY (LIMESTONE)
CALI.MM       00 280 01 00         : CAL          - CALIPER
GR  .API      00 310 00 00         : GR           - GAMMA RAY
ILD .OHMM     00 120 00 00         : RESD         - DEEP RESISTIVITY (DIL)
~PARAMETER INFORMATION
#MNEM.UNIT           DATA             DESCRIPTION OF MNEMONIC
#---------         -----------     ------------------------------
GL  .M        583.7                : gl           - GROUND LEVEL ELEVATION
EREF.M        586.6                : kb           - ELEVATION OF DEPTH REFERENCE
DATM.M        586.6                : datum        - DATUM ELEVATION
TDD .M        575                  : tdd          - TOTAL DEPTH DRILLER
RUN .         ONE                  : Run          - RUN NUMBER
ENG .         BILL                 : Engineer     - RECORDING ENGINEER
WIT .         JIM                  : Witness      - WITNESSED BY
MUD .         GEL                  : Mud_type     - MUD TYPE
MATR.         LIMESTONE            : Logunit      - NEUTRON MATRIX
TMAX.C        19.4                 : BHT          - MAXIMUM RECORDED TEMPERATURE
BHTD.M        574                  : BHTDEP       - MAXIMUM RECORDED TEMPERATURE
MATR.         1                    : LOGUNIT      - NEUTRON MATRIX
RMT .C        25                   : MDTP         - TEMPERATURE OF MUD
NEUT.         1                    : NEUTRON      - NEUTRON TYPE
RESI.         0                    : RESIST       - RESISTIVITY TYPE
RMC .OHMM     0.25                 : RMC          - RESISTIVITY OF MUD CAKE
RMF .OHMM     0.25                 : RMF          - RESISTIVITY OF MUD FILTRATE
SUFT.C        15                   : SUFT         - SURFACE TEMPERATURE
~A  DEPTH     PHID     PHIN      CAL       GR     RESD
# ...
  459.500    0.048    0.194  160.278   55.980   17.237
  459.750    0.049    0.185  157.438   62.643   16.638
  460.000    0.091    0.214  155.717   77.918    7.317
  460.250    0.128    0.350  154.911   86.901    4.899
  460.500    0.162    0.394  154.309   93.320    4.371
  460.750    0.199    0.412  155.337   88.927    3.921
  461.000    0.226    0.408  155.651   81.667    3.771
  461.250    0.188    0.378  156.883   79.044    3.968
  461.500    0.163    0.350  158.011   76.668    4.238
  461.750    0.148    0.329  157.715   77.101    4.468
  462.000    0.129    0.319  155.386   77.412    4.854
  462.250    0.173    0.335  154.273   79.922    4.993
  462.500    0.199    0.354  153.161   84.752    4.651
  462.750    0.213    0.368  153.069   90.865    4.373
  463.000    0.210    0.390  153.894   93.497    4.089
  463.250    0.200    0.416  154.308   95.762    3.932
  463.500    0.193    0.425  154.928   98.638    3.903
  463.750    0.178    0.405  155.450   98.216    4.069
  464.000    0.167    0.388  155.762   95.474    4.186
  464.250    0.169    0.402  156.076   92.303    4.291
  464.500    0.186    0.404  155.678   92.675    4.349
  464.750    0.196    0.395  154.873   96.590    4.277
  465.000    0.186    0.394  154.475   98.854    4.128
  465.250    0.179    0.411  154.181  100.753    4.015
  465.500    0.184    0.419  153.883  101.003    3.934
  465.750    0.187    0.417  153.283   96.611    3.862
  466.000    0.195    0.409  152.985   97.899    3.813
  466.250    0.199    0.414  152.487   99.676    3.764
  466.500    0.196    0.416  152.189  101.269    3.779
  466.750    0.199    0.412  151.793   99.688    3.794
  467.000    0.208    0.407  151.291   95.539    3.889
  467.250    0.207    0.400  151.301   93.285    3.986
  467.500    0.195    0.396  151.922   92.558    4.148
  467.750    0.179    0.397  152.336   92.869    4.299
  468.000    0.173    0.396  153.771   91.897    4.440
  468.250    0.171    0.394  155.614   90.743    4.517
  468.500    0.173    0.387  156.130   89.953    4.552
  468.750    0.175    0.377  156.343   89.348    4.553
  469.000    0.176    0.390  156.761   91.126    4.461
  469.250    0.186    0.388  156.566   92.963    4.322
  469.500    0.192    0.409  156.068   96.450    4.172
  469.750    0.172    0.430  155.465   99.205    4.103
  470.000    0.174    0.423  154.966  100.125    4.105
  470.250    0.175    0.409  154.771  100.742    4.129
  470.500    0.165    0.403  155.287  100.320    4.138
  470.750    0.158    0.412  156.010  101.119    4.131
  471.000    0.155    0.407  156.733  102.590    4.125
  471.250    0.178    0.393  157.046  103.757    4.080
  471.500    0.186    0.396  157.157  104.556    4.058
  471.750    0.187    0.414  156.863  103.951    4.021
  472.000    0.188    0.436  157.481  102.002    3.984
  472.250    0.192    0.457  158.609  102.862    3.956
  472.500    0.205    0.434  160.451  105.678    3.869
  472.750    0.206    0.430  162.190  107.454    3.610
  473.000    0.186    0.436  159.248   98.665    3.227
  473.250    0.156    0.390  163.532   91.402    2.961
  473.500    0.182    0.410  168.225   99.836    2.742
  473.750    0.204    0.445  172.612  108.698    2.549
  474.000    0.220    0.489  175.064  112.245    2.406
  474.250    0.225    0.502  176.803  112.678    2.340
  474.500    0.233    0.499  178.340  112.502    2.327
  474.750    0.227    0.501  179.060  111.468    2.328
  475.000    0.220    0.523  180.496  110.435    2.342
  475.250    0.227    0.535  180.911  112.640    2.423
  475.500    0.218    0.507  181.632  115.455    2.535
  475.750    0.208    0.528  181.031  117.781    2.668
  476.000    0.226    0.551  177.276  115.405    2.834
  476.250    0.172    0.519  172.296  107.532    3.044
  476.500    0.138    0.444  165.586   99.658    3.239
  476.750    0.114    0.413  161.218   99.480    3.441
  477.000    0.132    0.412  159.191  107.120    3.586
  477.250    0.153    0.426  165.106  112.317    3.683
  477.500    0.170    0.432  170.512  114.949    3.705
  477.750    0.175    0.437  172.759  115.749    3.650
  478.000    0.190    0.447  174.396  114.654    3.471
  478.250    0.206    0.442  172.470  113.133    3.459
  478.500    0.193    0.413  164.745  111.428    3.552
  478.750    0.183    0.422  160.477  110.396    3.738
  479.000    0.182    0.433  156.823  109.363    3.904
  479.250    0.166    0.436  155.305  106.987    4.054
  479.500    0.148    0.424  154.092  100.335    4.194
  479.750    0.146    0.410  152.269   91.912    4.380
  480.000    0.172    0.396  149.429   85.382    4.626
  480.250    0.236    0.393  148.012   83.555    5.131
  480.500    0.249    0.408  151.075   82.951    5.809
  480.750    0.085    0.413  152.509   75.567    6.430
  481.000    0.037    0.315  150.177   69.891    6.907
  481.250    0.021    0.243  151.917   62.690    7.227
  481.500    0.040    0.279  154.166   77.537    7.491
  481.750    0.087    0.324  156.617   84.627    7.299
  482.000    0.098    0.334  158.460   88.541    6.451
  482.250    0.072    0.320  158.672   93.249    6.042
  482.500    0.104    0.338  158.682   96.614    5.681
  482.750    0.161    0.353  158.387   92.284    5.352
  483.000    0.165    0.359  157.072   94.427    5.070
  483.250    0.170    0.364  155.757   96.204    4.912
  483.500    0.166    0.376  156.276   95.904    4.732
  483.750    0.170    0.390  157.913   95.665    4.654
  484.000    0.176    0.406  158.329   96.037    4.655
  484.250    0.168    0.411  157.117   95.737    4.862
  484.500    0.151    0.425  155.802   95.498    5.011
  484.750    0.130    0.385  155.711   93.488    5.137
  485.000    0.103    0.348  156.840   92.516    5.119
  485.250    0.122    0.355  158.276   97.225    4.876
  485.500    0.166    0.374  159.199  102.055    4.663
  485.750    0.171    0.379  160.531  104.015    4.535
  486.000    0.178    0.376  160.947  100.845    4.469
  486.250    0.189    0.381  160.346   97.858    4.378
  486.500    0.197    0.387  158.727   98.291    4.306
  486.750    0.192    0.385  156.089   98.601    4.324
  487.000    0.190    0.389  153.757   99.034    4.415
  487.250    0.187    0.398  152.240  100.263    4.508
  487.500    0.170    0.407  151.740  101.794    4.613
  487.750    0.156    0.404  152.869  104.243    4.648
  488.000    0.161    0.411  154.710  105.470    4.641
  488.250    0.159    0.402  156.348  105.903    4.607
  488.500    0.146    0.384  157.376  104.198    4.557
  488.750    0.146    0.394  157.486  101.455    4.507
  489.000    0.185    0.424  155.866  100.178    4.492
  489.250    0.203    0.419  154.452   99.756    4.501
  489.500    0.214    0.404  154.460  100.861    4.545
  489.750    0.202    0.397  154.879  102.332    4.624
  490.000    0.194    0.384  155.701  103.437    4.730
  490.250    0.185    0.369  156.930  103.809    4.812
  490.500    0.167    0.375  158.263  102.227    4.895
  490.750    0.159    0.407  159.901   97.652    4.806
  491.000    0.129    0.431  160.419   90.573    4.459
  491.250    0.106    0.401  158.698   84.959    3.775
  491.500    0.098    0.354  156.569   90.583    3.201
  491.750    0.146    0.360  155.764   99.628    2.751
  492.000    0.192    0.394  156.690  102.748    2.529
  492.250    0.200    0.465  155.174  104.098    2.386
  492.500    0.207    0.498  152.230  104.653    2.312
  492.750    0.198    0.461  151.017  109.422    2.261
  493.000    0.188    0.471  152.145  110.650    2.300
  493.250    0.177    0.477  153.582  108.761    2.523
  493.500    0.188    0.474  154.200  107.179    2.787
  493.750    0.203    0.481  153.598  104.375    3.227
  494.000    0.213    0.471  152.184  100.044    3.606
  494.250    0.163    0.434  151.887   96.753    4.052
  494.500    0.149    0.413  152.201   94.497    4.493
  494.750    0.121    0.388  153.941   90.961    5.039
  495.000    0.084    0.364  155.579   91.210    5.505
  495.250    0.067    0.350  157.218   93.659    5.870
  495.500    0.080    0.371  158.244   95.008    6.096
  495.750    0.103    0.379  158.761  100.999    6.178
