~VERSION INFORMATION
 VERS.                 2.0:   CWLS LOG ASCII STANDARD -VERSION 2.0
 WRAP.                  NO:   ONE LINE PER DEPTH STEP
~WELL INFORMATION BLOCK
#MNEM.UNIT           DATA                    DESCRIPTION OF MNEMONIC
#---------    -------------------            -------------------------------
# Generated from Intellog Unique Number	CS_71_72/WELL/800
WELL.         BVX ET AL LYLE                 : Well_name    - WELL
LOC .         00/06-36-072-17W4/0            : Location     - LOCATION
UWI .         00/06-36-072-17W4/0            : Uwi          - UNIQUE WELL ID
ENTR.         SP                             : Entered      - ENTERED BY
SRVC.         SCHLUMBERGER                   : Scn          - SERVICE COMPANY
STRT.M        268.224                        : top_depth    - START DEPTH
STOP.M        461.224                        : bot_depth    - STOP DEPTH
STEP.M        0.25                           : increment    - STEP LENGTH
 NULL. -999.2500:NULL Value
~CURVE INFORMATION BLOCK
#MNEM UNIT       ERCB CURVE CODE    CURVE DESCRIPTION
#-----------   ------------------   ----------------------------------
DEPT.M        00 001 00 00         : DEPTH        - DEPTH
GR  .API      00 310 00 00         : GR           - GAMMA RAY
DPHI.V/V      00 890 00 00         : PHID         - DENSITY POROSITY (SANDSTONE)
NPHI.V/V      00 330 00 00         : PHIN         - NEUTRON POROSITY (SANDSTONE)
ILD .OHMM     00 120 00 00         : RESD         - DEEP RESISTIVITY (DIL)
~PARAMETER INFORMATION
#MNEM.UNIT           DATA             DESCRIPTION OF MNEMONIC
#---------         -----------     ------------------------------
GL  .M        592.836              : gl           - GROUND LEVEL ELEVATION
EREF.M        595.884              : kb           - ELEVATION OF DEPTH REFERENCE
DATM.M        592.836              : datum        - DATUM ELEVATION
TDD .M        463.296              : tdd          - TOTAL DEPTH DRILLER
RUN .         ONE                  : Run          - RUN NUMBER
ENG .         BILL                 : Engineer     - RECORDING ENGINEER
WIT .         JIM                  : Witness      - WITNESSED BY
MUD .         GEL                  : Mud_type     - MUD TYPE
MATR.         SANDSTONE            : Logunit      - NEUTRON MATRIX
TMAX.C        12.7778              : BHT          - MAXIMUM RECORDED TEMPERATURE
BHTD.M        463.296              : BHTDEP       - MAXIMUM RECORDED TEMPERATURE
MATR.         1                    : LOGUNIT      - NEUTRON MATRIX
RMT .C        25                   : MDTP         - TEMPERATURE OF MUD
NEUT.         1                    : NEUTRON      - NEUTRON TYPE
RESI.         0                    : RESIST       - RESISTIVITY TYPE
RMC .OHMM     0.25                 : RMC          - RESISTIVITY OF MUD CAKE
RMF .OHMM     0.25                 : RMF          - RESISTIVITY OF MUD FILTRATE
SUFT.C        15                   : SUFT         - SURFACE TEMPERATURE
~A  DEPTH       GR     PHID     PHIN     RESD
# ...
  355.224   71.577    0.333    0.454    6.868
  355.474   71.916    0.330    0.444    6.623
  355.724   74.694    0.339    0.433    6.223
  355.974   76.792    0.346    0.440    5.845
  356.224   76.956    0.351    0.449    5.722
  356.474   75.653    0.355    0.458    5.617
  356.724   76.692    0.356    0.473    5.449
  356.974   77.355    0.349    0.486    5.438
  357.224   76.915    0.343    0.504    5.333
  357.474   75.930    0.338    0.511    5.565
  357.724   74.865    0.332    0.506    5.776
  357.974   73.473    0.339    0.499    6.360
  358.224   72.056    0.347    0.445    7.548
  358.474   72.931    0.333    0.394    8.963
  358.724   70.920    0.317    0.281   10.947
  358.974   67.848    0.232    0.205   13.307
  359.224   65.594    0.191    0.157   15.530
  359.474   62.568    0.111    0.146   17.062
  359.724   61.859    0.044    0.146   16.176
  359.974   64.598    0.024    0.150   13.114
  360.224   67.006    0.025    0.173   10.734
  360.474   69.467    0.048    0.217    8.976
  360.724   71.730    0.113    0.366    7.782
  360.974   73.328    0.210    0.426    6.761
  361.224   75.052    0.284    0.442    6.188
  361.474   76.984    0.326    0.444    6.017
  361.724   76.787    0.334    0.454    6.027
  361.974   72.564    0.302    0.432    6.645
  362.224   68.442    0.264    0.391    7.366
  362.474   66.370    0.109    0.319    7.974
  362.724   64.109    0.084    0.231    8.548
  362.974   63.353    0.068    0.216    8.326
  363.224   66.846    0.083    0.222    6.853
  363.474   70.692    0.236    0.263    6.040
  363.724   74.988    0.299    0.439    5.572
  363.974   77.054    0.338    0.466    5.388
  364.224   78.071    0.334    0.466    5.224
  364.474   75.132    0.334    0.474    5.173
  364.724   73.609    0.335    0.482    5.133
  364.974   73.220    0.339    0.475    5.141
  365.224   73.403    0.356    0.462    5.035
  365.474   75.132    0.345    0.459    5.047
  365.724   76.083    0.342    0.462    5.048
  365.974   77.121    0.344    0.470    5.019
  366.224   77.459    0.357    0.475    4.963
  366.474   77.472    0.363    0.478    4.966
  366.724   77.411    0.356    0.470    4.969
  366.974   75.759    0.347    0.459    4.972
  367.224   75.711    0.331    0.457    4.972
  367.474   76.468    0.326    0.473    4.960
  367.724   77.995    0.324    0.477    4.886
  367.974   78.548    0.314    0.479    4.890
  368.224   77.565    0.314    0.490    4.885
  368.474   77.566    0.315    0.496    4.806
  368.724   78.478    0.309    0.479    4.819
  368.974   79.452    0.321    0.465    4.723
  369.224   80.853    0.336    0.458    4.727
  369.474   82.897    0.326    0.462    4.697
  369.724   84.210    0.307    0.472    4.734
  369.974   86.765    0.299    0.476    4.734
  370.224   89.299    0.294    0.475    4.734
  370.474   90.149    0.311    0.474    4.823
  370.724   90.559    0.310    0.476    4.821
  370.974   89.382    0.302    0.471    4.937
  371.224   86.899    0.308    0.464    5.244
  371.474   83.701    0.316    0.457    5.713
  371.724   81.123    0.317    0.432    6.074
  371.974   76.926    0.269    0.338    6.728
  372.224   74.591    0.225    0.293    7.816
  372.474   71.265    0.187    0.281    8.245
  372.724   70.946    0.164    0.290    8.187
  372.974   74.795    0.155    0.322    7.386
  373.224   80.168    0.210    0.415    6.650
  373.474   82.831    0.284    0.462    6.141
  373.724   83.829    0.313    0.472    5.807
  373.974   82.707    0.326    0.464    5.639
  374.224   83.541    0.334    0.466    5.592
  374.474   85.980    0.321    0.472    5.419
  374.724   87.290    0.312    0.466    5.335
  374.974   89.646    0.313    0.455    5.302
  375.224   91.190    0.325    0.454    5.251
  375.474   92.187    0.328    0.464    5.261
  375.724   92.345    0.325    0.465    5.149
  375.974   91.753    0.320    0.469    5.164
  376.224   90.139    0.328    0.466    5.075
  376.474   90.317    0.318    0.471    4.972
  376.724   94.043    0.324    0.468    4.990
  376.974   96.422    0.324    0.466    4.888
  377.224   97.910    0.319    0.473    4.886
  377.474   97.963    0.309    0.479    4.810
  377.724   96.117    0.300    0.479    4.775
  377.974   93.524    0.289    0.471    4.734
  378.224   92.633    0.295    0.460    4.743
  378.474   91.530    0.302    0.453    4.643
  378.724   92.558    0.304    0.465    4.654
  378.974   94.374    0.304    0.468    4.667
  379.224   95.684    0.305    0.462    4.567
  379.474   96.709    0.307    0.457    4.579
  379.724   97.430    0.312    0.456    4.634
  379.974   96.576    0.312    0.470    4.666
  380.224   96.203    0.316    0.480    4.668
  380.474   95.329    0.321    0.494    4.625
  380.724   93.675    0.311    0.489    4.582
  380.974   93.525    0.300    0.477    4.451
  381.224   98.044    0.294    0.470    4.049
  381.474  101.159    0.299    0.488    3.744
  381.724  104.572    0.286    0.508    3.321
  381.974  107.700    0.266    0.557    2.896
  382.224  112.992    0.255    0.595    2.710
  382.474  114.758    0.271    0.585    2.766
  382.724  118.077    0.242    0.555    2.999
  382.974  118.982    0.235    0.531    3.363
  383.224  115.422    0.250    0.513    3.766
  383.474  111.975    0.238    0.499    4.191
  383.724  109.044    0.237    0.487    4.757
  383.974  107.145    0.234    0.480    4.931
  384.224  105.253    0.245    0.471    4.982
  384.474  106.724    0.248    0.467    5.144
  384.724  108.599    0.231    0.457    5.311
  384.974  110.236    0.226    0.452    5.364
  385.224  111.788    0.229    0.453    5.544
  385.474  111.117    0.215    0.464    5.566
  385.724  107.858    0.210    0.476    5.571
  385.974  105.121    0.205    0.483    5.563
  386.224  105.737    0.219    0.483    5.690
  386.474  108.297    0.234    0.473    5.683
  386.724  110.077    0.232    0.466    5.683
  386.974  110.295    0.235    0.471    5.673
  387.224  109.887    0.246    0.483    5.591
  387.474  108.338    0.249    0.495    5.441
  387.724  109.871    0.232    0.502    5.285
  387.974  111.469    0.221    0.501    5.209
  388.224  111.787    0.229    0.492    5.107
  388.474  111.549    0.248    0.483    5.020
  388.724  111.356    0.250    0.477    4.936
  388.974  111.444    0.236    0.482    4.815
  389.224  110.484    0.225    0.472    4.760
  389.474  107.265    0.220    0.465    4.711
  389.724  104.247    0.218    0.462    4.667
  389.974  101.787    0.238    0.482    4.596
  390.224  100.090    0.264    0.499    4.599
  390.474   98.434    0.274    0.493    4.719
  390.724   96.137    0.249    0.479    5.096
  390.974   88.317    0.244    0.459    5.531
  391.224   74.422    0.215    0.419    5.741
  391.474   70.226    0.197    0.378    5.557
  391.724   73.533    0.210    0.387    5.525
  391.974   76.078    0.297    0.444    5.253
  392.224   76.081    0.303    0.463    5.110
  392.474   75.992    0.310    0.468    4.854
  392.724   75.013    0.320    0.472    4.716
  392.974   73.089    0.311    0.461    4.678
  393.224   71.135    0.323    0.445    4.547
  393.474   70.147    0.305    0.445    4.478
  393.724   71.209    0.317    0.460    4.433
  393.974   74.581    0.322    0.468    4.386
  394.224   74.953    0.324    0.456    4.318
  394.474   75.509    0.327    0.454    4.236
  394.724   74.434    0.329    0.475    4.164
  394.974   72.461    0.325    0.462    4.115
  395.224   71.694    0.330    0.451    4.094
  395.474   74.442    0.339    0.454    4.097
  395.724   75.452    0.341    0.464    4.018
  395.974   76.508    0.331    0.469    4.036
  396.224   76.403    0.339    0.477    4.170
  396.474   76.139    0.344    0.477    4.342
  396.724   75.199    0.340    0.454    4.528
  396.974   76.265    0.314    0.436    4.946
  397.224   77.162    0.267    0.411    5.612
  397.474   75.059    0.234    0.384    6.651
  397.724   71.091    0.163    0.320    7.319
  397.974   69.202    0.121    0.284    8.070
  398.224   69.903    0.112    0.272    9.037
  398.474   71.572    0.154    0.271    8.305
