~VERSION INFORMATION
 VERS.                 2.0:   CWLS LOG ASCII STANDARD -VERSION 2.0
 WRAP.                  NO:   ONE LINE PER DEPTH STEP
~WELL INFORMATION BLOCK
#MNEM.UNIT           DATA                    DESCRIPTION OF MNEMONIC
#---------    -------------------            -------------------------------
# Generated from Intellog Unique Number	CS_67_68/WELL/2178
WELL.         07-25-067-05W4                 : Well_name    - WELL
LOC .         00/07-25-067-05W4/0            : Location     - LOCATION
UWI .         00/07-25-067-05W4/0            : Uwi          - UNIQUE WELL ID
ENTR.         SP                             : Entered      - ENTERED BY
SRVC.         SCHLUMBERGER                   : Scn          - SERVICE COMPANY
STRT.M        330                            : top_depth    - START DEPTH
STOP.M        560                            : bot_depth    - STOP DEPTH
STEP.M        0.25                           : increment    - STEP LENGTH
 NULL. -999.2500:NULL Value
~CURVE INFORMATION BLOCK
#MNEM UNIT       ERCB CURVE CODE    CURVE DESCRIPTION
#-----------   ------------------   ----------------------------------
DEPT.M        00 001 00 00         : DEPTH        - DEPTH
ILD .OHMM     00 120 00 00         : RESD         - DEEP RESISTIVITY (DIL)
DPHI.V/V      00 890 00 00         : PHID         - DENSITY POROSITY (LIMESTONE)
NPHI.V/V      00 330 00 00         : PHIN         - NEUTRON POROSITY (LIMESTONE)
GR  .API      00 310 00 00         : GR           - GAMMA RAY
CALI.MM       00 280 01 00         : CAL          - CALIPER
~PARAMETER INFORMATION
#MNEM.UNIT           DATA             DESCRIPTION OF MNEMONIC
#---------         -----------     ------------------------------
GL  .M        673.74               : gl           - GROUND LEVEL ELEVATION
EREF.M        677.64               : kb           - ELEVATION OF DEPTH REFERENCE
DATM.M        677.64               : datum        - DATUM ELEVATION
TDD .M        566                  : tdd          - TOTAL DEPTH DRILLER
RUN .         ONE                  : Run          - RUN NUMBER
ENG .         BILL                 : Engineer     - RECORDING ENGINEER
WIT .         JIM                  : Witness      - WITNESSED BY
MUD .         GEL                  : Mud_type     - MUD TYPE
MATR.         LIMESTONE            : Logunit      - NEUTRON MATRIX
TMAX.C        18.8                 : BHT          - MAXIMUM RECORDED TEMPERATURE
BHTD.M        566                  : BHTDEP       - MAXIMUM RECORDED TEMPERATURE
MATR.         1                    : LOGUNIT      - NEUTRON MATRIX
RMT .C        25                   : MDTP         - TEMPERATURE OF MUD
NEUT.         1                    : NEUTRON      - NEUTRON TYPE
RESI.         0                    : RESIST       - RESISTIVITY TYPE
RMC .OHMM     0.25                 : RMC          - RESISTIVITY OF MUD CAKE
RMF .OHMM     0.25                 : RMF          - RESISTIVITY OF MUD FILTRATE
SUFT.C        15                   : SUFT         - SURFACE TEMPERATURE
~A  DEPTH     RESD     PHID     PHIN       GR      CAL
  330.000    3.321    0.235    0.473   96.054  177.075
  330.250    3.360    0.236    0.478   97.033  176.062
  330.500    3.438    0.239    0.467   97.767  175.252
  330.750    3.518    0.237    0.461   97.587  174.646
  331.000    3.552    0.232    0.467   97.589  173.938
  331.250    3.548    0.229    0.482   96.859  174.144
  331.500    3.484    0.227    0.496   95.274  173.843
  331.750    3.440    0.225    0.518   93.812  173.542
  332.000    3.334    0.224    0.514   94.424  173.037
  332.250    3.189    0.229    0.523   98.027  172.635
  332.500    3.068    0.243    0.534   97.175  172.638
  332.750    3.035    0.252    0.509   94.980  172.336
  333.000    3.048    0.256    0.479   94.982  172.136
  333.250    3.131    0.248    0.469   98.463  171.021
  333.500    3.301    0.231    0.477  100.296  170.618
  333.750    3.396    0.222    0.485  101.519  170.724
  334.000    3.475    0.246    0.486   99.995  170.422
  334.250    3.522    0.247    0.519   99.082  170.222
  334.500    3.524    0.239    0.544   98.840  169.819
  334.750    3.579    0.250    0.518  102.870  168.806
  335.000    3.662    0.253    0.480  106.961  168.504
  335.250    3.740    0.222    0.477  109.527  168.814
  335.500    3.742    0.195    0.485  106.111  169.325
  335.750    3.647    0.197    0.484  101.842  170.549
  336.000    3.508    0.220    0.481   99.525  172.587
  336.250    3.363    0.229    0.496   95.255  173.099
  336.500    3.216    0.237    0.501   92.939  171.985
  336.750    3.141    0.216    0.508   95.077  170.157
  337.000    3.386    0.165    0.509   90.380  167.822
  337.250    3.920    0.137    0.451   80.496  164.368
  337.500    4.363    0.110    0.396   73.236  162.235
  337.750    4.856    0.234    0.364   70.797  160.103
  338.000    5.414    0.235    0.353   77.025  158.275
  338.250    5.948    0.224    0.364   79.712  157.669
  338.500    6.670    0.208    0.375   74.893  158.385
  338.750    6.850    0.206    0.382   74.224  159.507
  339.000    6.627    0.206    0.384   78.132  160.630
  339.250    6.507    0.207    0.401   80.636  161.142
  339.500    6.283    0.231    0.415   84.117  161.451
  339.750    6.011    0.243    0.424   88.086  162.167
  340.000    5.902    0.237    0.434   91.383  162.170
  340.250    5.872    0.220    0.443   94.620  160.954
  340.500    5.930    0.215    0.465   94.256  160.346
  340.750    6.478    0.233    0.462   80.344  158.825
  341.000    7.010    0.252    0.379   65.883  156.693
  341.250    7.586    0.272    0.394   60.881  155.781
  341.500    8.241    0.275    0.418   56.368  154.971
  341.750    8.935    0.290    0.431   48.254  155.076
  342.000    9.403    0.302    0.392   43.251  155.792
  342.250    9.233    0.279    0.404   55.703  156.305
  342.500    8.999    0.255    0.414   61.075  156.816
  342.750    8.887    0.260    0.412   61.261  156.719
  343.000    8.775    0.284    0.414   54.550  155.909
  343.250    8.845    0.296    0.397   53.271  154.997
  343.500    9.084    0.283    0.402   54.799  154.085
  343.750    9.383    0.265    0.439   50.163  153.682
  344.000    9.582    0.261    0.459   45.344  152.465
  344.250    9.587    0.291    0.426   41.624  152.367
  344.500    9.274    0.309    0.390   41.504  154.303
  344.750    8.789    0.312    0.376   52.124  156.341
  345.000    8.455    0.288    0.399   58.046  156.549
  345.250    8.043    0.261    0.419   59.574  156.348
  345.500    7.795    0.266    0.424   57.197  156.047
  345.750    7.541    0.292    0.405   56.832  154.932
  346.000    7.054    0.312    0.413   52.136  154.224
  346.250    6.811    0.319    0.426   48.782  154.126
  346.500    6.589    0.308    0.430   47.868  154.943
  346.750    6.506    0.325    0.417   45.429  155.353
  347.000    6.425    0.340    0.426   46.103  154.646
  347.250    6.356    0.333    0.421   50.255  154.547
  347.500    6.359    0.324    0.451   52.210  154.043
  347.750    6.327    0.320    0.465   52.517  153.741
  348.000    6.224    0.324    0.476   49.163  154.050
  348.250    6.101    0.337    0.445   46.968  154.155
  348.500    5.957    0.349    0.416   46.971  154.769
  348.750    5.806    0.348    0.425   48.499  154.671
  349.000    5.734    0.341    0.428   49.294  154.573
  349.250    5.736    0.338    0.415   46.855  154.882
  349.500    5.761    0.333    0.397   42.525  155.292
  349.750    5.753    0.323    0.426   40.879  155.703
  350.000    5.723    0.334    0.442   42.590  155.910
  350.250    5.642    0.354    0.425   43.691  155.710
  350.500    5.560    0.366    0.416   45.036  155.714
  350.750    5.460    0.369    0.397   46.808  156.430
  351.000    5.432    0.354    0.388   48.335  156.841
  351.250    5.445    0.342    0.406   50.108  157.251
  351.500    5.479    0.330    0.432   50.964  157.560
  351.750    5.574    0.346    0.436   49.135  157.665
  352.000    5.682    0.355    0.416   46.880  157.771
  352.250    5.792    0.349    0.400   49.872  157.774
  352.500    5.893    0.336    0.394   52.438  157.880
  352.750    5.996    0.336    0.398   54.820  157.782
  353.000    6.136    0.330    0.401   61.596  157.887
  353.250    6.278    0.304    0.401   66.297  157.687
  353.500    6.411    0.270    0.401   69.106  157.894
  353.750    6.536    0.218    0.419   72.892  158.813
  354.000    6.637    0.181    0.450   78.203  160.648
  354.250    6.728    0.180    0.454   83.637  162.483
  354.500    6.808    0.217    0.454   87.606  164.114
  354.750    6.862    0.243    0.459   84.252  163.507
  355.000    6.904    0.255    0.468   85.535  161.375
  355.250    6.933    0.257    0.472   90.176  160.259
  355.500    6.988    0.259    0.469   88.286  158.738
  355.750    7.058    0.281    0.461   82.186  158.029
  356.000    7.075    0.299    0.450   82.188  157.830
  356.250    7.091    0.308    0.445   85.241  157.630
  356.500    7.028    0.307    0.440   87.135  157.430
  356.750    6.850    0.288    0.435   81.950  157.232
  357.000    6.639    0.278    0.491   76.704  157.031
  357.250    6.483    0.306    0.489   72.862  157.136
  357.500    6.414    0.318    0.458   75.000  157.242
  357.750    6.346    0.322    0.437   77.810  157.245
  358.000    6.278    0.327    0.428   72.686  157.453
  358.250    6.222    0.331    0.421   69.637  157.558
  358.500    6.146    0.331    0.425   71.470  157.765
  358.750    6.125    0.327    0.447   73.242  157.870
  359.000    6.163    0.324    0.453   75.929  157.976
  359.250    6.317    0.310    0.421   77.884  157.979
  359.500    6.536    0.295    0.402   80.694  158.390
  359.750    6.725    0.262    0.392   82.954  159.106
  360.000    6.843    0.240    0.399   84.725  161.957
  360.250    6.924    0.230    0.403   86.253  164.910
  360.500    7.018    0.225    0.393   88.574  167.151
  360.750    7.168    0.235    0.389   87.112  168.986
  361.000    7.375    0.247    0.400   77.106  166.345
  361.250    7.704    0.253    0.403   72.104  162.484
  361.500    7.882    0.263    0.405   66.431  160.352
  361.750    8.035    0.283    0.404   67.532  159.135
  362.000    8.069    0.291    0.406   74.125  158.732
  362.250    7.923    0.278    0.426   78.948  158.430
  362.500    7.809    0.270    0.442   78.950  158.638
  362.750    7.585    0.269    0.455   78.220  158.845
  363.000    7.558    0.279    0.462   76.087  158.645
  363.250    7.492    0.290    0.455   75.417  158.446
  363.500    7.510    0.293    0.451   77.311  158.245
  363.750    7.584    0.303    0.462   76.886  157.639
  364.000    7.644    0.311    0.470   74.753  157.237
  364.250    7.808    0.293    0.448   71.520  157.240
  364.500    8.063    0.293    0.438   68.960  157.854
  364.750    8.759    0.301    0.448   69.450  158.468
  365.000    9.497    0.193    0.276   63.411  159.184
  365.250   10.491    0.095    0.229   59.507  159.289
  365.500   11.875    0.053    0.204   65.368  159.699
  365.750   12.827    0.049    0.271   73.181  159.296
  366.000   10.886    0.254    0.389   78.676  158.689
  366.250    8.884    0.275    0.434   82.279  158.083
