~VERSION INFORMATION
 VERS.                 2.0:   CWLS LOG ASCII STANDARD -VERSION 2.0
 WRAP.                  NO:   ONE LINE PER DEPTH STEP
~WELL INFORMATION BLOCK
#MNEM.UNIT           DATA                    DESCRIPTION OF MNEMONIC
#---------    -------------------            -------------------------------
# Generated from Intellog Unique Number	CW_70_72/WELL/773
NULL.         -999.25                        : NULL_VALUE
WELL.         CANOXY SMITH 06-29             : Well_name    - WELL              
LOC .         06-29-071-01W5                 : Location     - LOCATION          
UWI .         00/06-29-071-01W5/0            : Uwi          - UNIQUE WELL ID    
ENTR.         JAYE                           : Entered      - ENTERED BY        
SRVC.         SCHLUMBERGER                   : Scn          - SERVICE COMPANY   
DATE.         31 DEC 76                      : Date         - LOG DATE          
STRT.M        387.096                        : top_depth    - START DEPTH       
STOP.M        646.096                        : bot_depth    - STOP DEPTH        
STEP.M        0.25                           : increment    - STEP LENGTH       
~CURVE INFORMATION BLOCK
#MNEM UNIT       ERCB CURVE CODE    CURVE DESCRIPTION
#-----------   ------------------   ----------------------------------
DEPT.M        00 001 00 00         : DEPTH        - DEPTH                       
DPHI.V/V      00 890 00 00         : PHID         - DENSITY POROSITY (SANDSTONE)
NPHI.V/V      00 330 00 00         : PHIN         - NEUTRON POROSITY (SANDSTONE)
GR  .API      00 310 00 00         : GR           - GAMMA RAY                   
CALI.MM       00 280 01 00         : CAL          - CALIPER                     
ILD .OHMM     00 120 00 00         : RESD         - DEEP RESISTIVITY (DIL)      
~PARAMETER INFORMATION       
#MNEM.UNIT           DATA             DESCRIPTION OF MNEMONIC
#---------         -----------     ------------------------------
GL  .M        585.826              : gl           - GROUND LEVEL ELEVATION      
EREF.M        588.874              : kb           - ELEVATION OF DEPTH REFERENCE
DATM.M        585.826              : datum        - DATUM ELEVATION             
TDD .M        660.806              : tdd          - TOTAL DEPTH DRILLER         
RUN .         ONE                  : Run          - RUN NUMBER                  
BASE.         EDM                  : Branch       - HOME BASE OF LOGGING UNIT   
MATR.         SANDSTONE            : Logunit      - NEUTRON MATRIX              
TMAX.C        27.2222              : BHT          - MAXIMUM RECORDED TEMPERATURE
BHTD.M        660.502              : BHTDEP       - MAXIMUM RECORDED TEMPERATURE
RMT .C        8.33333              : MDTP         - TEMPERATURE OF MUD          
MUDD.KG/M     0                    : MWT          - MUD DENSITY                 
NEUT.         1                    : NEUTRON      - NEUTRON TYPE                
RESI.         0                    : RESIST       - RESISTIVITY TYPE            
RM  .OHMM     4.28                 : RM           - RESISTIVITY OF MUD          
RMC .OHMM     0                    : RMC          - RESISTIVITY OF MUD CAKE     
RMF .OHMM     3.46                 : RMF          - RESISTIVITY OF MUD FILTRATE 
SUFT.C        -17.7778             : SUFT         - SURFACE TEMPERATURE         
~A  DEPTH     PHID     PHIN       GR      CAL     RESD
# ...
  533.096    0.051    0.342   93.828  177.064    6.778
  533.346    0.062    0.338   96.162  178.446    6.192
  533.596    0.105    0.362   97.154  180.337    5.730
  533.846    0.144    0.385   97.544  182.542    5.441
  534.096    0.163    0.420   99.937  183.917    5.253
  534.346    0.156    0.401  104.032  184.992    5.099
  534.596    0.148    0.382  108.489  185.756    4.960
  534.846    0.148    0.392  105.417  186.203    4.869
  535.096    0.151    0.403  103.497  186.969    4.823
  535.346    0.154    0.407  104.797  187.427    4.805
  535.596    0.160    0.409  107.435  187.867    4.840
  535.846    0.149    0.412  109.886  188.634    4.894
  536.096    0.138    0.409  111.856  189.085    4.866
  536.346    0.129    0.403  111.088  189.749    4.750
  536.596    0.113    0.398  111.052  189.989    4.595
  536.846    0.120    0.406  111.502  190.438    4.411
  537.096    0.144    0.415  113.166  190.583    4.306
  537.346    0.139    0.405  113.737  191.041    4.266
  537.596    0.141    0.413  111.577  191.493    4.282
  537.846    0.131    0.436  109.777  191.637    4.353
  538.096    0.115    0.440  107.554  191.879    4.393
  538.346    0.109    0.430  106.244  192.542    4.482
  538.596    0.112    0.433  106.269  193.202    4.591
  538.846    0.125    0.435  107.202  193.965    4.650
  539.096    0.147    0.435  106.075  194.620    4.692
  539.346    0.136    0.436  104.579  195.382    4.744
  539.596    0.126    0.438  105.942  195.837    4.779
  539.846    0.126    0.435  107.910  196.385    4.805
  540.096    0.117    0.423  110.422  196.947    4.813
  540.346    0.123    0.415  112.815  197.291    4.751
  540.596    0.133    0.409  113.814  197.543    4.733
  540.846    0.115    0.407  113.653  197.377    4.388
  541.096    0.099    0.425  111.552  197.009    4.291
  541.346    0.094    0.426  108.783  196.327    4.243
  541.596    0.122    0.413  107.046  195.751    4.235
  541.846    0.156    0.401  106.767  195.071    4.188
  542.096    0.155    0.404  108.310  194.702    4.119
  542.346    0.135    0.414  110.948  195.773    4.050
  542.596    0.143    0.425  112.367  197.045    4.065
  542.846    0.133    0.434  111.785  197.498    4.155
  543.096    0.129    0.438  110.595  194.250    4.490
  543.346    0.117    0.422  107.096  192.034    5.222
  543.596    0.124    0.412  102.688  188.779    5.854
  543.846    0.141    0.409   98.276  183.579    6.599
  544.096    0.167    0.405   92.046  176.933    7.439
  544.346    0.188    0.393   87.332  170.081    8.573
  544.596    0.212    0.374   83.168  166.317    9.470
  544.846    0.242    0.359   80.701  164.100   10.119
  545.096    0.264    0.350   77.627  162.606   10.498
  545.346    0.260    0.369   74.372  161.920   10.712
  545.596    0.260    0.383   74.213  161.242   10.810
  545.846    0.262    0.363   75.758  160.866   10.789
  546.096    0.254    0.354   75.904  160.503   10.788
  546.346    0.239    0.366   74.895  160.131   10.866
  546.596    0.239    0.373   77.348  159.862   10.906
  546.846    0.254    0.375   75.429  159.600   10.925
  547.096    0.258    0.364   76.850  159.436   10.984
  547.346    0.236    0.355   75.419  159.474   10.943
  547.596    0.250    0.350   72.588  159.518   10.921
  547.846    0.223    0.355   71.762  159.866   10.860
  548.096    0.225    0.376   72.393  160.521   10.859
  548.346    0.214    0.395   73.754  160.871   10.426
  548.596    0.196    0.407   75.115  161.025    9.506
  548.846    0.213    0.407   74.714  160.956    9.093
  549.096    0.200    0.402   73.220  160.789    8.943
  549.346    0.195    0.391   71.482  160.727    9.347
  549.596    0.185    0.380   70.050  161.178   10.439
  549.846    0.182    0.372   71.653  162.248   12.187
  550.096    0.151    0.372   69.676  164.042   13.968
  550.346    0.129    0.367   67.936  165.210   14.599
  550.596    0.101    0.356   68.084  166.386   13.189
  550.846    0.035    0.320   71.086  167.144   11.526
  551.096    0.078    0.283   74.934  165.030   10.148
  551.346    0.118    0.356   78.725  163.216    8.610
  551.596    0.183    0.408   77.717  162.444    6.786
  551.846    0.223    0.422   78.166  162.379    6.420
  552.096    0.209    0.425   81.044  162.624    6.600
  552.346    0.186    0.423   81.130  162.667    6.898
  552.596    0.170    0.414   78.605  162.709    7.196
  552.846    0.182    0.402   75.349  162.648    7.633
  553.096    0.185    0.390   73.854  162.688    8.081
  553.346    0.205    0.402   73.452  162.625    8.322
  553.596    0.211    0.419   73.234  162.462    7.744
  553.846    0.197    0.423   73.748  162.298    6.830
  554.096    0.185    0.411   75.410  162.038    6.102
  554.346    0.175    0.414   77.985  161.880    5.523
  554.596    0.193    0.417   80.743  161.702    5.187
  554.846    0.208    0.415   82.527  161.547    5.111
  555.096    0.201    0.415   82.612  161.583    5.044
  555.346    0.189    0.412   80.208  161.618    4.961
  555.596    0.168    0.408   79.688  161.566    4.807
  555.846    0.162    0.403   80.258  161.597    4.693
  556.096    0.172    0.395   81.254  161.534    4.615
  556.346    0.183    0.388   82.736  161.887    4.538
  556.596    0.192    0.393   85.433  161.828    4.455
  556.846    0.200    0.414   88.493  161.556    4.381
  557.096    0.210    0.425   88.822  161.288    4.340
  557.346    0.201    0.418   86.052  162.771    4.348
  557.596    0.170    0.423   87.048  169.086    4.420
  557.846    0.151    0.424   89.137  171.285    4.527
  558.096    0.163    0.416   91.894  169.786    4.732
  558.346    0.184    0.406   93.558  168.187    5.028
  558.596    0.170    0.397   90.183  168.229    5.343
  558.846    0.148    0.384   86.501  169.196    5.762
  559.096    0.140    0.371   82.943  169.951    6.260
  559.346    0.136    0.365   79.505  170.407    6.010
  559.596    0.129    0.355   79.411  170.442    5.551
  559.846    0.119    0.339   81.864  170.283    5.147
  560.096    0.130    0.351   84.498  170.115    4.727
  560.346    0.141    0.369   88.958  169.750    4.556
  560.596    0.151    0.377   93.536  169.581    4.522
  560.846    0.161    0.371   97.388  169.935    4.555
  561.096    0.169    0.361   97.534  170.699    4.778
  561.346    0.161    0.354   98.163  171.354    5.059
  561.596    0.136    0.347  100.921  171.803    5.567
  561.846    0.103    0.336  105.380  174.112    6.806
  562.096    0.079    0.344  108.016  178.056    8.214
  562.346    0.038    0.376  103.789  185.299   10.752
  562.596    0.010    0.362   88.386  181.639   12.391
  562.846   -0.015    0.237   81.547  177.875   11.298
  563.096   -0.028    0.228   84.246  177.300    9.984
  563.346   -0.010    0.273   91.436  177.647    8.332
  563.596    0.013    0.315   96.075  178.515    7.308
  563.846    0.069    0.342   98.591  179.997    7.030
  564.096    0.089    0.366   99.708  180.764    6.926
  564.346    0.098    0.381   99.915  181.102    6.862
  564.596    0.103    0.379   97.510  180.843    6.886
  564.846    0.094    0.377   94.072  180.890    7.066
  565.096    0.091    0.373   90.879  181.028    7.304
  565.346    0.068    0.371   88.412  180.859    7.452
  565.596    0.058    0.368   86.067  180.692    7.452
  565.846    0.070    0.360   86.033  180.739    7.451
  566.096    0.068    0.351   85.692  180.776    7.464
  566.346    0.070    0.341   86.808  180.508    7.449
  566.596    0.078    0.345   91.025  180.145    7.393
  566.846    0.065    0.352   93.417  179.567    7.352
  567.096    0.075    0.348   93.199  179.091    7.324
  567.346    0.062    0.352   93.650  178.829    7.243
  567.596    0.063    0.368   95.191  178.760    7.162
  567.846    0.066    0.384   97.281  178.804    7.109
  568.096    0.048    0.375   99.128  178.948    7.108
  568.346    0.066    0.364  102.251  179.197    7.134
  568.596    0.095    0.360  104.034  179.559    7.199
  568.846    0.101    0.356  100.599  179.896    7.400
  569.096    0.078    0.351   99.590  180.347    7.677
  569.346    0.082    0.346   99.978  180.808    7.819
