~VERSION INFORMATION
 VERS.                 2.0:   CWLS LOG ASCII STANDARD -VERSION 2.0
 WRAP.                  NO:   ONE LINE PER DEPTH STEP
~WELL INFORMATION BLOCK
#MNEM.UNIT           DATA                    DESCRIPTION OF MNEMONIC
#---------    -------------------            -------------------------------
# Generated from Intellog Unique Number	CW_70_72/WELL/693
NULL.         -999.25                        : NULL_VALUE
WELL.         AMOCO MIAMI B-1 SPURFIELD 06-2 : Well_name    - WELL              
LOC .         06-22-071-02W5                 : Location     - LOCATION          
UWI .         00/06-22-071-02W5/0            : Uwi          - UNIQUE WELL ID    
ENTR.         JAYE                           : Entered      - ENTERED BY        
SRVC.         SCHLUMBERGER                   : Scn          - SERVICE COMPANY   
DATE.         12 MAR 75                      : Date         - LOG DATE          
STRT.M        365.76                         : top_depth    - START DEPTH       
STOP.M        615.76                         : bot_depth    - STOP DEPTH        
STEP.M        0.25                           : increment    - STEP LENGTH       
~CURVE INFORMATION BLOCK
#MNEM UNIT       ERCB CURVE CODE    CURVE DESCRIPTION
#-----------   ------------------   ----------------------------------
DEPT.M        00 001 00 00         : DEPTH        - DEPTH                       
DPHI.V/V      00 890 00 00         : PHID         - DENSITY POROSITY (SANDSTONE)
NPHI.V/V      00 330 00 00         : PHIN         - NEUTRON POROSITY (SANDSTONE)
GR  .API      00 310 00 00         : GR           - GAMMA RAY                   
CALI.MM       00 280 01 00         : CAL          - CALIPER                     
ILD .OHMM     00 120 00 00         : RESD         - DEEP RESISTIVITY (DIL)      
~PARAMETER INFORMATION       
#MNEM.UNIT           DATA             DESCRIPTION OF MNEMONIC
#---------         -----------     ------------------------------
GL  .M        584.911              : gl           - GROUND LEVEL ELEVATION      
EREF.M        589.026              : kb           - ELEVATION OF DEPTH REFERENCE
DATM.M        584.911              : datum        - DATUM ELEVATION             
TDD .M        614.172              : tdd          - TOTAL DEPTH DRILLER         
RUN .         ONE                  : Run          - RUN NUMBER                  
ENG .         JENSEN               : Engineer     - RECORDING ENGINEER          
WIT .         GIBSON               : Witness      - WITNESSED BY                
BASE.         R.D.                 : Branch       - HOME BASE OF LOGGING UNIT   
MATR.         SANDSTONE            : Logunit      - NEUTRON MATRIX              
TMAX.C        32.2222              : BHT          - MAXIMUM RECORDED TEMPERATURE
BHTD.M        613.867              : BHTDEP       - MAXIMUM RECORDED TEMPERATURE
RMT .C        23.3333              : MDTP         - TEMPERATURE OF MUD          
MUDD.KG/M     0                    : MWT          - MUD DENSITY                 
NEUT.         1                    : NEUTRON      - NEUTRON TYPE                
RESI.         0                    : RESIST       - RESISTIVITY TYPE            
RM  .OHMM     2                    : RM           - RESISTIVITY OF MUD          
RMC .OHMM     0                    : RMC          - RESISTIVITY OF MUD CAKE     
RMF .OHMM     1.95                 : RMF          - RESISTIVITY OF MUD FILTRATE 
SUFT.C        -17.7778             : SUFT         - SURFACE TEMPERATURE         
~A  DEPTH     PHID     PHIN       GR      CAL     RESD
  365.760    0.164    0.470  103.697  225.845    3.302
  366.010    0.175    0.474  106.403  227.202    3.333
  366.260    0.180    0.465  105.612  228.259    3.359
  366.510    0.166    0.455  102.065  229.101    3.410
  366.760    0.140    0.446   98.832  229.633    3.455
  367.010    0.137    0.434  100.126  229.437    3.481
  367.260    0.148    0.434  101.535  228.410    3.527
  367.510    0.155    0.443  102.471  227.683    3.554
  367.760    0.165    0.446  104.136  227.298    3.542
  368.010    0.181    0.457  105.609  226.791    3.478
  368.260    0.185    0.467  104.948  226.406    3.421
  368.510    0.176    0.462  103.794  226.001    3.397
  368.760    0.170    0.447  101.535  224.967    3.354
  369.010    0.178    0.426  100.562  224.268    3.330
  369.260    0.186    0.438   96.953  223.867    3.318
  369.510    0.187    0.464   92.428  223.363    3.325
  369.760    0.186    0.464   87.666  222.234    3.394
  370.010    0.164    0.432   80.198  220.598    3.458
  370.260    0.132    0.409   70.532  218.215    3.650
  370.510    0.114    0.370   50.144  216.371    3.859
  370.760    0.093    0.290   34.781  211.929    4.141
  371.010    0.154    0.309   24.006  208.416    4.157
  371.260    0.160    0.346   22.654  211.745    3.941
  371.510    0.193    0.358   23.537  216.742    3.489
  371.760    0.236    0.348   28.068  216.130    3.158
  372.010    0.230    0.321   32.058  214.992    2.966
  372.260    0.220    0.332   36.852  215.121    2.833
  372.510    0.200    0.355   43.658  215.651    2.797
  372.760    0.221    0.373   49.179  212.769    2.757
  373.010    0.229    0.410   48.324  204.074    2.712
  373.260    0.253    0.409   41.910  200.865    2.653
  373.510    0.290    0.376   36.586  206.374    2.586
  373.760    0.296    0.370   34.390  211.898    2.534
  374.010    0.295    0.374   34.698  213.352    2.488
  374.260    0.298    0.375   34.779  213.166    2.452
  374.510    0.290    0.373   34.904  213.290    2.430
  374.760    0.292    0.364   35.407  212.364    2.440
  375.010    0.298    0.344   37.675  213.309    2.468
  375.260    0.287    0.348   40.385  214.995    2.505
  375.510    0.279    0.355   44.620  216.853    2.543
  375.760    0.270    0.359   47.996  217.405    2.615
  376.010    0.264    0.361   46.294  217.315    2.704
  376.260    0.271    0.368   42.382  217.128    2.781
  376.510    0.261    0.376   46.127  210.086    2.854
  376.760    0.242    0.385   53.237  202.633    2.935
  377.010    0.222    0.397   58.149  202.133    3.041
  377.260    0.208    0.394   60.487  205.985    3.180
  377.510    0.211    0.380   58.839  211.807    3.355
  377.760    0.224    0.378   58.422  216.797    3.470
  378.010    0.233    0.408   61.431  221.069    3.588
  378.260    0.255    0.426   64.439  278.954    3.629
  378.510    0.290    0.446   66.468  272.646    3.663
  378.760    0.266    0.461   68.068  247.871    3.691
  379.010    0.260    0.458   68.937  260.125    3.713
  379.260    0.275    0.453   70.540  264.593    3.713
  379.510    0.324    0.441   72.936  240.753    3.721
  379.760    0.293    0.431   74.659  230.402    3.681
  380.010    0.254    0.426   75.895  240.788    3.548
  380.260    0.242    0.422   76.148  235.514    3.389
  380.510    0.211    0.417   74.382  233.349    3.266
  380.760    0.185    0.406   67.774  233.987    3.108
  381.010    0.187    0.394   58.285  224.873    2.925
  381.260    0.249    0.382   52.663  219.183    2.773
  381.510    0.265    0.379   50.097  218.162    2.653
  381.760    0.273    0.392   54.080  219.004    2.595
  382.010    0.261    0.383   57.896  220.367    2.605
  382.260    0.257    0.397   63.285  220.800    2.645
  382.510    0.239    0.408   66.303  219.868    2.766
  382.760    0.228    0.415   68.884  218.642    2.876
  383.010    0.232    0.411   66.443  217.935    3.007
  383.260    0.255    0.398   62.350  215.767    3.150
  383.510    0.249    0.390   62.477  212.658    3.374
  383.760    0.231    0.383   64.201  213.100    3.620
  384.010    0.200    0.378   64.028  218.514    3.827
  384.260    0.190    0.383   63.844  223.919    3.921
  384.510    0.193    0.394   64.290  226.714    3.929
  384.760    0.201    0.388   65.894  228.702    3.894
  385.010    0.179    0.394   68.654  230.397    3.824
  385.260    0.188    0.420   72.584  233.111    3.734
  385.510    0.191    0.447   75.163  235.611    3.619
  385.760    0.178    0.457   77.318  236.452    3.527
  386.010    0.172    0.453   78.731  236.058    3.413
  386.260    0.162    0.459   77.946  235.961    3.296
  386.510    0.161    0.446   77.219  236.699    3.194
  386.760    0.165    0.447   79.988  238.793    3.108
  387.010    0.170    0.468   84.955  240.267    3.012
  387.260    0.178    0.490   86.437  240.171    2.930
  387.510    0.184    0.491   84.546  238.841    2.851
  387.760    0.176    0.481   83.260  235.749    2.810
  388.010    0.164    0.470   82.238  234.001    2.769
  388.260    0.157    0.456   83.286  234.319    2.759
  388.510    0.159    0.443   85.868  235.456    2.745
  388.760    0.168    0.424   89.737  236.211    2.705
  389.010    0.161    0.442   91.276  236.543    2.671
  389.260    0.152    0.469   90.792  237.185    2.603
  389.510    0.166    0.492   88.165  237.812    2.547
  389.760    0.170    0.509   88.057  238.038    2.482
  390.010    0.189    0.523   87.636  237.642    2.410
  390.260    0.195    0.524   87.890  236.725    2.371
  390.510    0.198    0.502   89.851  236.214    2.345
  390.760    0.190    0.477   90.847  236.122    2.346
  391.010    0.172    0.467   89.561  236.559    2.347
  391.260    0.170    0.487   87.435  235.735    2.325
  391.510    0.183    0.505   88.110  235.753    2.296
  391.760    0.186    0.518   90.880  236.709    2.246
  392.010    0.193    0.535   94.564  237.440    2.201
  392.260    0.206    0.529   96.651  237.258    2.126
  392.510    0.209    0.518   97.460  236.744    2.034
  392.760    0.212    0.507   98.078  236.331    1.994
  393.010    0.213    0.524   98.763  236.055    1.979
  393.260    0.210    0.554   97.666  236.380    1.976
  393.510    0.195    0.535   94.678  235.865    2.006
  393.760    0.211    0.547   90.094  235.479    2.048
  394.010    0.203    0.578   88.080  234.336    2.094
  394.260    0.207    0.549   87.591  232.706    2.138
  394.510    0.202    0.522   86.441  233.543    2.202
  394.760    0.193    0.517   85.471  236.574    2.257
  395.010    0.165    0.522   84.623  237.627    2.290
  395.260    0.129    0.524   85.550  238.263    2.334
  395.510    0.142    0.470   87.644  241.180    2.391
  395.760    0.158    0.472   90.960  246.280    2.427
  396.010    0.165    0.482   88.882  247.225    2.469
  396.260    0.168    0.495   89.618  245.686    2.501
  396.510    0.177    0.473   92.146  242.586    2.525
  396.760    0.186    0.489   95.159  239.897    2.554
  397.010    0.178    0.506   99.452  237.953    2.569
  397.260    0.167    0.522   98.486  235.893    2.569
  397.510    0.178    0.517   95.613  234.350    2.570
  397.760    0.181    0.502   93.292  234.675    2.556
  398.010    0.191    0.482   87.791  236.553    2.538
  398.260    0.192    0.494   86.512  241.441    2.511
  398.510    0.188    0.503   88.234  246.332    2.502
  398.760    0.191    0.511   89.959  243.344    2.488
  399.010    0.173    0.523   90.886  239.105    2.462
  399.260    0.160    0.501   90.897  239.426    2.399
  399.510    0.180    0.520   92.621  239.967    2.382
  399.760    0.188    0.540   92.078  240.292    2.396
  400.010    0.176    0.525   91.584  240.718    2.414
  400.260    0.178    0.495   91.300  241.354    2.496
  400.510    0.171    0.487   90.450  241.992    2.596
  400.760    0.173    0.497   89.532  239.523    2.684
  401.010    0.190    0.512   89.424  235.897    2.750
  401.260    0.175    0.525   88.518  236.436    2.833
  401.510    0.187    0.519   86.260  240.707    2.834
  401.760    0.198    0.504   83.327  247.049    2.762
  402.010    0.217    0.494   80.151  251.830    2.623
