~VERSION INFORMATION
 VERS.                 2.0:   CWLS LOG ASCII STANDARD -VERSION 2.0
 WRAP.                  NO:   ONE LINE PER DEPTH STEP
~WELL INFORMATION BLOCK
#MNEM.UNIT           DATA                    DESCRIPTION OF MNEMONIC
#---------    -------------------            -------------------------------
# Generated from Intellog Unique Number	CW_79_81/WELL/2442
WELL.         CHEVRON MISTEHAEN              : Well_name    - WELL
LOC .         00/03-19-081-05W5/0            : Location     - LOCATION
UWI .         00/03-19-081-05W5/0            : Uwi          - UNIQUE WELL ID
ENTR.         MAX                            : Entered      - ENTERED BY
SRVC.         SCHLUMBERGER                   : Scn          - SERVICE COMPANY
STRT.M        304.8                          : top_depth    - START DEPTH
STOP.M        533.05                         : bot_depth    - STOP DEPTH
STEP.M        0.25                           : increment    - STEP LENGTH
 NULL. -999.2500:NULL Value
~CURVE INFORMATION BLOCK
#MNEM UNIT       ERCB CURVE CODE    CURVE DESCRIPTION
#-----------   ------------------   ----------------------------------
DEPT.M        00 001 00 00         : DEPTH        - DEPTH
ILD .OHMM     00 120 00 00         : RESD         - DEEP RESISTIVITY (DIL)
NPHI.V/V      00 330 00 00         : PHIN         - NEUTRON POROSITY (SANDSTONE)
DPHI.V/V      00 890 00 00         : PHID         - DENSITY POROSITY (SANDSTONE)
GR  .API      00 310 00 00         : GR           - GAMMA RAY
CALI.MM       00 280 01 00         : CAL          - CALIPER
~PARAMETER INFORMATION
#MNEM.UNIT           DATA             DESCRIPTION OF MNEMONIC
#---------         -----------     ------------------------------
GL  .M        611.734              : gl           - GROUND LEVEL ELEVATION
EREF.M        614.111              : kb           - ELEVATION OF DEPTH REFERENCE
DATM.M        611.734              : datum        - DATUM ELEVATION
TDD .M        550.774              : tdd          - TOTAL DEPTH DRILLER
RUN .         ONE                  : Run          - RUN NUMBER
ENG .         BILL                 : Engineer     - RECORDING ENGINEER
WIT .         JIM                  : Witness      - WITNESSED BY
MUD .         GEL                  : Mud_type     - MUD TYPE
MATR.         SANDSTONE            : Logunit      - NEUTRON MATRIX
TMAX.C        29.4444              : BHT          - MAXIMUM RECORDED TEMPERATURE
BHTD.M        550.774              : BHTDEP       - MAXIMUM RECORDED TEMPERATURE
MATR.         1                    : LOGUNIT      - NEUTRON MATRIX
RMT .C        20                   : MDTP         - TEMPERATURE OF MUD
NEUT.         1                    : NEUTRON      - NEUTRON TYPE
RESI.         0                    : RESIST       - RESISTIVITY TYPE
RMC .OHMM     4.1                  : RMC          - RESISTIVITY OF MUD CAKE
RMF .OHMM     5.07                 : RMF          - RESISTIVITY OF MUD FILTRATE
SUFT.C        -20.5556             : SUFT         - SURFACE TEMPERATURE
~A  DEPTH     RESD     PHIN     PHID       GR      CAL
# ...
  414.300    5.281    0.468    0.222   70.309  200.622
  414.550    5.088    0.477    0.211   71.238  200.594
  414.800    4.984    0.492    0.209   71.460  200.571
  415.050    4.927    0.508    0.215   72.508  200.549
  415.300    4.898    0.528    0.223   73.908  200.525
  415.550    4.894    0.559    0.223   73.327  200.492
  415.800    4.891    0.538    0.210   74.052  200.467
  416.050    4.924    0.513    0.205   74.273  200.442
  416.300    4.984    0.494    0.208   75.025  200.419
  416.550    5.036    0.486    0.211   75.835  200.594
  416.800    5.070    0.489    0.214   76.351  200.867
  417.050    5.112    0.491    0.215   76.187  200.839
  417.300    5.148    0.481    0.208   75.433  200.808
  417.550    5.220    0.496    0.211   74.240  201.185
  417.800    5.266    0.498    0.208   73.046  201.558
  418.050    5.243    0.499    0.207   73.384  201.733
  418.300    5.144    0.502    0.212   75.139  201.710
  418.550    4.978    0.494    0.220   76.685  201.680
  418.800    4.901    0.489    0.217   77.405  201.657
  419.050    4.898    0.483    0.218   78.101  201.627
  419.300    4.949    0.482    0.218   78.970  201.305
  419.550    5.109    0.486    0.218   78.954  201.083
  419.800    5.402    0.489    0.219   77.701  200.860
  420.050    5.930    0.484    0.228   75.118  199.700
  420.300    6.599    0.475    0.245   72.893  198.010
  420.550    7.347    0.455    0.263   70.285  199.181
  420.800    8.187    0.462    0.278   64.315  200.356
  421.050    9.129    0.471    0.280   59.229  200.929
  421.300   10.033    0.479    0.275   56.795  200.902
  421.550   10.297    0.504    0.280   56.548  200.876
  421.800    9.472    0.501    0.279   57.762  200.848
  422.050    9.192    0.518    0.265   58.458  200.823
  422.300    9.120    0.523    0.261   59.149  201.099
  422.550    9.182    0.510    0.261   60.195  201.275
  422.800    9.296    0.489    0.261   61.715  201.250
  423.050    9.314    0.486    0.257   63.586  201.134
  423.300    9.094    0.480    0.251   63.569  200.692
  423.550    8.961    0.485    0.262   62.378  200.668
  423.800    9.023    0.497    0.262   59.416  200.641
  424.050    9.084    0.499    0.258   57.985  200.616
  424.300    9.045    0.494    0.253   59.090  200.594
  424.550    8.783    0.506    0.244   61.531  200.484
  424.800    8.202    0.500    0.250   62.007  200.044
  425.050    7.843    0.498    0.250   63.171  199.615
  425.300    7.840    0.496    0.246   64.865  199.491
  425.550    8.008    0.506    0.246   66.265  199.269
  425.800    8.270    0.527    0.254   66.311  198.946
  426.050    8.702    0.537    0.269   63.257  199.083
  426.300    9.033    0.530    0.268   61.031  199.889
  426.550    8.576    0.518    0.261   61.724  200.264
  426.800    8.007    0.507    0.259   62.947  200.636
  427.050    7.180    0.512    0.261   64.584  200.810
  427.300    6.267    0.530    0.261   66.397  200.785
  427.550    5.504    0.538    0.247   68.036  200.760
  427.800    5.160    0.547    0.236   70.374  200.729
  428.050    4.888    0.513    0.232   70.605  200.706
  428.300    4.756    0.506    0.239   70.285  200.683
  428.550    4.854    0.518    0.248   70.034  200.657
  428.800    5.200    0.534    0.255   69.844  200.631
  429.050    5.686    0.524    0.269   68.627  200.603
  429.300    5.950    0.517    0.278   66.156  200.574
  429.550    6.624    0.532    0.264   64.725  200.552
  429.800    7.152    0.538    0.261   65.242  200.827
  430.050    7.420    0.525    0.265   66.879  201.202
  430.300    7.109    0.506    0.267   68.101  201.476
  430.550    5.762    0.518    0.254   66.768  201.446
  430.800    4.850    0.521    0.250   67.242  201.421
  431.050    4.503    0.541    0.270   68.645  201.396
  431.300    4.325    0.545    0.282   69.868  201.373
  431.550    4.308    0.545    0.287   70.088  201.348
  431.800    4.416    0.544    0.286   69.248  201.322
  432.050    4.605    0.540    0.279   67.858  201.293
  432.300    4.746    0.530    0.255   66.860  201.262
  432.550    4.848    0.542    0.262   67.788  200.843
  432.800    4.925    0.550    0.280   69.424  199.218
  433.050    4.977    0.564    0.286   69.999  197.794
  433.300    5.028    0.581    0.287   68.864  197.072
  433.550    5.175    0.582    0.315   65.651  196.643
  433.800    5.373    0.571    0.316   61.459  196.620
  434.050    5.649    0.567    0.313   59.559  196.191
  434.300    5.846    0.555    0.307   59.248  196.070
  434.550    6.038    0.546    0.305   59.470  196.048
  434.800    6.248    0.540    0.307   59.633  196.022
  435.050    6.429    0.521    0.308   59.663  195.994
  435.300    6.425    0.498    0.306   59.893  195.965
  435.550    6.328    0.496    0.298   59.644  195.943
  435.800    6.199    0.506    0.292   58.861  195.917
  436.050    6.039    0.524    0.287   57.903  195.891
  436.300    5.873    0.539    0.286   57.123  195.867
  436.550    5.716    0.531    0.293   57.116  195.922
  436.800    5.583    0.536    0.295   58.329  196.309
  437.050    5.539    0.541    0.299   59.259  196.287
  437.300    5.557    0.542    0.298   59.834  196.261
  437.550    5.635    0.540    0.296   60.172  196.236
  437.800    5.807    0.537    0.295   60.334  196.212
  438.050    6.254    0.538    0.294   60.367  196.178
  438.300    6.801    0.539    0.289   60.598  196.154
  438.550    7.733    0.516    0.284   61.763  196.127
  438.800    8.403    0.474    0.276   60.804  196.105
  439.050    9.000    0.435    0.274   59.257  196.082
  439.300    9.596    0.437    0.282   57.650  196.156
  439.550    9.962    0.532    0.303   55.657  196.529
  439.800   10.032    0.530    0.305   56.378  196.498
  440.050    9.314    0.525    0.299   59.193  196.476
  440.300    8.699    0.527    0.297   61.123  196.452
  440.550    8.204    0.531    0.297   61.934  196.427
  440.800    7.732    0.534    0.298   61.920  196.402
  441.050    6.942    0.533    0.292   62.298  196.453
  441.300    6.107    0.528    0.266   64.249  196.846
  441.550    5.381    0.527    0.240   66.828  196.818
  441.800    5.081    0.509    0.215   69.408  197.394
  442.050    5.002    0.477    0.208   72.973  198.835
  442.300    5.050    0.448    0.219   76.152  200.318
  442.550    5.234    0.461    0.235   74.679  199.355
  442.800    5.610    0.476    0.250   71.985  196.461
  443.050    6.078    0.487    0.251   71.761  195.677
  443.300    6.623    0.520    0.256   70.649  195.194
  443.550    7.059    0.525    0.263   68.418  194.812
  443.800    7.299    0.497    0.269   66.541  194.530
  444.050    7.465    0.482    0.275   68.352  194.633
  444.300    7.467    0.497    0.274   69.097  195.065
  444.550    7.360    0.492    0.278   67.927  195.083
  444.800    7.174    0.487    0.280   64.457  195.398
  445.050    6.968    0.493    0.277   61.755  195.616
  445.300    6.781    0.501    0.271   61.117  195.535
  445.550    6.636    0.489    0.270   62.122  195.070
  445.800    6.638    0.492    0.268   62.377  194.669
  446.050    6.639    0.481    0.262   63.803  194.689
  446.300    6.751    0.469    0.250   64.343  194.703
  446.550    6.928    0.451    0.231   63.172  194.717
  446.800    7.123    0.425    0.199   60.883  195.433
  447.050    7.296    0.371    0.137   59.135  198.749
  447.300    7.354    0.314    0.093   57.424  201.265
  447.550    7.142    0.336    0.162   56.490  201.284
  447.800    6.821    0.413    0.205   57.149  201.599
  448.050    6.456    0.485    0.220   58.929  201.814
  448.300    6.091    0.517    0.216   61.711  201.930
  448.550    5.648    0.492    0.214   66.961  202.519
  448.800    5.198    0.476    0.210   73.117  203.367
  449.050    4.865    0.484    0.203   70.058  203.783
  449.300    4.684    0.485    0.190   70.894  204.198
  449.550    4.583    0.489    0.191   71.258  204.813
  449.800    4.526    0.499    0.200   70.560  205.330
  450.050    4.495    0.508    0.194   72.331  204.869
  450.300    4.496    0.497    0.202   74.061  204.470
  450.550    4.563    0.509    0.212   73.835  204.884
