~VERSION INFORMATION
 VERS.                 2.0:   CWLS LOG ASCII STANDARD -VERSION 2.0
 WRAP.                  NO:   ONE LINE PER DEPTH STEP
~WELL INFORMATION BLOCK
#MNEM.UNIT           DATA                    DESCRIPTION OF MNEMONIC
#---------    -------------------            -------------------------------
# Generated from Intellog Unique Number	CN_91_93/WELL/3039
WELL.         PARAMOUNT RESOURCES LTD.       : Well_name    - WELL
LOC .         00/06-29-092-20W4/0            : Location     - LOCATION
UWI .         00/06-29-092-20W4/0            : Uwi          - UNIQUE WELL ID
ENTR.         JOETTE                         : Entered      - ENTERED BY
SRVC.         COMPUTALOG                     : Scn          - SERVICE COMPANY
DATE.         04/09/92                       : Date         - LOG DATE
STRT.F        100                            : top_depth    - START DEPTH
STOP.F        703.675                        : bot_depth    - STOP DEPTH
STEP.F        0.82                           : increment    - STEP LENGTH
 NULL. -999.2500:NULL Value
~CURVE INFORMATION BLOCK
#MNEM UNIT       ERCB CURVE CODE    CURVE DESCRIPTION
#-----------   ------------------   ----------------------------------
DEPT.F        00 001 00 00         : DEPTH        - DEPTH
GR  .API      00 310 00 00         : GR           - GAMMA RAY
NPHI.V/V      00 330 00 00         : PHIN         - NEUTRON POROSITY (SANDSTONE)
DPHI.V/V      00 890 00 00         : PHID         - DENSITY POROSITY (SANDSTONE)
ILD .OHMM     00 120 00 00         : RESD         - DEEP RESISTIVITY (DIL)
~PARAMETER INFORMATION
#MNEM.UNIT           DATA             DESCRIPTION OF MNEMONIC
#---------         -----------     ------------------------------
GL  .F        1698                 : gl           - GROUND LEVEL ELEVATION
EREF.F        1708                 : kb           - ELEVATION OF DEPTH REFERENCE
DATM.F        1708                 : datum        - DATUM ELEVATION
TDD .F        702                  : tdd          - TOTAL DEPTH DRILLER
RUN .         ONE                  : Run          - RUN NUMBER
ENG .         JO                   : Engineer     - RECORDING ENGINEER
WIT .         TIM                  : Witness      - WITNESSED BY
MUD .         GEL                  : Mud_type     - MUD TYPE
MATR.         SANDSTONE            : Logunit      - NEUTRON MATRIX
TMAX.F        58                   : BHT          - MAXIMUM RECORDED TEMPERATURE
BHTD.F        702                  : BHTDEP       - MAXIMUM RECORDED TEMPERATURE
RMT .F        58                   : MDTP         - TEMPERATURE OF MUD
MUDD.LB/G     9                    : MWT          - MUD DENSITY
NEUT.         1                    : NEUTRON      - NEUTRON TYPE
RESI.         0                    : RESIST       - RESISTIVITY TYPE
RM  .OHMM     3.6                  : RM           - RESISTIVITY OF MUD
RMC .OHMM     3.6                  : RMC          - RESISTIVITY OF MUD CAKE
RMF .OHMM     3.6                  : RMF          - RESISTIVITY OF MUD FILTRATE
SUFT.F        39.2                 : SUFT         - SURFACE TEMPERATURE
~A  DEPTH       GR     PHIN     PHID     RESD
  100.000    9.098    0.517    0.424    0.000
  100.820    9.228    0.530    0.440    0.000
  101.640    9.307    0.534    0.458    0.000
  102.461    9.359    0.531    0.441    0.000
  103.281   10.692    0.522    0.343    0.000
  104.101   11.999    0.520    0.340    0.000
  104.921   13.332    0.518    0.319    0.000
  105.741   13.436    0.513    0.267    0.000
  106.562   13.541    0.512    0.251    0.000
  107.382   13.018    0.514    0.288    0.000
  108.202   11.946    0.515    0.323    0.000
  109.022    9.671    0.518    0.335    0.000
  109.843    8.520    0.527    0.339    0.000
  110.663    8.651    0.535    0.347    0.000
  111.483    9.958    0.540    0.344    0.000
  112.303   10.062    0.542    0.322    0.000
  113.123   10.141    0.522    0.177    0.000
  113.944    8.441    0.523    0.230    0.000
  114.764    6.166    0.513    0.306    0.000
  115.584    5.696    0.518    0.296    0.000
  116.404    6.349    0.534    0.274    0.000
  117.224    7.682    0.526    0.309    0.000
  118.045    9.590    0.524    0.298    0.000
  118.865   10.296    0.521    0.242    0.000
  119.685    8.623    0.521    0.208    0.000
  120.505    9.302    0.520    0.218    0.000
  121.325   11.812    0.520    0.219    0.000
  122.146   11.916    0.522    0.231    0.000
  122.966    9.014    0.523    0.265    0.000
  123.786    6.765    0.526    0.281    0.000
  124.606    6.242    0.533    0.285    0.000
  125.427    6.321    0.539    0.256    0.000
  126.247    7.053    0.539    0.250    0.000
  127.067    7.157    0.534    0.240    0.000
  127.887    7.235    0.532    0.314    0.000
  128.707    7.340    0.532    0.336    0.000
  129.528    9.875    0.536    0.352    0.000
  130.348   11.182    0.541    0.328    0.000
  131.168   10.110    0.544    0.295    0.000
  131.988    7.835    0.541    0.255    0.000
  132.808    6.685    0.538    0.278    0.000
  133.629    8.645    0.532    0.305    0.000
  134.449   11.730    0.528    0.322    0.000
  135.269   13.639    0.524    0.292    0.000
  136.089   14.946    0.523    0.281    0.000
  136.909   15.050    0.524    0.296    0.000
  137.730   12.749    0.512    0.294    0.000
  138.550   10.448    0.512    0.313    0.000
  139.370    9.350    0.521    0.316    0.000
  140.190    9.454    0.529    0.330    0.000
  141.010   10.160    0.529    0.293    0.000
  141.831   10.291    0.531    0.267    0.000
  142.651    9.768    0.538    0.288    0.000
  143.471    8.669    0.543    0.248    0.000
  144.291    7.571    0.542    0.180    0.000
  145.112    7.702    0.529    0.214    0.000
  145.932    9.610    0.507    0.263    0.000
  146.752   13.923    0.475    0.262    0.000
  147.572   14.028    0.474    0.252    0.000
  148.392   11.753    0.516    0.273    0.000
  149.213   10.027    0.532    0.299    0.000
  150.033    7.125    0.538    0.318    0.000
  150.853    6.053    0.524    0.303    0.000
  151.673    7.360    0.515    0.298    0.000
  152.493    9.242    0.519    0.388    0.000
  153.314   10.549    0.526    0.401    0.000
  154.134   11.255    0.531    0.372    0.000
  154.954   10.784    0.530    0.337    0.000
  155.774   10.287    0.520    0.285    0.000
  156.594   10.967    0.516    0.261    0.000
  157.415   14.130    0.521    0.251    0.000
  158.235   14.810    0.510    0.251    0.000
  159.055   12.509    0.511    0.342    0.000
  159.875   10.783    0.525    0.385    0.000
  160.696    7.881    0.533    0.213    0.000
  161.516    6.809    0.531    0.135    0.000
  162.336    7.515    0.454    0.087    0.000
  163.156    8.246    0.393    0.095    0.000
  163.976    7.776    0.384    0.141    0.000
  164.797    7.854    0.462    0.297    0.000
  165.617    7.357    0.509    0.394    0.000
  166.437    8.063    0.495    0.420    0.000
  167.257    9.396    0.517    0.428    0.000
  168.077   10.075    0.520    0.387    0.000
  168.898   10.206    0.516    0.345    0.000
  169.718   10.258    0.507    0.331    0.000
  170.538   10.388    0.497    0.326    0.000
  171.358   10.467    0.499    0.371    0.000
  172.178   10.571    0.525    0.402    0.000
  172.999   11.303    0.523    0.377    0.000
  173.819   12.035    0.511    0.376    0.000
  174.639   12.714    0.527    0.284    0.000
  175.459   15.224    0.534    0.149    0.000
  176.280   18.361    0.482    0.081    0.000
  177.100   20.870    0.431    0.084    0.000
  177.920   21.602    0.414    0.149    0.000
  178.740   20.504    0.392    0.201    0.000
  179.560   20.007    0.394    0.214    0.000
  180.381   21.288    0.383    0.207    0.000
  181.201   23.798    0.394    0.193    0.000
  182.021   24.529    0.471    0.162    0.000
  182.841   23.431    0.533    0.159    0.000
  183.661   22.333    0.518    0.189    0.000
  184.482   22.437    0.460    0.206    0.000
  185.302   23.117    0.432    0.168    0.000
  186.122   25.051    0.444    0.135    0.000
  186.942   27.587    0.457    0.079    0.000
  187.762   28.920    0.458    0.062    0.000
  188.583   28.998    0.452    0.030    0.000
  189.403   29.129    0.453   -0.004    0.000
  190.223   28.606    0.463   -0.056    0.000
  191.043   27.508    0.485   -0.083    0.000
  191.864   26.985    0.532   -0.076    0.000
  192.684   25.285    0.521   -0.044    0.000
  193.504   21.834    0.511    0.004    0.000
  194.324   20.108    0.504    0.094    0.000
  195.144   17.232    0.511    0.191    0.000
  195.965   15.507    0.517    0.200    0.000
  196.785   13.206    0.515    0.234    0.000
  197.605   12.683    0.515    0.246    0.000
  198.425   12.186    0.527    0.234    0.000
  199.245   14.094    0.540    0.217    0.000
  200.066   16.002    0.536    0.197    0.000
  200.886   14.303    0.531    0.210    0.000
  201.706   13.806    0.517    0.242    0.000
  202.526   18.145    0.522    0.263    0.000
  203.346   19.479    0.537    0.286    0.000
  204.167   17.779    0.515    0.154    0.000
  204.987   14.877    0.459    0.136    0.000
  205.807   13.726    0.427    0.165    0.000
  206.627   12.681    0.405    0.172    0.000
  207.448   15.190    0.401    0.180    0.000
  208.268   16.497    0.415    0.181    0.000
  209.088   14.196    0.457    0.154    0.000
  209.908   11.921    0.494    0.188    0.000
  210.728   11.399    0.540    0.225    0.000
  211.549   11.503    0.525    0.134    0.000
  212.369   11.581    0.485    0.070    0.000
  213.189   11.685    0.466    0.115    0.000
  214.009   11.816    0.466    0.140    0.000
  214.829   11.345    0.499    0.170    0.000
  215.650   10.796    0.511    0.143    0.000
  216.470    9.123    0.502    0.132    0.000
  217.290    9.227    0.498    0.185    0.000
  218.110   11.135    0.504    0.238    0.000
  218.930   12.416    0.496    0.240    0.000
  219.751   13.775    0.478    0.228    0.000
  220.571   13.305    0.472    0.183    0.000
  221.391   12.154    0.473    0.125    0.000
  222.211    9.853    0.485    0.150    0.000
  223.031    6.977    0.525    0.156    0.000
  223.852    5.853    0.536    0.149    0.000
  224.672    5.382    0.526    0.146    0.000
  225.492    5.487    0.509    0.180    0.000
  226.312    5.617    0.538    0.214    0.000
  227.133    5.695    0.539    0.184    0.000
  227.953    5.172    0.477    0.141    0.000
  228.773    4.100    0.409    0.118    0.000
  229.593    3.603    0.390    0.116    0.000
  230.413    3.080    0.394    0.116    0.000
  231.234    3.185    0.419    0.141    0.000
  232.054    3.289    0.466    0.149    0.000
  232.874    3.995    0.511    0.139    0.000
  233.694    5.328    0.518    0.114    0.000
  234.514    7.837    0.519    0.096    0.000
  235.335    9.746    0.529    0.096    0.000
  236.155   11.654    0.532    0.027    0.000
  236.975   12.987    0.527   -0.008    0.000
  237.795   13.667    0.521   -0.052    0.000
  238.615   12.621    0.505   -0.057    0.000
  239.436   11.496    0.494   -0.024    0.000
  240.256    9.823    0.520    0.053    0.000
  241.076    9.875    0.533    0.129    0.000
  241.896   12.385    0.531    0.176    0.000
