~VERSION INFORMATION
 VERS.                 2.0:   CWLS LOG ASCII STANDARD -VERSION 2.0
 WRAP.                  NO:   ONE LINE PER DEPTH STEP
~WELL INFORMATION BLOCK
#MNEM.UNIT           DATA                    DESCRIPTION OF MNEMONIC
#---------    -------------------            -------------------------------
# Generated from Intellog Unique Number	CS_77_79/WELL/2969
WELL.         MESA PET                       : Well_name    - WELL
LOC .         00/06-31-078-10W4/0            : Location     - LOCATION
UWI .         00/06-31-078-10W4/0            : Uwi          - UNIQUE WELL ID
ENTR.         TIM                            : Entered      - ENTERED BY
SRVC.         SCHLUMBERGER                   : Scn          - SERVICE COMPANY
STRT.F        840                            : top_depth    - START DEPTH
STOP.F        1569.99                        : bot_depth    - STOP DEPTH
STEP.F        0.82                           : increment    - STEP LENGTH
 NULL. -999.2500:NULL Value
~CURVE INFORMATION BLOCK
#MNEM UNIT       ERCB CURVE CODE    CURVE DESCRIPTION
#-----------   ------------------   ----------------------------------
DEPT.F        00 001 00 00         : DEPTH        - DEPTH
GR  .API      00 310 00 00         : GR           - GAMMA RAY
NPHI.V/V      00 330 00 00         : PHIN         - NEUTRON POROSITY (SANDSTONE)
DPHI.V/V      00 890 00 00         : PHID         - DENSITY POROSITY (SANDSTONE)
ILD .OHMM     00 120 00 00         : RESD         - DEEP RESISTIVITY (DIL)
~PARAMETER INFORMATION
#MNEM.UNIT           DATA             DESCRIPTION OF MNEMONIC
#---------         -----------     ------------------------------
GL  .F        2128                 : gl           - GROUND LEVEL ELEVATION
EREF.F        2143                 : kb           - ELEVATION OF DEPTH REFERENCE
DATM.F        2143                 : datum        - DATUM ELEVATION
TDD .F        1610                 : tdd          - TOTAL DEPTH DRILLER
RUN .         ONE                  : Run          - RUN NUMBER
ENG .         BILL                 : Engineer     - RECORDING ENGINEER
WIT .         JIM                  : Witness      - WITNESSED BY
MUD .         GEL                  : Mud_type     - MUD TYPE
MATR.         SANDSTONE            : Logunit      - NEUTRON MATRIX
TMAX.F        71                   : BHT          - MAXIMUM RECORDED TEMPERATURE
BHTD.F        1610                 : BHTDEP       - MAXIMUM RECORDED TEMPERATURE
MATR.         1                    : LOGUNIT      - NEUTRON MATRIX
RMT .F        57                   : MDTP         - TEMPERATURE OF MUD
NEUT.         1                    : NEUTRON      - NEUTRON TYPE
RESI.         4.9                  : RESIST       - RESISTIVITY TYPE
RMC .OHMM     4.27                 : RMC          - RESISTIVITY OF MUD CAKE
RMF .OHMM     4.27                 : RMF          - RESISTIVITY OF MUD FILTRATE
SUFT.F        59                   : SUFT         - SURFACE TEMPERATURE
~A  DEPTH       GR     PHIN     PHID     RESD
# ...
  982.717   90.709    0.462    0.258    8.237
  983.537   90.689    0.465    0.267    7.928
  984.357   90.060    0.471    0.276    7.771
  985.177   90.046    0.473    0.265    7.616
  985.997   81.211    0.471    0.265    8.492
  986.818   71.781    0.469    0.277    9.302
  987.638   65.881    0.460    0.286   10.962
  988.458   60.555    0.427    0.281   12.693
  989.278   60.528    0.417    0.279   14.684
  990.098   60.493    0.419    0.281   15.785
  990.919   60.479    0.425    0.279   16.346
  991.739   59.277    0.430    0.280   16.326
  992.559   57.488    0.418    0.292   16.293
  993.379   56.286    0.411    0.301   16.274
  994.199   57.412    0.410    0.302   16.241
  995.020   57.986    0.411    0.299   16.215
  995.840   59.118    0.416    0.295   16.189
  996.660   59.105    0.424    0.289   16.457
  997.480   59.077    0.422    0.283   16.737
  998.301   59.049    0.422    0.273   17.015
  999.121   59.015    0.421    0.264   17.318
  999.941   60.155    0.423    0.260   17.606
 1000.760   62.469    0.435    0.266   17.905
 1001.580   64.217    0.450    0.274   17.884
 1002.400   69.474    0.440    0.276   18.527
 1003.220   77.667    0.421    0.267   19.535
 1004.040   94.081    0.415    0.244   20.246
 1004.860  120.478    0.420    0.236   21.754
 1005.680  131.614    0.451    0.219   22.124
 1006.500  133.341    0.474    0.179   22.920
 1007.320  119.801    0.498    0.146   22.883
 1008.140  119.193    0.503    0.146   22.837
 1008.960  114.467    0.503    0.162   22.383
 1009.780  106.799    0.487    0.179   22.347
 1010.600  102.067    0.470    0.199   22.302
 1011.420  105.570    0.460    0.226   22.284
 1012.240  105.542    0.452    0.244   22.249
 1013.060  103.746    0.445    0.248   22.213
 1013.880  106.060    0.445    0.252   22.159
 1014.700  107.801    0.445    0.257   22.124
 1015.520  106.592    0.443    0.258   22.088
 1016.350  105.984    0.439    0.257   21.640
 1017.170  107.718    0.433    0.267   21.219
 1017.990  112.976    0.427    0.276   20.789
 1018.810  128.802    0.424    0.283   20.764
 1019.630  146.978    0.422    0.288   20.334
 1020.450  171.613    0.418    0.293   19.938
 1021.270  163.364    0.417    0.297   19.542
 1022.090  148.069    0.412    0.304   19.154
 1022.910  132.181    0.411    0.304   19.123
 1023.730  114.530    0.410    0.298   19.084
 1024.550  106.869    0.408    0.296   19.054
 1025.370  103.898    0.411    0.290   19.023
 1026.190  103.291    0.413    0.284   18.985
 1027.010  103.249    0.415    0.279   18.962
 1027.830  103.816    0.414    0.276   19.284
 1028.650  104.956    0.409    0.277   19.604
 1029.470  105.508    0.407    0.278   19.573
 1030.290  105.494    0.408    0.280   19.906
 1031.110  105.460    0.409    0.280   19.882
 1031.930  105.432    0.417    0.280   19.486
 1032.750  105.999    0.420    0.279   19.099
 1033.570  106.551    0.426    0.278   19.069
 1034.390  106.517    0.430    0.276   18.340
 1035.210  106.482    0.435    0.278   18.311
 1036.030  106.469    0.437    0.281   18.607
 1036.850  108.189    0.438    0.284   18.592
 1037.670  108.755    0.437    0.286   18.893
 1038.490  109.301    0.436    0.289   18.863
 1039.310  109.287    0.435    0.291   18.840
 1040.130  109.260    0.436    0.292   18.465
 1040.950  109.225    0.438    0.296   18.436
 1041.770  109.204    0.440    0.301   18.406
 1042.590  109.170    0.441    0.306   17.703
 1043.410  109.142    0.441    0.306   17.358
 1044.230  110.282    0.440    0.305   16.695
 1045.050  111.436    0.439    0.304   16.357
 1045.870  111.989    0.438    0.299   16.337
 1046.690  112.548    0.438    0.288   16.006
 1047.510  112.521    0.437    0.293   15.980
 1048.330  111.913    0.436    0.297   15.948
 1049.150  113.640    0.432    0.294   16.219
 1049.970  110.089    0.430    0.289   16.199
 1050.790  101.253    0.434    0.280   16.782
 1051.610   67.749    0.434    0.283   17.061
 1052.430   61.262    0.427    0.285   17.344
 1053.250   60.626    0.416    0.288   17.330
 1054.070   60.605    0.440    0.291   17.288
 1054.900   61.165    0.461    0.302   16.938
 1055.720   64.073    0.466    0.310   16.924
 1056.540   66.989    0.427    0.312   16.581
 1057.360   70.484    0.424    0.311   16.251
 1058.180   74.567    0.450    0.305   16.212
 1059.000   80.412    0.456    0.299   15.902
 1059.820   79.210    0.465    0.293   15.871
 1060.640   76.239    0.473    0.286   15.561
 1061.460   73.863    0.476    0.285   15.530
 1062.280   72.067    0.480    0.286   15.221
 1063.100   71.452    0.482    0.288   15.203
 1063.920   72.599    0.482    0.293   15.166
 1064.740   74.332    0.484    0.292   15.424
 1065.560   73.711    0.484    0.290   15.406
 1066.380   70.754    0.477    0.288   15.381
 1067.200   68.378    0.466    0.288   15.069
 1068.020   64.813    0.459    0.289   14.770
 1068.840   63.031    0.460    0.293   14.476
 1069.660   60.641    0.456    0.296   14.453
 1070.480   60.627    0.450    0.302   15.245
 1071.300   60.012    0.444    0.306   15.800
 1072.120   59.984    0.438    0.312   16.362
 1072.940   58.769    0.440    0.314   16.335
 1073.760   58.748    0.446    0.316   16.309
 1074.580   58.720    0.446    0.318   15.985
 1075.400   59.280    0.445    0.322   15.099
 1076.220   59.833    0.445    0.324   14.793
 1077.040   60.392    0.446    0.327   14.769
 1077.860   60.364    0.444    0.330   14.470
 1078.680   60.337    0.443    0.335   14.447
 1079.500   60.309    0.441    0.337   14.159
 1080.320   60.275    0.439    0.337   14.142
 1081.140   60.240    0.438    0.333   14.120
 1081.960   60.226    0.435    0.329   14.091
 1082.780   59.591    0.435    0.331   13.817
 1083.600   59.570    0.439    0.334   13.789
 1084.420   58.368    0.444    0.338   13.767
 1085.240   57.760    0.449    0.340   13.493
 1086.060   57.733    0.451    0.342   13.472
 1086.880   57.104    0.452    0.343   13.444
 1087.700   57.077    0.454    0.339   13.177
 1088.520   57.049    0.457    0.333   13.156
 1089.340   57.021    0.461    0.332   12.895
 1090.160   56.413    0.463    0.334   12.874
 1090.980   56.365    0.475    0.327   12.853
 1091.800   56.344    0.494    0.325   12.832
 1092.620   56.310    0.486    0.327   12.807
 1093.440   56.296    0.443    0.327   13.019
 1094.270   56.255    0.428    0.327   12.993
 1095.090   56.234    0.434    0.323   13.225
 1095.910   56.206    0.441    0.319   13.203
 1096.730   56.179    0.446    0.313   13.177
 1097.550   56.731    0.450    0.313   12.920
 1098.370   57.878    0.451    0.312   12.899
 1099.190   58.438    0.446    0.307   12.633
 1100.010   59.004    0.440    0.311   12.617
 1100.830   58.977    0.436    0.313   12.592
 1101.650   58.949    0.435    0.314   12.567
 1102.470   58.908    0.437    0.312   12.557
 1103.290   58.880    0.439    0.311   12.527
 1104.110   58.859    0.441    0.312   12.283
 1104.930   58.832    0.441    0.313   12.024
 1105.750   58.797    0.444    0.316   12.014
 1106.570   58.763    0.454    0.320   11.775
 1107.390   58.742    0.478    0.322   11.541
 1108.210   59.301    0.480    0.324   11.527
 1109.030   59.274    0.464    0.322   11.294
 1109.850   59.827    0.448    0.313   11.069
 1110.670   60.967    0.441    0.306   10.849
 1111.490   61.540    0.431    0.306   10.633
 1112.310   63.274    0.429    0.305   10.422
 1113.130   64.994    0.438    0.302    9.660
 1113.950   66.721    0.450    0.307    9.125
 1114.770   67.295    0.461    0.312    8.462
 1115.590   68.441    0.463    0.308    7.843
 1116.410   67.239    0.466    0.294    7.406
 1117.230   66.037    0.477    0.300    6.995
 1118.050   65.416    0.481    0.303    6.856
 1118.870   65.374    0.469    0.302    6.720
 1119.690   65.353    0.465    0.299    6.961
 1120.510   65.326    0.475    0.303    7.483
 1121.330   64.704    0.510    0.308    7.752
 1122.150   64.690    0.486    0.299    7.453
 1122.970   64.656    0.478    0.291    7.174
 1123.790   64.628    0.464    0.298    6.653
 1124.610   65.775    0.448    0.307    5.945
