~VERSION INFORMATION
 VERS.                 2.0:   CWLS LOG ASCII STANDARD -VERSION 2.0
 WRAP.                  NO:   ONE LINE PER DEPTH STEP
~WELL INFORMATION BLOCK
#MNEM.UNIT           DATA                    DESCRIPTION OF MNEMONIC
#---------    -------------------            -------------------------------
# Generated from Intellog Unique Number	CS_71_72/WELL/699
WELL.         AMOCO AEC IPIATIK              : Well_name    - WELL
LOC .         00/06-01-072-05W4/0            : Location     - LOCATION
UWI .         00/06-01-072-05W4/0            : Uwi          - UNIQUE WELL ID
ENTR.         SP                             : Entered      - ENTERED BY
SRVC.         SCHLUMBERGER                   : Scn          - SERVICE COMPANY
STRT.M        285                            : top_depth    - START DEPTH
STOP.M        505                            : bot_depth    - STOP DEPTH
STEP.M        0.25                           : increment    - STEP LENGTH
 NULL. -999.2500:NULL Value
~CURVE INFORMATION BLOCK
#MNEM UNIT       ERCB CURVE CODE    CURVE DESCRIPTION
#-----------   ------------------   ----------------------------------
DEPT.M        00 001 00 00         : DEPTH        - DEPTH
ILD .OHMM     00 120 00 00         : RESD         - DEEP RESISTIVITY (DIL)
DPHI.V/V      00 890 00 00         : PHID         - DENSITY POROSITY (LIMESTONE)
NPHI.V/V      00 330 00 00         : PHIN         - NEUTRON POROSITY (LIMESTONE)
GR  .API      00 310 00 00         : GR           - GAMMA RAY
~PARAMETER INFORMATION
#MNEM.UNIT           DATA             DESCRIPTION OF MNEMONIC
#---------         -----------     ------------------------------
GL  .M        671                  : gl           - GROUND LEVEL ELEVATION
EREF.M        674.85               : kb           - ELEVATION OF DEPTH REFERENCE
DATM.M        671                  : datum        - DATUM ELEVATION
TDD .M        517                  : tdd          - TOTAL DEPTH DRILLER
RUN .         ONE                  : Run          - RUN NUMBER
ENG .         BILL                 : Engineer     - RECORDING ENGINEER
WIT .         JIM                  : Witness      - WITNESSED BY
MUD .         GEL                  : Mud_type     - MUD TYPE
MATR.         LIMESTONE            : Logunit      - NEUTRON MATRIX
TMAX.C        22                   : BHT          - MAXIMUM RECORDED TEMPERATURE
BHTD.M        517                  : BHTDEP       - MAXIMUM RECORDED TEMPERATURE
MATR.         1                    : LOGUNIT      - NEUTRON MATRIX
RMT .C        25                   : MDTP         - TEMPERATURE OF MUD
NEUT.         1                    : NEUTRON      - NEUTRON TYPE
RESI.         0                    : RESIST       - RESISTIVITY TYPE
RMC .OHMM     0.25                 : RMC          - RESISTIVITY OF MUD CAKE
RMF .OHMM     0.25                 : RMF          - RESISTIVITY OF MUD FILTRATE
SUFT.C        15                   : SUFT         - SURFACE TEMPERATURE
~A  DEPTH     RESD     PHID     PHIN       GR
# ...
  328.500    3.908    0.312    0.423   46.798
  328.750    3.908    0.306    0.422   46.202
  329.000    3.908    0.302    0.416   50.447
  329.250    3.981    0.312    0.421   51.661
  329.500    4.132    0.311    0.417   51.066
  329.750    4.449    0.294    0.410   49.863
  330.000    4.617    0.277    0.403   51.687
  330.250    4.791    0.270    0.406   55.323
  330.500    4.880    0.270    0.415   60.170
  330.750    5.064    0.289    0.422   65.018
  331.000    5.255    0.275    0.414   69.866
  331.250    5.556    0.258    0.420   74.107
  331.500    5.660    0.241    0.417   79.558
  331.750    5.766    0.223    0.426   85.615
  332.000    5.874    0.211    0.440   95.301
  332.250    5.874    0.212    0.454  101.963
  332.500    5.874    0.230    0.471  102.577
  332.750    5.875    0.216    0.492  100.166
  333.000    5.875    0.212    0.500   97.753
  333.250    5.768    0.216    0.489   95.342
  333.500    5.769    0.230    0.493   95.350
  333.750    5.664    0.225    0.505   95.964
  334.000    5.561    0.212    0.511   95.368
  334.250    5.561    0.204    0.495   95.376
  334.500    5.460    0.210    0.478   98.408
  334.750    5.460    0.212    0.472  100.232
  335.000    5.461    0.229    0.469  100.844
  335.250    5.461    0.245    0.455  101.456
  335.500    5.462    0.259    0.449   98.440
  335.750    5.462    0.266    0.461   95.424
  336.000    5.462    0.269    0.470   91.803
  336.250    5.565    0.272    0.455   93.626
  336.500    5.565    0.268    0.446   96.055
  336.750    5.566    0.253    0.441   97.273
  337.000    5.464    0.246    0.438   98.491
  337.250    5.267    0.237    0.440   99.708
  337.500    5.171    0.228    0.443  100.928
  337.750    4.983    0.225    0.448  101.538
  338.000    4.893    0.223    0.459  101.547
  338.250    5.172    0.235    0.467   99.742
  338.500    5.673    0.233    0.454   96.725
  338.750    6.577    0.223    0.440   90.686
  339.000    7.485    0.221    0.435   85.251
  339.250    8.519    0.196    0.441   81.628
  339.500    8.840    0.101    0.288   74.984
  339.750    9.344    0.041    0.237   70.756
  340.000    8.062    0.023    0.227   64.717
  340.250    6.580    0.026    0.224   58.677
  340.500    5.370    0.047    0.249   54.451
  340.750    4.720    0.110    0.329   60.509
  341.000    4.304    0.149    0.391   68.984
  341.250    4.148    0.203    0.455   74.436
  341.500    3.998    0.240    0.460   78.073
  341.750    3.853    0.271    0.447   79.290
  342.000    3.714    0.288    0.443   75.670
  342.250    3.579    0.293    0.465   71.444
  342.500    3.387    0.298    0.471   66.616
  342.750    3.146    0.303    0.462   64.807
  343.000    3.032    0.310    0.449   61.792
  343.250    2.869    0.312    0.442   59.383
  343.500    2.816    0.316    0.438   58.179
  343.750    2.715    0.321    0.442   56.375
  344.000    2.665    0.325    0.449   55.175
  344.250    2.665    0.323    0.450   54.575
  344.500    2.665    0.320    0.437   54.584
  344.750    2.666    0.319    0.428   53.987
  345.000    2.716    0.321    0.426   53.996
  345.250    2.716    0.314    0.427   54.005
  345.500    2.716    0.305    0.427   54.011
  345.750    2.716    0.294    0.435   55.231
  346.000    2.717    0.294    0.440   57.054
  346.250    2.717    0.299    0.423   58.271
  346.500    2.667    0.311    0.422   60.700
  346.750    2.668    0.317    0.438   61.914
  347.000    2.619    0.319    0.444   64.948
  347.250    2.619    0.322    0.451   67.376
  347.500    2.571    0.315    0.447   69.802
  347.750    2.620    0.309    0.435   71.627
  348.000    2.620    0.305    0.429   72.844
  348.250    2.669    0.304    0.423   74.062
  348.500    2.669    0.301    0.420   75.281
  348.750    2.669    0.291    0.432   75.894
  349.000    2.670    0.287    0.451   75.903
  349.250    2.670    0.285    0.447   75.914
  349.500    2.720    0.283    0.450   75.919
  349.750    2.771    0.286    0.459   75.324
  350.000    2.823    0.298    0.470   75.936
  350.250    2.984    0.306    0.476   77.153
  350.500    3.039    0.306    0.477   78.370
  350.750    3.154    0.292    0.466   80.797
  351.000    3.097    0.278    0.453   83.224
  351.250    2.985    0.267    0.447   85.050
  351.500    2.772    0.261    0.442   86.266
  351.750    2.575    0.271    0.445   86.275
  352.000    2.482    0.286    0.455   80.838
  352.250    2.437    0.300    0.463   74.195
  352.500    2.392    0.307    0.460   71.177
  352.750    2.349    0.306    0.453   70.580
  353.000    2.393    0.298    0.461   69.380
  353.250    2.438    0.294    0.473   68.177
  353.500    2.530    0.294    0.464   67.580
  353.750    2.625    0.290    0.465   67.590
  354.000    2.674    0.286    0.485   70.017
  354.250    2.724    0.283    0.497   71.840
  354.500    2.674    0.280    0.485   71.848
  354.750    2.578    0.276    0.490   71.252
  355.000    2.485    0.272    0.479   71.865
  355.250    2.439    0.270    0.489   71.268
  355.500    2.224    0.273    0.490   69.463
  355.750    2.184    0.283    0.465   67.051
  356.000    2.144    0.290    0.455   66.455
  356.250    2.105    0.301    0.452   66.465
  356.500    2.066    0.309    0.458   65.868
  356.750    2.067    0.317    0.472   65.272
  357.000    2.029    0.320    0.479   64.068
  357.250    2.029    0.311    0.464   62.260
  357.500    2.029    0.306    0.439   59.245
  357.750    1.992    0.308    0.430   58.044
  358.000    1.920    0.314    0.429   58.659
  358.250    1.920    0.318    0.444   58.669
  358.500    1.885    0.326    0.453   59.280
  358.750    1.886    0.314    0.444   59.287
  359.000    1.886    0.322    0.453   59.295
  359.250    1.993    0.313    0.438   59.909
  359.500    2.069    0.310    0.430   60.521
  359.750    2.227    0.305    0.432   61.741
  360.000    2.443    0.301    0.439   62.956
  360.250    2.583    0.314    0.443   64.779
  360.500    2.680    0.307    0.445   67.207
  360.750    2.730    0.283    0.446   70.239
  361.000    2.781    0.270    0.444   74.483
  361.250    2.731    0.260    0.442   75.699
  361.500    2.632    0.265    0.440   73.895
  361.750    2.445    0.285    0.463   69.672
  362.000    2.356    0.310    0.487   67.862
  362.250    2.356    0.304    0.497   66.057
  362.500    2.682    0.304    0.501   65.459
  362.750    2.835    0.295    0.499   70.307
  363.000    3.052    0.283    0.491   74.549
  363.250    3.167    0.275    0.458   78.791
  363.500    3.053    0.265    0.439   83.035
  363.750    2.733    0.255    0.429   85.461
  364.000    2.538    0.247    0.425   87.282
  364.250    2.447    0.247    0.447   86.685
  364.500    2.273    0.273    0.463   75.809
  364.750    2.231    0.296    0.458   70.975
  365.000    2.315    0.317    0.441   64.935
  365.250    2.493    0.307    0.433   68.574
  365.500    2.587    0.292    0.439   70.396
  365.750    2.685    0.280    0.457   72.222
  366.000    2.891    0.268    0.474   73.436
  366.250    3.000    0.257    0.487   75.864
  366.500    3.056    0.249    0.483   78.291
  366.750    3.171    0.253    0.470   77.697
  367.000    3.231    0.255    0.470   77.706
  367.250    3.231    0.252    0.463   79.526
  367.500    3.291    0.243    0.457   83.164
  367.750    3.292    0.240    0.448   84.384
  368.000    3.353    0.236    0.464   84.390
  368.250    3.232    0.233    0.466   83.793
  368.500    3.115    0.233    0.454   84.406
  368.750    3.002    0.235    0.472   85.021
  369.000    2.894    0.250    0.488   84.425
  369.250    2.738    0.270    0.486   82.617
  369.500    2.639    0.285    0.471   78.996
  369.750    2.639    0.298    0.466   75.376
  370.000    2.639    0.285    0.469   72.965
  370.250    2.639    0.282    0.460   71.764
  370.500    2.739    0.292    0.447   71.168
  370.750    2.739    0.288    0.447   71.781
  371.000    2.791    0.287    0.459   72.391
  371.250    2.843    0.294    0.443   73.610
  371.500    2.896    0.283    0.432   76.039
  371.750    2.641    0.282    0.442   77.860
