~VERSION INFORMATION
 VERS.                 2.0:   CWLS LOG ASCII STANDARD -VERSION 2.0
 WRAP.                  NO:   ONE LINE PER DEPTH STEP
~WELL INFORMATION BLOCK
#MNEM.UNIT           DATA                    DESCRIPTION OF MNEMONIC
#---------    -------------------            -------------------------------
# Generated from Intellog Unique Number	CS_69_70/WELL/840
WELL.         BVX ET AL TWEEDIE              : Well_name    - WELL
LOC .         00/07-21-069-14W4/0            : Location     - LOCATION
UWI .         00/07-21-069-14W4/0            : Uwi          - UNIQUE WELL ID
ENTR.         SP                             : Entered      - ENTERED BY
SRVC.         SCHLUMBERGER                   : Scn          - SERVICE COMPANY
STRT.M        286.512                        : top_depth    - START DEPTH
STOP.M        472.262                        : bot_depth    - STOP DEPTH
STEP.M        0.25                           : increment    - STEP LENGTH
 NULL. -999.2500:NULL Value
~CURVE INFORMATION BLOCK
#MNEM UNIT       ERCB CURVE CODE    CURVE DESCRIPTION
#-----------   ------------------   ----------------------------------
DEPT.M        00 001 00 00         : DEPTH        - DEPTH
GR  .API      00 310 00 00         : GR           - GAMMA RAY
DPHI.V/V      00 890 00 00         : PHID         - DENSITY POROSITY (SANDSTONE)
NPHI.V/V      00 330 00 00         : PHIN         - NEUTRON POROSITY (SANDSTONE)
ILD .OHMM     00 120 00 00         : RESD         - DEEP RESISTIVITY (DIL)
~PARAMETER INFORMATION
#MNEM.UNIT           DATA             DESCRIPTION OF MNEMONIC
#---------         -----------     ------------------------------
GL  .M        569.9                : gl           - GROUND LEVEL ELEVATION
EREF.M        573.024              : kb           - ELEVATION OF DEPTH REFERENCE
DATM.M        569.9                : datum        - DATUM ELEVATION
TDD .M        478.536              : tdd          - TOTAL DEPTH DRILLER
RUN .         ONE                  : Run          - RUN NUMBER
ENG .         BILL                 : Engineer     - RECORDING ENGINEER
WIT .         JIM                  : Witness      - WITNESSED BY
MUD .         GEL                  : Mud_type     - MUD TYPE
MATR.         SANDSTONE            : Logunit      - NEUTRON MATRIX
TMAX.C        27.7778              : BHT          - MAXIMUM RECORDED TEMPERATURE
BHTD.M        478.536              : BHTDEP       - MAXIMUM RECORDED TEMPERATURE
MATR.         1                    : LOGUNIT      - NEUTRON MATRIX
RMT .C        25                   : MDTP         - TEMPERATURE OF MUD
NEUT.         1                    : NEUTRON      - NEUTRON TYPE
RESI.         0                    : RESIST       - RESISTIVITY TYPE
RMC .OHMM     0.25                 : RMC          - RESISTIVITY OF MUD CAKE
RMF .OHMM     0.25                 : RMF          - RESISTIVITY OF MUD FILTRATE
SUFT.C        15                   : SUFT         - SURFACE TEMPERATURE
~A  DEPTH       GR     PHID     PHIN     RESD
# ...
  330.012   93.541    0.276    0.490    3.277
  330.262   90.868    0.282    0.505    3.136
  330.512   90.391    0.294    0.484    3.047
  330.762   90.314    0.301    0.476    2.985
  331.012   92.303    0.298    0.489    2.928
  331.262   92.877    0.298    0.506    2.895
  331.512   92.321    0.302    0.522    2.902
  331.762   90.886    0.294    0.404    2.969
  332.012   88.967    0.256    0.375    3.106
  332.262   86.726    0.196    0.348    3.277
  332.512   85.458    0.170    0.340    3.445
  332.762   88.147    0.190    0.395    3.640
  333.012   89.449    0.260    0.460    3.770
  333.262   92.007    0.308    0.479    3.549
  333.512   95.712    0.310    0.477    3.363
  333.762   99.597    0.278    0.464    3.253
  334.012  101.856    0.260    0.478    3.190
  334.262  100.351    0.253    0.485    3.163
  334.512   99.733    0.267    0.476    3.176
  334.762  100.578    0.280    0.472    3.181
  335.012  102.346    0.265    0.473    3.165
  335.262  104.572    0.256    0.481    3.192
  335.512  106.234    0.253    0.499    3.206
  335.762  108.413    0.251    0.498    3.250
  336.012  108.992    0.246    0.494    3.279
  336.262  109.101    0.252    0.478    3.313
  336.512  110.467    0.250    0.471    3.357
  336.762  111.603    0.245    0.480    3.400
  337.012  112.169    0.222    0.501    3.479
  337.262  111.173    0.195    0.519    3.563
  337.512  109.722    0.227    0.517    3.662
  337.762  109.572    0.253    0.498    3.745
  338.012  108.435    0.243    0.498    3.830
  338.262  105.377    0.248    0.479    3.882
  338.512  100.730    0.258    0.472    3.963
  338.762   95.856    0.247    0.468    4.021
  339.012  103.735    0.231    0.465    4.061
  339.262  109.671    0.216    0.485    4.030
  339.512  111.772    0.209    0.517    3.936
  339.762  110.670    0.217    0.515    3.872
  340.012  112.591    0.259    0.502    3.804
  340.262  115.600    0.214    0.528    3.819
  340.512  116.590    0.247    0.519    3.899
  340.762  113.768    0.233    0.504    4.030
  341.012  113.342    0.229    0.484    4.162
  341.262  113.577    0.217    0.493    4.290
  341.512  109.077    0.227    0.479    4.469
  341.762  104.094    0.250    0.462    4.567
  342.012  102.454    0.257    0.448    4.675
  342.262  105.897    0.254    0.458    4.700
  342.512  107.385    0.240    0.471    4.717
  342.762  106.494    0.235    0.450    4.711
  343.012  105.837    0.223    0.421    4.711
  343.262  107.195    0.209    0.405    4.720
  343.512  109.610    0.194    0.401    4.728
  343.762  109.630    0.189    0.403    4.782
  344.012  106.156    0.186    0.406    4.900
  344.262  101.894    0.201    0.418    5.034
  344.512  105.922    0.218    0.437    5.154
  344.762  110.276    0.209    0.434    5.208
  345.012  113.535    0.194    0.427    5.228
  345.262  114.901    0.184    0.428    5.202
  345.512  114.649    0.188    0.436    5.137
  345.762  112.097    0.188    0.445    5.007
  346.012  108.690    0.176    0.499    4.982
  346.262  101.668    0.182    0.513    4.726
  346.512   97.544    0.249    0.496    4.447
  346.762   95.018    0.268    0.492    4.168
  347.012   98.600    0.261    0.486    3.943
  347.262  100.613    0.254    0.477    3.787
  347.512   99.287    0.236    0.469    3.718
  347.762   97.091    0.229    0.481    3.804
  348.012   95.182    0.241    0.492    3.875
  348.262   93.259    0.252    0.487    3.925
  348.512   90.966    0.263    0.489    3.861
  348.762   88.878    0.269    0.495    3.700
  349.012   92.061    0.280    0.498    3.445
  349.262   96.672    0.296    0.490    3.324
  349.512  100.192    0.305    0.483    3.237
  349.762   99.213    0.277    0.487    3.176
  350.012   97.225    0.256    0.494    3.278
  350.262   97.141    0.238    0.492    3.557
  350.512   97.010    0.227    0.480    3.777
  350.762   97.128    0.238    0.471    3.980
  351.012   98.400    0.243    0.468    4.064
  351.262   99.712    0.239    0.466    4.125
  351.512   97.330    0.248    0.459    4.153
  351.762   94.876    0.264    0.457    4.180
  352.012   93.124    0.268    0.458    4.166
  352.262   92.005    0.255    0.461    4.147
  352.512   91.395    0.252    0.454    4.149
  352.762   91.331    0.258    0.449    4.204
  353.012   94.379    0.267    0.443    4.260
  353.262   97.690    0.264    0.435    4.318
  353.512  102.578    0.261    0.435    4.356
  353.762  106.512    0.248    0.445    4.407
  354.012  100.966    0.240    0.451    4.451
  354.262   92.628    0.235    0.455    4.498
  354.512   84.758    0.236    0.453    4.518
  354.762   75.864    0.260    0.455    4.494
  355.012   69.641    0.279    0.455    3.920
  355.262   66.038    0.302    0.446    3.349
  355.512   74.818    0.297    0.449    2.979
  355.762   78.505    0.292    0.460    2.800
  356.012   81.889    0.303    0.467    2.676
  356.262   85.982    0.315    0.469    2.605
  356.512   87.891    0.310    0.472    2.583
  356.762   90.383    0.301    0.486    2.603
  357.012   92.326    0.292    0.472    2.699
  357.262   97.263    0.280    0.467    2.808
  357.512  102.492    0.252    0.501    2.979
  357.762  106.391    0.243    0.512    3.160
  358.012  111.308    0.246    0.517    3.319
  358.262  114.285    0.261    0.516    3.501
  358.512  116.235    0.235    0.516    3.610
  358.762  110.799    0.243    0.520    3.681
  359.012  109.707    0.239    0.522    3.601
  359.262  110.125    0.230    0.515    3.601
  359.512  106.662    0.223    0.511    3.648
  359.762  102.941    0.221    0.527    3.711
  360.012   98.517    0.233    0.522    3.770
  360.262   93.372    0.263    0.509    3.748
  360.512   88.653    0.283    0.504    3.604
  360.762   85.095    0.303    0.492    3.425
  361.012   83.177    0.293    0.475    3.249
  361.262   83.426    0.288    0.458    3.097
  361.512   84.246    0.288    0.452    2.960
  361.762   83.891    0.290    0.448    2.875
  362.012   80.713    0.293    0.453    2.823
  362.262   77.665    0.280    0.466    2.778
  362.512   83.068    0.273    0.482    2.755
  362.762   88.212    0.271    0.490    2.783
  363.012   90.836    0.266    0.469    2.827
  363.262   91.712    0.261    0.459    2.926
  363.512   89.034    0.260    0.459    3.021
  363.762   84.845    0.269    0.474    3.152
  364.012   80.787    0.286    0.471    3.212
  364.262   77.275    0.304    0.458    3.238
  364.512   77.737    0.302    0.452    3.179
  364.762   78.409    0.301    0.458    3.070
  365.012   78.201    0.305    0.463    2.958
  365.262   78.859    0.314    0.465    2.927
  365.512   81.885    0.312    0.453    2.953
  365.762   84.890    0.299    0.451    2.998
  366.012   88.620    0.291    0.462    3.049
  366.262   92.183    0.281    0.468    3.102
  366.512   94.857    0.276    0.478    3.142
  366.762   96.605    0.263    0.484    3.167
  367.012   99.171    0.266    0.467    3.199
  367.262  100.058    0.261    0.481    3.223
  367.512   97.879    0.263    0.498    3.226
  367.762   94.361    0.273    0.511    3.197
  368.012   90.396    0.297    0.514    3.139
  368.262   85.593    0.287    0.507    3.076
  368.512   82.987    0.278    0.500    3.023
  368.762   79.966    0.274    0.483    2.973
  369.012   82.276    0.288    0.482    2.934
  369.262   85.751    0.293    0.467    2.940
  369.512   88.536    0.273    0.453    3.022
  369.762   90.658    0.265    0.455    3.104
  370.012   91.936    0.284    0.471    2.998
  370.262   92.375    0.299    0.478    2.919
  370.512   92.359    0.282    0.483    2.873
  370.762   91.632    0.271    0.490    2.859
  371.012   91.246    0.290    0.471    2.853
  371.262   91.076    0.298    0.464    2.843
  371.512   91.419    0.298    0.470    2.821
  371.762   90.433    0.281    0.480    2.810
  372.012   87.778    0.292    0.471    2.812
  372.262   85.829    0.303    0.469    2.806
  372.512   88.689    0.309    0.468    2.821
  372.762   89.179    0.296    0.471    2.877
  373.012   85.805    0.289    0.471    2.942
  373.262   84.052    0.254    0.461    3.037
