~VERSION INFORMATION
 VERS.                 2.0:   CWLS LOG ASCII STANDARD -VERSION 2.0
 WRAP.                  NO:   ONE LINE PER DEPTH STEP
~WELL INFORMATION BLOCK
#MNEM.UNIT           DATA                    DESCRIPTION OF MNEMONIC
#---------    -------------------            -------------------------------
# Generated from Intellog Unique Number	CX_WELLS/WELL/2588
NULL.         -999.25                        : NULL_VALUE
WELL.         SIEBENS PONY                   : Well_name    - WELL              
LOC .         06-08-080-09W4                 : Location     - LOCATION          
UWI .         00/06-08-080-09W400            : Uwi          - UNIQUE WELL ID    
ENTR.         T                              : Entered      - ENTERED BY        
SRVC.         SCHLUMBERGER                   : Scn          - SERVICE COMPANY   
STRT.F        800                            : top_depth    - START DEPTH       
STOP.F        1620.21                        : bot_depth    - STOP DEPTH        
STEP.F        0.82                           : increment    - STEP LENGTH       
~CURVE INFORMATION BLOCK
#MNEM UNIT       ERCB CURVE CODE    CURVE DESCRIPTION
#-----------   ------------------   ----------------------------------
DEPT.F        00 001 00 00         : DEPTH        - DEPTH                       
GR  .API      00 310 00 00         : GR           - GAMMA RAY                   
NPHI.V/V      00 330 00 00         : PHIN         - NEUTRON POROSITY (SANDSTONE)
DPHI.V/V      00 890 00 00         : PHID         - DENSITY POROSITY (SANDSTONE)
ILD .OHMM     00 120 00 00         : RESD         - DEEP RESISTIVITY (DIL)      
~PARAMETER INFORMATION       
#MNEM.UNIT           DATA             DESCRIPTION OF MNEMONIC
#---------         -----------     ------------------------------
GL  .F        2298                 : gl           - GROUND LEVEL ELEVATION      
EREF.F        2310                 : kb           - ELEVATION OF DEPTH REFERENCE
DATM.F        2310                 : datum        - DATUM ELEVATION             
TDD .F        1654                 : tdd          - TOTAL DEPTH DRILLER         
RUN .         ONE                  : Run          - RUN NUMBER                  
ENG .         BILL                 : Engineer     - RECORDING ENGINEER          
WIT .         JIM                  : Witness      - WITNESSED BY                
MUD .         GEL                  : Mud_type     - MUD TYPE                    
MATR.         SANDSTONE            : Logunit      - NEUTRON MATRIX              
TMAX.F        73                   : BHT          - MAXIMUM RECORDED TEMPERATURE
BHTD.F        1653                 : BHTDEP       - MAXIMUM RECORDED TEMPERATURE
MATR.         1                    : LOGUNIT      - NEUTRON MATRIX              
RMT .F        68                   : MDTP         - TEMPERATURE OF MUD          
NEUT.         1                    : NEUTRON      - NEUTRON TYPE                
RESI.         4.78                 : RESIST       - RESISTIVITY TYPE            
RMC .OHMM     4.8                  : RMC          - RESISTIVITY OF MUD CAKE     
RMF .OHMM     4.8                  : RMF          - RESISTIVITY OF MUD FILTRATE 
SUFT.F        37.4                 : SUFT         - SURFACE TEMPERATURE         
~A  DEPTH       GR     PHIN     PHID     RESD
# ...
 1085.430   61.135    0.480    0.350    4.138
 1086.250   61.186    0.481    0.352    4.150
 1087.070   61.224    0.479    0.354    4.170
 1087.890   61.287    0.477    0.353    4.178
 1088.710   60.735    0.476    0.352    4.191
 1089.530   60.157    0.477    0.351    4.211
 1090.350   59.617    0.476    0.351    4.223
 1091.170   59.642    0.469    0.348    4.240
 1091.990   59.693    0.459    0.347    4.185
 1092.810   60.347    0.454    0.344    4.197
 1093.640   60.989    0.456    0.348    4.134
 1094.460   62.272    0.460    0.350    4.146
 1095.280   62.310    0.464    0.348    4.088
 1096.100   62.335    0.467    0.342    4.104
 1096.920   62.373    0.468    0.338    4.112
 1097.740   62.424    0.470    0.338    4.132
 1098.560   62.475    0.473    0.339    4.075
 1099.380   62.513    0.476    0.338    4.083
 1100.200   62.564    0.472    0.338    4.107
 1101.020   62.011    0.461    0.339    4.115
 1101.840   59.661    0.451    0.340    4.057
 1102.660   58.480    0.446    0.345    4.073
 1103.480   55.514    0.446    0.348    4.081
 1104.300   54.333    0.447    0.349    4.024
 1105.120   52.586    0.447    0.350    3.968
 1105.940   52.624    0.445    0.350    3.638
 1106.760   52.663    0.439    0.349    3.396
 1107.580   54.523    0.434    0.342    2.847
 1108.400   59.401    0.433    0.333    2.474
 1109.220   63.662    0.436    0.319    1.965
 1110.040   70.953    0.442    0.292    1.869
 1110.860   77.037    0.450    0.262    1.778
 1111.680   80.708    0.459    0.247    1.722
 1112.500   83.775    0.469    0.233    1.726
 1113.320   86.227    0.476    0.222    1.703
 1114.140   86.893    0.476    0.228    1.708
 1114.960   86.919    0.474    0.229    1.713
 1115.780   86.982    0.469    0.224    1.754
 1116.600   87.611    0.468    0.223    1.759
 1117.420   88.265    0.468    0.213    1.795
 1118.240   89.523    0.468    0.215    1.903
 1119.060   90.177    0.468    0.216    1.941
 1119.880   90.228    0.467    0.207    1.986
 1120.700   90.253    0.464    0.204    2.030
 1121.520   89.700    0.465    0.209    2.034
 1122.340   89.751    0.470    0.211    2.042
 1123.160   90.996    0.471    0.209    1.940
 1123.980   92.869    0.473    0.201    1.815
 1124.800   94.127    0.478    0.204    1.754
 1125.620   94.768    0.484    0.210    1.555
 1126.440   95.422    0.490    0.212    1.503
 1127.260   96.051    0.496    0.214    1.509
 1128.080   95.499    0.502    0.219    1.626
 1128.900   92.533    0.503    0.222    1.884
 1129.720   88.951    0.476    0.231    2.185
 1130.540   86.576    0.462    0.246    2.313
 1131.360   81.800    0.463    0.255    2.407
 1132.190   77.627    0.472    0.262    2.331
 1133.010   78.294    0.466    0.265    2.215
 1133.830   79.526    0.460    0.270    2.105
 1134.650   80.168    0.454    0.268    1.932
 1135.470   83.248    0.459    0.260    1.773
 1136.290   85.083    0.478    0.251    1.685
 1137.110   88.150    0.481    0.236    1.547
 1137.930   91.218    0.508    0.224    1.469
 1138.750   94.901    0.510    0.218    1.349
 1139.570   95.530    0.517    0.216    1.281
 1140.390   96.184    0.527    0.215    1.178
 1141.210   96.838    0.535    0.216    1.120
 1142.030   97.480    0.545    0.219    1.065
 1142.850   98.737    0.553    0.224    1.031
 1143.670  100.598    0.569    0.227    0.996
 1144.490  101.843    0.579    0.230    0.981
 1145.310  103.716    0.583    0.233    0.934
 1146.130  104.345    0.580    0.233    0.904
 1146.950  104.396    0.578    0.222    0.892
 1147.770  104.459    0.572    0.220    0.877
 1148.590  105.088    0.567    0.219    0.866
 1149.410  105.742    0.562    0.217    0.852
 1150.230  105.793    0.552    0.219    0.856
 1151.050  105.844    0.550    0.222    0.874
 1151.870  105.869    0.551    0.227    0.893
 1152.690  104.713    0.554    0.232    0.980
 1153.510  103.570    0.558    0.233    1.057
 1154.330  102.992    0.564    0.229    1.162
 1155.150  101.836    0.565    0.226    1.208
 1155.970   97.664    0.560    0.222    1.256
 1156.790   95.892    0.555    0.223    1.308
 1157.610   96.559    0.547    0.226    1.335
 1158.430   96.584    0.538    0.224    1.390
 1159.250   97.854    0.532    0.223    1.421
 1160.070   97.880    0.529    0.221    1.423
 1160.890   96.724    0.521    0.221    1.429
 1161.710   94.965    0.512    0.222    1.488
 1162.530   93.796    0.510    0.226    1.520
 1163.350   92.627    0.500    0.229    1.610
 1164.170   92.691    0.493    0.234    1.706
 1164.990   92.126    0.486    0.229    1.712
 1165.810   90.354    0.479    0.214    1.716
 1166.630   88.607    0.472    0.219    1.726
 1167.450   88.633    0.466    0.230    1.729
 1168.270   88.709    0.457    0.237    1.734
 1169.090   88.734    0.454    0.242    1.741
 1169.910   88.182    0.446    0.244    1.716
 1170.730   87.001    0.448    0.233    1.662
 1171.560   87.667    0.451    0.224    1.636
 1172.380   88.899    0.455    0.214    1.642
 1173.200   91.364    0.458    0.208    1.709
 1174.020   88.398    0.463    0.205    1.878
 1174.840   86.626    0.463    0.205    1.951
 1175.660   86.689    0.464    0.211    2.144
 1176.480   86.124    0.464    0.220    2.272
 1177.300   85.559    0.464    0.216    2.324
 1178.120   85.019    0.464    0.211    2.326
 1178.940   84.441    0.462    0.208    2.335
 1179.760   83.285    0.462    0.207    2.344
 1180.580   83.336    0.462    0.212    2.439
 1181.400   83.374    0.462    0.218    2.451
 1182.220   83.374    0.462    0.226    2.458
 1183.040   84.066    0.463    0.228    2.422
 1183.860   84.117    0.464    0.220    2.434
 1184.680   84.168    0.465    0.208    2.438
 1185.500   82.999    0.470    0.208    2.448
 1186.320   81.843    0.477    0.210    2.453
 1187.140   81.882    0.481    0.203    2.464
 1187.960   81.342    0.481    0.192    2.474
 1188.780   81.367    0.478    0.198    2.435
 1189.600   81.418    0.476    0.214    2.405
 1190.420   82.072    0.467    0.219    2.410
 1191.240   82.123    0.465    0.209    2.417
 1192.060   81.545    0.458    0.205    2.431
 1192.880   80.992    0.451    0.209    2.438
 1193.700   81.056    0.450    0.212    2.446
 1194.520   81.094    0.443    0.209    2.450
 1195.340   81.735    0.435    0.203    2.460
 1196.160   82.402    0.435    0.203    2.426
 1196.980   83.043    0.436    0.208    2.392
 1197.800   83.082    0.441    0.203    2.399
 1198.620   84.352    0.448    0.204    2.365
 1199.440   84.377    0.453    0.207    2.332
 1200.260   85.635    0.460    0.208    2.297
 1201.080   86.276    0.465    0.204    2.265
 1201.900   87.546    0.466    0.196    2.229
 1202.720   87.572    0.468    0.190    2.161
 1203.540   87.635    0.469    0.192    2.093
 1204.360   87.070    0.471    0.193    2.060
 1205.180   86.505    0.471    0.192    1.960
 1206.000   84.733    0.474    0.197    1.864
 1206.820   81.779    0.477    0.199    1.775
 1207.640   81.202    0.481    0.208    1.716
 1208.460   82.459    0.484    0.216    1.689
 1209.280   84.320    0.490    0.219    1.607
 1210.100   86.771    0.500    0.227    1.555
 1210.930   89.851    0.512    0.237    1.482
 1211.750   91.109    0.530    0.242    1.458
 1212.570   92.341    0.531    0.243    1.437
 1213.390   94.805    0.529    0.241    1.444
 1214.210   97.282    0.533    0.233    1.448
 1215.030   98.514    0.541    0.224    1.452
 1215.850   99.168    0.545    0.228    1.456
 1216.670   96.202    0.536    0.235    1.490
 1217.490   94.430    0.524    0.240    1.578
 1218.310   91.477    0.526    0.240    1.672
 1219.130   89.705    0.513    0.235    1.736
 1219.950   88.537    0.482    0.230    1.907
 1220.770   84.351    0.420    0.227    2.252
 1221.590   79.563    0.381    0.204    2.606
 1222.410   72.374    0.373    0.153    3.190
 1223.230   68.201    0.364    0.125    3.320
 1224.050   66.429    0.349    0.115    3.390
 1224.870   68.881    0.468    0.158    3.342
 1225.690   76.171    0.473    0.195    3.180
 1226.510   82.256    0.475    0.213    2.971
 1227.330   84.720    0.477    0.213    2.872
