~VERSION INFORMATION
 VERS.                 2.0:   CWLS LOG ASCII STANDARD -VERSION 2.0
 WRAP.                  NO:   ONE LINE PER DEPTH STEP
~WELL INFORMATION BLOCK
#MNEM.UNIT           DATA                    DESCRIPTION OF MNEMONIC
#---------    -------------------            -------------------------------
# Generated from Intellog Unique Number	CS_77_79/WELL/874
WELL.         ICGR LOCHIEL CHARD             : Well_name    - WELL
LOC .         00/06-12-079-06W4/0            : Location     - LOCATION
UWI .         00/06-12-079-06W4/0            : Uwi          - UNIQUE WELL ID
ENTR.         JHS                            : Entered      - ENTERED BY
SRVC.         SCHLUMBERGER                   : Scn          - SERVICE COMPANY
STRT.M        125                            : top_depth    - START DEPTH
STOP.M        305                            : bot_depth    - STOP DEPTH
STEP.M        0.25                           : increment    - STEP LENGTH
 NULL. -999.2500:NULL Value
~CURVE INFORMATION BLOCK
#MNEM UNIT       ERCB CURVE CODE    CURVE DESCRIPTION
#-----------   ------------------   ----------------------------------
DEPT.M        00 001 00 00         : DEPTH        - DEPTH
DPHI.V/V      00 890 00 00         : PHID         - DENSITY POROSITY (LIMESTONE)
NPHI.V/V      00 330 00 00         : PHIN         - NEUTRON POROSITY (LIMESTONE)
GR  .API      00 310 00 00         : GR           - GAMMA RAY
ILD .OHMM     00 120 00 00         : RESD         - DEEP RESISTIVITY (DIL)
RHOB.KG/M3    00 350 00 00         : DENS         - BULK DENSITY
~PARAMETER INFORMATION
#MNEM.UNIT           DATA             DESCRIPTION OF MNEMONIC
#---------         -----------     ------------------------------
GL  .M        475.8                : gl           - GROUND LEVEL ELEVATION
EREF.M        479.3                : kb           - ELEVATION OF DEPTH REFERENCE
DATM.M        479.3                : datum        - DATUM ELEVATION
TDD .M        313                  : tdd          - TOTAL DEPTH DRILLER
RUN .         ONE                  : Run          - RUN NUMBER
ENG .         BILL                 : Engineer     - RECORDING ENGINEER
WIT .         JIM                  : Witness      - WITNESSED BY
MUD .         GEL                  : Mud_type     - MUD TYPE
MATR.         LIMESTONE            : Logunit      - NEUTRON MATRIX
TMAX.C        20                   : BHT          - MAXIMUM RECORDED TEMPERATURE
BHTD.M        313                  : BHTDEP       - MAXIMUM RECORDED TEMPERATURE
MATR.         1                    : LOGUNIT      - NEUTRON MATRIX
RMT .C        25                   : MDTP         - TEMPERATURE OF MUD
NEUT.         1                    : NEUTRON      - NEUTRON TYPE
RESI.         0                    : RESIST       - RESISTIVITY TYPE
RMC .OHMM     0.25                 : RMC          - RESISTIVITY OF MUD CAKE
RMF .OHMM     0.25                 : RMF          - RESISTIVITY OF MUD FILTRATE
SUFT.C        15                   : SUFT         - SURFACE TEMPERATURE
~A  DEPTH     PHID     PHIN       GR     RESD     DENS
# ...
  198.000    0.194    0.429   74.592    8.726 2378.760
  198.250    0.181    0.472   78.904    8.248 2399.810
  198.500    0.266    0.463   83.226    7.233 2255.500
  198.750    0.273    0.447   89.391    6.109 2243.050
  199.000    0.255    0.447   95.548    5.063 2274.610
  199.250    0.255    0.492  103.541    4.357 2274.720
  199.500    0.263    0.516  109.698    4.119 2260.190
  199.750    0.263    0.524  107.292    4.277 2260.340
  200.000    0.263    0.511  103.040    4.524 2260.440
  200.250    0.270    0.499  100.026    4.970 2248.010
  200.500    0.285    0.519   99.452    4.970 2223.010
  200.750    0.274    0.547   97.647    4.878 2241.980
  201.000    0.267    0.515   94.619    4.698 2252.590
  201.250    0.292    0.499   92.216    4.611 2210.840
  201.500    0.305    0.507   92.857    4.878 2187.940
  201.750    0.291    0.526   93.527    5.358 2213.210
  202.000    0.275    0.495   92.934    5.997 2240.580
  202.250    0.267    0.463   89.297    6.227 2253.240
  202.500    0.258    0.449   93.630    6.465 2268.040
  202.750    0.260    0.454   96.718    6.465 2266.060
  203.000    0.285    0.435   92.471    6.227 2222.220
  203.250    0.293    0.420   87.003    5.777 2209.770
  203.500    0.268    0.458   87.034    5.359 2251.780
  203.750    0.254    0.486   88.303    4.699 2274.930
  204.000    0.251    0.478   92.022    4.199 2281.340
  204.250    0.263    0.484   92.048    3.352 2260.550
  204.500    0.302    0.511   87.804    2.939 2193.660
  204.750    0.336    0.558   90.289    2.626 2135.160
  205.000    0.341    0.596   91.547    2.391 2126.940
  205.250    0.331    0.599   90.358    2.303 2143.810
  205.500    0.314    0.564   84.891    2.303 2173.250
  205.750    0.317    0.535   83.086    2.303 2167.100
  206.000    0.335    0.528   84.980    2.303 2137.910
  206.250    0.330    0.578   85.615    2.347 2146.420
  206.500    0.307    0.584   86.262    2.392 2184.230
  206.750    0.293    0.567   86.914    2.437 2209.460
  207.000    0.274    0.536   88.783    2.677 2240.990
  207.250    0.264    0.518   90.045    2.886 2257.870
  207.500    0.281    0.510   80.900    3.353 2228.690
  207.750    0.296    0.516   82.776    3.753 2203.700
  208.000    0.273    0.525   93.831    4.123 2243.600
  208.250    0.254    0.522   93.260    4.528 2275.140
  208.500    0.259    0.492   90.851    5.262 2266.890
  208.750    0.290    0.435   89.662    5.780 2214.680
  209.000    0.263    0.419   86.638    6.469 2260.860
  209.250    0.259    0.418   83.620    6.592 2267.280
  209.500    0.245    0.381   84.281    6.592 2290.430
  209.750    0.222    0.373   84.910    6.116 2330.340
  210.000    0.222    0.399   88.620    5.464 2330.460
  210.250    0.297    0.514   94.179    4.615 2202.910
  210.500    0.298    0.495   94.825    4.281 2200.920
  210.750    0.288    0.480   92.408    4.124 2217.790
  211.000    0.266    0.464   90.624    4.047 2255.650
  211.250    0.257    0.435   90.041    3.898 2270.390
  211.500    0.246    0.460   93.134    3.755 2289.390
  211.750    0.250    0.498   98.067    3.616 2283.200
  212.000    0.258    0.513   98.104    3.549 2268.690
  212.250    0.263    0.511   91.412    3.483 2260.450
  212.500    0.264    0.505   93.899    3.483 2258.480
  212.750    0.263    0.538   96.994    3.419 2260.740
  213.000    0.264    0.519   90.907    3.355 2258.750
  213.250    0.272    0.494   87.882    3.355 2244.210
  213.500    0.277    0.507   93.429    3.484 2235.950
  213.750    0.264    0.494   95.924    3.899 2259.130
  214.000    0.257    0.462   91.667    4.794 2269.730
  214.250    0.257    0.437   84.981    5.570 2269.860
  214.500    0.271    0.435   85.010    6.119 2246.940
  214.750    0.274    0.438   89.332    6.005 2240.780
  215.000    0.254    0.435   92.436    5.676 2276.500
  215.250    0.240    0.440   91.854    5.266 2299.650
  215.500    0.269    0.475   85.776    4.978 2249.530
  215.750    0.246    0.477   86.418    5.468 2289.450
  216.000    0.229    0.470   90.131    6.597 2318.890
  216.250    0.240    0.491   90.177    7.811 2300.170
  216.500    0.232    0.417   83.472    8.580 2312.850
  216.750    0.139    0.350   74.333    9.249 2472.090
  217.000    0.088    0.306   71.924    9.603 2560.150
  217.250    0.101    0.351   78.686    9.604 2537.270
  217.500    0.221    0.406   83.017    9.786 2332.210
  217.750    0.277    0.358   76.314   10.160 2236.040
  218.000    0.298    0.330   70.857   10.749 2200.600
  218.250    0.293    0.316   70.882   10.750    0.000
  218.500    0.287    0.310   74.587   11.588 2219.710
  218.750    0.298    0.337   67.283   15.648 2200.970
  219.000    0.329    0.326   52.627   22.778 2146.660
  219.250    0.391    0.173   33.690   43.122 2042.100
  219.500    0.394    0.092   26.990   75.731 2035.960
  219.750    0.386    0.070   22.744  179.592 2050.760
  220.000    0.378    0.066   24.619  201.007 2063.420
  220.250    0.368    0.066   27.105  183.004 2080.320
  220.500    0.368    0.069   27.140  140.715 2080.440
  220.750    0.367    0.075   24.123  112.338 2082.660
  221.000    0.358    0.089   27.219  104.216 2097.440
  221.250    0.367    0.111   35.215  104.218 2082.900
  221.500    0.424    0.176   40.144   96.682 1984.640
  221.750    0.386    0.157   46.314   80.137 2049.680
  222.000    0.360    0.144   50.632   71.603 2093.770
  222.250    0.358    0.157   50.672   74.345 2098.080
  222.500    0.357    0.172   53.151   80.144 2100.310
  222.750    0.344    0.170   49.518   91.400 2121.380
  223.000    0.338    0.140   41.593  106.212 2131.970
  223.250    0.343    0.118   29.388  128.146 2123.710
  223.500    0.348    0.103   21.467  140.760 2115.490
  223.750    0.340    0.113   19.062  143.431 2128.180
  224.000    0.339    0.123   20.930  140.768 2130.370
  224.250    0.340    0.125   22.812  130.589 2128.420
  224.500    0.327    0.114   22.848  118.893 2151.570
  224.750    0.312    0.112   23.512  110.295 2176.840
  225.000    0.307    0.121   24.144  104.258 2185.340
  225.250    0.308    0.129   26.634   93.156 2183.370
  225.500    0.316    0.150   26.668   68.990 2168.850
  225.750    0.326    0.162   28.538   44.802 2152.200
  226.000    0.321    0.189   36.539   14.257 2160.700
  226.250    0.297    0.281   49.430    9.613 2202.730
  226.500    0.299    0.342   59.256    7.674 2198.660
  226.750    0.339    0.390   66.035    6.987 2129.690
  227.000    0.304    0.374   71.576    6.987 2190.530
  227.250    0.299    0.400   80.188    7.254 2199.030
  227.500    0.284    0.402   91.240    7.532 2224.290
  227.750    0.252    0.399  103.524    7.675 2278.860
  228.000    0.239    0.405  111.517    7.533 2302.000
  228.250    0.254    0.433  117.060    7.255 2274.910
  228.500    0.316    0.417  116.486    6.988 2170.370
  228.750    0.331    0.380   91.427    6.731 2143.270
  229.000    0.336    0.369   79.833    6.731 2135.040
  229.250    0.326    0.370   74.363    6.859 2151.940
  229.500    0.314    0.379   79.295    7.121 2172.960
  229.750    0.278    0.380   83.617    7.534 2233.810
  230.000    0.243    0.356   83.040    7.677 2294.660
  230.250    0.235    0.338   83.690    7.534 2307.350
  230.500    0.255    0.332   60.467    7.257 2273.970
  230.750    0.314    0.341   50.098    6.860 2173.630
  231.000    0.321    0.350   46.467    6.484 2161.200
  231.250    0.315    0.361   52.627    6.484 2171.810
  231.500    0.299    0.370   66.130    6.733 2199.130
  231.750    0.269    0.386   81.476    7.258 2249.490
  232.000    0.242    0.390   94.975    7.824 2295.660
  232.250    0.220    0.410  104.803    7.824 2333.520
  232.500    0.218    0.423  100.554    7.258 2337.790
  232.750    0.280    0.383   54.683    6.608 2231.150
  233.000    0.342    0.363   40.029    6.247 2124.510
  233.250    0.346    0.353   38.230    5.905 2118.360
  233.500    0.346    0.354   51.138    5.795 2118.510
  233.750    0.348    0.346   51.167    5.687 2114.450
  234.000    0.340    0.342   42.641    5.795 2129.220
  234.250    0.319    0.349   39.000    5.905 2164.940
