~VERSION INFORMATION
 VERS.                 2.0:   CWLS LOG ASCII STANDARD -VERSION 2.0
 WRAP.                  NO:   ONE LINE PER DEPTH STEP
~WELL INFORMATION BLOCK
#MNEM.UNIT           DATA                    DESCRIPTION OF MNEMONIC
#---------    -------------------            -------------------------------
# Generated from Intellog Unique Number	CW_70_72/WELL/3011
NULL.         -999.25                        : NULL_VALUE
WELL.         PEX CANAL 06-31                : Well_name    - WELL              
LOC .         06-31-070-23W4                 : Location     - LOCATION          
UWI .         00/06-31-070-23W4/0            : Uwi          - UNIQUE WELL ID    
ENTR.         jj                             : Entered      - ENTERED BY        
SRVC.         SCHLUMBERGER                   : Scn          - SERVICE COMPANY   
DATE.         13 MAR 83                      : Date         - LOG DATE          
STRT.M        405                            : top_depth    - START DEPTH       
STOP.M        610                            : bot_depth    - STOP DEPTH        
STEP.M        0.25                           : increment    - STEP LENGTH       
~CURVE INFORMATION BLOCK
#MNEM UNIT       ERCB CURVE CODE    CURVE DESCRIPTION
#-----------   ------------------   ----------------------------------
DEPT.M        00 001 00 00         : DEPTH        - DEPTH                       
ILD .OHMM     00 120 00 00         : RESD         - DEEP RESISTIVITY (DIL)      
CALI.MM       00 280 01 00         : CAL          - CALIPER                     
GR  .API      00 310 00 00         : GR           - GAMMA RAY                   
NPHI.V/V      00 330 00 00         : PHIN         - NEUTRON POROSITY (SANDSTONE)
DPHI.V/V      00 890 00 00         : PHID         - DENSITY POROSITY (SANDSTONE)
~PARAMETER INFORMATION       
#MNEM.UNIT           DATA             DESCRIPTION OF MNEMONIC
#---------         -----------     ------------------------------
GL  .M        627.8                : gl           - GROUND LEVEL ELEVATION      
EREF.M        631                  : kb           - ELEVATION OF DEPTH REFERENCE
DATM.M        627.8                : datum        - DATUM ELEVATION             
TDD .M        611                  : tdd          - TOTAL DEPTH DRILLER         
RUN .         ONE                  : Run          - RUN NUMBER                  
ENG .         BRADSHAW             : Engineer     - RECORDING ENGINEER          
WIT .         DENYAR               : Witness      - WITNESSED BY                
BASE.         EDM                  : Branch       - HOME BASE OF LOGGING UNIT   
MUD .         GEL CHEM             : Mud_type     - MUD TYPE                    
MATR.         SANDSTONE            : Logunit      - NEUTRON MATRIX              
TMAX.C        28.9                 : BHT          - MAXIMUM RECORDED TEMPERATURE
BHTD.M        612.1                : BHTDEP       - MAXIMUM RECORDED TEMPERATURE
RMT .C        26.1                 : MDTP         - TEMPERATURE OF MUD          
MUDD.KG/M     1130                 : MWT          - MUD DENSITY                 
NEUT.         1                    : NEUTRON      - NEUTRON TYPE                
RESI.         0                    : RESIST       - RESISTIVITY TYPE            
RM  .OHMM     4.08                 : RM           - RESISTIVITY OF MUD          
RMC .OHMM     0.25                 : RMC          - RESISTIVITY OF MUD CAKE     
RMF .OHMM     3.17                 : RMF          - RESISTIVITY OF MUD FILTRATE 
SUFT.C        0                    : SUFT         - SURFACE TEMPERATURE         
~A  DEPTH     RESD      CAL       GR     PHIN     PHID
  405.000    2.371  188.284   95.680    0.508    0.254
  405.250    2.395  187.750   96.743    0.493    0.258
  405.500    2.498  186.691   98.371    0.477    0.255
  405.750    2.644  186.263   97.674    0.484    0.237
  406.000    2.758  186.041   96.033    0.505    0.225
  406.250    2.849  186.033   97.599    0.515    0.225
  406.500    2.857  186.126   97.027    0.510    0.223
  406.750    2.729  186.014   96.518    0.500    0.216
  407.000    2.420  185.793  100.536    0.479    0.232
  407.250    2.421  185.572  102.227    0.474    0.245
  407.500    2.312  185.563   99.896    0.515    0.250
  407.750    2.180  185.552   97.312    0.524    0.245
  408.000    2.166  185.963   95.168    0.529    0.250
  408.250    2.259  186.687   91.076    0.537    0.260
  408.500    2.454  187.513   82.898    0.516    0.260
  408.750    2.837  187.398   73.839    0.485    0.260
  409.000    4.219  187.182   65.284    0.483    0.271
  409.250    6.298  186.857   58.740    0.472    0.285
  409.500    8.249  186.846   53.642    0.458    0.298
  409.750    9.339  186.942   52.756    0.444    0.305
  410.000    9.365  187.351   59.036    0.448    0.299
  410.250    8.618  187.865   56.704    0.458    0.290
  410.500    7.318  189.949   52.298    0.459    0.280
  410.750    6.354  192.349   56.566    0.445    0.267
  411.000    5.286  193.282   63.287    0.417    0.256
  411.250    4.506  193.168   69.567    0.453    0.243
  411.500    4.216  192.214   75.345    0.493    0.243
  411.750    4.005  191.157   73.516    0.484    0.260
  412.000    3.769  189.891   76.276    0.447    0.253
  412.250    3.507  191.555   87.209    0.425    0.243
  412.500    3.197  193.641   97.512    0.458    0.238
  412.750    2.959  194.575  102.912    0.486    0.234
  413.000    2.869  194.147  106.049    0.506    0.229
  413.250    2.958  193.192  106.421    0.517    0.223
  413.500    3.300  191.821  102.770    0.487    0.211
  413.750    3.771  190.239   97.671    0.451    0.197
  414.000    4.144  189.077   92.698    0.426    0.207
  414.250    4.338  188.334   89.549    0.389    0.202
  414.500    4.432  187.066   87.910    0.371    0.196
  414.750    4.571  187.056   86.143    0.371    0.218
  415.000    4.847  189.037   84.377    0.385    0.233
  415.250    5.316  190.495   81.982    0.422    0.180
  415.500    5.723  190.171   70.723    0.409    0.136
  415.750    5.632  188.798   64.934    0.346    0.135
  416.000    5.272  187.424   70.522    0.334    0.184
  416.250    4.998  186.682   76.112    0.434    0.216
  416.500    4.650  185.520   84.655    0.461    0.207
  416.750    4.240  184.987   84.460    0.464    0.207
  417.000    4.103  184.976   79.236    0.437    0.213
  417.250    4.053  185.595   77.659    0.424    0.221
  417.500    4.057  187.470   80.294    0.442    0.226
  417.750    4.083  188.927   85.065    0.462    0.228
  418.000    4.149  190.909   86.254    0.462    0.210
  418.250    4.199  192.261   84.990    0.444    0.200
  418.500    4.266  192.145   82.721    0.455    0.205
  418.750    4.343  191.194   81.773    0.461    0.213
  419.000    4.362  189.822   83.401    0.444    0.207
  419.250    4.342  189.286   85.722    0.421    0.200
  419.500    4.265  189.801   83.075    0.426    0.192
  419.750    4.135  192.620   77.599    0.454    0.192
  420.000    3.921  196.592   81.680    0.454    0.216
  420.250    3.759  190.086   88.464    0.415    0.225
  420.500    3.564  186.198   76.136    0.387    0.240
  420.750    3.279  184.615   67.644    0.410    0.264
  421.000    3.080  184.294   63.865    0.424    0.277
  421.250    3.043  184.807   65.620    0.410    0.253
  421.500    3.091  185.425   69.259    0.386    0.249
  421.750    3.285  186.881   72.083    0.383    0.246
  422.000    3.569  188.340   77.105    0.381    0.237
  422.250    3.722  188.748   77.540    0.379    0.209
  422.500    3.698  187.480   68.608    0.376    0.210
  422.750    3.499  186.214   59.737    0.362    0.246
  423.000    3.167  184.527   55.268    0.358    0.275
  423.250    2.876  182.737   51.489    0.370    0.290
  423.500    2.647  180.840   49.661    0.383    0.300
  423.750    2.490  179.783   47.203    0.384    0.305
  424.000    2.348  179.564   45.373    0.392    0.313
  424.250    2.324  179.659   46.374    0.404    0.317
  424.500    2.446  177.657   55.044    0.388    0.280
  424.750    2.590  174.400   69.937    0.396    0.256
  425.000    2.715  171.979   66.787    0.427    0.273
  425.250    2.918  169.456   68.227    0.412    0.263
  425.500    3.089  167.559   72.809    0.392    0.231
  425.750    3.264  167.655   76.262    0.388    0.196
  426.000    3.461  172.150   82.165    0.386    0.186
  426.250    3.706  182.618   90.018    0.400    0.200
  426.500    3.821  188.998   89.320    0.397    0.219
  426.750    3.733  187.312   83.467    0.385    0.236
  427.000    3.572  185.731   78.307    0.400    0.263
  427.250    3.349  185.091   70.757    0.408    0.283
  427.500    3.152  185.502   66.351    0.396    0.280
  427.750    3.000  186.329   66.407    0.397    0.277
  428.000    2.897  187.263   77.969    0.418    0.277
  428.250    2.732  187.882   92.422    0.448    0.275
  428.500    2.580  188.814  100.211    0.466    0.271
  428.750    2.455  189.433  102.593    0.484    0.265
  429.000    2.350  190.366  100.073    0.498    0.255
  429.250    2.295  190.985   98.369    0.503    0.243
  429.500    2.285  192.547  106.474    0.513    0.249
  429.750    2.369  194.316  117.343    0.524    0.254
  430.000    2.536  195.985  114.382    0.530    0.235
  430.250    2.803  198.384  107.776    0.449    0.224
  430.500    3.126  198.374  102.927    0.422    0.204
  430.750    3.403  197.106  101.036    0.404    0.190
  431.000    3.712  195.316   97.070    0.407    0.208
  431.250    3.981  192.057   90.527    0.417    0.239
  431.500    4.113  187.017   80.022    0.419    0.248
  431.750    4.132  184.492   70.587    0.408    0.241
  432.000    4.090  183.749   69.701    0.383    0.219
  432.250    4.048  183.844   79.564    0.385    0.206
  432.500    4.013  184.148   81.884    0.405    0.226
  432.750    4.032  183.615   83.513    0.419    0.242
  433.000    4.043  183.081   84.261    0.429    0.244
  433.250    4.032  182.546   81.740    0.441    0.252
  433.500    4.020  181.801   75.950    0.453    0.281
  433.750    4.017  181.164   75.505    0.462    0.294
  434.000    4.027  180.526   80.151    0.466    0.284
  434.250    4.023  179.784   76.436    0.456    0.238
  434.500    4.042  178.937   73.915    0.444    0.188
  434.750    4.084  177.773   75.291    0.441    0.222
  435.000    4.118  176.611   76.795    0.458    0.248
  435.250    4.130  175.973   78.172    0.450    0.274
  435.500    4.125  175.858   80.303    0.428    0.254
  435.750    4.145  175.639   79.291    0.448    0.233
  436.000    4.133  175.836   78.469    0.437    0.226
  436.250    3.896  176.247   78.903    0.429    0.220
  436.500    3.599  177.807   81.097    0.420    0.246
  436.750    3.330  179.999   85.994    0.413    0.244
  437.000    3.175  183.027   85.171    0.436    0.244
  437.250    3.055  185.427   85.039    0.447    0.262
  437.500    3.036  187.304   85.599    0.456    0.249
  437.750    3.124  188.445   80.501    0.478    0.245
  438.000    3.333  189.272   75.592    0.456    0.255
  438.250    3.528  189.262   81.998    0.449    0.249
  438.500    3.665  189.464   89.033    0.443    0.236
  438.750    3.880  188.718   88.650    0.426    0.228
  439.000    4.076  187.976   86.192    0.439    0.236
  439.250    4.228  186.605   83.295    0.432    0.253
  439.500    4.255  186.908   91.712    0.412    0.251
  439.750    4.172  188.367   98.622    0.428    0.235
  440.000    4.015  194.326  104.964    0.441    0.215
  440.250    3.878  200.081  107.663    0.452    0.208
  440.500    3.775  212.225  103.444    0.467    0.222
  440.750    3.701  209.387   96.083    0.478    0.232
  441.000    3.642  196.384   81.807    0.453    0.236
  441.250    3.639  182.858   70.234    0.447    0.269
