~VERSION INFORMATION
 VERS.                 2.0:   CWLS LOG ASCII STANDARD -VERSION 2.0
 WRAP.                  NO:   ONE LINE PER DEPTH STEP
~WELL INFORMATION BLOCK
#MNEM.UNIT           DATA                    DESCRIPTION OF MNEMONIC
#---------    -------------------            -------------------------------
# Generated from Intellog Unique Number	CS_69_70/WELL/134
WELL.         AFC MEDLEY 6-7-69 2 W4M        : Well_name    - WELL
LOC .         00/06-07-069-02W4/0            : Location     - LOCATION
UWI .         00/06-07-069-02W4/0            : Uwi          - UNIQUE WELL ID
ENTR.         ANDERSEN                       : Entered      - ENTERED BY
SRVC.         SCHLUMBERGER                   : Scn          - SERVICE COMPANY
STRT.M        375                            : top_depth    - START DEPTH
STOP.M        625                            : bot_depth    - STOP DEPTH
STEP.M        0.25                           : increment    - STEP LENGTH
 NULL. -999.2500:NULL Value
~CURVE INFORMATION BLOCK
#MNEM UNIT       ERCB CURVE CODE    CURVE DESCRIPTION
#-----------   ------------------   ----------------------------------
DEPT.M        00 001 00 00         : DEPTH        - DEPTH
ILD .OHMM     00 120 00 00         : RESD         - DEEP RESISTIVITY (DIL)
DPHI.V/V      00 890 00 00         : PHID         - DENSITY POROSITY (SANDSTONE)
NPHI.V/V      00 330 00 00         : PHIN         - NEUTRON POROSITY (SANDSTONE)
CALI.MM       00 280 01 00         : CAL          - CALIPER
GR  .API      00 310 00 00         : GR           - GAMMA RAY
~PARAMETER INFORMATION
#MNEM.UNIT           DATA             DESCRIPTION OF MNEMONIC
#---------         -----------     ------------------------------
GL  .M        717.8                : gl           - GROUND LEVEL ELEVATION
EREF.M        721.4                : kb           - ELEVATION OF DEPTH REFERENCE
DATM.M        721.4                : datum        - DATUM ELEVATION
TDD .M        626                  : tdd          - TOTAL DEPTH DRILLER
RUN .         ONE                  : Run          - RUN NUMBER
ENG .         BILL                 : Engineer     - RECORDING ENGINEER
WIT .         JIM                  : Witness      - WITNESSED BY
MUD .         GEL                  : Mud_type     - MUD TYPE
MATR.         SANDSTONE            : Logunit      - NEUTRON MATRIX
TMAX.C        27                   : BHT          - MAXIMUM RECORDED TEMPERATURE
BHTD.M        626                  : BHTDEP       - MAXIMUM RECORDED TEMPERATURE
MATR.         1                    : LOGUNIT      - NEUTRON MATRIX
RMT .C        19                   : MDTP         - TEMPERATURE OF MUD
NEUT.         1                    : NEUTRON      - NEUTRON TYPE
RESI.         0                    : RESIST       - RESISTIVITY TYPE
RMC .OHMM     3.3                  : RMC          - RESISTIVITY OF MUD CAKE
RMF .OHMM     6.9                  : RMF          - RESISTIVITY OF MUD FILTRATE
SUFT.C        15                   : SUFT         - SURFACE TEMPERATURE
~A  DEPTH     RESD     PHID     PHIN      CAL       GR
  375.000    2.881    0.214    0.435  164.348   91.555
  375.250    2.729    0.230    0.459  164.328   94.422
  375.500    2.586    0.247    0.491  164.298   97.286
  375.750    2.496    0.266    0.535  164.278   96.699
  376.000    2.544    0.269    0.497  164.258   96.687
  376.250    2.546    0.254    0.504  166.162   96.678
  376.500    2.595    0.253    0.522  168.062   97.817
  376.750    2.694    0.254    0.535  168.042   98.372
  377.000    2.696    0.256    0.540  168.982   98.366
  377.250    2.698    0.257    0.526  167.992   97.203
  377.500    2.700    0.258    0.523  166.053   95.463
  377.750    2.703    0.247    0.533  163.154   93.148
  378.000    2.911    0.209    0.527  161.215   90.833
  378.250    3.135    0.188    0.479  160.240   86.787
  378.500    3.314    0.168    0.450  162.139   84.472
  378.750    3.377    0.180    0.437  164.999   86.763
  379.000    3.380    0.227    0.446  164.974   91.358
  379.250    3.321    0.248    0.487  163.994   92.498
  379.500    3.205    0.248    0.525  162.055   91.334
  379.750    2.983    0.248    0.502  160.115   90.746
  380.000    2.826    0.270    0.484  158.176   93.610
  380.250    2.677    0.297    0.472  156.227   84.385
  380.500    2.583    0.329    0.425  155.252   75.736
  380.750    3.463    0.324    0.377  156.192   67.663
  381.000    5.888    0.349    0.339  158.091   60.165
  381.250    9.304    0.368    0.289  155.187   65.333
  381.500   12.703    0.355    0.299  154.208   72.806
  381.750   14.988    0.351    0.315  155.148   71.643
  382.000   15.277    0.359    0.297  155.128   68.176
  382.250   15.859    0.382    0.276  154.148   64.706
  382.500   17.079    0.408    0.257  153.164   62.970
  382.750   18.056    0.417    0.252  153.144   61.806
  383.000   18.744    0.419    0.258  154.083   66.973
  383.250   18.759    0.389    0.275  155.983   69.838
  383.500   18.779    0.356    0.302  156.923   68.098
  383.750   18.120    0.329    0.323  157.862   66.935
  384.000   17.485    0.300    0.342  157.842   69.229
  384.250   16.566    0.313    0.362  157.823   71.520
  384.500   15.412    0.327    0.387  156.843   71.508
  384.750   14.078    0.317    0.401  156.823   71.490
  385.000   13.097    0.315    0.406  157.763   72.630
  385.250   12.185    0.306    0.406  158.703   74.346
  385.500   11.130    0.300    0.401  158.683   75.485
  385.750   10.353    0.288    0.393  156.738   76.052
  386.000    9.809    0.279    0.398  155.754   74.310
  386.250    9.817    0.272    0.393  155.734   72.573
  386.500    9.827    0.285    0.357  156.674   65.645
  386.750    9.657    0.309    0.328  157.618   63.333
  387.000    9.844    0.326    0.382  158.558   82.899
  387.250    8.829    0.345    0.454  158.538   96.131
  387.500    7.778    0.364    0.492  158.508   90.361
  387.750    6.975    0.388    0.526  158.488   81.136
  388.000    5.922    0.457    0.568  158.469   72.487
  388.250    5.410    0.581    0.606  159.408   56.925
  388.500    5.932    0.519    0.605  159.388   51.730
  388.750    6.871    0.441    0.596  159.369   74.175
  389.000    7.401    0.362    0.476  157.429   79.346
  389.250    7.682    0.288    0.433  156.445   78.182
  389.500    7.830    0.300    0.410  155.465   77.019
  389.750    7.838    0.304    0.411  154.485   77.007
  390.000    7.843    0.292    0.419  155.425   78.140
  390.250    7.709    0.283    0.426  157.325   79.280
  390.500    7.576    0.280    0.429  157.305   81.574
  390.750    7.446    0.285    0.436  157.285   86.166
  391.000    7.185    0.289    0.441  156.300   89.612
  391.250    6.808    0.285    0.445  156.285   89.024
  391.500    6.939    0.273    0.435  156.265   85.557
  391.750    7.073    0.272    0.369  157.205   82.090
  392.000    7.342    0.275    0.342  157.185   79.772
  392.250    7.905    0.279    0.354  155.246   85.518
  392.500    8.356    0.262    0.385  153.297   87.234
  392.750    8.366    0.252    0.396  155.196   91.253
  393.000    8.073    0.245    0.411  157.096   89.510
  393.250    7.790    0.242    0.430  157.076   85.471
  393.500    7.796    0.266    0.425  156.096   76.818
  393.750    7.801    0.291    0.412  155.116   76.231
  394.000    8.100    0.294    0.378  154.137   81.977
  394.250    8.256    0.302    0.380  153.152   90.599
  394.500    8.415    0.314    0.408  153.132   99.227
  394.750    8.736    0.319    0.429  153.117  103.822
  395.000    8.743    0.314    0.424  153.092  108.414
  395.250    8.436    0.291    0.435  153.068  114.163
  395.500    7.850    0.277    0.439  153.058  112.423
  395.750    7.438    0.266    0.443  153.033  107.802
  396.000    7.442    0.256    0.449  153.013  105.484
  396.250    7.727    0.243    0.461  153.953  105.475
  396.500    6.804    0.233    0.477  153.928  107.766
  396.750    5.570    0.222    0.500  153.913  110.633
  397.000    4.730    0.225    0.499  153.893  109.470
  397.250    4.092    0.237    0.489  153.873  108.303
  397.500    3.947    0.243    0.490  153.853  108.867
  397.750    3.740    0.248    0.489  154.783  104.824
  398.000    3.609    0.259    0.481  154.763  100.206
  398.250    3.419    0.297    0.480  154.748   92.708
  398.500    3.299    0.315    0.473  154.723   80.604
  398.750    3.488    0.339    0.463  154.703   42.585
  399.000    3.967    0.364    0.449  154.683   42.573
  399.250    4.680    0.369    0.435  154.663   52.926
  399.500    6.391    0.357    0.410  154.643   66.734
  399.750    8.568    0.333    0.411  153.664   76.511
  400.000    9.570    0.316    0.420  153.644   80.529
  400.250    9.755    0.303    0.430  153.624   73.605
  400.500   10.126    0.279    0.442  153.599   74.744
  400.750   10.322    0.270    0.453  153.584   75.305
  401.000   10.330    0.274    0.453  153.564   74.141
  401.250   10.339    0.276    0.454  153.534   72.978
  401.500   10.348    0.264    0.461  153.519   73.542
  401.750   10.356    0.245    0.461  153.494   75.833
  402.000   10.367    0.253    0.458  153.475   78.127
  402.250   10.188    0.285    0.452  153.450   78.685
  402.500   10.196    0.294    0.457  153.440   79.249
  402.750   10.022    0.289    0.479  153.420   80.392
  403.000    9.849    0.243    0.481  153.390   78.077
  403.250    9.679    0.225    0.466  153.365   76.913
  403.500    9.514    0.259    0.438  153.350   75.746
  403.750    9.345    0.310    0.389  153.325   71.128
  404.000    9.186    0.405    0.209  153.310   61.903
  404.250    9.363    0.465    0.179  153.295   54.981
  404.500   10.845    0.453    0.180  153.275   51.514
  404.750   15.929    0.421    0.272  152.286   53.803
  405.000   21.748    0.342    0.309  152.266   58.400
  405.250   22.168    0.352    0.317  151.291   49.172
  405.500   19.883    0.403    0.255  151.271   41.675
  405.750   18.163    0.414    0.165  151.251   36.480
  406.000   18.517    0.404    0.131  151.232   31.859
  406.250   22.246    0.396    0.118  151.202   30.695
  406.500   29.823    0.405    0.125  151.187   35.866
  406.750   41.468    0.426    0.144  150.202   41.612
  407.000   56.640    0.442    0.189  150.182   46.779
  407.250   52.682    0.444    0.212  150.157   50.225
  407.500   43.923    0.434    0.249  150.147   50.789
  407.750   33.424    0.419    0.278  149.158   49.626
  408.000   27.867    0.406    0.313  149.138   47.886
  408.250   22.818    0.385    0.353  149.118   48.447
  408.500   19.732    0.366    0.398  148.133   51.890
  408.750   17.695    0.347    0.408  148.118   55.333
  409.000   15.302    0.338    0.403  148.093   56.470
  409.250   13.728    0.340    0.404  148.084   56.461
  409.500   12.313    0.339    0.405  149.013   57.597
  409.750   11.666    0.338    0.401  149.953   55.285
  410.000   11.051    0.331    0.394  149.933   55.270
  410.250   10.664    0.324    0.395  150.873   56.989
  410.500   10.479    0.320    0.402  149.893   58.125
  410.750   10.490    0.320    0.408  148.914   60.417
  411.000   10.311    0.323    0.411  148.894   65.587
  411.250   10.131    0.321    0.413  150.788   71.333
