~VERSION INFORMATION
 VERS.                 2.0:   CWLS LOG ASCII STANDARD -VERSION 2.0
 WRAP.                  NO:   ONE LINE PER DEPTH STEP
~WELL INFORMATION BLOCK
#MNEM.UNIT           DATA                    DESCRIPTION OF MNEMONIC
#---------    -------------------            -------------------------------
# Generated from Intellog Unique Number	CW_79_81/WELL/2462
WELL.         07-32-081-20W4                 : Well_name    - WELL
LOC .         00/07-32-081-20W4/0            : Location     - LOCATION
UWI .         00/07-32-081-20W4/0            : Uwi          - UNIQUE WELL ID
ENTR.         MAX                            : Entered      - ENTERED BY
SRVC.         COMPUTALOG                     : Scn          - SERVICE COMPANY
STRT.M        152.4                          : top_depth    - START DEPTH
STOP.M        383.90                         : bot_depth    - STOP DEPTH
STEP.M        0.25                           : increment    - STEP LENGTH
 NULL. -999.2500:NULL Value
~CURVE INFORMATION BLOCK
#MNEM UNIT       ERCB CURVE CODE    CURVE DESCRIPTION
#-----------   ------------------   ----------------------------------
DEPT.M        00 001 00 00         : DEPTH        - DEPTH
ILD .OHMM     00 120 00 00         : RESD         - DEEP RESISTIVITY (DIL)
NPHI.V/V      00 330 00 00         : PHIN         - NEUTRON POROSITY (SANDSTONE)
DPHI.V/V      00 890 00 00         : PHID         - DENSITY POROSITY (SANDSTONE)
GR  .API      00 310 00 00         : GR           - GAMMA RAY
CALI.MM       00 280 01 00         : CAL          - CALIPER
~PARAMETER INFORMATION
#MNEM.UNIT           DATA             DESCRIPTION OF MNEMONIC
#---------         -----------     ------------------------------
GL  .M        586.77               : gl           - GROUND LEVEL ELEVATION
EREF.M        590.123              : kb           - ELEVATION OF DEPTH REFERENCE
DATM.M        586.77               : datum        - DATUM ELEVATION
TDD .M        399.288              : tdd          - TOTAL DEPTH DRILLER
RUN .         ONE                  : Run          - RUN NUMBER
ENG .         BILL                 : Engineer     - RECORDING ENGINEER
WIT .         JIM                  : Witness      - WITNESSED BY
MUD .         GEL                  : Mud_type     - MUD TYPE
MATR.         SANDSTONE            : Logunit      - NEUTRON MATRIX
TMAX.C        16.6667              : BHT          - MAXIMUM RECORDED TEMPERATURE
BHTD.M        399.288              : BHTDEP       - MAXIMUM RECORDED TEMPERATURE
MATR.         1                    : LOGUNIT      - NEUTRON MATRIX
RMT .C        7.77778              : MDTP         - TEMPERATURE OF MUD
NEUT.         1                    : NEUTRON      - NEUTRON TYPE
RESI.         0                    : RESIST       - RESISTIVITY TYPE
RMC .OHMM     3.9                  : RMC          - RESISTIVITY OF MUD CAKE
RMF .OHMM     4.15                 : RMF          - RESISTIVITY OF MUD FILTRATE
SUFT.C        -20.5556             : SUFT         - SURFACE TEMPERATURE
~A  DEPTH     RESD     PHIN     PHID       GR      CAL
# ...
  298.400    7.905    0.463    0.302  115.486  155.917
  298.650    7.792    0.457    0.300  115.813  156.272
  298.900    7.641    0.463    0.299  116.968  156.828
  299.150    7.488    0.464    0.291  118.841  156.938
  299.400    7.355    0.451    0.281  125.964  157.715
  299.650    7.353    0.433    0.279  129.724  158.075
  299.900    7.468    0.424    0.276  129.046  157.827
  300.150    7.578    0.427    0.274  126.297  157.380
  300.400    7.615    0.437    0.272  124.317  156.936
  300.650    7.568    0.436    0.269  126.908  156.477
  300.900    7.500    0.448    0.268  129.345  156.434
  301.150    7.436    0.451    0.267  133.342  156.789
  301.400    7.395    0.449    0.264  132.011  156.844
  301.650    7.440    0.449    0.260  130.683  156.796
  301.900    7.548    0.455    0.256  131.308  156.847
  302.150    7.615    0.463    0.251  132.557  157.192
  302.400    7.647    0.468    0.247  133.020  157.145
  302.650    7.582    0.471    0.242  133.939  156.289
  302.900    7.493    0.459    0.236  134.861  156.044
  303.150    7.397    0.451    0.236  136.966  156.198
  303.400    7.285    0.455    0.243  141.021  156.752
  303.650    7.119    0.471    0.254  147.872  158.071
  303.900    7.085    0.481    0.252  150.307  158.864
  304.150    7.270    0.480    0.252  149.097  159.214
  304.400    7.548    0.474    0.253  147.354  158.970
  304.650    7.890    0.464    0.256  143.539  157.923
  304.900    8.304    0.451    0.261  138.423  156.472
  305.150    8.989    0.438    0.262  134.434  155.368
  305.400    9.786    0.427    0.260  131.203  154.058
  305.650   10.585    0.399    0.255  123.603  153.616
  305.900   11.173    0.381    0.250  121.680  154.076
  306.150   11.689    0.391    0.261  123.900  155.032
  306.400   12.073    0.414    0.282  128.252  155.783
  306.650   11.937    0.408    0.290  132.049  155.319
  306.900   11.739    0.426    0.282  131.035  155.281
  307.150   11.737    0.426    0.259  121.065  155.231
  307.400   11.876    0.413    0.243  116.421  155.789
  307.650   12.169    0.394    0.237  115.683  156.543
  307.900   12.711    0.368    0.233  116.779  157.194
  308.150   14.006    0.330    0.212  116.887  157.548
  308.400   15.541    0.300    0.187  116.366  157.495
  308.650   16.982    0.270    0.162  111.840  157.454
  308.900   18.512    0.209    0.139  105.362  157.403
  309.150   19.788    0.113    0.099   99.535  157.157
  309.400   20.578    0.019    0.056   97.317  156.815
  309.650   20.763    0.017    0.072  104.289  156.752
  309.900   19.853    0.063    0.106  115.602  156.709
  310.150   17.720    0.185    0.118  125.515  156.663
  310.400   15.993    0.317    0.150  131.882  156.618
  310.650   14.034    0.396    0.185  133.037  156.567
  310.900   12.478    0.402    0.203  129.988  156.517
  311.150   12.155    0.348    0.188  126.452  156.553
  311.400   11.665    0.297    0.173  126.673  156.913
  311.650   11.632    0.312    0.151  127.832  156.877
  311.900   11.359    0.354    0.182  126.859  156.830
  312.150   10.860    0.405    0.222  125.886  156.782
  312.400   10.344    0.448    0.246  126.214  156.736
  312.650   10.130    0.462    0.249  129.248  156.681
  312.900   10.160    0.439    0.244  133.905  156.634
  313.150   10.253    0.449    0.249  131.508  156.593
  313.400   10.368    0.437    0.253  129.824  156.545
  313.650   10.398    0.430    0.253  129.916  156.494
  313.900   10.334    0.434    0.249  133.559  156.546
  314.150   10.249    0.441    0.243  143.822  156.974
  314.400   10.149    0.441    0.236  146.747  157.339
  314.650   10.053    0.426    0.235  147.909  157.699
  314.900    9.884    0.417    0.238  145.870  157.754
  315.150    9.694    0.422    0.241  142.883  157.711
  315.400    9.520    0.441    0.241  139.956  157.769
  315.650    9.339    0.461    0.234  137.044  158.113
  315.900    9.076    0.454    0.226  138.002  158.056
  316.150    8.853    0.433    0.226  138.685  158.420
  316.400    8.821    0.438    0.232  137.059  158.173
  316.650    8.835    0.440    0.239  135.492  157.927
  316.900    8.833    0.438    0.241  135.525  157.882
  317.150    8.818    0.458    0.234  138.207  157.985
  317.400    8.750    0.440    0.227  139.904  158.772
  317.650    8.622    0.445    0.229  139.638  159.533
  317.900    8.470    0.456    0.233  139.909  159.689
  318.150    8.376    0.449    0.232  139.527  159.440
  318.400    8.389    0.426    0.227  137.190  158.889
  318.650    8.557    0.418    0.231  131.477  158.030
  318.900    8.621    0.430    0.237  131.449  157.992
  319.150    8.334    0.394    0.227  132.605  156.739
  319.400    7.899    0.427    0.216  136.602  158.195
  319.650    7.543    0.450    0.214  138.467  161.157
  319.900    7.409    0.442    0.218  136.664  163.720
  320.150    7.685    0.442    0.223  131.653  163.010
  320.400    7.981    0.442    0.233  124.473  161.714
  320.650    8.746    0.423    0.242  116.399  158.053
  320.900    9.632    0.403    0.249  114.004  156.505
  321.150   10.965    0.376    0.248  110.426  156.261
  321.400   12.956    0.345    0.237  104.775  156.614
  321.650   15.416    0.299    0.200  100.907  156.869
  321.900   16.577    0.226    0.154   94.715  156.413
  322.150   17.749    0.096    0.118   94.451  156.764
  322.400   18.779    0.028    0.098   93.298  157.415
  322.650   19.092    0.005    0.087   92.560  158.171
  322.900   18.570    0.006    0.082   92.890  158.730
  323.150   17.608    0.036    0.098   94.968  158.590
  323.400   17.312    0.146    0.133   98.388  158.121
  323.650   16.804    0.145    0.118   97.888  158.080
  323.900   16.101    0.112    0.096   99.695  157.431
  324.150   15.460    0.093    0.090  102.628  156.784
  324.400   14.866    0.106    0.107  104.851  156.440
  324.650   13.945    0.157    0.140  104.310  156.380
  324.900   13.135    0.213    0.158  106.504  156.332
  325.150   12.528    0.245    0.171  110.267  156.687
  325.400   11.999    0.275    0.168  113.317  156.745
  325.650   11.443    0.304    0.169  118.733  156.898
  325.900   10.709    0.331    0.184  124.683  157.247
  326.150    9.472    0.358    0.222  124.360  157.681
  326.400    8.603    0.384    0.249  124.091  158.051
  326.650    8.411    0.407    0.249  125.718  157.605
  326.900    8.340    0.427    0.247  128.414  157.462
  327.150    8.384    0.427    0.247  132.174  157.417
  327.400    8.524    0.408    0.249  134.927  157.166
  327.650    8.768    0.401    0.247  131.938  156.222
  327.900    9.063    0.416    0.248  128.948  155.762
  328.150    9.435    0.428    0.247  130.576  155.716
  328.400    9.763    0.429    0.246  132.027  155.670
  328.650   10.046    0.432    0.245  133.067  155.420
  328.900   10.258    0.438    0.243  133.397  154.969
  329.150   10.344    0.432    0.238  133.048  154.353
  329.400   10.309    0.426    0.235  134.986  153.461
  329.650   10.181    0.440    0.236  136.382  153.024
  329.900   10.053    0.451    0.228  134.758  153.478
  330.150   10.005    0.447    0.221  134.851  154.232
  330.400   10.034    0.431    0.218  138.436  154.787
  330.650   10.084    0.428    0.216  144.271  154.647
  330.900   10.180    0.433    0.214  143.996  154.172
  331.150   10.210    0.429    0.215  147.280  154.527
  331.400   10.239    0.424    0.221  151.099  154.585
  331.650   10.253    0.431    0.230  152.493  154.542
  331.900   10.267    0.446    0.237  151.402  154.596
  332.150   10.334    0.443    0.231  150.754  154.943
  332.400   10.365    0.431    0.225  151.224  154.900
  332.650   10.395    0.411    0.215  150.250  155.251
  332.900   10.448    0.421    0.204  148.922  155.608
  333.150   10.509    0.437    0.200  148.303  155.963
  333.400   10.585    0.446    0.202  148.217  156.215
  333.650   10.729    0.450    0.209  147.236  156.161
  333.900   10.825    0.445    0.213  147.203  156.118
  334.150   10.886    0.435    0.217  146.705  157.270
  334.400   10.947    0.427    0.214  145.673  157.821
  334.650   10.992    0.426    0.214  143.634  157.971
