~VERSION INFORMATION
 VERS.                 2.0:   CWLS LOG ASCII STANDARD -VERSION 2.0
 WRAP.                  NO:   ONE LINE PER DEPTH STEP
~WELL INFORMATION BLOCK
#MNEM.UNIT           DATA                    DESCRIPTION OF MNEMONIC
#---------    -------------------            -------------------------------
# Generated from Intellog Unique Number	CX_WELLS/WELL/3294
WELL.         NEWBY                          : Well_name    - WELL
LOC .         00/09-32-084-05W4/0            : Location     - LOCATION
UWI .         00/09-32-084-05W400            : Uwi          - UNIQUE WELL ID
ENTR.         T                              : Entered      - ENTERED BY
SRVC.         SCHLUMBERGER                   : Scn          - SERVICE COMPANY
STRT.M        80                             : top_depth    - START DEPTH
STOP.M        280                            : bot_depth    - STOP DEPTH
STEP.M        0.25                           : increment    - STEP LENGTH
 NULL. -999.2500:NULL Value
~CURVE INFORMATION BLOCK
#MNEM UNIT       ERCB CURVE CODE    CURVE DESCRIPTION
#-----------   ------------------   ----------------------------------
DEPT.M        00 001 00 00         : DEPTH        - DEPTH
GR  .API      00 310 00 00         : GR           - GAMMA RAY
NPHI.V/V      00 330 00 00         : PHIN         - NEUTRON POROSITY (SANDSTONE)
DPHI.V/V      00 890 00 00         : PHID         - DENSITY POROSITY (SANDSTONE)
ILD .OHMM     00 120 00 00         : RESD         - DEEP RESISTIVITY (DIL)
~PARAMETER INFORMATION
#MNEM.UNIT           DATA             DESCRIPTION OF MNEMONIC
#---------         -----------     ------------------------------
GL  .M        454.8                : gl           - GROUND LEVEL ELEVATION
EREF.M        458.3                : kb           - ELEVATION OF DEPTH REFERENCE
DATM.M        458.3                : datum        - DATUM ELEVATION
TDD .M        294                  : tdd          - TOTAL DEPTH DRILLER
RUN .         ONE                  : Run          - RUN NUMBER
ENG .         BILL                 : Engineer     - RECORDING ENGINEER
WIT .         JIM                  : Witness      - WITNESSED BY
MUD .         GEL                  : Mud_type     - MUD TYPE
MATR.         SANDSTONE            : Logunit      - NEUTRON MATRIX
TMAX.C        26                   : BHT          - MAXIMUM RECORDED TEMPERATURE
BHTD.M        294                  : BHTDEP       - MAXIMUM RECORDED TEMPERATURE
MATR.         1                    : LOGUNIT      - NEUTRON MATRIX
RMT .C        16                   : MDTP         - TEMPERATURE OF MUD
NEUT.         1                    : NEUTRON      - NEUTRON TYPE
RESI.         4.8                  : RESIST       - RESISTIVITY TYPE
RMC .OHMM     4                    : RMC          - RESISTIVITY OF MUD CAKE
RMF .OHMM     3.5                  : RMF          - RESISTIVITY OF MUD FILTRATE
SUFT.C        4                    : SUFT         - SURFACE TEMPERATURE
~A  DEPTH       GR     PHIN     PHID     RESD
# ...
  123.500   67.863    0.477    0.281    5.599
  123.750   66.182    0.482    0.276    5.503
  124.000   63.910    0.511    0.263    5.312
  124.250   62.230    0.526    0.258    5.119
  124.500   61.733    0.551    0.256    4.757
  124.750   61.851    0.574    0.258    4.506
  125.000   61.945    0.561    0.258    4.342
  125.250   63.293    0.556    0.257    4.272
  125.500   64.547    0.551    0.258    4.122
  125.750   65.801    0.537    0.265    4.051
  126.000   67.055    0.524    0.272    3.837
  126.250   70.155    0.519    0.252    3.702
  126.500   71.409    0.521    0.247    3.569
  126.750   74.508    0.534    0.254    3.254
  127.000   76.354    0.542    0.264    3.138
  127.250   79.406    0.548    0.275    3.026
  127.500   82.459    0.553    0.285    2.919
  127.750   86.718    0.529    0.291    2.817
  128.000   91.545    0.523    0.299    2.770
  128.250   91.048    0.519    0.300    2.723
  128.500   90.574    0.516    0.300    2.678
  128.750   90.668    0.512    0.304    2.737
  129.000   91.331    0.521    0.307    2.794
  129.250   92.040    0.549    0.304    2.911
  129.500   92.750    0.559    0.295    3.031
  129.750   93.436    0.562    0.284    3.157
  130.000   94.098    0.527    0.276    3.412
  130.250   94.784    0.518    0.273    3.693
  130.500   96.085    0.495    0.271    3.844
  130.750   97.386    0.495    0.268    4.079
  131.000   98.641    0.503    0.268    4.245
  131.250   99.918    0.495    0.274    4.504
  131.500  101.787    0.479    0.274    4.690
  131.750  103.656    0.473    0.272    5.075
  132.000  104.981    0.460    0.271    5.181
  132.250  105.643    0.446    0.269    5.397
  132.500  105.738    0.444    0.269    5.616
  132.750  106.424    0.446    0.270    5.850
  133.000  105.927    0.447    0.271    5.863
  133.250  103.655    0.444    0.273    5.985
  133.500  102.566    0.440    0.282    6.005
  133.750  105.026    0.441    0.298    6.012
  134.000  108.694    0.444    0.299    6.032
  134.250  106.446    0.447    0.289    6.159
  134.500  104.174    0.447    0.275    6.294
  134.750  100.103    0.436    0.261    6.422
  135.000   97.239    0.422    0.255    6.690
  135.250   96.151    0.411    0.256    7.107
  135.500   93.287    0.399    0.261    7.115
  135.750   90.400    0.403    0.260    7.276
  136.000   90.518    0.427    0.256    7.288
  136.250   90.612    0.431    0.260    7.300
  136.500   90.115    0.450    0.266    7.321
  136.750   89.665    0.464    0.266    7.067
  137.000   89.120    0.477    0.264    7.083
  137.250   89.215    0.447    0.263    6.837
  137.500   89.309    0.437    0.263    6.849
  137.750   89.995    0.451    0.260    6.856
  138.000   90.681    0.460    0.257    6.871
  138.250   92.006    0.464    0.253    6.887
  138.500   93.283    0.460    0.252    6.902
  138.750   94.561    0.451    0.252    6.917
  139.000   95.838    0.452    0.262    6.933
  139.250   94.749    0.447    0.265    6.952
  139.500   91.909    0.437    0.265    6.833
  139.750   90.773    0.437    0.261    6.596
  140.000   90.300    0.443    0.256    6.479
  140.250   92.145    0.451    0.254    6.020
  140.500   95.837    0.460    0.257    5.588
  140.750   98.297    0.474    0.263    5.098
  141.000   99.551    0.472    0.266    4.913
  141.250  102.036    0.464    0.263    4.653
  141.500  103.313    0.454    0.260    4.573
  141.750  103.408    0.457    0.256    4.502
  142.000  101.727    0.463    0.262    4.509
  142.250   98.296    0.455    0.274    4.432
  142.500   95.408    0.445    0.280    4.530
  142.750   94.935    0.436    0.283    4.718
  143.000   95.621    0.438    0.281    4.910
  143.250   97.490    0.448    0.278    5.412
  143.500   98.767    0.470    0.278    5.966
  143.750  101.228    0.483    0.278    6.330
  144.000  102.506    0.500    0.277    6.466
  144.250  102.008    0.519    0.278    6.002
  144.500   99.736    0.526    0.277    5.265
  144.750   98.056    0.497    0.269    4.710
  145.000   96.375    0.445    0.275    4.811
  145.250   94.151    0.382    0.293    5.301
  145.500   93.630    0.351    0.321    6.186
  145.750   93.109    0.318    0.350    8.098
  146.000   91.452    0.298    0.353   11.658
  146.250   89.795    0.299    0.340   13.098
  146.500   88.068    0.294    0.346   14.723
  146.750   84.044    0.281    0.357   16.230
  147.000   86.481    0.269    0.370   17.222
  147.250   89.534    0.256    0.375   17.250
  147.500   93.201    0.247    0.374   16.030
  147.750   97.461    0.251    0.365   14.880
  148.000   99.306    0.266    0.351   13.567
  148.250  100.016    0.282    0.319   12.835
  148.500  100.134    0.309    0.292   11.475
  148.750  100.204    0.348    0.277   10.652
  149.000   98.548    0.391    0.261    9.523
  149.250   92.702    0.433    0.286    8.515
  149.500   86.857    0.451    0.308    7.759
  149.750   79.876    0.441    0.309    6.937
  150.000   78.172    0.430    0.304    6.439
  150.250   80.065    0.422    0.298    6.332
  150.500   82.525    0.420    0.290    6.230
  150.750   85.010    0.424    0.263    6.244
  151.000   86.879    0.433    0.252    6.020
  151.250   87.565    0.443    0.254    5.815
  151.500   87.044    0.441    0.255    5.715
  151.750   80.631    0.441    0.253    5.616
  152.000   75.401    0.444    0.251    5.629
  152.250   72.513    0.448    0.251    5.860
  152.500   70.833    0.454    0.248    6.101
  152.750   72.134    0.443    0.246    6.352
  153.000   75.802    0.426    0.244    7.010
  153.250   75.305    0.429    0.243    7.443
  153.500   74.784    0.433    0.243    7.598
  153.750   73.742    0.441    0.245    7.766
  154.000   73.789    0.449    0.251    7.628
  154.250   76.321    0.460    0.252    6.951
  154.500   79.350    0.471    0.282    6.211
  154.750   81.787    0.476    0.304    5.448
  155.000   86.637    0.495    0.297    4.782
  155.250   89.713    0.526    0.292    4.439
  155.500   92.766    0.537    0.288    4.127
  155.750   94.067    0.542    0.283    4.214
  156.000   94.776    0.539    0.278    4.474
  156.250   94.847    0.535    0.274    4.744
  156.500   95.533    0.512    0.269    5.134
  156.750   95.604    0.480    0.264    5.241
  157.000   96.290    0.464    0.256    5.457
  157.250   96.408    0.451    0.252    5.574
  157.500   96.479    0.443    0.250    5.694
  157.750   94.822    0.434    0.247    5.816
  158.000   93.118    0.427    0.248    5.829
  158.250   90.278    0.422    0.250    5.732
  158.500   86.231    0.428    0.252    5.633
  158.750   85.142    0.456    0.257    5.540
  159.000   83.485    0.472    0.267    5.244
  159.250   83.532    0.485    0.270    5.065
  159.500   83.035    0.512    0.265    4.975
  159.750   84.975    0.518    0.259    4.800
  160.000   85.637    0.517    0.256    4.720
  160.250   86.939    0.517    0.255    4.730
  160.500   86.986    0.518    0.256    4.651
  160.750   87.695    0.524    0.261    4.667
  161.000   89.588    0.533    0.263    4.672
  161.250   90.866    0.544    0.264    4.688
  161.500   92.120    0.513    0.260    4.696
  161.750   93.421    0.485    0.252    4.706
  162.000   94.083    0.471    0.257    4.714
  162.250   94.201    0.459    0.261    4.724
  162.500   94.295    0.484    0.260    4.738
  162.750   94.390    0.494    0.258    4.745
  163.000   94.484    0.514    0.256    4.759
  163.250   95.170    0.520    0.256    4.767
  163.500   95.264    0.521    0.253    4.777
  163.750   95.950    0.492    0.248    4.791
  164.000   96.045    0.478    0.241    4.896
  164.250   96.731    0.460    0.240    4.902
  164.500   97.440    0.462    0.238    5.106
  164.750   97.535    0.475    0.238    5.316
  165.000   97.676    0.483    0.237    5.430
  165.250   97.747    0.494    0.237    5.547
  165.500   97.841    0.488    0.235    5.778
  165.750   97.912    0.453    0.231    5.896
  166.000   98.622    0.441    0.228    6.142
  166.250   98.716    0.426    0.233    6.270
  166.500   98.810    0.408    0.244    6.412
  166.750   98.337    0.396    0.260    6.557
