~VERSION INFORMATION
 VERS.                 2.0:   CWLS LOG ASCII STANDARD -VERSION 2.0
 WRAP.                  NO:   ONE LINE PER DEPTH STEP
~WELL INFORMATION BLOCK
#MNEM.UNIT           DATA                    DESCRIPTION OF MNEMONIC
#---------    -------------------            -------------------------------
# Generated from Intellog Unique Number	CC_80_83/WELL/2305
NULL.         -999.25                        : NULL_VALUE
WELL.         HOMESTEAD ET AL COWPAR         : WELL_NAME
LOC .         07-29-080-04W4                 : Location     - LOCATION          
UWI .         00/07-29-080-04W400            : Uwi          - UNIQUE WELL ID    
ENTR.         DW                             : Entered      - ENTERED BY        
SRVC.         SCHLUMBERGER                   : Scn          - SERVICE COMPANY   
DATE.         18 JAN 74                      : Date         - LOG DATE
STRT.M        64.008                         : top_depth    - START DEPTH       
STOP.M        277.367                        : bot_depth    - STOP DEPTH        
STEP.M        0.3048                         : increment    - STEP LENGTH       
~CURVE INFORMATION BLOCK
#MNEM UNIT       ERCB CURVE CODE    CURVE DESCRIPTION
#-----------   ------------------   ----------------------------------
DEPT.M        00 001 00 00         : DEPTH        - DEPTH                       
DPHI.V/V      00 890 00 00         : PHID         - DENSITY POROSITY (LIMESTONE)
GR  .API      00 310 00 00         : GR           - GAMMA RAY                   
NPHI.V/V      00 330 00 00         : PHIN         - NEUTRON POROSITY (LIMESTONE)
ILD .OHMM     00 120 00 00         : RESD         - DEEP RESISTIVITY (DIL)      
~PARAMETER INFORMATION       
#MNEM.UNIT           DATA             DESCRIPTION OF MNEMONIC
#---------         -----------     ------------------------------
GL  .M        461.498              : gl           - GROUND LEVEL ELEVATION      
EREF.M        465.033              : kb           - ELEVATION OF DEPTH REFERENCE
DATM.M        465.033              : datum        - DATUM ELEVATION             
TDD .M        292.608              : tdd          - TOTAL DEPTH DRILLER         
RUN .         ONE                  : Run          - RUN NUMBER                  
ENG .         BILL                 : Engineer     - RECORDING ENGINEER          
WIT .         JIM                  : Witness      - WITNESSED BY                
MUD .         GEL                  : Mud_type     - MUD TYPE                    
MATR.         LIMESTONE            : Logunit      - NEUTRON MATRIX              
TMAX.C        25                   : BHT          - MAXIMUM RECORDED TEMPERATURE
BHTD.M        292.608              : BHTDEP       - MAXIMUM RECORDED TEMPERATURE
MATR.         1                    : LOGUNIT      - NEUTRON MATRIX              
RMT .C        25                   : MDTP         - TEMPERATURE OF MUD          
NEUT.         0                    : NEUTRON      - NEUTRON TYPE                
RESI.         0                    : RESIST       - RESISTIVITY TYPE            
RMC .OHMM     0.25                 : RMC          - RESISTIVITY OF MUD CAKE     
RMF .OHMM     0.25                 : RMF          - RESISTIVITY OF MUD FILTRATE 
SUFT.C        15                   : SUFT         - SURFACE TEMPERATURE         
~A  DEPTH     PHID       GR     PHIN     RESD
# ...
  170.078    0.300   98.975    0.409    3.534
  170.383    0.303   93.333    0.420    3.601
  170.688    0.305   86.883    0.453    3.879
  170.992    0.292   83.662    0.469    4.671
  171.297    0.259   74.388    0.427    5.838
  171.602    0.213   79.240    0.379    7.433
  171.907    0.196   91.762    0.358    8.158
  172.212    0.276   90.559    0.328    8.159
  172.516    0.321   83.708    0.345    8.011
  172.821    0.299   81.697    0.407    7.720
  173.126    0.323   76.861    0.415    7.439
  173.431    0.321   73.237    0.385    7.037
  173.736    0.295   74.862    0.377    6.296
  174.040    0.296   79.715    0.391    4.593
  174.345    0.338   82.547    0.414    3.815
  174.650    0.367   80.942    0.436    3.414
  174.955    0.385   75.702    0.477    3.677
  175.260    0.373   69.657    0.474    3.961
  175.564    0.395   70.473    0.489    4.596
  175.869    0.470   74.519    0.488    5.433
  176.174    0.496   75.737    0.483    6.075
  176.479    0.322   73.727    0.483    6.306
  176.783    0.347   82.615    0.449    6.306
  177.088    0.323   87.468    0.398    6.669
  177.393    0.313   84.651    0.420    6.922
  177.698    0.330   76.587    0.376    6.923
  178.003    0.336   70.946    0.388    7.054
  178.307    0.340   67.724    0.433    6.798
  178.612    0.337   67.735    0.416    6.312
  178.917    0.337   70.567    0.410    5.442
  179.222    0.328   77.841    0.416    3.969
  179.527    0.343   75.428    0.450    2.790
  179.831    0.413   69.382    0.510    2.317
  180.136    0.382   64.547    0.521    2.112
  180.441    0.379   67.785    0.526    2.074
  180.746    0.391   66.585    0.524    2.036
  181.051    0.387   65.381    0.521    2.074
  181.355    0.360   71.848    0.516    2.114
  181.660    0.327   77.103    0.517    2.320
  181.965    0.358   73.884    0.527    2.594
  182.270    0.365   77.525    0.532    2.846
  182.575    0.326   81.569    0.506    3.182
  182.879    0.307   81.982    0.449    3.558
  183.184    0.297   78.760    0.417    4.052
  183.489    0.291   73.927    0.420    4.447
  183.794    0.286   69.091    0.399    4.881
  184.099    0.275   68.695    0.356    5.356
  184.403    0.271   78.794    0.383    5.664
  184.708    0.286   87.280    0.362    4.793
  185.013    0.342   87.288    0.342    3.697
  185.318    0.359   81.243    0.364    3.369
  185.623    0.360   76.811    0.516    3.187
  185.927    0.304   73.591    0.540    3.188
  186.232    0.306   78.042    0.538    3.130
  186.537    0.326   80.067    0.519    3.130
  186.842    0.322   83.707    0.508    3.189
  187.146    0.340   84.928    0.519    3.190
  187.451    0.336   86.148    0.522    3.191
  187.756    0.288   88.983    0.495    3.312
  188.061    0.301   89.796    0.528    3.312
  188.366    0.298   88.999    0.492    3.313
  188.670    0.305   84.970    0.461    3.313
  188.975    0.318   76.907    0.434    3.376
  189.280    0.305   74.897    0.418    3.440
  189.585    0.313   76.116    0.449    3.775
  189.890    0.337   78.143    0.439    4.066
  190.194    0.364   70.079    0.385    4.989
  190.499    0.363   70.087    0.402    5.083
  190.804    0.395   71.712    0.468    4.633
  191.109    0.352   74.949    0.505    4.383
  191.414    0.319   76.169    0.528    4.466
  191.718    0.306   73.754    0.472    4.811
  192.023    0.216   68.516    0.412    6.125
  192.328    0.172   67.718    0.350    6.477
  192.633    0.184   74.991    0.290    6.600
  192.938    0.247   75.403    0.326    6.480
  193.242    0.344   64.111    0.378    6.361
  193.547    0.351   60.083    0.347    5.798
  193.852    0.353   64.532    0.317    4.555
  194.157    0.353   68.576    0.352    4.076
  194.462    0.362   66.974    0.383    3.784
  194.766    0.370   67.787    0.434    3.144
  195.071    0.360   76.272    0.431    2.761
  195.376    0.345   81.931    0.463    2.661
  195.681    0.346   80.324    0.481    2.920
  195.986    0.365   65.400    0.440    3.388
  196.290    0.364   56.932    0.340    5.098
  196.595    0.377   52.097    0.285    7.672
  196.900    0.404   42.822    0.213   23.379
  197.205    0.439   36.776    0.179   32.664
  197.510    0.460   48.086    0.170   35.849
  197.814    0.437   50.921    0.182   38.618
  198.119    0.416   45.278    0.207   38.623
  198.424    0.421   37.618    0.199   34.556
  198.729    0.440   33.590    0.200   32.088
  199.033    0.443   34.809    0.201   30.923
  199.338    0.440   39.259    0.247   29.801
  199.643    0.434   40.479    0.316   29.806
  199.948    0.418   38.873    0.271   32.108
  200.253    0.412   34.846    0.217   35.900
  200.557    0.403   33.238    0.199   38.673
  200.862    0.399   40.916    0.201   40.896
  201.167    0.401   39.715    0.206   41.668
  201.472    0.439   37.301    0.200   39.417
  201.777    0.421   35.292    0.179   36.600
  202.081    0.410   34.088    0.166   32.145
  202.386    0.412   34.098    0.193   30.407
  202.691    0.406   37.741    0.212   29.304
  202.996    0.400   38.150    0.223   26.710
  203.301    0.424   35.737    0.250   23.027
  203.605    0.377   41.802    0.223   19.486
  203.910    0.349   45.038    0.234   13.952
  204.215    0.360   46.661    0.253    8.772
  204.520    0.335   48.284    0.281    4.414
  204.825    0.326   42.642    0.309    2.880
  205.129    0.328   32.561    0.321    1.950
  205.434    0.321   31.358    0.335    1.713
  205.739    0.334   33.386    0.327    1.620
  206.044    0.330   39.045    0.330    1.621
  206.349    0.327   42.283    0.321    1.591
  206.653    0.344   39.465    0.323    1.621
  206.958    0.355   28.575    0.341    1.592
  207.263    0.359   18.091    0.324    1.534
  207.568    0.349   21.731    0.323    1.534
  207.873    0.340   26.987    0.349    1.506
  208.177    0.340   23.365    0.321    1.506
  208.482    0.339   20.546    0.310    1.507
  208.787    0.339   27.013    0.326    1.535
  209.092    0.348   30.654    0.336    1.535
  209.396    0.354   27.839    0.348    1.536
  209.701    0.359   27.039    0.366    1.508
  210.006    0.352   27.050    0.364    1.480
  210.311    0.352   25.846    0.352    1.480
  210.616    0.354   26.259    0.359    1.481
  210.920    0.362   27.073    0.388    1.481
  211.225    0.366   30.313    0.386    1.481
  211.530    0.368   31.127    0.371    1.509
  211.835    0.365   30.329    0.370    1.509
  212.140    0.359   28.320    0.389    1.510
  212.444    0.365   25.907    0.363    1.510
  212.749    0.353   25.915    0.352    1.510
  213.054    0.342   26.327    0.333    1.482
  213.359    0.337   23.107    0.310    1.483
  213.664    0.336   24.326    0.297    1.429
  213.968    0.335   28.774    0.305    1.429
  214.273    0.335   30.397    0.320    1.403
  214.578    0.335   28.793    0.331    1.403
  214.883    0.339   25.572    0.330    1.484
  215.188    0.352   23.966    0.331    1.484
  215.492    0.355   23.974    0.344    1.484
  215.797    0.353   25.596    0.339    1.485
  216.102    0.358   29.642    0.316    1.513
  216.407    0.365   31.266    0.340    1.513
  216.712    0.371   28.852    0.355    1.513
  217.016    0.376   21.191    0.351    1.513
  217.321    0.357   22.411    0.346    1.514
  217.626    0.351   28.474    0.342    1.542
  217.931    0.348   32.115    0.338    1.571
  218.236    0.345   28.492    0.351    1.601
  218.540    0.356   18.813    0.359    1.662
  218.845    0.378   19.630    0.349    1.693
  219.150    0.393   23.673    0.340    1.694
  219.455    0.393   36.599    0.349    1.573
  219.759    0.382   36.607    0.387    1.460
  220.064    0.373   20.874    0.379    1.381
  220.369    0.366   22.094    0.356    1.356
  220.674    0.352   30.175    0.344    1.356
  220.979    0.332   53.997    0.320    1.357
  221.283    0.326   53.602    0.299    1.382
  221.588    0.341   58.052    0.298    1.435
  221.893    0.328   49.179    0.309    1.604
  222.198    0.353   41.923    0.341    1.760
  222.503    0.359   46.775    0.362    1.794
  222.807    0.347   59.296    0.367    1.697
