~VERSION INFORMATION
 VERS.                 2.0:   CWLS LOG ASCII STANDARD -VERSION 2.0
 WRAP.                  NO:   ONE LINE PER DEPTH STEP
~WELL INFORMATION BLOCK
#MNEM.UNIT           DATA                    DESCRIPTION OF MNEMONIC
#---------    -------------------            -------------------------------
# Generated from Intellog Unique Number	CS_73_76/WELL/2014
WELL.         EAGLE RESOURCES LTD.           : Well_name    - WELL
LOC .         00/08-22-076-18W4/0            : Location     - LOCATION
UWI .         00/08-22-076-18W4/0            : Uwi          - UNIQUE WELL ID
ENTR.         JO                             : Entered      - ENTERED BY
SRVC.         SCHLUMBERGER                   : Scn          - SERVICE COMPANY
DATE.         05/22/92                       : Date         - LOG DATE
STRT.M        200                            : top_depth    - START DEPTH
STOP.M        450                            : bot_depth    - STOP DEPTH
STEP.M        0.25                           : increment    - STEP LENGTH
 NULL. -999.2500:NULL Value
~CURVE INFORMATION BLOCK
#MNEM UNIT       ERCB CURVE CODE    CURVE DESCRIPTION
#-----------   ------------------   ----------------------------------
DEPT.M        00 001 00 00         : DEPTH        - DEPTH
GR  .API      00 310 00 00         : GR           - GAMMA RAY
NPHI.V/V      00 330 00 00         : PHIN         - NEUTRON POROSITY (SANDSTONE)
DPHI.V/V      00 890 00 00         : PHID         - DENSITY POROSITY (SANDSTONE)
ILD .OHMM     00 120 00 00         : RESD         - DEEP RESISTIVITY (DIL)
~PARAMETER INFORMATION
#MNEM.UNIT           DATA             DESCRIPTION OF MNEMONIC
#---------         -----------     ------------------------------
GL  .M        606.6                : gl           - GROUND LEVEL ELEVATION
EREF.M        610.2                : kb           - ELEVATION OF DEPTH REFERENCE
DATM.M        610.2                : datum        - DATUM ELEVATION
TDD .M        446                  : tdd          - TOTAL DEPTH DRILLER
RUN .         ONE                  : Run          - RUN NUMBER
ENG .         BILL                 : Engineer     - RECORDING ENGINEER
WIT .         JIM                  : Witness      - WITNESSED BY
MUD .         GEL                  : Mud_type     - MUD TYPE
MATR.         SANDSTONE            : Logunit      - NEUTRON MATRIX
TMAX.C        29                   : BHT          - MAXIMUM RECORDED TEMPERATURE
BHTD.M        446                  : BHTDEP       - MAXIMUM RECORDED TEMPERATURE
RMT .C        16.7                 : MDTP         - TEMPERATURE OF MUD
MUDD.KG/M     1100                 : MWT          - MUD DENSITY
NEUT.         1                    : NEUTRON      - NEUTRON TYPE
RESI.         0                    : RESIST       - RESISTIVITY TYPE
RM  .OHMM     3.6                  : RM           - RESISTIVITY OF MUD
RMC .OHMM     3.2                  : RMC          - RESISTIVITY OF MUD CAKE
RMF .OHMM     3.6                  : RMF          - RESISTIVITY OF MUD FILTRATE
SUFT.C        15                   : SUFT         - SURFACE TEMPERATURE
~A  DEPTH       GR     PHIN     PHID     RESD
# ...
  417.500  102.738    0.435    0.214    2.160
  417.750  100.488    0.449    0.231    2.085
  418.000   98.219    0.458    0.248    2.130
  418.250   96.571    0.474    0.260    2.258
  418.500   95.486    0.488    0.265    2.439
  418.750   97.312    0.517    0.255    2.685
  419.000   99.721    0.516    0.236    3.069
  419.250  100.402    0.516    0.216    3.376
  419.500   97.590    0.502    0.195    3.857
  419.750   96.485    0.466    0.174    4.843
  420.000   95.380    0.440    0.142    5.964
  420.250   96.062    0.420    0.117    6.947
  420.500   97.868    0.405    0.139    7.794
  420.750   99.132    0.395    0.151    7.807
  421.000   98.047    0.387    0.145    7.679
  421.250   94.613    0.378    0.143    7.416
  421.500   92.363    0.358    0.149    7.026
  421.750   95.996    0.377    0.158    6.779
  422.000   97.200    0.388    0.163    6.186
  422.250   99.628    0.397    0.164    5.975
  422.500   97.359    0.418    0.160    5.991
  422.750   93.382    0.428    0.150    6.111
  423.000   94.626    0.418    0.151    6.247
  423.250   98.199    0.416    0.162    6.375
  423.500  100.607    0.424    0.162    6.385
  423.750  100.687    0.426    0.159    6.527
  424.000   98.437    0.418    0.154    6.423
  424.250   96.188    0.411    0.142    6.434
  424.500   96.850    0.429    0.136    6.434
  424.750   98.113    0.441    0.135    5.674
  425.000   99.357    0.438    0.141    6.234
  425.250  100.019    0.429    0.152    4.807
  425.500  103.009    0.425    0.158    4.225
  425.750  104.233    0.433    0.166    4.398
  426.000  106.099    0.441    0.173    4.660
  426.250  106.781    0.445    0.179    5.129
  426.500  107.423    0.441    0.172    5.860
  426.750  108.666    0.435    0.159    6.962
  427.000  109.910    0.431    0.147    7.240
  427.250  111.736    0.424    0.135    7.541
  427.500  111.816    0.422    0.156    7.409
  427.750  112.497    0.417    0.156    7.156
  428.000  113.159    0.406    0.155    7.163
  428.250  116.169    0.409    0.155    7.598
  428.500  117.374    0.425    0.162    8.686
  428.750  119.200    0.458    0.168    9.554
  429.000  120.483    0.450    0.175   11.123
  429.250  119.980    0.417    0.177   14.228
  429.500  118.293    0.397    0.178   19.606
  429.750  113.113    0.393    0.167   27.031
  430.000   99.801    0.378    0.145   32.670
  430.250   80.646    0.276    0.028   36.656
  430.500   50.992    0.225    0.127   38.901
  430.750   48.742    0.226    0.021   38.943
  431.000   39.486    0.223   -0.075   35.557
  431.250   33.161    0.217   -0.055   30.089
  431.500   33.823    0.203   -0.044   22.756
  431.750   39.744    0.210   -0.064   15.976
  432.000   45.064    0.219   -0.073   13.534
  432.250   56.808    0.293   -0.031   15.455
  432.500   67.387    0.316   -0.003   26.679
  432.750   78.529    0.330    0.050   31.646
  433.000  100.191    0.341    0.047   39.730
  433.250   37.892    0.324    0.049   45.395
  433.500   35.080    0.298    0.056   48.149
  433.750   35.722    0.284    0.062   47.358
  434.000   36.965    0.263    0.038   51.153
  434.250   37.045    0.249    0.018   53.221
  434.500   36.562    0.252    0.017   52.346
  434.750   33.730    0.255    0.015   46.908
  435.000   32.645    0.258    0.008   41.211
  435.250   33.327    0.255    0.003   32.968
  435.500   35.153    0.246    0.004   26.887
  435.750   37.581    0.237    0.011   21.928
  436.000   39.367    0.231    0.032   19.639
  436.250   45.871    0.232    0.049   17.932
  436.500   54.102    0.247    0.070   17.300
  436.750   61.790    0.260    0.082   17.025
  437.000   66.508    0.270    0.093   17.062
  437.250   82.909    0.280    0.103   17.090
  437.500   84.736    0.314    0.146   17.781
  437.750   92.986    0.315    0.193   19.590
  438.000   97.724    0.307    0.217   20.371
  438.250   96.056    0.304    0.218   22.003
  438.500   85.073    0.308    0.207   23.338
  438.750   78.166    0.337    0.198   22.541
  439.000   75.314    0.351    0.208   21.332
  439.250   74.229    0.356    0.205   19.478
  439.500   74.910    0.350    0.184   19.147
  439.750   76.154    0.347    0.170   19.189
  440.000   78.603    0.343    0.155   21.553
  440.250   79.244    0.343    0.164   23.280
  440.500   79.886    0.344    0.173   23.746
  440.750   79.383    0.343    0.194   23.356
  441.000   78.900    0.342    0.197   21.752
  441.250   78.980    0.347    0.160   21.371
  441.500   80.806    0.374    0.158   21.031
  441.750   82.070    0.372    0.149   21.066
  442.000   78.636    0.367    0.160   21.100
  442.250   73.455    0.360    0.166   21.557
  442.500   71.828    0.350    0.157   22.453
  442.750   74.216    0.359    0.151   22.902
  443.000   75.460    0.356    0.143   22.952
  443.250   75.579    0.355    0.134   23.026
  443.500   75.037    0.364    0.126   22.215
  443.750   75.116    0.368    0.117   21.433
  444.000   68.791    0.366    0.110   20.306
  444.250   68.870    0.367    0.108   19.972
  444.500   70.716    0.375    0.121   19.665
  444.750   71.940    0.384    0.136   20.070
  445.000   73.766    0.384    0.147   20.483
  445.250   73.846    0.382    0.149   20.538
  445.500   68.685    0.368    0.148   20.594
  445.750   71.695    0.360    0.141   20.244
  446.000   86.933    0.343    0.141   19.563
  446.250   92.252    0.339    0.163   19.595
  446.500   96.990    0.339    0.162   19.263
  446.750   99.398    0.341    0.159   19.325
  447.000   95.984    0.352    0.158   19.357
  447.250   93.152    0.354    0.158   19.765
  447.500   89.176    0.373    0.158   19.808
  447.750   86.324    0.365    0.167   19.472
  448.000   82.348    0.356    0.166   19.535
  448.250   80.098    0.345    0.154   19.567
  448.500   78.431    0.352    0.147   19.620
  448.750   76.764    0.400    0.138   19.652
  449.000   76.261    0.438    0.138   19.340
  449.250   76.903    0.466    0.138   19.392
  449.500   77.584    0.254    0.149   19.413
  449.750   78.246    0.329    0.156   19.455
  450.000   78.305    0.446    0.160   19.135
