~VERSION INFORMATION
 VERS.                 2.0:   CWLS LOG ASCII STANDARD -VERSION 2.0
 WRAP.                  NO:   ONE LINE PER DEPTH STEP
~WELL INFORMATION BLOCK
#MNEM.UNIT           DATA                    DESCRIPTION OF MNEMONIC
#---------    -------------------            -------------------------------
# Generated from Intellog Unique Number	CS_77_79/WELL/892
WELL.         BOW VALLEY INDUSTRIES LTD      : Well_name    - WELL
LOC .         00/07-07-077-14W4/0            : Location     - LOCATION
UWI .         00/07-07-077-14W4/0            : Uwi          - UNIQUE WELL ID
ENTR.         SP                             : Entered      - ENTERED BY
SRVC.         SCHLUMBERGER                   : Scn          - SERVICE COMPANY
STRT.M        260                            : top_depth    - START DEPTH
STOP.M        510                            : bot_depth    - STOP DEPTH
STEP.M        0.25                           : increment    - STEP LENGTH
 NULL. -999.2500:NULL Value
~CURVE INFORMATION BLOCK
#MNEM UNIT       ERCB CURVE CODE    CURVE DESCRIPTION
#-----------   ------------------   ----------------------------------
DEPT.M        00 001 00 00         : DEPTH        - DEPTH
ILD .OHMM     00 120 00 00         : RESD         - DEEP RESISTIVITY (DIL)
DPHI.V/V      00 890 00 00         : PHID         - DENSITY POROSITY (LIMESTONE)
NPHI.V/V      00 330 00 00         : PHIN         - NEUTRON POROSITY (LIMESTONE)
GR  .API      00 310 00 00         : GR           - GAMMA RAY
~PARAMETER INFORMATION
#MNEM.UNIT           DATA             DESCRIPTION OF MNEMONIC
#---------         -----------     ------------------------------
GL  .M        657                  : gl           - GROUND LEVEL ELEVATION
EREF.M        660.5                : kb           - ELEVATION OF DEPTH REFERENCE
DATM.M        657                  : datum        - DATUM ELEVATION
TDD .M        535                  : tdd          - TOTAL DEPTH DRILLER
RUN .         ONE                  : Run          - RUN NUMBER
ENG .         BILL                 : Engineer     - RECORDING ENGINEER
WIT .         JIM                  : Witness      - WITNESSED BY
MUD .         GEL                  : Mud_type     - MUD TYPE
MATR.         LIMESTONE            : Logunit      - NEUTRON MATRIX
TMAX.C        25                   : BHT          - MAXIMUM RECORDED TEMPERATURE
BHTD.M        535                  : BHTDEP       - MAXIMUM RECORDED TEMPERATURE
MATR.         1                    : LOGUNIT      - NEUTRON MATRIX
RMT .C        25                   : MDTP         - TEMPERATURE OF MUD
NEUT.         1                    : NEUTRON      - NEUTRON TYPE
RESI.         0                    : RESIST       - RESISTIVITY TYPE
RMC .OHMM     0.25                 : RMC          - RESISTIVITY OF MUD CAKE
RMF .OHMM     0.25                 : RMF          - RESISTIVITY OF MUD FILTRATE
SUFT.C        15                   : SUFT         - SURFACE TEMPERATURE
~A  DEPTH     RESD     PHID     PHIN       GR
  260.000    2.899    0.253    0.556   86.602
  260.250    2.845    0.252    0.553   89.686
  260.500    2.846    0.258    0.545   89.704
  260.750    2.794    0.253    0.561   89.115
  261.000    2.743    0.259    0.571   87.311
  261.250    2.743    0.260    0.583   91.609
  261.500    2.693    0.272    0.582   94.082
  261.750    2.693    0.280    0.591   95.321
  262.000    2.644    0.289    0.597   95.342
  262.250    2.548    0.279    0.601   94.762
  262.500    2.548    0.280    0.584   97.230
  262.750    2.501    0.273    0.575   98.466
  263.000    2.455    0.261    0.590  100.320
  263.250    2.502    0.269    0.596   96.694
  263.500    2.502    0.276    0.578   94.886
  263.750    2.550    0.273    0.581   94.299
  264.000    2.551    0.270    0.591   94.943
  264.250    2.504    0.247    0.597   93.134
  264.500    2.458    0.239    0.585   90.730
  264.750    2.413    0.246    0.576   90.746
  265.000    2.413    0.248    0.569   91.376
  265.250    2.459    0.215    0.553   90.195
  265.500    2.506    0.200    0.541   90.210
  265.750    2.602    0.183    0.553   93.290
  266.000    2.651    0.162    0.563   94.527
  266.250    2.652    0.214    0.553   93.335
  266.500    2.652    0.222    0.564   92.751
  266.750    2.604    0.243    0.582   94.000
  267.000    2.556    0.260    0.580   94.021
  267.250    2.509    0.250    0.566   94.046
  267.500    2.557    0.245    0.550   91.641
  267.750    2.557    0.248    0.562   91.671
  268.000    2.558    0.240    0.572   92.296
  268.250    2.705    0.238    0.569   91.710
  268.500    2.809    0.238    0.564   93.569
  268.750    2.809    0.232    0.562   94.811
  269.000    2.917    0.237    0.562   94.840
  269.250    2.972    0.236    0.562   96.088
  269.500    3.086    0.239    0.558   96.719
  269.750    3.204    0.244    0.550   95.527
  270.000    3.518    0.239    0.545   94.942
  270.250    3.722    0.227    0.544   94.967
  270.500    3.792    0.218    0.523   93.776
  270.750    3.864    0.206    0.504   93.190
  271.000    3.865    0.199    0.488   93.820
  271.250    3.724    0.217    0.494   93.852
  271.500    3.588    0.228    0.501   93.868
  271.750    3.457    0.218    0.505   93.893
  272.000    3.331    0.231    0.507   93.924
  272.250    3.270    0.230    0.513   93.948
  272.500    3.270    0.231    0.527   95.800
  272.750    3.211    0.235    0.533   98.267
  273.000    3.211    0.230    0.531   98.901
  273.250    3.212    0.224    0.526   98.321
  273.500    3.212    0.217    0.519   95.297
  273.750    3.335    0.228    0.511   93.494
  274.000    3.399    0.234    0.515   94.127
  274.250    3.463    0.237    0.508   95.375
  274.500    3.529    0.240    0.508   96.019
  274.750    3.529    0.245    0.522   96.031
  275.000    3.465    0.238    0.543   94.225
  275.250    3.338    0.245    0.558   92.422
  275.500    3.466    0.234    0.524   91.838
  275.750    3.340    0.228    0.519   94.310
  276.000    3.278    0.228    0.532   94.939
  276.250    3.341    0.236    0.546   98.019
  276.500    3.737    0.241    0.565   99.873
  276.750    4.506    0.245    0.557   99.295
  277.000    5.135    0.253    0.513   96.267
  277.250    6.796    0.254    0.473   91.412
  277.500    8.665    0.263    0.447   87.773
  277.750   11.046    0.269    0.419   79.265
  278.000   13.316    0.261    0.397   73.189
  278.250   13.569    0.247    0.385   67.731
  278.500   12.363    0.212    0.356   64.093
  278.750   11.475    0.175    0.362   63.508
  279.000   10.454    0.207    0.397   72.076
  279.250    9.175    0.250    0.416   76.365
  279.500    8.677    0.267    0.421   82.489
  279.750    7.905    0.250    0.430   87.395
  280.000    7.475    0.243    0.438   91.079
  280.250    6.939    0.227    0.448   94.153
  280.500    6.812    0.214    0.457   97.230
  280.750    6.563    0.223    0.458   97.870
  281.000    7.073    0.240    0.448   96.679
  281.250    7.623    0.250    0.451   95.472
  281.500    8.370    0.256    0.447   90.008
  281.750    8.854    0.272    0.429   82.719
  282.000    8.855    0.285    0.411   77.252
  282.250    8.533    0.298    0.425   76.677
  282.500    8.221    0.300    0.432   77.915
  282.750    7.631    0.277    0.450   82.218
  283.000    7.491    0.270    0.474   85.895
  283.250    7.925    0.283    0.493   88.967
  283.500    8.227    0.305    0.501   85.946
  283.750    9.733    0.330    0.482   81.708
  284.000   10.296    0.325    0.465   79.897
  284.250   10.492    0.328    0.459   77.487
  284.500   10.693    0.340    0.452   77.508
  284.750   10.694    0.333    0.452   77.535
  285.000   10.498    0.320    0.455   83.050
  285.250   10.499    0.328    0.460   90.406
  285.500   10.116    0.320    0.459   92.862
  285.750    9.931    0.302    0.458   95.942
  286.000    9.749    0.291    0.456   97.180
  286.250    9.751    0.290    0.453   94.162
  286.500    9.937    0.292    0.452   92.959
  286.750    9.939    0.309    0.452   92.985
  287.000   10.127    0.313    0.458   93.011
  287.250   10.319    0.318    0.460   92.441
  287.500   10.321    0.308    0.460   91.852
  287.750   10.323    0.301    0.451   91.262
  288.000   10.325    0.285    0.446   90.063
  288.250   10.326    0.279    0.444   85.821
  288.500    9.766    0.276    0.448   77.921
  288.750    9.065    0.275    0.452   71.848
  289.000    8.734    0.289    0.445   63.944
  289.250    8.259    0.311    0.431   60.919
  289.500    7.386    0.304    0.430   67.651
  289.750    6.985    0.247    0.439   76.823
  290.000    6.857    0.235    0.445   81.730
  290.250    6.987    0.227    0.445   79.326
  290.500    7.254    0.230    0.444   78.123
  290.750    7.392    0.248    0.445   74.490
  291.000    7.819    0.262    0.448   70.860
  291.250    8.271    0.278    0.455   69.056
  291.500    8.428    0.278    0.456   69.076
  291.750    8.430    0.273    0.461   72.157
  292.000    8.275    0.248    0.462   74.614
  292.250    7.826    0.255    0.465   78.305
  292.500    7.130    0.257    0.469   80.762
  292.750    6.495    0.246    0.476   86.278
  293.000    5.917    0.221    0.486   92.403
  293.250    5.391    0.188    0.499   99.136
  293.500    5.194    0.171    0.538  102.822
  293.750    4.821    0.181    0.551  104.676
  294.000    4.475    0.181    0.555  103.483
  294.250    4.232    0.176    0.547  101.067
  294.500    4.233    0.184    0.544  102.315
  294.750    4.313    0.192    0.546  104.778
  295.000    4.478    0.177    0.551  103.585
  295.250    4.563    0.165    0.541  104.839
  295.500    4.564    0.145    0.531  106.071
  295.750    4.481    0.155    0.528  110.367
  296.000    4.399    0.180    0.543  114.052
  296.250    4.160    0.198    0.555  117.736
  296.500    3.790    0.223    0.564  117.763
  296.750    3.452    0.233    0.561  114.752
  297.000    3.518    0.237    0.548  113.552
  297.250    3.936    0.244    0.513  111.743
  297.500    4.834    0.255    0.498  108.119
  297.750    6.163    0.250    0.485  106.305
  298.000    7.712    0.248    0.480  103.887
  298.250    8.311    0.245    0.484  102.092
  298.500    8.629    0.246    0.482  100.906
  298.750    8.793    0.254    0.479  100.312
  299.000    8.632    0.261    0.480   97.294
  299.250    7.864    0.273    0.493   96.088
  299.500    7.437    0.279    0.499   92.457
  299.750    6.903    0.245    0.504   90.042
  300.000    6.172    0.165    0.490   90.064
  300.250    5.947    0.126    0.483   99.246
  300.500    6.779    0.105    0.473  104.153
  300.750    7.584    0.129    0.469  108.446
  301.000    7.873    0.177    0.465  108.462
  301.250    8.808    0.211    0.461  101.790
  301.500    9.145    0.230    0.464   99.368
  301.750    9.319    0.245    0.460   95.742
  302.000    9.320    0.260    0.462   95.149
  302.250    8.981    0.274    0.466   96.392
  302.500    8.653    0.269    0.466   98.860
  302.750    8.337    0.255    0.461  101.327
  303.000    8.184    0.254    0.456  101.968
  303.250    8.035    0.245    0.462  101.377
