~VERSION INFORMATION
 VERS.                 2.0:   CWLS LOG ASCII STANDARD -VERSION 2.0
 WRAP.                  NO:   ONE LINE PER DEPTH STEP
~WELL INFORMATION BLOCK
#MNEM.UNIT           DATA                    DESCRIPTION OF MNEMONIC
#---------    -------------------            -------------------------------
# Generated from Intellog Unique Number	CW_79_81/WELL/2461
WELL.         07-23-081-22W4                 : Well_name    - WELL
LOC .         00/07-23-081-22W4/0            : Location     - LOCATION
UWI .         00/07-23-081-22W4/0            : Uwi          - UNIQUE WELL ID
ENTR.         MAX                            : Entered      - ENTERED BY
SRVC.         SCHLUMBERGER                   : Scn          - SERVICE COMPANY
STRT.M        225                            : top_depth    - START DEPTH
STOP.M        439.75                         : bot_depth    - STOP DEPTH
STEP.M        0.25                           : increment    - STEP LENGTH
 NULL. -999.2500:NULL Value
~CURVE INFORMATION BLOCK
#MNEM UNIT       ERCB CURVE CODE    CURVE DESCRIPTION
#-----------   ------------------   ----------------------------------
DEPT.M        00 001 00 00         : DEPTH        - DEPTH
ILD .OHMM     00 120 00 00         : RESD         - DEEP RESISTIVITY (DIL)
NPHI.V/V      00 330 00 00         : PHIN         - NEUTRON POROSITY (SANDSTONE)
DPHI.V/V      00 890 00 00         : PHID         - DENSITY POROSITY (SANDSTONE)
GR  .API      00 310 00 00         : GR           - GAMMA RAY
CALI.MM       00 280 01 00         : CAL          - CALIPER
~PARAMETER INFORMATION
#MNEM.UNIT           DATA             DESCRIPTION OF MNEMONIC
#---------         -----------     ------------------------------
GL  .M        610.7                : gl           - GROUND LEVEL ELEVATION
EREF.M        614                  : kb           - ELEVATION OF DEPTH REFERENCE
DATM.M        610.7                : datum        - DATUM ELEVATION
TDD .M        450                  : tdd          - TOTAL DEPTH DRILLER
RUN .         ONE                  : Run          - RUN NUMBER
ENG .         BILL                 : Engineer     - RECORDING ENGINEER
WIT .         JIM                  : Witness      - WITNESSED BY
MUD .         GEL                  : Mud_type     - MUD TYPE
MATR.         SANDSTONE            : Logunit      - NEUTRON MATRIX
TMAX.C        30                   : BHT          - MAXIMUM RECORDED TEMPERATURE
BHTD.M        450                  : BHTDEP       - MAXIMUM RECORDED TEMPERATURE
MATR.         1                    : LOGUNIT      - NEUTRON MATRIX
RMT .C        21                   : MDTP         - TEMPERATURE OF MUD
NEUT.         1                    : NEUTRON      - NEUTRON TYPE
RESI.         0                    : RESIST       - RESISTIVITY TYPE
RMC .OHMM     4.03                 : RMC          - RESISTIVITY OF MUD CAKE
RMF .OHMM     4.42                 : RMF          - RESISTIVITY OF MUD FILTRATE
SUFT.C        -20                  : SUFT         - SURFACE TEMPERATURE
~A  DEPTH     RESD     PHIN     PHID       GR      CAL
  225.000    2.867    0.519    0.270   96.153  232.500
  225.250    2.845    0.528    0.267   95.409  233.749
  225.500    2.793    0.523    0.277   94.187  232.210
  225.750    2.763    0.517    0.285   92.517  230.423
  226.000    2.787    0.514    0.288   90.549  229.631
  226.250    2.930    0.510    0.293   87.855  230.117
  226.500    3.139    0.492    0.292   85.120  230.536
  226.750    3.624    0.477    0.285   81.778  226.956
  227.000    4.490    0.458    0.271   76.465  223.974
  227.250    5.797    0.440    0.272   67.748  222.386
  227.500    7.722    0.434    0.289   57.837  220.698
  227.750   11.969    0.460    0.310   52.535  214.382
  228.000   16.917    0.470    0.354   52.288  210.654
  228.250   19.806    0.476    0.363   53.007  210.658
  228.500   23.232    0.480    0.368   54.264  209.468
  228.750   27.558    0.480    0.369   55.581  207.681
  229.000   32.646    0.480    0.365   56.598  205.894
  229.250   36.540    0.481    0.355   57.079  204.952
  229.500   36.815    0.475    0.352   57.082  206.201
  229.750   36.810    0.474    0.348   55.173  210.187
  230.000   37.006    0.472    0.341   54.698  211.485
  230.250   38.082    0.465    0.323   56.611  210.493
  230.500   40.498    0.458    0.300   61.392  207.809
  230.750   46.163    0.465    0.298   69.138  204.398
  231.000   56.052    0.475    0.340   69.638  205.231
  231.250   66.550    0.482    0.340   68.208  207.624
  231.500   75.636    0.494    0.352   66.956  210.614
  231.750   80.957    0.497    0.364   65.525  213.207
  232.000   82.147    0.489    0.366   63.437  214.804
  232.250   81.407    0.479    0.353   59.549  215.456
  232.500   80.777    0.480    0.353   56.814  216.705
  232.750   77.844    0.472    0.363   56.338  216.309
  233.000   75.025    0.460    0.365   56.401  215.617
  233.250   72.859    0.452    0.360   57.717  215.820
  233.500   71.267    0.455    0.352   60.049  216.322
  233.750   69.168    0.473    0.350   61.704  214.652
  234.000   66.578    0.471    0.355   59.219  214.242
  234.250   60.906    0.464    0.349   57.787  215.042
  234.500   55.424    0.452    0.336   55.998  215.245
  234.750   49.784    0.430    0.298   55.404  213.657
  235.000   44.844    0.404    0.253   56.182  210.376
  235.250   42.193    0.387    0.258   57.191  206.383
  235.500   44.860    0.391    0.283   57.442  204.313
  235.750   53.261    0.404    0.301   56.011  203.919
  236.000   61.164    0.418    0.317   54.939  206.511
  236.250   66.702    0.434    0.337   54.702  210.497
  236.500   68.951    0.452    0.357   55.302  213.388
  236.750   68.619    0.472    0.362   56.459  211.799
  237.000   67.058    0.481    0.359   57.457  211.804
  237.250   61.808    0.493    0.370   58.177  214.596
  237.500   49.410    0.512    0.367   58.717  216.491
  237.750   38.541    0.521    0.361   57.763  217.490
  238.000   30.148    0.519    0.359   56.392  218.091
  238.250   20.728    0.504    0.359   58.516  219.125
  238.500   13.242    0.470    0.356   60.758  218.300
  238.750    7.100    0.490    0.331   67.688  217.110
  239.000    5.577    0.510    0.301   75.872  215.919
  239.250    5.039    0.526    0.280   81.369  214.330
  239.500    4.822    0.536    0.269   82.566  212.344
  239.750    4.586    0.538    0.267   79.732  210.192
  240.000    4.448    0.533    0.310   77.495  209.367
  240.250    4.415    0.494    0.304   77.976  209.372
  240.500    4.601    0.503    0.303   77.202  209.078
  240.750    4.946    0.524    0.309   75.532  208.684
  241.000    5.696    0.535    0.323   72.906  208.389
  241.250    8.873    0.517    0.336   67.704  208.394
  241.500   14.887    0.481    0.339   61.983  208.398
  241.750   21.781    0.471    0.337   59.358  208.004
  242.000   24.495    0.465    0.336   57.987  207.908
  242.250   21.569    0.462    0.338   58.825  207.913
  242.500   17.116    0.461    0.340   61.694  207.917
  242.750   13.037    0.464    0.329   66.226  207.839
  243.000   11.299    0.479    0.303   70.957  207.428
  243.250   10.415    0.482    0.293   74.543  207.432
  243.500    9.548    0.479    0.295   74.008  207.437
  243.750    8.980    0.475    0.301   72.338  207.441
  244.000    8.673    0.470    0.307   71.743  207.644
  244.250    8.343    0.463    0.305   74.453  208.445
  244.500    7.970    0.474    0.290   78.438  208.450
  244.750    7.625    0.479    0.284   79.396  208.852
  245.000    7.667    0.484    0.284   79.996  209.255
  245.250    8.032    0.491    0.284   79.282  209.458
  245.500    8.569    0.496    0.279   77.134  209.461
  245.750    8.889    0.488    0.272   73.822  209.549
  246.000    8.888    0.466    0.273   71.585  209.968
  246.250    8.315    0.461    0.268   76.843  210.769
  246.500    7.130    0.472    0.277   81.026  212.167
  246.750    6.102    0.482    0.274   85.448  213.365
  247.000    5.465    0.488    0.260   88.915  214.066
  247.250    5.269    0.506    0.268   87.475  214.303
  247.500    5.268    0.519    0.286   86.233  213.478
  247.750    5.267    0.505    0.275   85.996  212.686
  248.000    5.237    0.479    0.257   86.835  213.088
  248.250    5.236    0.465    0.251   88.390  214.087
  248.500    5.312    0.469    0.259   90.244  215.187
  248.750    5.615    0.476    0.269   91.720  216.900
  249.000    6.206    0.475    0.273   90.728  221.467
  249.250    7.064    0.480    0.278   85.952  227.443
  249.500    7.437    0.482    0.283   82.968  221.176
  249.750    7.213    0.473    0.281   81.896  214.014
  250.000    6.708    0.460    0.273   82.436  210.933
  250.250    6.364    0.460    0.274   84.320  210.540
  250.500    6.314    0.459    0.270   86.562  210.544
  250.750    6.500    0.456    0.275   83.459  210.548
  251.000    6.765    0.453    0.274   81.969  210.552
  251.250    7.093    0.451    0.265   82.091  210.556
  251.500    7.480    0.452    0.251   82.989  210.560
  251.750    7.992    0.460    0.243   82.693  210.399
  252.000    8.303    0.462    0.269   81.203  209.574
  252.250    8.425    0.465    0.269   81.683  208.383
  252.500    8.362    0.460    0.267   82.522  208.089
  252.750    8.177    0.456    0.264   84.196  208.293
  253.000    7.771    0.456    0.258   87.006  208.894
  253.250    6.733    0.468    0.245   93.011  210.342
  253.500    5.751    0.474    0.223  102.718  211.590
  253.750    5.105    0.487    0.205  107.498  211.993
  254.000    4.588    0.487    0.190  107.979  212.096
  254.250    4.270    0.485    0.180  105.711  212.101
  254.500    4.118    0.488    0.186  102.967  212.105
  254.750    4.063    0.501    0.232  102.930  212.027
  255.000    4.094    0.523    0.256  103.928  211.617
  255.250    4.276    0.548    0.275   99.870  211.222
  255.500    4.758    0.563    0.303   94.736  210.829
  255.750    6.041    0.554    0.328   89.363  210.435
  256.000    8.780    0.523    0.339   85.484  210.140
  256.250   10.844    0.479    0.333   85.676  209.896
  256.500   10.127    0.465    0.327   85.430  208.656
  256.750    9.760    0.467    0.318   83.521  208.262
  257.000    9.938    0.477    0.310   83.225  208.167
  257.250   10.778    0.483    0.311   82.630  208.172
  257.500   12.784    0.483    0.321   80.722  207.976
  257.750   18.839    0.481    0.333   75.539  207.184
  258.000   25.991    0.480    0.344   66.334  207.189
  258.250   31.729    0.478    0.354   60.842  207.592
  258.500   37.708    0.474    0.365   55.709  207.695
  258.750   43.583    0.473    0.364   52.605  207.699
  259.000   48.584    0.479    0.358   51.891  207.603
  259.250   51.457    0.493    0.365   52.611  207.127
  259.500   53.048    0.497    0.360   52.614  206.718
  259.750   55.010    0.491    0.362   52.377  206.721
  260.000   56.741    0.480    0.359   52.320  206.725
  260.250   57.790    0.472    0.356   52.800  206.530
  260.500   57.779    0.467    0.356   53.937  206.136
  260.750   55.986    0.463    0.360   55.811  205.743
  261.000   53.484    0.461    0.357   56.809  205.748
  261.250   50.036    0.459    0.361   58.006  205.752
