~VERSION INFORMATION
 VERS.                 2.0:   CWLS LOG ASCII STANDARD -VERSION 2.0
 WRAP.                  NO:   ONE LINE PER DEPTH STEP
~WELL INFORMATION BLOCK
#MNEM.UNIT           DATA                    DESCRIPTION OF MNEMONIC
#---------    -------------------            -------------------------------
# Generated from Intellog Unique Number	CS_73_76/WELL/1032
WELL.         CANADIAN WORLDWIDE ENERGY      : Well_name    - WELL
LOC .         00/06-04-075-09W4/0            : Location     - LOCATION
UWI .         00/06-04-075-09W4/0            : Uwi          - UNIQUE WELL ID
ENTR.         SP                             : Entered      - ENTERED BY
SRVC.         SCHLUMBERGER                   : Scn          - SERVICE COMPANY
STRT.M        275                            : top_depth    - START DEPTH
STOP.M        494                            : bot_depth    - STOP DEPTH
STEP.M        0.25                           : increment    - STEP LENGTH
 NULL. -999.2500:NULL Value
~CURVE INFORMATION BLOCK
#MNEM UNIT       ERCB CURVE CODE    CURVE DESCRIPTION
#-----------   ------------------   ----------------------------------
DEPT.M        00 001 00 00         : DEPTH        - DEPTH
GR  .API      00 310 00 00         : GR           - GAMMA RAY
NPHI.V/V      00 330 00 00         : PHIN         - NEUTRON POROSITY (LIMESTONE)
DPHI.V/V      00 890 00 00         : PHID         - DENSITY POROSITY (LIMESTONE)
ILD .OHMM     00 120 00 00         : RESD         - DEEP RESISTIVITY (DIL)
~PARAMETER INFORMATION
#MNEM.UNIT           DATA             DESCRIPTION OF MNEMONIC
#---------         -----------     ------------------------------
GL  .M        662.5                : gl           - GROUND LEVEL ELEVATION
EREF.M        666                  : kb           - ELEVATION OF DEPTH REFERENCE
DATM.M        662.5                : datum        - DATUM ELEVATION
TDD .M        500                  : tdd          - TOTAL DEPTH DRILLER
RUN .         ONE                  : Run          - RUN NUMBER
ENG .         BILL                 : Engineer     - RECORDING ENGINEER
WIT .         JIM                  : Witness      - WITNESSED BY
MUD .         GEL                  : Mud_type     - MUD TYPE
MATR.         LIMESTONE            : Logunit      - NEUTRON MATRIX
TMAX.C        21                   : BHT          - MAXIMUM RECORDED TEMPERATURE
BHTD.M        500                  : BHTDEP       - MAXIMUM RECORDED TEMPERATURE
MATR.         1                    : LOGUNIT      - NEUTRON MATRIX
RMT .C        25                   : MDTP         - TEMPERATURE OF MUD
NEUT.         1                    : NEUTRON      - NEUTRON TYPE
RESI.         0                    : RESIST       - RESISTIVITY TYPE
RMC .OHMM     0.25                 : RMC          - RESISTIVITY OF MUD CAKE
RMF .OHMM     0.25                 : RMF          - RESISTIVITY OF MUD FILTRATE
SUFT.C        15                   : SUFT         - SURFACE TEMPERATURE
~A  DEPTH       GR     PHIN     PHID     RESD
# ...
  449.000   97.735    0.384    0.213   11.851
  449.250  103.208    0.399    0.207   12.077
  449.500   85.602    0.395    0.235   12.781
  449.750   77.109    0.368    0.245   13.525
  450.000   73.471    0.352    0.252   13.783
  450.250   71.048    0.372    0.257   14.313
  450.500   70.449    0.374    0.262   14.313
  450.750   75.316    0.365    0.251   14.313
  451.000   78.357    0.356    0.238   14.046
  451.250   84.438    0.350    0.224   12.781
  451.500   88.695    0.344    0.195   11.851
  451.750   86.879    0.354    0.172   11.630
  452.000   70.490    0.374    0.219   12.542
  452.250   61.388    0.380    0.247   13.024
  452.500   62.001    0.368    0.269   13.525
  452.750   69.297    0.362    0.251   14.046
  453.000   71.733    0.371    0.243   14.313
  453.250   72.349    0.374    0.262   14.586
  453.500   72.962    0.373    0.272   13.525
  453.750   77.219    0.372    0.269   12.781
  454.000   81.476    0.373    0.253   13.525
  454.250   77.233    0.385    0.238   14.586
  454.500   66.307    0.384    0.236   15.436
  454.750   57.812    0.362    0.262   16.029
  455.000   64.501    0.356    0.278   16.963
  455.250   74.830    0.366    0.252   17.616
  455.500   78.482    0.375    0.221   18.642
  455.750   68.166    0.375    0.238   18.997
  456.000   63.312    0.359    0.241   19.359
  456.250   58.461    0.345    0.239   19.359
  456.500   59.683    0.356    0.249   19.359
  456.750   64.552    0.364    0.259   17.286
  457.000   66.379    0.372    0.262   16.646
  457.250   66.383    0.381    0.266   16.963
  457.500   56.676    0.374    0.280   17.616
  457.750   51.823    0.357    0.285   17.951
  458.000   48.793    0.345    0.287   17.951
  458.250   54.267    0.352    0.264   17.616
  458.500   64.599    0.354    0.237   15.730
  458.750   70.069    0.352    0.206   13.272
  459.000   84.046    0.345    0.191   11.630
  459.250   90.124    0.367    0.173    9.630
  459.500   96.812    0.382    0.168    8.599
  459.750   98.641    0.378    0.162    7.973
  460.000  100.468    0.370    0.157    7.394
  460.250  104.120    0.364    0.154    7.255
  460.500  104.127    0.374    0.168    7.120
  460.750  102.311    0.414    0.183    7.120
  461.000   98.067    0.419    0.176    7.255
  461.250  102.325    0.407    0.173    7.394
  461.500  103.546    0.397    0.168    7.534
  461.750  100.520    0.409    0.165    7.824
  462.000   99.916    0.396    0.162    8.280
  462.250  101.138    0.393    0.160    8.438
  462.500  102.364    0.412    0.165    8.599
  462.750  103.585    0.426    0.170    8.599
  463.000  104.195    0.409    0.171    8.599
  463.250  107.848    0.396    0.169    8.438
  463.500  106.639    0.397    0.159    8.280
  463.750  104.217    0.398    0.141    8.125
  464.000  107.261    0.400    0.141    7.973
  464.250  109.090    0.404    0.157    7.824
  464.500  105.451    0.407    0.166    7.678
  464.750  100.600    0.399    0.171    7.678
  465.000   96.356    0.388    0.171    7.973
  465.250   91.505    0.386    0.175    7.973
  465.500   87.870    0.367    0.181    8.125
  465.750   85.446    0.352    0.184    8.125
  466.000   84.238    0.339    0.177    8.125
  466.250   87.281    0.337    0.165    8.125
  466.500   93.361    0.349    0.158    8.125
  466.750   98.834    0.358    0.150    7.973
  467.000  100.663    0.367    0.143    7.973
  467.250   98.242    0.376    0.139    7.824
  467.500   95.215    0.386    0.143    7.678
  467.750   94.004    0.398    0.179    7.534
  468.000   89.760    0.347    0.191    7.394
  468.250   87.337    0.328    0.180    7.394
  468.500   89.165    0.353    0.169    7.255
  468.750   92.815    0.365    0.175    7.394
  469.000   90.396    0.368    0.178    7.394
  469.250   89.186    0.361    0.167    7.394
  469.500   89.800    0.357    0.151    7.394
  469.750   94.665    0.375    0.146    7.534
  470.000  103.176    0.394    0.151    7.394
  470.250  107.435    0.406    0.155    7.534
  470.500  106.832    0.396    0.160    7.394
  470.750   99.553    0.388    0.165    7.394
  471.000   97.129    0.378    0.169    7.394
  471.250   96.529    0.366    0.155    7.394
  471.500   95.930    0.372    0.138    7.394
  471.750   96.544    0.385    0.146    7.394
  472.000   97.156    0.379    0.177    7.534
  472.250   93.519    0.367    0.191    7.824
  472.500   90.490    0.363    0.205    7.824
  472.750  100.822    0.372    0.218    7.973
  473.000  106.294    0.384    0.187    8.125
  473.250  105.088    0.377    0.157    8.438
  473.500  105.701    0.384    0.139    8.599
  473.750  108.137    0.390    0.143    8.929
  474.000  109.359    0.393    0.146    9.099
  474.250  110.582    0.388    0.147    9.273
  474.500  110.587    0.386    0.144    9.450
  474.750  106.951    0.389    0.135    9.450
  475.000  100.278    0.373    0.141    9.273
  475.250   96.033    0.353    0.151    8.929
  475.500   97.862    0.344    0.150    8.599
  475.750   99.084    0.363    0.145    8.438
  476.000   94.840    0.363    0.137    8.280
  476.250   88.772    0.358    0.249    8.599
  476.500   70.560    0.368    0.278    8.599
  476.750   48.098    0.392    0.300    8.762
  477.000   40.816    0.388    0.314    8.762
  477.250   29.284    0.385    0.321    8.599
  477.500   34.757    0.363    0.263    8.438
  477.750   46.303    0.350    0.228    9.630
  478.000   50.561    0.370    0.264   11.851
  478.250   43.888    0.386    0.276   13.525
  478.500   38.430    0.392    0.286   16.335
  478.750   34.793    0.401    0.293   18.642
  479.000   33.584    0.407    0.303   19.359
  479.250   32.379    0.403    0.317   21.680
  479.500   31.169    0.418    0.328   25.694
  479.750   28.140    0.401    0.335   29.882
  480.000   33.613    0.372    0.314   35.414
  480.250   50.018    0.346    0.288   41.186
  480.500   57.311    0.329    0.244   47.004
  480.750   54.889    0.343    0.237   53.642
  481.000   48.824    0.356    0.256   57.849
  481.250   43.971    0.371    0.275   26.683
  481.500   43.370    0.374    0.287   16.335
  481.750   47.629    0.368    0.288   13.272
  482.000   41.562    0.375    0.274   12.781
  482.250   34.283    0.388    0.283   14.313
  482.500   31.254    0.393    0.302   15.730
  482.750   29.437    0.401    0.318   18.642
  483.000   27.622    0.413    0.336   20.487
  483.250   29.454    0.415    0.344   23.826
  483.500   31.280    0.397    0.347   27.191
  483.750   34.930    0.403    0.340   32.225
  484.000   41.011    0.394    0.334   35.414
  484.250   50.734    0.359    0.310   38.191
  484.500   61.066    0.338    0.283   38.191
  484.750   65.930    0.329    0.264   31.623
  485.000   63.510    0.341    0.244   25.694
  485.250   60.480    0.360    0.240   16.335
  485.500   57.451    0.393    0.249    9.450
  485.750   51.990    0.400    0.287    7.534
  486.000   43.495    0.396    0.320    7.534
  486.250   50.791    0.397    0.345    8.280
  486.500   59.298    0.383    0.341    9.099
  486.750   75.095    0.367    0.283    9.273
  487.000   73.887    0.343    0.218    9.099
  487.250   72.679    0.338    0.219    8.929
  487.500   91.514    0.376    0.241    8.929
  487.750  100.630    0.404    0.252    8.762
  488.000   92.743    0.438    0.260    8.599
  488.250   85.460    0.460    0.255    8.929
  488.500   76.358    0.489    0.227    9.273
  488.750   65.434    0.483    0.137    9.813
  489.000   53.295    0.399    0.083   10.000
  489.250   39.942    0.177    0.100    9.630
  489.500   30.839    0.161    0.100    9.450
  489.750   28.416    0.143    0.100    9.630
  490.000   29.638    0.150    0.100   10.784
  490.250   33.898    0.171    0.004   14.586
  490.500   38.154    0.187    0.017   18.997
  490.750   30.875    0.168    0.008   22.943
  491.000   28.453    0.149    0.000   28.237
  491.250   27.244    0.137    0.001   32.225
  491.500   27.857    0.129    0.006   37.477
  491.750   30.295    0.126    0.000   41.186
  492.000   33.947    0.125    0.000   44.416
  492.250   35.773    0.171    0.000   47.004
