~VERSION INFORMATION
 VERS.                 2.0:   CWLS LOG ASCII STANDARD -VERSION 2.0
 WRAP.                  NO:   ONE LINE PER DEPTH STEP
~WELL INFORMATION BLOCK
#MNEM.UNIT           DATA                    DESCRIPTION OF MNEMONIC
#---------    -------------------            -------------------------------
# Generated from Intellog Unique Number	CN_91_93/WELL/4153
WELL.         CDN-SUP LIEGE                  : Well_name    - WELL
LOC .         00/06-13-092-21W4/0            : Location     - LOCATION
UWI .         00/06-13-092-21W4/0            : Uwi          - UNIQUE WELL ID
ENTR.         TIM                            : Entered      - ENTERED BY
SRVC.         SCHLUMBERGER                   : Scn          - SERVICE COMPANY
DATE.         01/22/92                       : Date         - LOG DATE
STRT.M        50                             : top_depth    - START DEPTH
STOP.M        250                            : bot_depth    - STOP DEPTH
STEP.M        0.25                           : increment    - STEP LENGTH
 NULL. -999.2500:NULL Value
~CURVE INFORMATION BLOCK
#MNEM UNIT       ERCB CURVE CODE    CURVE DESCRIPTION
#-----------   ------------------   ----------------------------------
DEPT.M        00 001 00 00         : DEPTH        - DEPTH
GR  .API      00 310 00 00         : GR           - GAMMA RAY
NPHI.V/V      00 330 00 00         : PHIN         - NEUTRON POROSITY (SANDSTONE)
DPHI.V/V      00 890 00 00         : PHID         - DENSITY POROSITY (SANDSTONE)
ILD .OHMM     00 120 00 00         : RESD         - DEEP RESISTIVITY (DIL)
~PARAMETER INFORMATION
#MNEM.UNIT           DATA             DESCRIPTION OF MNEMONIC
#---------         -----------     ------------------------------
GL  .M        545.44               : gl           - GROUND LEVEL ELEVATION
EREF.M        549.3                : kb           - ELEVATION OF DEPTH REFERENCE
DATM.M        549.3                : datum        - DATUM ELEVATION
TDD .M        251                  : tdd          - TOTAL DEPTH DRILLER
RUN .         ONE                  : Run          - RUN NUMBER
ENG .         JO                   : Engineer     - RECORDING ENGINEER
WIT .         TIM                  : Witness      - WITNESSED BY
MUD .         GEL                  : Mud_type     - MUD TYPE
MATR.         SANDSTONE            : Logunit      - NEUTRON MATRIX
TMAX.C        20.5                 : BHT          - MAXIMUM RECORDED TEMPERATURE
BHTD.M        251                  : BHTDEP       - MAXIMUM RECORDED TEMPERATURE
RMT .C        18                   : MDTP         - TEMPERATURE OF MUD
MUDD.KG/M     1107                 : MWT          - MUD DENSITY
NEUT.         1                    : NEUTRON      - NEUTRON TYPE
RESI.         0                    : RESIST       - RESISTIVITY TYPE
RM  .OHMM     6.44                 : RM           - RESISTIVITY OF MUD
RMC .OHMM     6.5                  : RMC          - RESISTIVITY OF MUD CAKE
RMF .OHMM     6.35                 : RMF          - RESISTIVITY OF MUD FILTRATE
SUFT.C        4                    : SUFT         - SURFACE TEMPERATURE
~A  DEPTH       GR     PHIN     PHID     RESD
# ...
   93.500   34.144    0.287    0.265   43.118
   93.750   35.982    0.330    0.275   39.987
   94.000   40.247    0.362    0.300   37.084
   94.250   44.512    0.384    0.322   35.709
   94.500   44.530    0.385    0.313   33.755
   94.750   42.126    0.394    0.343   33.137
   95.000   40.324    0.411    0.370   33.820
   95.250   38.526    0.445    0.379   34.502
   95.500   37.929    0.467    0.371   35.190
   95.750   36.738    0.422    0.369   36.593
   96.000   36.154    0.395    0.363   38.059
   96.250   35.556    0.389    0.360   40.340
   96.500   34.972    0.390    0.358   44.432
   96.750   34.388    0.396    0.354   47.084
   97.000   35.017    0.406    0.352   49.906
   97.250   35.031    0.426    0.348   52.884
   97.500   35.651    0.421    0.345   56.053
   97.750   36.887    0.407    0.345   58.299
   98.000   36.905    0.401    0.348   58.349
   98.250   36.923    0.386    0.350   58.399
   98.500   36.941    0.385    0.353   58.449
   98.750   36.352    0.392    0.355   57.392
   99.000   33.939    0.393    0.355   56.378
   99.250   30.322    0.381    0.354   55.334
   99.500   30.340    0.381    0.351   54.345
   99.750   30.960    0.388    0.350   53.361
  100.000   32.803    0.397    0.361   53.407
  100.250   34.650    0.411    0.366   53.441
  100.500   35.266    0.420    0.359   52.486
  100.750   36.497    0.425    0.358   52.531
  101.000   35.306    0.428    0.366   50.604
  101.250   35.324    0.429    0.372   49.688
  101.500   35.944    0.428    0.368   48.789
  101.750   37.181    0.422    0.367   47.897
  102.000   37.801    0.415    0.365   47.040
  102.250   39.037    0.400    0.365   45.325
  102.500   39.657    0.395    0.362   44.505
  102.750   40.286    0.397    0.358   43.699
  103.000   41.522    0.407    0.353   42.909
  103.250   42.142    0.416    0.343   42.133
  103.500   43.379    0.426    0.346   42.160
  103.750   44.003    0.425    0.357   41.406
  104.000   45.846    0.424    0.367   41.432
  104.250   46.462    0.420    0.364   40.683
  104.500   50.124    0.418    0.351   40.726
  104.750   53.172    0.413    0.315   39.981
  105.000   57.437    0.401    0.292   40.024
  105.250   63.522    0.389    0.287   39.300
  105.500   66.578    0.383    0.302   38.581
  105.750   64.164    0.384    0.293   37.165
  106.000   56.902    0.379    0.280   34.467
  106.250   54.498    0.373    0.295   32.574
  106.500   59.976    0.381    0.302   29.631
  106.750   73.342    0.401    0.291   26.438
  107.000   86.707    0.462    0.265   19.865
  107.250   92.186    0.490    0.256   14.927
  107.500   92.204    0.508    0.255   11.216
  107.750   84.941    0.496    0.254    8.925
  108.000   81.926    0.464    0.251    7.102
  108.250   82.555    0.439    0.249    6.338
  108.500   83.791    0.432    0.246    6.592
  108.750   85.014    0.413    0.239    7.122
  109.000   88.681    0.410    0.234    7.992
  109.250   89.306    0.417    0.227    9.502
  109.500   88.110    0.423    0.226   10.466
  109.750   85.697    0.429    0.220   10.883
  110.000   80.862    0.434    0.202   10.893
  110.250   74.813    0.429    0.147   10.899
  110.500   70.584    0.404    0.150   10.909
  110.750   71.209    0.404    0.235   10.509
  111.000   73.658    0.414    0.258   10.319
  111.250   74.889    0.424    0.259   10.330
  111.500   74.903    0.418    0.254   11.165
  111.750   74.314    0.414    0.246   11.607
  112.000   75.550    0.425    0.249   12.067
  112.250   76.782    0.435    0.253   12.310
  112.500   76.193    0.436    0.255   12.088
  112.750   73.784    0.426    0.257   11.424
  113.000   75.623    0.438    0.262   10.394
  113.250   78.674    0.446    0.267    9.278
  113.500   84.153    0.455    0.260    8.766
  113.750   86.597    0.459    0.247    7.976
  114.000   89.649    0.460    0.247    7.536
  114.250   91.487    0.472    0.250    6.986
  114.500   84.831    0.485    0.252    6.603
  114.750   69.682    0.501    0.253    6.007
  115.000   50.285    0.508    0.254    5.569
  115.250   53.337    0.512    0.256    5.364
  115.500   61.849    0.507    0.259    4.975
  115.750   67.934    0.493    0.260    4.978
  116.000   77.659    0.478    0.260    4.985
  116.250   75.251    0.467    0.250    4.987
  116.500   71.031    0.453    0.240    5.285
  116.750   71.040    0.416    0.194    5.820
  117.000   71.669    0.410    0.130    6.659
  117.250   72.901    0.416    0.150    8.070
  117.500   74.132    0.437    0.199    8.719
  117.750   75.364    0.508    0.187    9.420
  118.000   71.746    0.503    0.218    9.610
  118.250   69.944    0.494    0.247    9.622
  118.500   69.355    0.488    0.276    9.446
  118.750   70.591    0.503    0.283    9.099
  119.000   71.207    0.520    0.267    8.764
  119.250   74.259    0.520    0.258    8.129
  119.500   76.703    0.510    0.265    7.680
  119.750   74.295    0.493    0.271    6.855
  120.000   68.857    0.480    0.269    6.117
  120.250   65.837    0.468    0.264    5.780
  120.500   63.428    0.449    0.262    5.463
  120.750   64.058    0.431    0.262    5.365
  121.000   65.293    0.413    0.263    5.685
  121.250   65.923    0.417    0.266    6.758
  121.500   66.548    0.422    0.267    8.843
  121.750   66.557    0.430    0.266   10.509
  122.000   62.328    0.438    0.263   12.258
  122.250   56.886    0.449    0.258   12.037
  122.500   47.807    0.445    0.242   11.593
  122.750   36.294    0.436    0.220   11.170
  123.000   19.324    0.424    0.185   10.968
  123.250   10.237    0.417    0.205   10.568
  123.500    7.837    0.415    0.244   10.572
  123.750    8.462    0.418    0.268   10.790
  124.000   10.903    0.421    0.257   10.795
  124.250   25.482    0.429    0.259   11.667
  124.500   53.408    0.435    0.264   12.366
  124.750   76.485    0.444    0.268   11.913
  125.000   68.616    0.425    0.275   10.836
  125.250   66.207    0.415    0.275    9.488
  125.500   63.799    0.422    0.266    8.967
  125.750   64.423    0.406    0.260    8.972
  126.000   66.868    0.396    0.265    9.155
  126.250   69.920    0.408    0.266    9.706
  126.500   74.185    0.417    0.262   10.088
  126.750   78.450    0.429    0.255   10.292
  127.000   82.715    0.463    0.255    9.364
  127.250   83.946    0.478    0.257    8.516
  127.500   82.760    0.505    0.259    7.600
  127.750   82.167    0.514    0.260    6.404
  128.000   81.583    0.503    0.262    5.397
  128.250   81.596    0.497    0.264    4.548
  128.500   82.221    0.501    0.265    4.059
  128.750   81.632    0.511    0.261    3.911
  129.000   78.015    0.518    0.252    3.990
  129.250   71.961    0.498    0.257    4.069
  129.500   62.883    0.482    0.263    4.315
  129.750   66.541    0.457    0.257    4.485
  130.000   70.195    0.441    0.222    4.846
  130.250   76.280    0.447    0.225    5.440
  130.500   78.725    0.458    0.232    7.115
  130.750   73.890    0.476    0.245    7.986
  131.000   68.448    0.507    0.255    8.304
  131.250   59.365    0.523    0.191    7.411
  131.500   47.860    0.510    0.194    6.615
  131.750   46.665    0.429    0.226    6.132
  132.000   44.858    0.465    0.271    6.377
  132.250   44.270    0.468    0.297    7.295
  132.500   44.288    0.461    0.321    9.012
  132.750   46.126    0.456    0.341   10.713
  133.000   51.002    0.451    0.351   12.980
  133.250   58.907    0.433    0.316   15.137
  133.500   64.992    0.430    0.301   16.669
  133.750   70.475    0.474    0.272   14.594
  134.000   74.740    0.495    0.257   12.299
  134.250   77.787    0.507    0.243   10.366
  134.500   81.450    0.491    0.231    9.251
  134.750   83.895    0.475    0.218    8.256
  135.000   88.160    0.475    0.202    7.655
  135.250   91.818    0.493    0.214    7.097
  135.500   92.443    0.497    0.229    6.967
  135.750   93.072    0.473    0.232    6.585
  136.000   93.086    0.501    0.222    6.467
  136.250   93.715    0.510    0.219    6.230
  136.500   93.733    0.519    0.219    6.234
  136.750   93.747    0.508    0.222    6.124
