~VERSION INFORMATION
 VERS.                 2.0:   CWLS LOG ASCII STANDARD -VERSION 2.0
 WRAP.                  NO:   ONE LINE PER DEPTH STEP
~WELL INFORMATION BLOCK
#MNEM.UNIT           DATA                    DESCRIPTION OF MNEMONIC
#---------    -------------------            -------------------------------
# Generated from Intellog Unique Number	CS_67_68/WELL/2170
WELL.         06-16-067-05W4                 : Well_name    - WELL
LOC .         00/06-16-067-05W4/0            : Location     - LOCATION
UWI .         00/06-16-067-05W4/0            : Uwi          - UNIQUE WELL ID
ENTR.         SP                             : Entered      - ENTERED BY
SRVC.         SCHLUMBERGER                   : Scn          - SERVICE COMPANY
STRT.M        325                            : top_depth    - START DEPTH
STOP.M        545                            : bot_depth    - STOP DEPTH
STEP.M        0.25                           : increment    - STEP LENGTH
 NULL. -999.2500:NULL Value
~CURVE INFORMATION BLOCK
#MNEM UNIT       ERCB CURVE CODE    CURVE DESCRIPTION
#-----------   ------------------   ----------------------------------
DEPT.M        00 001 00 00         : DEPTH        - DEPTH
ILD .OHMM     00 120 00 00         : RESD         - DEEP RESISTIVITY (DIL)
DPHI.V/V      00 890 00 00         : PHID         - DENSITY POROSITY (LIMESTONE)
NPHI.V/V      00 330 00 00         : PHIN         - NEUTRON POROSITY (LIMESTONE)
GR  .API      00 310 00 00         : GR           - GAMMA RAY
CALI.MM       00 280 01 00         : CAL          - CALIPER
~PARAMETER INFORMATION
#MNEM.UNIT           DATA             DESCRIPTION OF MNEMONIC
#---------         -----------     ------------------------------
GL  .M        656.66               : gl           - GROUND LEVEL ELEVATION
EREF.M        660.02               : kb           - ELEVATION OF DEPTH REFERENCE
DATM.M        660.02               : datum        - DATUM ELEVATION
TDD .M        550                  : tdd          - TOTAL DEPTH DRILLER
RUN .         ONE                  : Run          - RUN NUMBER
ENG .         BILL                 : Engineer     - RECORDING ENGINEER
WIT .         JIM                  : Witness      - WITNESSED BY
MUD .         GEL                  : Mud_type     - MUD TYPE
MATR.         LIMESTONE            : Logunit      - NEUTRON MATRIX
TMAX.C        24                   : BHT          - MAXIMUM RECORDED TEMPERATURE
BHTD.M        550.4                : BHTDEP       - MAXIMUM RECORDED TEMPERATURE
MATR.         1                    : LOGUNIT      - NEUTRON MATRIX
RMT .C        25                   : MDTP         - TEMPERATURE OF MUD
NEUT.         1                    : NEUTRON      - NEUTRON TYPE
RESI.         0                    : RESIST       - RESISTIVITY TYPE
RMC .OHMM     0.25                 : RMC          - RESISTIVITY OF MUD CAKE
RMF .OHMM     0.25                 : RMF          - RESISTIVITY OF MUD FILTRATE
SUFT.C        15                   : SUFT         - SURFACE TEMPERATURE
~A  DEPTH     RESD     PHID     PHIN       GR      CAL
  325.000    3.351    0.248    0.521  104.721  236.125
  325.250    3.481    0.243    0.494  104.315  234.223
  325.500    3.596    0.196    0.487  100.053  231.709
  325.750    3.557    0.208    0.484   96.403  229.501
  326.000    3.491    0.248    0.480   94.342  227.695
  326.250    3.377    0.251    0.477   95.463  226.099
  326.500    3.278    0.237    0.454   98.298  225.114
  326.750    3.158    0.230    0.470  100.581  224.333
  327.000    3.088    0.258    0.484   98.888  223.041
  327.250    3.049    0.281    0.493   97.074  221.140
  327.500    3.022    0.273    0.500   96.911  220.150
  327.750    3.058    0.276    0.512   95.220  219.878
  328.000    3.111    0.275    0.524   94.933  220.013
  328.250    3.207    0.268    0.505   97.705  221.372
  328.500    3.306    0.261    0.511  100.845  223.242
  328.750    3.246    0.255    0.522  103.189  224.498
  329.000    3.121    0.254    0.506   99.174  225.147
  329.250    3.140    0.264    0.499   96.746  223.650
  329.500    3.262    0.270    0.526   99.275  221.134
  329.750    3.388    0.273    0.546  101.190  219.025
  330.000    3.480    0.259    0.538   97.969  218.654
  330.250    3.462    0.235    0.486   91.630  220.114
  330.500    3.392    0.215    0.460   88.039  220.759
  330.750    3.311    0.200    0.456   87.142  221.101
  331.000    3.269    0.248    0.470   95.176  221.130
  331.250    3.150    0.271    0.477  101.374  221.063
  331.500    2.967    0.266    0.482   99.806  221.099
  331.750    2.885    0.271    0.498   97.683  220.725
  332.000    2.870    0.270    0.521   96.357  220.149
  332.250    3.004    0.260    0.505   94.848  220.182
  332.500    3.203    0.257    0.498   97.071  221.339
  332.750    3.501    0.262    0.543   98.925  221.168
  333.000    3.928    0.253    0.513   90.688  219.769
  333.250    4.399    0.207    0.462   80.432  216.643
  333.500    4.862    0.176    0.424   69.442  213.620
  333.750    5.273    0.308    0.403   60.898  213.141
  334.000    5.894    0.323    0.382   61.103  213.074
  334.250    6.157    0.304    0.370   63.997  213.419
  334.500    6.206    0.270    0.366   73.682  213.754
  334.750    6.116    0.243    0.390   87.098  214.201
  335.000    6.083    0.224    0.420   95.743  214.637
  335.250    6.260    0.207    0.435   95.642  214.571
  335.500    6.321    0.203    0.424   93.031  213.278
  335.750    6.300    0.254    0.428   88.830  211.782
  336.000    6.398    0.299    0.439   77.657  210.389
  336.250    6.473    0.325    0.420   69.480  209.401
  336.500    5.961    0.346    0.396   63.262  208.619
  336.750    5.776    0.351    0.407   62.609  207.940
  337.000    5.628    0.343    0.433   68.014  208.279
  337.250    5.525    0.339    0.446   71.214  208.008
  337.500    5.444    0.342    0.422   70.254  207.636
  337.750    5.447    0.343    0.416   70.397  207.060
  338.000    5.668    0.336    0.404   74.519  206.887
  338.250    5.877    0.326    0.394   77.289  206.821
  338.500    5.990    0.316    0.396   75.718  206.854
  338.750    6.129    0.308    0.401   81.855  206.992
  339.000    6.166    0.299    0.410   88.483  207.018
  339.250    6.181    0.294    0.399   92.662  207.262
  339.500    6.102    0.298    0.382   96.230  207.496
  339.750    5.890    0.306    0.386   81.936  207.631
  340.000    5.728    0.313    0.403   69.967  207.767
  340.250    5.624    0.318    0.416   60.934  207.599
  340.500    5.637    0.329    0.402   52.636  207.533
  340.750    5.660    0.341    0.404   46.783  207.669
  341.000    5.781    0.349    0.401   52.129  207.805
  341.250    5.903    0.337    0.395   60.648  208.142
  341.500    6.052    0.312    0.395   72.046  208.582
  341.750    6.146    0.287    0.389   82.097  209.026
  342.000    6.148    0.266    0.378   87.195  209.368
  342.250    6.104    0.261    0.386   86.360  209.599
  342.500    6.141    0.271    0.395   84.182  209.836
  342.750    6.272    0.269    0.391   84.138  210.076
  343.000    6.527    0.256    0.383   87.093  210.314
  343.250    6.629    0.244    0.386   93.107  210.449
  343.500    6.719    0.232    0.402   96.433  210.379
  343.750    6.437    0.254    0.395   93.394  210.517
  344.000    5.906    0.274    0.385   94.026  210.547
  344.250    5.358    0.287    0.407   96.493  210.791
  344.500    5.056    0.295    0.447  101.833  210.821
  344.750    4.442    0.284    0.455  107.847  211.061
  345.000    4.130    0.271    0.497  112.394  211.503
  345.250    3.919    0.253    0.531  113.884  211.838
  345.500    3.812    0.225    0.517  104.912  212.076
  345.750    4.080    0.213    0.509   99.794  212.109
  346.000    4.327    0.283    0.520   95.532  211.735
  346.250    4.658    0.305    0.469   85.276  211.159
  346.500    4.958    0.312    0.441   78.752  210.992
  346.750    5.317    0.289    0.437   88.499  212.047
  347.000    5.618    0.272    0.442   87.907  213.708
  347.250    5.716    0.257    0.457   72.572  214.859
  347.500    5.827    0.326    0.469   65.252  213.671
  347.750    5.763    0.343    0.452   62.948  211.669
  348.000    5.605    0.345    0.444   67.067  210.883
  348.250    5.649    0.346    0.439   76.571  211.023
  348.500    6.048    0.351    0.440   81.421  210.955
  348.750    6.462    0.330    0.437   84.866  210.888
  349.000    6.917    0.300    0.426   86.355  210.920
  349.250    7.252    0.276    0.448   84.847  210.752
  349.500    7.505    0.221    0.481   81.440  210.580
  349.750    7.451    0.193    0.457   77.242  210.305
  350.000    6.875    0.190    0.447   77.261  210.031
  350.250    6.308    0.267    0.458   79.788  209.657
  350.500    6.043    0.298    0.447   80.176  209.284
  350.750    5.746    0.325    0.415   75.486  208.813
  351.000    5.546    0.344    0.404   71.897  208.640
  351.250    5.415    0.353    0.423   70.328  208.571
  351.500    5.346    0.355    0.439   71.692  208.503
  351.750    5.318    0.356    0.443   72.814  208.333
  352.000    5.350    0.353    0.428   73.935  208.263
  352.250    5.412    0.348    0.409   72.794  208.196
  352.500    5.476    0.359    0.394   67.799  208.536
  352.750    5.519    0.365    0.410   65.067  209.080
  353.000    5.595    0.349    0.431   65.394  209.417
  353.250    5.724    0.337    0.434   65.778  209.860
  353.500    6.048    0.327    0.425   69.164  210.196
  353.750    6.341    0.336    0.410   72.853  210.845
  354.000    6.587    0.335    0.415   74.097  211.183
  354.250    6.791    0.300    0.440   77.116  211.627
  354.500    6.870    0.267    0.410   80.377  211.760
  354.750    6.912    0.252    0.386   82.843  211.699
  355.000    6.993    0.249    0.388   75.342  211.826
  355.250    7.088    0.256    0.392   71.201  211.860
  355.500    6.894    0.259    0.399   73.118  211.697
  355.750    6.755    0.280    0.416   77.358  211.621
  356.000    6.657    0.305    0.428   71.019  211.453
  356.250    6.622    0.314    0.412   67.674  211.386
  356.500    6.637    0.299    0.386   67.082  211.316
  356.750    6.677    0.287    0.377   67.714  211.253
  357.000    6.793    0.283    0.372   67.488  211.076
  357.250    6.899    0.276    0.374   70.995  210.806
  357.500    6.954    0.280    0.401   75.481  210.432
  357.750    7.022    0.298    0.432   77.458  210.059
  358.000    7.064    0.314    0.451   66.474  209.580
  358.250    7.201    0.322    0.433   63.124  209.008
  358.500    7.825    0.309    0.420   65.349  208.733
  358.750    8.471    0.285    0.416   66.529  208.666
  359.000    9.926    0.269    0.427   70.158  208.695
  359.250   11.178    0.276    0.444   74.216  209.141
  359.500   12.876    0.262    0.483   73.257  209.682
  359.750   14.972    0.124    0.296   65.818  210.939
  360.000   16.957    0.070    0.221   60.943  211.890
  360.250   19.098    0.048    0.183   58.822  212.841
  360.500   20.481    0.074    0.170   58.596  212.465
  360.750   19.512    0.140    0.311   57.761  211.482
  361.000   17.800    0.191    0.338   52.950  210.910
  361.250   13.893    0.052    0.175   48.565  210.834
