~VERSION INFORMATION
 VERS.                 2.0:   CWLS LOG ASCII STANDARD -VERSION 2.0
 WRAP.                  NO:   ONE LINE PER DEPTH STEP
~WELL INFORMATION BLOCK
#MNEM.UNIT           DATA                    DESCRIPTION OF MNEMONIC
#---------    -------------------            -------------------------------
# Generated from Intellog Unique Number	CW_70_72/WELL/2900
NULL.         -999.25                        : NULL_VALUE
WELL.         SUNCOR GAMBLER                 : Well_name    - WELL              
LOC .         06-24-070-21W4                 : Location     - LOCATION          
UWI .         00/06-24-070-21W4/0            : Uwi          - UNIQUE WELL ID    
ENTR.         MAX                            : Entered      - ENTERED BY        
SRVC.         SCHLUMBERGER                   : Scn          - SERVICE COMPANY   
DATE.         23 FEB 80                      : Date         - LOG DATE
STRT.M        385                            : top_depth    - START DEPTH       
STOP.M        555                            : bot_depth    - STOP DEPTH        
STEP.M        0.25                           : increment    - STEP LENGTH       
~CURVE INFORMATION BLOCK
#MNEM UNIT       ERCB CURVE CODE    CURVE DESCRIPTION
#-----------   ------------------   ----------------------------------
DEPT.M        00 001 00 00         : DEPTH        - DEPTH                       
ILD .OHMM     00 120 00 00         : RESD         - DEEP RESISTIVITY (DIL)      
NPHI.V/V      00 330 00 00         : PHIN         - NEUTRON POROSITY (SANDSTONE)
DPHI.V/V      00 890 00 00         : PHID         - DENSITY POROSITY (SANDSTONE)
CALI.MM       00 280 01 00         : CAL          - CALIPER                     
GR  .API      00 310 00 00         : GR           - GAMMA RAY                   
~PARAMETER INFORMATION       
#MNEM.UNIT           DATA             DESCRIPTION OF MNEMONIC
#---------         -----------     ------------------------------
GL  .M        645.78               : gl           - GROUND LEVEL ELEVATION      
EREF.M        649.13               : kb           - ELEVATION OF DEPTH REFERENCE
DATM.M        645.78               : datum        - DATUM ELEVATION             
TDD .M        569                  : tdd          - TOTAL DEPTH DRILLER         
RUN .         ONE                  : Run          - RUN NUMBER                  
ENG .         BILL                 : Engineer     - RECORDING ENGINEER          
WIT .         JIM                  : Witness      - WITNESSED BY                
MUD .         GEL                  : Mud_type     - MUD TYPE                    
MATR.         SANDSTONE            : Logunit      - NEUTRON MATRIX              
TMAX.C        39                   : BHT          - MAXIMUM RECORDED TEMPERATURE
BHTD.M        569                  : BHTDEP       - MAXIMUM RECORDED TEMPERATURE
RMT .C        12.2                 : MDTP         - TEMPERATURE OF MUD          
MUDD.KG/M     1050                 : MWT          - MUD DENSITY                 
NEUT.         1                    : NEUTRON      - NEUTRON TYPE                
RESI.         0                    : RESIST       - RESISTIVITY TYPE            
RM  .OHMM     3.03                 : RM           - RESISTIVITY OF MUD          
RMC .OHMM     0.25                 : RMC          - RESISTIVITY OF MUD CAKE     
RMF .OHMM     3.94                 : RMF          - RESISTIVITY OF MUD FILTRATE 
SUFT.C        -20                  : SUFT         - SURFACE TEMPERATURE         
~A  DEPTH     RESD     PHIN     PHID      CAL       GR
  385.000    2.479    0.575    0.400  280.944   80.671
  385.250    2.525    0.572    0.423  294.951   79.180
  385.500    2.621    0.518    0.425  299.963   78.888
  385.750    2.695    0.515    0.370  272.986   79.796
  386.000    2.772    0.534    0.369  262.005   83.102
  386.250    2.850    0.555    0.329  233.527   90.007
  386.500    2.931    0.541    0.257  215.549   93.913
  386.750    2.959    0.514    0.268  217.060   90.322
  387.000    3.014    0.502    0.307  232.069   89.132
  387.250    3.071    0.511    0.290  230.083   90.939
  387.500    3.129    0.484    0.240  229.094   91.845
  387.750    3.159    0.464    0.209  240.603   89.155
  388.000    3.159    0.521    0.215  245.614   87.664
  388.250    3.131    0.547    0.227  255.125   88.571
  388.500    3.046    0.564    0.234  262.137   89.779
  388.750    3.018    0.568    0.255  255.651   87.387
  389.000    2.991    0.544    0.281  239.171   84.697
  389.250    2.963    0.513    0.328  240.185   84.105
  389.500    2.964    0.516    0.366  240.696   83.213
  389.750    2.964    0.557    0.340  246.207   84.120
  390.000    2.965    0.599    0.271  256.718   84.430
  390.250    2.993    0.587    0.279  258.232   82.936
  390.500    3.021    0.540    0.291  257.742   81.446
  390.750    3.022    0.530    0.292  259.258   81.753
  391.000    3.022    0.554    0.291  260.769   76.663
  391.250    2.995    0.557    0.364  265.780   75.171
  391.500    3.023    0.541    0.409  285.785   73.980
  391.750    3.167    0.522    0.461  295.796   74.588
  392.000    3.379    0.508    0.615  280.813   73.696
  392.250    3.884    0.555    0.494  234.344   63.507
  392.500    4.381    0.519    0.163  205.868   57.817
  392.750    4.943    0.403    0.224  195.387   57.527
  393.000    5.628    0.397    0.259  192.901   59.932
  393.250    6.118    0.412    0.265  193.912   62.340
  393.500    6.176    0.436    0.249  198.925   63.548
  393.750    5.898    0.450    0.231  198.438   65.056
  394.000    5.580    0.462    0.222  197.950   66.562
  394.250    5.230    0.459    0.239  197.966   68.970
  394.500    4.994    0.439    0.256  198.479   71.376
  394.750    4.769    0.432    0.275  198.990   72.584
  395.000    4.554    0.422    0.277  201.006   73.192
  395.250    4.430    0.409    0.262  203.015   74.099
  395.500    4.309    0.463    0.284  209.027   78.005
  395.750    4.192    0.498    0.376  220.035   82.812
  396.000    4.078    0.517    0.403  221.047   87.618
  396.250    4.078    0.503    0.310  214.063   85.228
  396.500    4.155    0.437    0.217  206.581   82.236
  396.750    4.434    0.409    0.229  207.094   80.745
  397.000    4.688    0.411    0.270  212.605   80.753
  397.250    4.866    0.450    0.295  219.617   78.962
  397.500    5.050    0.459    0.257  218.632   78.069
  397.750    5.145    0.440    0.265  214.145   78.076
  398.000    5.243    0.445    0.270  212.159   78.686
  398.250    5.391    0.449    0.252  212.172   78.093
  398.500    5.392    0.404    0.253  206.186   75.102
  398.750    5.393    0.406    0.255  200.204   67.613
  399.000    5.344    0.396    0.245  200.216   60.425
  399.250    5.345    0.384    0.242  200.229   61.931
  399.500    5.346    0.378    0.238  200.242   71.835
  399.750    5.396    0.403    0.238  200.255   77.241
  400.000    5.498    0.427    0.251  200.268   72.151
  400.250    5.499    0.411    0.260  200.268   71.561
  400.500    5.449    0.413    0.254  200.299   72.467
  400.750    5.301    0.416    0.248  200.309   74.574
  401.000    5.109    0.411    0.245  200.322   76.681
  401.250    4.789    0.405    0.248  201.336   79.088
  401.500    4.366    0.411    0.265  201.348   80.595
  401.750    3.980    0.429    0.281  201.362   78.805
  402.000    3.766    0.442    0.276  201.875   78.813
  402.250    3.596    0.436    0.278  202.388   80.319
  402.500    3.434    0.436    0.353  203.901   83.027
  402.750    3.279    0.472    0.427  208.410   84.234
  403.000    3.102    0.553    0.514  263.403   83.343
  403.250    2.935    0.591    0.592  249.423   82.150
  403.500    2.777    0.598    0.416  245.436   78.561
  403.750    2.651    0.552    0.429  258.947   77.670
  404.000    2.603    0.549    0.475  291.446   77.976
  404.250    2.604    0.573    0.519  306.453   79.785
  404.500    2.556    0.580    0.558  308.465   81.890
  404.750    2.510    0.566    0.526  327.971   85.199
  405.000    2.510    0.584    0.540  345.979   85.204
  405.250    2.581    0.594    0.576  326.001   86.412
  405.500    2.755    0.582    0.580  312.018   89.120
  405.750    2.967    0.470    0.528  285.541   88.528
  406.000    3.378    0.457    0.218  222.577   83.737
  406.250    3.882    0.477    0.255  208.597   81.047
  406.500    4.380    0.480    0.271  215.106   82.855
  406.750    4.987    0.487    0.294  217.121   81.962
  407.000    5.784    0.461    0.306  209.136   78.671
  407.250    6.465    0.435    0.322  203.651   72.981
  407.500    7.499    0.416    0.333  201.667   64.892
  407.750    9.026    0.401    0.318  201.180   60.701
  408.000   10.865    0.429    0.302  200.193   61.910
  408.250   11.703    0.464    0.283  199.205   62.216
  408.500   11.596    0.463    0.277  198.720   58.926
  408.750   11.385    0.455    0.278  198.732   60.133
  409.000   10.872    0.459    0.297  198.732   61.041
  409.250   10.382    0.458    0.290  198.764   58.950
  409.500    9.914    0.465    0.285  198.776   57.160
  409.750    9.554    0.471    0.289  198.776   57.767
  410.000    9.208    0.467    0.286  198.800   59.873
  410.250    8.875    0.468    0.282  198.813   60.781
  410.500    8.554    0.471    0.272  198.826   59.590
  410.750    8.320    0.492    0.274  199.339   60.197
  411.000    8.019    0.498    0.281  199.852   61.104
  411.250    7.800    0.495    0.286  200.865   60.812
  411.500    7.658    0.488    0.284  200.878   66.818
  411.750    7.589    0.484    0.265  200.889   68.026
  412.000    7.732    0.482    0.243  201.402   64.436
  412.250    8.328    0.499    0.287  201.420   59.345
  412.500    9.932    0.488    0.316  201.433   55.154
  412.750   11.627    0.474    0.323  201.443   53.964
  413.000   12.758    0.445    0.321  200.966   55.472
  413.250   12.296    0.448    0.319  200.969   55.478
  413.500   11.004    0.462    0.315  200.483   55.787
  413.750    9.757    0.457    0.302  199.996   59.393
  414.000    8.415    0.463    0.280  200.009   61.201
  414.250    7.601    0.465    0.267  200.022   61.807
  414.500    6.802    0.470    0.268  201.037   64.815
  414.750    6.145    0.471    0.255  202.048   71.720
  415.000    5.602    0.454    0.234  203.563   72.628
  415.250    5.251    0.463    0.256  206.577   69.938
  415.500    4.832    0.480    0.303  211.087   68.745
  415.750    4.446    0.479    0.317  212.098   69.353
  416.000    4.129    0.463    0.357  221.107   72.061
  416.250    3.765    0.448    0.446  252.610   71.469
  416.500    3.432    0.554    0.568  310.601   72.374
  416.750    3.339    0.584    0.581  253.136   79.880
  417.000    3.402    0.585    0.559  227.159   85.586
  417.250    3.630    0.469    0.286  214.677   89.493
  417.500    3.803    0.439    0.313  219.688   92.499
  417.750    3.984    0.455    0.399  248.190   97.006
  418.000    4.021    0.464    0.396  255.201   94.014
  418.250    3.948    0.454    0.421  252.715   81.728
  418.500    3.841    0.488    0.408  237.235   74.538
  418.750    3.701    0.478    0.367  224.252   74.545
  419.000    3.438    0.461    0.378  215.768   85.050
  419.250    3.020    0.489    0.381  220.279   91.955
  419.500    2.629    0.530    0.344  246.284   95.262
  419.750    2.288    0.558    0.317  250.796   95.872
  420.000    2.246    0.570    0.355  244.813   94.378
  420.250    2.465    0.593    0.352  240.326   86.289
  420.500    2.913    0.581    0.325  227.844   80.000
  420.750    3.571    0.548    0.256  211.363   81.508
  421.000    4.029    0.493    0.285  202.881   83.614
  421.250    5.032    0.474    0.279  202.393   88.120
