~VERSION INFORMATION
 VERS.                 2.0:   CWLS LOG ASCII STANDARD -VERSION 2.0
 WRAP.                  NO:   ONE LINE PER DEPTH STEP
~WELL INFORMATION BLOCK
#MNEM.UNIT           DATA                    DESCRIPTION OF MNEMONIC
#---------    -------------------            -------------------------------
# Generated from Intellog Unique Number	CS_77_79/WELL/889
WELL.         KANDEX HOMESTEAD THORNBURY     : Well_name    - WELL
LOC .         00/07-01-079-13W4/0            : Location     - LOCATION
UWI .         00/07-01-079-13W4/0            : Uwi          - UNIQUE WELL ID
ENTR.         JHS                            : Entered      - ENTERED BY
SRVC.         SCHLUMBERGER                   : Scn          - SERVICE COMPANY
STRT.M        259.08                         : top_depth    - START DEPTH
STOP.M        493.58                         : bot_depth    - STOP DEPTH
STEP.M        0.25                           : increment    - STEP LENGTH
 NULL. -999.2500:NULL Value
~CURVE INFORMATION BLOCK
#MNEM UNIT       ERCB CURVE CODE    CURVE DESCRIPTION
#-----------   ------------------   ----------------------------------
DEPT.M        00 001 00 00         : DEPTH        - DEPTH
RHOB.KG/M3    00 350 00 00         : DENS         - BULK DENSITY
GR  .API      00 310 00 00         : GR           - GAMMA RAY
DPHI.V/V      00 890 00 00         : PHID         - DENSITY POROSITY (SANDSTONE)
NPHI.V/V      00 330 00 00         : PHIN         - NEUTRON POROSITY (SANDSTONE)
ILD .OHMM     00 120 00 00         : RESD         - DEEP RESISTIVITY (DIL)
~PARAMETER INFORMATION
#MNEM.UNIT           DATA             DESCRIPTION OF MNEMONIC
#---------         -----------     ------------------------------
GL  .M        679.399              : gl           - GROUND LEVEL ELEVATION
EREF.M        683.057              : kb           - ELEVATION OF DEPTH REFERENCE
DATM.M        683.057              : datum        - DATUM ELEVATION
TDD .M        499.872              : tdd          - TOTAL DEPTH DRILLER
RUN .         ONE                  : Run          - RUN NUMBER
ENG .         BILL                 : Engineer     - RECORDING ENGINEER
WIT .         JIM                  : Witness      - WITNESSED BY
MUD .         GEL                  : Mud_type     - MUD TYPE
MATR.         SANDSTONE            : Logunit      - NEUTRON MATRIX
TMAX.C        21.6667              : BHT          - MAXIMUM RECORDED TEMPERATURE
BHTD.M        499.872              : BHTDEP       - MAXIMUM RECORDED TEMPERATURE
MATR.         1                    : LOGUNIT      - NEUTRON MATRIX
RMT .C        25                   : MDTP         - TEMPERATURE OF MUD
NEUT.         1                    : NEUTRON      - NEUTRON TYPE
RESI.         0                    : RESIST       - RESISTIVITY TYPE
RMC .OHMM     0.25                 : RMC          - RESISTIVITY OF MUD CAKE
RMF .OHMM     0.25                 : RMF          - RESISTIVITY OF MUD FILTRATE
SUFT.C        15                   : SUFT         - SURFACE TEMPERATURE
~A  DEPTH     DENS       GR     PHID     PHIN     RESD
# ...
  368.580   -0.000   99.245    0.263    0.569    3.644
  368.830   -0.000  102.111    0.275    0.574    3.298
  369.080    0.000  105.978    0.265    0.584    3.009
  369.330    0.000  105.321    0.261    0.587    2.755
  369.580    0.000  106.092    0.273    0.584    2.706
  369.830   -0.000  106.324    0.263    0.569    2.612
  370.080   -0.000  105.326    0.241    0.553    2.161
  370.330    0.000  103.661    0.223    0.556    1.769
  370.580    0.000  103.358    0.242    0.567    1.448
  370.830    0.000  102.402    0.261    0.577    1.071
  371.080   -0.000  102.420    0.262    0.568    0.956
  371.330   -0.000  103.454    0.273    0.567    0.991
  371.580   -0.000  103.698    0.283    0.579    1.253
  371.830    0.000  102.810    0.249    0.573    1.749
  372.080    0.000  100.160    0.259    0.588    2.270
  372.330    0.000   96.843    0.260    0.566    2.952
  372.580   -0.000   97.213    0.251    0.558    3.160
  372.830   -0.000   99.151    0.271    0.561    3.098
  373.080   -0.000   98.839    0.261    0.572    3.106
  373.330    0.000   95.535    0.259    0.553    3.099
  373.580    0.000   94.901    0.254    0.530    3.281
  373.830   -0.000   95.279    0.228    0.520    3.538
  374.080   -0.000   93.706    0.221    0.517    3.800
  374.330   -0.000   90.757    0.233    0.519    4.184
  374.580    0.000   87.082    0.247    0.511    4.676
  374.830    0.000   84.229    0.255    0.496    4.843
  375.080    0.000   79.132    0.248    0.493    4.890
  375.330   -0.000   75.604    0.259    0.495    5.133
  375.580   -0.000   74.399    0.293    0.485    5.324
  375.830   -0.000   76.472    0.300    0.455    5.920
  376.080    0.000   75.854    0.284    0.431    6.255
  376.330    0.000   72.940    0.262    0.420    6.924
  376.580   -0.000   70.354    0.235    0.396    7.515
  376.830   -0.000   69.079    0.141    0.358    8.745
  377.080   -0.000   69.475    0.075    0.297    9.773
  377.330    0.000   74.818    0.066    0.286   11.876
  377.580    0.000   80.919    0.071    0.344   13.536
  377.830    0.000   85.388    0.187    0.397   12.363
  378.080   -0.000   86.435    0.220    0.422   10.447
  378.330   -0.000   84.505    0.237    0.430    8.893
  378.580   -0.000   82.618    0.243    0.436    7.953
  378.830    0.000   83.368    0.251    0.442    7.188
  379.080    0.000   82.648    0.250    0.454    7.117
  379.330    0.000   80.128    0.252    0.456    7.031
  379.580   -0.000   76.587    0.280    0.463    7.018
  379.830   -0.000   75.078    0.282    0.453    7.172
  380.080    0.000   75.278    0.295    0.442    7.308
  380.330    0.000   76.084    0.286    0.436    7.174
  380.580    0.000   80.653    0.294    0.444    7.021
  380.830   -0.000   84.189    0.284    0.451    6.691
  381.080   -0.000   84.774    0.263    0.452    6.678
  381.330   -0.000   84.447    0.264    0.459    6.686
  381.580    0.000   83.396    0.269    0.457    6.797
  381.830    0.000   82.364    0.271    0.450    6.951
  382.080    0.000   82.062    0.279    0.446    6.941
  382.330   -0.000   82.999    0.267    0.446    7.085
  382.580   -0.000   83.542    0.268    0.448    7.152
  382.830    0.000   82.731    0.269    0.451    7.484
  383.080    0.000   82.029    0.264    0.458    7.735
  383.330    0.000   82.868    0.265    0.466    7.782
  383.580   -0.000   84.431    0.257    0.472    7.654
  383.830   -0.000   86.499    0.232    0.478    7.378
  384.080   -0.000   87.740    0.226    0.467    6.795
  384.330    0.000   88.301    0.222    0.468    6.507
  384.580    0.000   87.372    0.233    0.474    6.342
  384.830    0.000   86.442    0.239    0.467    6.354
  385.080   -0.000   87.549    0.228    0.458    6.663
  385.330   -0.000   88.948    0.231    0.449    6.905
  385.580   -0.000   90.726    0.251    0.443    6.982
  385.830    0.000   90.757    0.249    0.440    6.907
  386.080    0.000   91.022    0.234    0.440    6.692
  386.330   -0.000   92.589    0.240    0.449    6.498
  386.580   -0.000   92.099    0.227    0.465    6.171
  386.830   -0.000   89.896    0.241    0.482    6.187
  387.080    0.000   88.976    0.273    0.466    6.375
  387.330    0.000   90.120    0.278    0.459    6.515
  387.580    0.000   92.004    0.275    0.456    6.507
  387.830   -0.000   88.775    0.258    0.455    6.413
  388.080   -0.000   86.086    0.255    0.462    6.178
  388.330   -0.000   84.810    0.262    0.474    5.799
  388.580    0.000   87.936    0.246    0.485    5.363
  388.830    0.000   90.255    0.240    0.495    4.928
  389.080   -0.000   92.058    0.239    0.511    4.243
  389.330   -0.000   92.112    0.233    0.520    3.689
  389.580   -0.000   91.275    0.246    0.526    3.508
  389.830    0.000   90.331    0.253    0.514    3.518
  390.080    0.000   88.628    0.253    0.502    3.597
  390.330    0.000   87.595    0.258    0.491    3.709
  390.580   -0.000   86.589    0.254    0.490    3.995
  390.830   -0.000   86.769    0.260    0.496    4.376
  391.080   -0.000   89.298    0.282    0.489    4.795
  391.330    0.000   91.907    0.276    0.474    5.066
  391.580    0.000   93.022    0.255    0.456    5.646
  391.830    0.000   93.366    0.230    0.445    5.861
  392.080   -0.000   93.000    0.240    0.457    5.779
  392.330   -0.000   91.983    0.226    0.460    5.710
  392.580    0.000   90.966    0.219    0.456    5.349
  392.830    0.000   90.975    0.229    0.466    5.184
  393.080    0.000   90.990    0.236    0.468    5.175
  393.330   -0.000   90.464    0.238    0.466    5.249
  393.580   -0.000   89.772    0.245    0.464    5.408
  393.830   -0.000   89.060    0.256    0.455    5.577
  394.080    0.000   88.028    0.265    0.451    5.744
  394.330    0.000   87.874    0.262    0.460    6.071
  394.580    0.000   89.270    0.251    0.464    6.119
  394.830   -0.000   90.200    0.252    0.457    6.319
  395.080   -0.000   90.869    0.246    0.445    6.519
  395.330    0.000   90.432    0.239    0.433    6.724
  395.580    0.000   89.452    0.234    0.428    6.952
  395.830    0.000   88.686    0.236    0.434    7.017
  396.080   -0.000   89.818    0.252    0.433    7.125
  396.330   -0.000   89.549    0.260    0.434    7.113
  396.580   -0.000   88.533    0.264    0.446    7.280
  396.830    0.000   87.452    0.261    0.451    7.159
  397.080    0.000   88.218    0.276    0.453    7.016
  397.330    0.000   86.653    0.279    0.473    6.724
  397.580   -0.000   82.736    0.263    0.476    6.527
  397.830   -0.000   79.337    0.257    0.462    6.510
  398.080   -0.000   80.219    0.277    0.446    6.510
  398.330    0.000   82.807    0.260    0.439    6.591
  398.580    0.000   85.475    0.250    0.441    6.800
  398.830   -0.000   88.052    0.259    0.447    7.029
  399.080   -0.000   87.857    0.283    0.455    6.700
  399.330   -0.000   84.246    0.294    0.472    6.184
  399.580    0.000   81.751    0.307    0.490    5.844
  399.830    0.000   76.305    0.322    0.497    5.662
  400.080    0.000   69.494    0.332    0.501    5.615
  400.330   -0.000   69.731    0.346    0.504    5.511
  400.580   -0.000   70.594    0.358    0.504    5.631
  400.830   -0.000   69.870    0.352    0.502    5.745
  401.080    0.000   69.002    0.344    0.498    5.827
  401.330    0.000   67.698    0.341    0.495    5.880
  401.580    0.000   65.621    0.338    0.481    6.082
  401.830   -0.000   64.983    0.334    0.481    6.079
  402.080   -0.000   64.823    0.334    0.490    6.059
  402.330    0.000   62.104    0.340    0.487    5.976
  402.580    0.000   60.186    0.349    0.496    5.982
  402.830    0.000   63.375    0.344    0.514    6.002
  403.080   -0.000   66.207    0.336    0.515    6.105
  403.330   -0.000   67.650    0.324    0.490    6.163
  403.580   -0.000   67.540    0.342    0.474    6.230
  403.830    0.000   67.464    0.344    0.478    6.334
  404.080    0.000   67.982    0.340    0.492    6.466
  404.330    0.000   67.565    0.334    0.490    6.592
  404.580   -0.000   67.168    0.327    0.480    6.603
  404.830   -0.000   66.147    0.321    0.482    6.465
