~VERSION INFORMATION
 VERS.                 2.0:   CWLS LOG ASCII STANDARD -VERSION 2.0
 WRAP.                  NO:   ONE LINE PER DEPTH STEP
~WELL INFORMATION BLOCK
#MNEM.UNIT           DATA                    DESCRIPTION OF MNEMONIC
#---------    -------------------            -------------------------------
# Generated from Intellog Unique Number	CS_69_70/WELL/641
NULL.         -999.25                        : NULL_VALUE
WELL.         CHIEFCO TWEEDIE                : Well_name    - WELL              
LOC .         00/05-22-070-13W4/0            : Location     - LOCATION          
UWI .         00/05-22-070-13W4/0            : Uwi          - UNIQUE WELL ID    
ENTR.         SP                             : Entered      - ENTERED BY        
SRVC.         SCHLUMBERGER                   : Scn          - SERVICE COMPANY   
STRT.M        260                            : top_depth    - START DEPTH       
STOP.M        492                            : bot_depth    - STOP DEPTH        
STEP.M        0.25                           : increment    - STEP LENGTH       
~CURVE INFORMATION BLOCK
#MNEM UNIT       ERCB CURVE CODE    CURVE DESCRIPTION
#-----------   ------------------   ----------------------------------
DEPT.M        00 001 00 00         : DEPTH        - DEPTH                       
ILD .OHMM     00 120 00 00         : RESD         - DEEP RESISTIVITY (DIL)      
DPHI.V/V      00 890 00 00         : PHID         - DENSITY POROSITY (LIMESTONE)
NPHI.V/V      00 330 00 00         : PHIN         - NEUTRON POROSITY (LIMESTONE)
GR  .API      00 310 00 00         : GR           - GAMMA RAY                   
~PARAMETER INFORMATION       
#MNEM.UNIT           DATA             DESCRIPTION OF MNEMONIC
#---------         -----------     ------------------------------
GL  .M        581.6                : gl           - GROUND LEVEL ELEVATION      
EREF.M        584.7                : kb           - ELEVATION OF DEPTH REFERENCE
DATM.M        581.6                : datum        - DATUM ELEVATION             
TDD .M        493                  : tdd          - TOTAL DEPTH DRILLER         
RUN .         ONE                  : Run          - RUN NUMBER                  
ENG .         BILL                 : Engineer     - RECORDING ENGINEER          
WIT .         JIM                  : Witness      - WITNESSED BY                
MUD .         GEL                  : Mud_type     - MUD TYPE                    
MATR.         LIMESTONE            : Logunit      - NEUTRON MATRIX              
TMAX.C        33                   : BHT          - MAXIMUM RECORDED TEMPERATURE
BHTD.M        493                  : BHTDEP       - MAXIMUM RECORDED TEMPERATURE
MATR.         1                    : LOGUNIT      - NEUTRON MATRIX              
RMT .C        25                   : MDTP         - TEMPERATURE OF MUD          
NEUT.         1                    : NEUTRON      - NEUTRON TYPE                
RESI.         0                    : RESIST       - RESISTIVITY TYPE            
RMC .OHMM     0.25                 : RMC          - RESISTIVITY OF MUD CAKE     
RMF .OHMM     0.25                 : RMF          - RESISTIVITY OF MUD FILTRATE 
SUFT.C        15                   : SUFT         - SURFACE TEMPERATURE         
~A  DEPTH     RESD     PHID     PHIN       GR
# ...
  434.000    3.186    0.208    0.475   99.049
  434.250    3.565    0.178    0.482   94.343
  434.500    3.807    0.145    0.402   90.370
  434.750    4.059    0.135    0.384   90.366
  435.000    4.319    0.161    0.390   92.561
  435.250    4.726    0.192    0.407   90.420
  435.500    5.191    0.197    0.395   82.598
  435.750    5.734    0.205    0.336   74.411
  436.000    6.345    0.223    0.321   66.773
  436.250    6.840    0.250    0.323   65.425
  436.500    7.320    0.259    0.341   64.200
  436.750    7.804    0.247    0.357   60.410
  437.000    8.135    0.242    0.372   59.795
  437.250    8.528    0.245    0.381   62.784
  437.500    9.074    0.232    0.390   64.308
  437.750    9.893    0.213    0.384   64.854
  438.000   10.908    0.167    0.353   62.407
  438.250   11.649    0.077    0.313   56.051
  438.500   12.489    0.050    0.240   50.674
  438.750   13.314    0.040    0.228   50.425
  439.000   13.649    0.039    0.228   57.201
  439.250    9.654    0.100    0.254   66.115
  439.500    7.496    0.131    0.302   76.005
  439.750    6.248    0.158    0.334   83.941
  440.000    5.296    0.194    0.358   90.717
  440.250    4.668    0.213    0.373   96.699
  440.500    4.223    0.210    0.379  102.864
  440.750    4.148    0.200    0.381  106.647
  441.000    4.324    0.195    0.380  106.338
  441.250    4.619    0.214    0.376  101.081
  441.500    4.770    0.219    0.374  102.972
  441.750    5.143    0.211    0.379  110.724
  442.000    5.281    0.202    0.392  116.706
  442.250    5.485    0.195    0.404  115.115
  442.500    5.488    0.191    0.413  111.630
  442.750    5.420    0.182    0.381  103.015
  443.000    5.640    0.176    0.365   97.148
  443.250    5.913    0.195    0.356   89.510
  443.500    6.292    0.189    0.350   79.612
  443.750    6.510    0.139    0.331   72.768
  444.000    6.662    0.099    0.295   66.779
  444.250    6.555    0.204    0.313   71.050
  444.500    6.342    0.229    0.341   78.986
  444.750    6.287    0.217    0.340   86.617
  445.000    6.302    0.203    0.331   91.805
  445.250    6.461    0.198    0.327   93.329
  445.500    6.698    0.193    0.339   85.446
  445.750    6.892    0.202    0.327   75.426
  446.000    7.039    0.213    0.318   73.162
  446.250    6.991    0.209    0.313   75.908
  446.500    7.048    0.201    0.322   78.347
  446.750    7.104    0.210    0.332   78.832
  447.000    7.095    0.208    0.329   77.484
  447.250    7.301    0.202    0.327   76.321
  447.500    7.513    0.195    0.337   73.202
  447.750    7.791    0.213    0.348   66.236
  448.000    7.778    0.228    0.327   62.079
  448.250    7.712    0.211    0.304   67.511
  448.500    7.601    0.188    0.299   76.852
  448.750    7.381    0.193    0.326   80.941
  449.000    7.277    0.233    0.345   74.036
  449.250    7.281    0.258    0.360   65.359
  449.500    7.231    0.263    0.370   69.570
  449.750    7.142    0.261    0.373   74.024
  450.000    7.066    0.265    0.369   76.769
  450.250    7.044    0.267    0.362   79.026
  450.500    7.141    0.251    0.351   81.465
  450.750    7.570    0.235    0.346   83.172
  451.000    7.162    0.229    0.341   84.512
  451.250    6.590    0.220    0.334   79.805
  451.500    6.235    0.198    0.320   75.099
  451.750    6.010    0.174    0.313   77.355
  452.000    5.655    0.161    0.317   87.367
  452.250    5.281    0.153    0.367   97.563
  452.500    4.823    0.139    0.440  104.523
  452.750    4.196    0.119    0.481  111.115
  453.000    3.882    0.105    0.489  115.570
  453.250    3.995    0.121    0.484  114.711
  453.500    4.275    0.148    0.474  114.158
  453.750    4.848    0.169    0.461  111.895
  454.000    5.052    0.182    0.418  107.310
  454.250    5.386    0.193    0.371   99.305
  454.500    5.501    0.200    0.343   90.507
  454.750    5.545    0.211    0.366   84.824
  455.000    5.632    0.250    0.386   79.934
  455.250    5.742    0.275    0.395   76.693
  455.500    5.798    0.278    0.381   77.362
  455.750    5.748    0.257    0.364   82.121
  456.000    5.289    0.238    0.351   84.989
  456.250    5.032    0.230    0.356   83.947
  456.500    4.761    0.238    0.346   82.294
  456.750    4.496    0.231    0.343   84.428
  457.000    4.326    0.227    0.354   83.753
  457.250    4.298    0.229    0.360   83.566
  457.500    4.355    0.210    0.350   86.799
  457.750    4.515    0.193    0.337   91.743
  458.000    4.716    0.182    0.332   95.343
  458.250    4.898    0.184    0.324   99.186
  458.500    5.049    0.189    0.317  103.153
  458.750    5.090    0.187    0.332  107.180
  459.000    4.971    0.181    0.349  110.292
  459.250    4.634    0.175    0.363  113.586
  459.500    5.005    0.173    0.372  110.590
  459.750    5.508    0.176    0.377   93.485
  460.000    5.838    0.184    0.371   80.961
  460.250    5.766    0.192    0.357   73.262
  460.500    5.538    0.160    0.330   70.938
  460.750    5.260    0.187    0.318   73.010
  461.000    4.985    0.206    0.324   79.297
  461.250    4.860    0.181    0.323   89.188
  461.500    4.954    0.153    0.320   98.773
  461.750    5.079    0.151    0.321  103.167
  462.000    5.101    0.173    0.323   92.720
  462.250    5.103    0.207    0.329   78.241
  462.500    4.740    0.240    0.346   76.894
  462.750    3.973    0.238    0.362   80.127
  463.000    3.317    0.170    0.348   82.567
  463.250    2.940    0.206    0.343   71.325
  463.500    2.525    0.268    0.354   40.478
  463.750    2.301    0.315    0.370   33.879
  464.000    2.074    0.344    0.383   32.164
  464.250    1.934    0.318    0.385   35.704
  464.500    1.892    0.303    0.353   38.326
  464.750    1.925    0.298    0.340   41.071
  465.000    1.992    0.298    0.347   46.259
  465.250    2.100    0.303    0.355   51.752
  465.500    2.239    0.299    0.355   56.329
  465.750    2.365    0.291    0.346   62.677
  466.000    2.559    0.282    0.338   68.109
  466.250    2.764    0.279    0.334   75.251
  466.500    2.946    0.278    0.342   82.577
  466.750    3.164    0.282    0.374   87.032
  467.000    3.380    0.273    0.374   92.097
  467.250    3.497    0.230    0.357   95.270
  467.500    3.539    0.175    0.332   95.755
  467.750    3.418    0.201    0.319   83.292
  468.000    3.234    0.239    0.352   48.781
  468.250    2.975    0.276    0.350   37.783
  468.500    2.712    0.307    0.316   37.962
  468.750    2.390    0.330    0.319   41.440
  469.000    2.203    0.322    0.335   44.491
  469.250    2.096    0.314    0.345   46.929
  469.500    2.017    0.313    0.353   49.064
  469.750    1.970    0.309    0.357   53.092
  470.000    1.910    0.300    0.347   57.119
  470.250    1.918    0.294    0.351   59.986
  470.500    1.970    0.289    0.358   58.699
  470.750    2.057    0.282    0.349   61.078
  471.000    2.157    0.271    0.337   80.069
  471.250    2.299    0.264    0.334   90.509
  471.500    2.488    0.232    0.332   96.796
  471.750    2.575    0.295    0.331   89.769
  472.000    2.524    0.333    0.362   60.205
  472.250    2.331    0.329    0.386   54.338
  472.500    2.213    0.326    0.391   52.135
  472.750    2.162    0.323    0.375   52.254
  473.000    2.187    0.313    0.370   54.572
  473.250    2.230    0.299    0.364   54.873
  473.500    2.231    0.298    0.357   49.189
  473.750    2.195    0.305    0.360   45.766
  474.000    2.120    0.310    0.360   60.115
  474.250    2.067    0.307    0.348  101.032
  474.500    2.068    0.297    0.342  115.748
  474.750    2.140    0.287    0.339  129.913
  475.000    2.832    0.273    0.382  109.988
  475.250    3.215    0.252    0.362   97.120
  475.500    3.677    0.224    0.348  106.719
  475.750    4.052    0.186    0.344  120.160
  476.000    4.311    0.168    0.381  132.015
  476.250    4.148    0.189    0.398  119.204
  476.500    3.803    0.188    0.411   99.205
  476.750    3.310    0.215    0.386   84.994
  477.000    3.144    0.243    0.365   78.335
  477.250    3.175    0.242    0.375   76.730
