~VERSION INFORMATION
 VERS.                 2.0:   CWLS LOG ASCII STANDARD -VERSION 2.0
 WRAP.                  NO:   ONE LINE PER DEPTH STEP
~WELL INFORMATION BLOCK
#MNEM.UNIT           DATA                    DESCRIPTION OF MNEMONIC
#---------    -------------------            -------------------------------
# Generated from Intellog Unique Number	CS_73_76/WELL/1064
WELL.         BRALORNE RES                   : Well_name    - WELL
LOC .         00/02-27-076-14W4/0            : Location     - LOCATION
UWI .         00/02-27-076-14W4/0            : Uwi          - UNIQUE WELL ID
ENTR.         T                              : Entered      - ENTERED BY
SRVC.         SCHLUMBERGER                   : Scn          - SERVICE COMPANY
STRT.M        290                            : top_depth    - START DEPTH
STOP.M        520                            : bot_depth    - STOP DEPTH
STEP.M        0.25                           : increment    - STEP LENGTH
 NULL. -999.2500:NULL Value
~CURVE INFORMATION BLOCK
#MNEM UNIT       ERCB CURVE CODE    CURVE DESCRIPTION
#-----------   ------------------   ----------------------------------
DEPT.M        00 001 00 00         : DEPTH        - DEPTH
GR  .API      00 310 00 00         : GR           - GAMMA RAY
NPHI.V/V      00 330 00 00         : PHIN         - NEUTRON POROSITY (SANDSTONE)
DPHI.V/V      00 890 00 00         : PHID         - DENSITY POROSITY (SANDSTONE)
ILD .OHMM     00 120 00 00         : RESD         - DEEP RESISTIVITY (DIL)
~PARAMETER INFORMATION
#MNEM.UNIT           DATA             DESCRIPTION OF MNEMONIC
#---------         -----------     ------------------------------
GL  .M        676.6                : gl           - GROUND LEVEL ELEVATION
EREF.M        679.9                : kb           - ELEVATION OF DEPTH REFERENCE
DATM.M        679.9                : datum        - DATUM ELEVATION
TDD .M        525                  : tdd          - TOTAL DEPTH DRILLER
RUN .         ONE                  : Run          - RUN NUMBER
ENG .         BILL                 : Engineer     - RECORDING ENGINEER
WIT .         JIM                  : Witness      - WITNESSED BY
MUD .         GEL                  : Mud_type     - MUD TYPE
MATR.         SANDSTONE            : Logunit      - NEUTRON MATRIX
TMAX.C        21                   : BHT          - MAXIMUM RECORDED TEMPERATURE
BHTD.M        525                  : BHTDEP       - MAXIMUM RECORDED TEMPERATURE
MATR.         1                    : LOGUNIT      - NEUTRON MATRIX
RMT .C        10                   : MDTP         - TEMPERATURE OF MUD
NEUT.         1                    : NEUTRON      - NEUTRON TYPE
RESI.         3.1                  : RESIST       - RESISTIVITY TYPE
RMC .OHMM     3                    : RMC          - RESISTIVITY OF MUD CAKE
RMF .OHMM     3.3                  : RMF          - RESISTIVITY OF MUD FILTRATE
SUFT.C        15                   : SUFT         - SURFACE TEMPERATURE
~A  DEPTH       GR     PHIN     PHID     RESD
# ...
  333.500   69.738    0.380    0.210   11.302
  333.750   83.356    0.388    0.200   11.952
  334.000   96.366    0.396    0.201   12.642
  334.250  105.633    0.406    0.208   14.149
  334.500   93.767    0.398    0.235   15.541
  334.750   81.888    0.384    0.263   17.074
  335.000   76.859    0.377    0.301   18.402
  335.250   66.858    0.377    0.324   19.455
  335.500   57.464    0.380    0.328   19.435
  335.750   52.435    0.382    0.331   19.050
  336.000   52.972    0.382    0.331   18.668
  336.250   53.566    0.384    0.331   18.654
  336.500   53.509    0.386    0.332   18.640
  336.750   50.967    0.387    0.336   18.621
  337.000   52.761    0.379    0.341   18.958
  337.250   54.584    0.374    0.342   18.939
  337.500   56.392    0.373    0.342   19.277
  337.750   53.836    0.369    0.341   19.262
  338.000   50.671    0.366    0.340   19.233
  338.250   48.129    0.363    0.339   19.586
  338.500   48.073    0.363    0.338   19.571
  338.750   49.895    0.365    0.338   19.916
  339.000   53.568    0.369    0.336   19.900
  339.250   55.362    0.373    0.336   19.880
  339.500   54.063    0.375    0.336   19.865
  339.750   54.614    0.379    0.340   19.845
  340.000   55.801    0.381    0.344   19.824
  340.250   55.773    0.386    0.346   19.799
  340.500   53.230    0.383    0.343   19.779
  340.750   51.309    0.374    0.336   19.764
  341.000   53.739    0.370    0.334   19.744
  341.250   56.777    0.370    0.333   19.723
  341.500   57.342    0.369    0.332   19.328
  341.750   56.664    0.365    0.331   19.303
  342.000   55.365    0.361    0.331   18.921
  342.250   56.538    0.356    0.330   18.907
  342.500   56.510    0.358    0.330   18.518
  342.750   57.047    0.365    0.330   18.514
  343.000   57.019    0.370    0.334   18.495
  343.250   56.962    0.375    0.340   18.476
  343.500   56.906    0.375    0.344   18.105
  343.750   56.822    0.353    0.343   18.092
  344.000   56.765    0.342    0.342   17.729
  344.250   56.087    0.349    0.342   17.715
  344.500   54.166    0.358    0.342   17.688
  344.750   51.624    0.362    0.343   17.679
  345.000   48.474    0.362    0.346   17.657
  345.250   44.674    0.363    0.347   17.312
  345.500   45.847    0.367    0.351   17.290
  345.750   47.062    0.372    0.355   17.272
  346.000   51.343    0.382    0.355   17.250
  346.250   52.529    0.398    0.349   17.228
  346.500   52.473    0.406    0.343   17.224
  346.750   51.795    0.380    0.343   16.883
  347.000   54.239    0.366    0.342   16.861
  347.250   58.520    0.365    0.342   16.844
  347.500   60.328    0.364    0.342   16.511
  347.750   59.043    0.363    0.340   16.489
  348.000   55.851    0.363    0.339   16.481
  348.250   55.201    0.373    0.339   16.464
  348.500   53.887    0.388    0.345   16.447
  348.750   53.831    0.403    0.350   16.422
  349.000   55.639    0.388    0.351   16.410
  349.250   58.691    0.379    0.350   16.393
  349.500   60.499    0.384    0.349   16.694
  349.750   61.686    0.391    0.352   16.992
  350.000   62.266    0.391    0.354   17.631
  350.250   62.803    0.395    0.354   17.618
  350.500   62.761    0.404    0.350   18.276
  350.750   63.326    0.409    0.346   18.607
  351.000   63.905    0.405    0.342   19.307
  351.250   63.821    0.392    0.339   19.657
  351.500   64.414    0.393    0.336   19.637
  351.750   64.358    0.399    0.337   19.993
  352.000   63.666    0.414    0.337   19.977
  352.250   61.123    0.406    0.338   19.952
  352.500   58.595    0.392    0.339   19.937
  352.750   52.931    0.385    0.339   19.916
  353.000   50.388    0.379    0.340   19.891
  353.250   50.332    0.374    0.340   19.866
  353.500   50.276    0.368    0.339   19.855
  353.750   49.598    0.370    0.336   19.825
  354.000   48.920    0.375    0.334   19.438
  354.250   48.849    0.377    0.330   19.423
  354.500   48.779    0.381    0.329   19.398
  354.750   48.751    0.384    0.326   19.019
  355.000   47.452    0.385    0.323   18.995
  355.250   48.017    0.384    0.320   18.975
  355.500   52.919    0.383    0.317   18.961
  355.750   52.241    0.375    0.314   19.299
  356.000   50.956    0.351    0.308   20.025
  356.250   47.778    0.324    0.284   21.996
  356.500   45.871    0.302    0.267   23.706
  356.750   43.328    0.213    0.103   25.555
  357.000   37.056    0.104    0.048   29.155
  357.250   31.392    0.093    0.035   29.676
  357.500   27.607    0.095    0.033   27.486
  357.750   26.279    0.096    0.031   24.973
  358.000   27.494    0.099    0.028   22.684
  358.250   29.302    0.107    0.030   20.217
  358.500   31.718    0.194    0.119   19.444
  358.750   35.405    0.216    0.215   19.064
  359.000   43.443    0.239    0.269   18.336
  359.250   48.359    0.284    0.319   17.968
  359.500   47.667    0.346    0.346   17.950
  359.750   46.368    0.386    0.350   17.590
  360.000   45.704    0.392    0.349   17.581
  360.250   44.405    0.381    0.345   17.895
  360.500   43.713    0.379    0.342   18.219
  360.750   44.278    0.375    0.339   18.549
  361.000   44.844    0.376    0.336   18.881
  361.250   44.787    0.385    0.336   18.871
  361.500   44.095    0.393    0.336   18.847
  361.750   44.661    0.393    0.337   18.828
  362.000   45.862    0.393    0.344   18.808
  362.250   44.548    0.389    0.345   18.789
  362.500   43.884    0.385    0.350   18.770
  362.750   42.585    0.388    0.354   18.756
  363.000   41.272    0.398    0.356   18.380
  363.250   41.229    0.408    0.359   18.366
  363.500   41.173    0.407    0.360   17.993
  363.750   40.481    0.397    0.359   17.979
  364.000   42.289    0.393    0.358   17.628
  364.250   45.977    0.384    0.355   17.605
  364.500   45.920    0.381    0.352   17.592
  364.750   43.350    0.387    0.347   17.235
  365.000   42.064    0.399    0.346   16.902
  365.250   38.900    0.386    0.343   16.885
  365.500   36.993    0.380    0.342   16.551
  365.750   35.072    0.375    0.342   16.534
  366.000   38.124    0.389    0.342   16.202
  366.250   43.648    0.402    0.342   16.190
  366.500   47.335    0.391    0.343   16.174
  366.750   50.980    0.380    0.343   16.462
  367.000   50.330    0.385    0.342   16.445
  367.250   47.124    0.399    0.341   16.433
  367.500   45.838    0.410    0.340   16.408
  367.750   45.189    0.418    0.346   16.395
  368.000   45.754    0.424    0.355   16.383
  368.250   48.805    0.429    0.355   16.358
  368.500   51.221    0.416    0.350   16.345
  368.750   54.908    0.402    0.345   16.324
  369.000   57.960    0.404    0.338   16.624
  369.250   57.890    0.406    0.338   16.612
  369.500   56.590    0.410    0.337   17.562
  369.750   55.912    0.410    0.338   17.885
  370.000   55.856    0.388    0.339   19.640
  370.250   55.178    0.362    0.340   21.172
  370.500   53.257    0.284    0.340   22.818
  370.750   50.701    0.308    0.336   23.671
  371.000   49.429    0.334    0.309   23.646
  371.250   48.737    0.356    0.316   22.743
  371.500   51.803    0.390    0.324   21.457
  371.750   59.191    0.421    0.332   21.043
  372.000   63.500    0.438    0.325   19.480
  372.250   67.173    0.426    0.314   18.740
  372.500   69.589    0.420    0.295   17.018
  372.750   68.275    0.409    0.267   16.363
  373.000   66.383    0.398    0.216   16.048
  373.250   59.475    0.349    0.230   16.031
  373.500   55.704    0.338    0.262   16.322
  373.750   59.998    0.369    0.288   16.305
  374.000   71.130    0.400    0.314   16.596
  374.250   69.195    0.416    0.332   16.584
  374.500   68.517    0.415    0.341   16.562
  374.750   70.947    0.415    0.347   15.930
  375.000   72.770    0.424    0.347   15.317
  375.250   76.443    0.440    0.348   15.021
  375.500   81.345    0.446    0.350   14.443
  375.750   83.181    0.437    0.351   14.425
  376.000   86.840    0.422    0.355   14.690
  376.250   83.648    0.408    0.357   14.960
  376.500   81.134    0.413    0.355   14.937
  376.750   76.727    0.421    0.351   14.926
