~VERSION INFORMATION
 VERS.                 2.0:   CWLS LOG ASCII STANDARD -VERSION 2.0
 WRAP.                  NO:   ONE LINE PER DEPTH STEP
~WELL INFORMATION BLOCK
#MNEM.UNIT           DATA                    DESCRIPTION OF MNEMONIC
#---------    -------------------            -------------------------------
# Generated from Intellog Unique Number	CS_73_76/WELL/689
WELL.         SULPETRO BRENDA CLYDE LAKE     : Well_name    - WELL
LOC .         00/06-32-073-09W4/0            : Location     - LOCATION
UWI .         00/06-32-073-09W4/0            : Uwi          - UNIQUE WELL ID
ENTR.         SP                             : Entered      - ENTERED BY
SRVC.         SCHLUMBERGER                   : Scn          - SERVICE COMPANY
STRT.M        285                            : top_depth    - START DEPTH
STOP.M        475                            : bot_depth    - STOP DEPTH
STEP.M        0.25                           : increment    - STEP LENGTH
 NULL. -999.2500:NULL Value
~CURVE INFORMATION BLOCK
#MNEM UNIT       ERCB CURVE CODE    CURVE DESCRIPTION
#-----------   ------------------   ----------------------------------
DEPT.M        00 001 00 00         : DEPTH        - DEPTH
ILD .OHMM     00 120 00 00         : RESD         - DEEP RESISTIVITY (DIL)
DPHI.V/V      00 890 00 00         : PHID         - DENSITY POROSITY (LIMESTONE)
NPHI.V/V      00 330 00 00         : PHIN         - NEUTRON POROSITY (LIMESTONE)
GR  .API      00 310 00 00         : GR           - GAMMA RAY
~PARAMETER INFORMATION
#MNEM.UNIT           DATA             DESCRIPTION OF MNEMONIC
#---------         -----------     ------------------------------
GL  .M        656.52               : gl           - GROUND LEVEL ELEVATION
EREF.M        659.42               : kb           - ELEVATION OF DEPTH REFERENCE
DATM.M        656.52               : datum        - DATUM ELEVATION
TDD .M        486.9                : tdd          - TOTAL DEPTH DRILLER
RUN .         ONE                  : Run          - RUN NUMBER
ENG .         BILL                 : Engineer     - RECORDING ENGINEER
WIT .         JIM                  : Witness      - WITNESSED BY
MUD .         GEL                  : Mud_type     - MUD TYPE
MATR.         LIMESTONE            : Logunit      - NEUTRON MATRIX
TMAX.C        29                   : BHT          - MAXIMUM RECORDED TEMPERATURE
BHTD.M        486.9                : BHTDEP       - MAXIMUM RECORDED TEMPERATURE
MATR.         1                    : LOGUNIT      - NEUTRON MATRIX
RMT .C        25                   : MDTP         - TEMPERATURE OF MUD
NEUT.         1                    : NEUTRON      - NEUTRON TYPE
RESI.         0                    : RESIST       - RESISTIVITY TYPE
RMC .OHMM     0.25                 : RMC          - RESISTIVITY OF MUD CAKE
RMF .OHMM     0.25                 : RMF          - RESISTIVITY OF MUD FILTRATE
SUFT.C        15                   : SUFT         - SURFACE TEMPERATURE
~A  DEPTH     RESD     PHID     PHIN       GR
  285.000    3.762    0.151    0.421  114.952
  285.250    3.764    0.190    0.425  117.404
  285.500    3.695    0.204    0.430  118.007
  285.750    3.697    0.207    0.422  118.617
  286.000    3.769    0.210    0.432  119.835
  286.250    3.916    0.215    0.440  117.985
  286.500    4.070    0.217    0.430  116.133
  286.750    4.228    0.211    0.410  113.668
  287.000    4.229    0.201    0.394  114.887
  287.250    4.394    0.195    0.371  118.568
  287.500    4.481    0.198    0.368  118.561
  287.750    4.482    0.201    0.376  125.313
  288.000    4.401    0.192    0.394  131.454
  288.250    4.402    0.184    0.379  125.913
  288.500    4.321    0.189    0.374  116.683
  288.750    4.243    0.197    0.395  113.603
  289.000    4.245    0.200    0.442  120.352
  289.250    4.246    0.195    0.447  124.036
  289.500    4.330    0.192    0.425  122.799
  289.750    4.415    0.192    0.413  113.569
  290.000    4.500    0.177    0.398  109.874
  290.250    4.677    0.157    0.386  109.248
  290.500    4.678    0.170    0.370  109.856
  290.750    4.770    0.183    0.351  109.232
  291.000    4.682    0.181    0.329  108.608
  291.250    4.958    0.187    0.355  105.528
  291.500    5.452    0.176    0.373  102.447
  291.750    6.592    0.167    0.351   99.982
  292.000    7.969    0.201    0.349   99.974
  292.250   10.005    0.229    0.346  112.258
  292.500   12.561    0.222    0.357  119.014
  292.750   14.620    0.209    0.367  127.612
  293.000   15.777    0.204    0.381  128.219
  293.250   15.201    0.213    0.388  117.760
  293.500   14.920    0.217    0.369  112.835
  293.750   13.579    0.197    0.374  107.907
  294.000   12.358    0.165    0.360  104.211
  294.250   11.463    0.132    0.339   98.672
  294.500   11.469    0.153    0.356   89.442
  294.750   11.473    0.211    0.381   79.600
  295.000   12.149    0.235    0.338   74.059
  295.250   13.617    0.237    0.327   78.965
  295.500   14.418    0.214    0.335   80.805
  295.750   14.153    0.228    0.344   75.877
  296.000   15.273    0.245    0.355   73.411
  296.250   17.446    0.233    0.371   76.478
  296.500   19.928    0.249    0.389   69.091
  296.750   20.701    0.271    0.354   64.781
  297.000   22.341    0.285    0.370   61.085
  297.250   22.782    0.285    0.384   64.146
  297.500   22.790    0.268    0.403   65.372
  297.750   21.540    0.250    0.347   67.207
  298.000   19.240    0.229    0.321   75.191
  298.250   18.181    0.221    0.337   88.706
  298.500   15.342    0.218    0.365   84.394
  298.750   14.779    0.246    0.400   79.468
  299.000   15.069    0.231    0.362   78.846
  299.250   15.361    0.225    0.344   81.913
  299.500   14.801    0.233    0.326   80.676
  299.750   14.527    0.218    0.304   89.885
  300.000   13.221    0.193    0.312   95.409
  300.250   12.034    0.173    0.335   98.477
  300.500   11.813    0.167    0.317  100.314
  300.750   11.596    0.175    0.331   96.617
  301.000   11.825    0.203    0.349   89.231
  301.250   13.003    0.228    0.374   81.847
  301.500   14.851    0.232    0.369   75.693
  301.750   17.288    0.207    0.368   65.235
  302.000   20.509    0.258    0.385   42.482
  302.250   23.872    0.275    0.353   32.637
  302.500   27.265    0.248    0.342   30.786
  302.750   31.142    0.241    0.348   30.159
  303.000   32.971    0.259    0.345   29.537
  303.250   35.584    0.268    0.332   29.532
  303.500   36.974    0.256    0.334   27.679
  303.750   37.695    0.247    0.335   25.827
  304.000   37.010    0.245    0.322   24.590
  304.250   36.327    0.257    0.319   25.811
  304.500   34.340    0.257    0.308   28.262
  304.750   31.847    0.250    0.300   27.639
  305.000   27.383    0.246    0.286   55.908
  305.250   22.247    0.232    0.282   81.103
  305.500   17.736    0.207    0.299   93.389
  305.750   14.410    0.183    0.303  100.145
  306.000   12.627    0.178    0.323  100.752
  306.250   11.277    0.178    0.335   93.980
  306.500   10.071    0.189    0.337  100.736
  306.750    8.498    0.194    0.354  124.700
  307.000    7.881    0.163    0.352  132.070
  307.250    6.907    0.120    0.361  128.371
  307.500    5.939    0.080    0.336  130.209
  307.750    5.303    0.128    0.361  138.806
  308.000    4.647    0.151    0.435  143.101
  308.250    4.073    0.152    0.455  140.636
  308.500    3.707    0.143    0.466  139.399
  308.750    3.570    0.162    0.477  141.233
  309.000    4.156    0.197    0.493  140.612
  309.250    5.629    0.219    0.509  123.390
  309.500    7.339    0.240    0.475  107.400
  309.750   11.137    0.248    0.392   90.794
  310.000   12.480    0.240    0.354   76.648
  310.250   15.374    0.245    0.396   80.327
  310.500   18.940    0.260    0.412   82.779
  310.750   19.315    0.274    0.379   84.614
  311.000   18.256    0.272    0.353   87.677
  311.250   17.585    0.277    0.365   88.901
  311.500   17.262    0.280    0.355   89.507
  311.750   17.604    0.285    0.345   90.114
  312.000   17.280    0.285    0.353   93.178
  312.250   16.961    0.279    0.370   95.632
  312.500   15.733    0.273    0.377  102.383
  312.750   14.319    0.254    0.361  106.065
  313.000   13.032    0.244    0.340  114.046
  313.250   12.317    0.237    0.328  117.730
  313.500   10.794    0.220    0.329  125.096
  313.750    9.281    0.200    0.350  131.851
  314.000    7.981    0.181    0.364  141.064
  314.250    6.993    0.164    0.384  144.744
  314.500    6.129    0.157    0.401  144.734
  314.750    5.686    0.146    0.421  142.884
  315.000    5.476    0.133    0.444  141.033
  315.250    5.275    0.128    0.457  140.410
  315.500    5.178    0.142    0.434  144.089
  315.750    5.915    0.148    0.393  147.771
  316.000    6.263    0.139    0.414  144.074
  316.250    7.864    0.156    0.436  145.296
  316.500    8.813    0.181    0.422  142.827
  316.750   10.858    0.195    0.386  136.058
  317.000   11.940    0.203    0.343  129.901
  317.250   13.899    0.214    0.351  126.207
  317.500   15.000    0.232    0.359  115.746
  317.750   15.582    0.258    0.359  110.822
  318.000   15.889    0.245    0.373  108.356
  318.250   15.894    0.209    0.403  110.807
  318.500   14.468    0.199    0.419  114.486
  318.750   12.920    0.192    0.393  119.392
  319.000   12.445    0.187    0.380  121.231
  319.250   12.216    0.194    0.368  122.453
  319.500   12.222    0.197    0.371  119.986
  319.750   13.442    0.236    0.357  106.453
  320.000   14.232    0.267    0.339   85.545
  320.250   16.570    0.276    0.323   69.554
  320.500   17.543    0.277    0.331   64.015
  320.750   17.887    0.277    0.319   68.923
  321.000   17.895    0.265    0.309   75.676
  321.250   16.288    0.247    0.304   83.046
  321.500   15.107    0.231    0.314   95.947
  321.750   14.278    0.221    0.314  102.702
  322.000   13.495    0.213    0.313  106.380
  322.250   12.756    0.204    0.315  106.989
  322.500   12.287    0.197    0.318  114.355
  322.750   10.976    0.192    0.321  119.879
  323.000   10.774    0.187    0.326  122.947
  323.250   10.577    0.176    0.356  127.855
  323.500   10.580    0.173    0.393  127.850
  323.750   10.995    0.185    0.397  124.153
  324.000   11.210    0.187    0.385  119.224
  324.250   11.428    0.188    0.368  113.682
  324.500   11.433    0.177    0.361  111.834
  324.750   11.014    0.175    0.351  117.358
  325.000   10.214    0.172    0.340  127.801
  325.250    8.784    0.176    0.357  134.555
  325.500    8.146    0.188    0.386  138.850
  325.750    9.485    0.193    0.412  132.695
  326.000   10.234    0.211    0.432  125.307
  326.250   11.042    0.219    0.406  118.536
  326.500   12.145    0.232    0.376  113.612
  326.750   12.149    0.225    0.328  109.302
  327.000   11.268    0.211    0.330  112.982
  327.250   10.453    0.200    0.358  116.047
  327.500   10.261    0.197    0.374  109.892
  327.750   10.267    0.198    0.358  103.123
  328.000   10.270    0.208    0.353  103.112
  328.250   10.470    0.217    0.368  106.180
