~VERSION INFORMATION
 VERS.                 2.0:   CWLS LOG ASCII STANDARD -VERSION 2.0
 WRAP.                  NO:   ONE LINE PER DEPTH STEP
~WELL INFORMATION BLOCK
#MNEM.UNIT           DATA                    DESCRIPTION OF MNEMONIC
#---------    -------------------            -------------------------------
# Generated from Intellog Unique Number	CS_69_70/WELL/778
NULL.         -999.25                        : NULL_VALUE
WELL.         PANCANADIAN PETROLEUM          : Well_name    - WELL              
LOC .         00/06-26-070-13W4/0            : Location     - LOCATION          
UWI .         00/06-26-070-13W4/0            : Uwi          - UNIQUE WELL ID    
ENTR.         SP                             : Entered      - ENTERED BY        
SRVC.         SCHLUMBERGER                   : Scn          - SERVICE COMPANY   
STRT.M        260                            : top_depth    - START DEPTH       
STOP.M        495                            : bot_depth    - STOP DEPTH        
STEP.M        0.25                           : increment    - STEP LENGTH       
~CURVE INFORMATION BLOCK
#MNEM UNIT       ERCB CURVE CODE    CURVE DESCRIPTION
#-----------   ------------------   ----------------------------------
DEPT.M        00 001 00 00         : DEPTH        - DEPTH                       
ILD .OHMM     00 120 00 00         : RESD         - DEEP RESISTIVITY (DIL)      
DPHI.V/V      00 890 00 00         : PHID         - DENSITY POROSITY (LIMESTONE)
NPHI.V/V      00 330 00 00         : PHIN         - NEUTRON POROSITY (LIMESTONE)
GR  .API      00 310 00 00         : GR           - GAMMA RAY                   
~PARAMETER INFORMATION       
#MNEM.UNIT           DATA             DESCRIPTION OF MNEMONIC
#---------         -----------     ------------------------------
GL  .M        577.2                : gl           - GROUND LEVEL ELEVATION      
EREF.M        580.8                : kb           - ELEVATION OF DEPTH REFERENCE
DATM.M        577.2                : datum        - DATUM ELEVATION             
TDD .M        499.5                : tdd          - TOTAL DEPTH DRILLER         
RUN .         ONE                  : Run          - RUN NUMBER                  
ENG .         BILL                 : Engineer     - RECORDING ENGINEER          
WIT .         JIM                  : Witness      - WITNESSED BY                
MUD .         GEL                  : Mud_type     - MUD TYPE                    
MATR.         LIMESTONE            : Logunit      - NEUTRON MATRIX              
TMAX.C        28                   : BHT          - MAXIMUM RECORDED TEMPERATURE
BHTD.M        499.5                : BHTDEP       - MAXIMUM RECORDED TEMPERATURE
MATR.         1                    : LOGUNIT      - NEUTRON MATRIX              
RMT .C        25                   : MDTP         - TEMPERATURE OF MUD          
NEUT.         1                    : NEUTRON      - NEUTRON TYPE                
RESI.         0                    : RESIST       - RESISTIVITY TYPE            
RMC .OHMM     0.25                 : RMC          - RESISTIVITY OF MUD CAKE     
RMF .OHMM     0.25                 : RMF          - RESISTIVITY OF MUD FILTRATE 
SUFT.C        15                   : SUFT         - SURFACE TEMPERATURE         
~A  DEPTH     RESD     PHID     PHIN       GR
# ...
  303.500    4.971    0.249    0.472   82.473
  303.750    4.946    0.244    0.454   87.055
  304.000    4.930    0.236    0.460   90.903
  304.250    4.878    0.233    0.481   92.498
  304.500    4.674    0.254    0.465   91.776
  304.750    4.331    0.266    0.449   92.455
  305.000    4.112    0.270    0.439   93.319
  305.250    3.955    0.274    0.420   94.059
  305.500    3.848    0.272    0.404   86.693
  305.750    3.821    0.316    0.420   79.632
  306.000    3.866    0.334    0.433   71.718
  306.250    3.897    0.346    0.410   64.535
  306.500    4.010    0.328    0.399   66.008
  306.750    4.205    0.299    0.387   71.504
  307.000    4.417    0.269    0.372   75.841
  307.250    4.622    0.256    0.369   79.751
  307.500    4.748    0.268    0.390   83.601
  307.750    4.850    0.277    0.411   86.170
  308.000    4.880    0.287    0.425   87.763
  308.250    4.901    0.311    0.441   88.261
  308.500    4.912    0.326    0.457   88.454
  308.750    4.933    0.340    0.457   88.157
  309.000    4.954    0.345    0.492   81.706
  309.250    5.013    0.336    0.544   75.499
  309.500    5.072    0.328    0.476   70.450
  309.750    5.152    0.319    0.453   66.132
  310.000    5.253    0.313    0.425   61.935
  310.250    5.275    0.312    0.410   57.738
  310.500    5.287    0.317    0.426   62.198
  310.750    5.290    0.321    0.445   66.900
  311.000    5.263    0.312    0.462   75.931
  311.250    5.062    0.288    0.468   84.230
  311.500    4.961    0.270    0.455   87.470
  311.750    4.909    0.259    0.433   89.979
  312.000    4.902    0.258    0.414   92.305
  312.250    4.923    0.265    0.416   93.596
  312.500    4.916    0.273    0.429   94.030
  312.750    4.937    0.292    0.421   88.431
  313.000    4.940    0.341    0.427   92.708
  313.250    4.943    0.336    0.416   95.826
  313.500    4.945    0.329    0.397   96.262
  313.750    4.929    0.327    0.406   94.809
  314.000    4.998    0.339    0.401   94.392
  314.250    5.057    0.312    0.444   89.768
  314.500    5.097    0.290    0.463   83.866
  314.750    5.157    0.269    0.440   82.412
  315.000    5.209    0.249    0.437   88.700
  315.250    5.182    0.251    0.433   95.536
  315.500    5.022    0.280    0.407   98.836
  315.750    4.741    0.298    0.383   98.724
  316.000    4.681    0.288    0.364   85.508
  316.250    4.799    0.273    0.362   81.129
  316.500    4.985    0.274    0.370   79.674
  316.750    5.217    0.292    0.379   79.503
  317.000    5.420    0.297    0.383   79.510
  317.250    5.609    0.277    0.392   79.642
  317.500    5.761    0.269    0.401   79.896
  317.750    5.873    0.262    0.374   80.578
  318.000    6.067    0.271    0.366   81.195
  318.250    6.127    0.259    0.395   82.301
  318.500    6.142    0.244    0.411   83.410
  318.750    6.133    0.248    0.384   83.173
  319.000    6.103    0.263    0.380   80.562
  319.250    6.105    0.272    0.378   77.769
  319.500    6.119    0.274    0.373   76.559
  319.750    6.123    0.277    0.367   78.396
  320.000    6.161    0.248    0.363   85.232
  320.250    6.257    0.228    0.359   91.398
  320.500    6.296    0.210    0.358   94.820
  320.750    6.394    0.239    0.363   92.880
  321.000    6.569    0.262    0.371   90.635
  321.250    6.645    0.253    0.380   88.083
  321.500    6.749    0.238    0.382   85.776
  321.750    6.830    0.240    0.375   91.333
  322.000    6.808    0.243    0.374   93.110
  322.250    6.799    0.237    0.386   98.057
  322.500    6.739    0.230    0.399  101.236
  322.750    6.679    0.233    0.442  102.708
  323.000    6.583    0.270    0.461  100.097
  323.250    6.392    0.413    0.475   90.780
  323.500    6.300    0.461    0.489   85.365
  323.750    6.163    0.366    0.496   85.923
  324.000    6.063    0.317    0.514   91.541
  324.250    5.876    0.298    0.497   94.353
  324.500    5.759    0.329    0.489   96.191
  324.750    5.634    0.382    0.515   93.580
  325.000    5.574    0.375    0.529   91.091
  325.250    5.453    0.322    0.532   87.321
  325.500    5.128    0.303    0.418   81.905
  325.750    4.942    0.290    0.386   77.588
  326.000    4.917    0.296    0.411   75.829
  326.250    4.939    0.311    0.437   81.692
  326.500    4.977    0.303    0.443   84.808
  326.750    5.180    0.293    0.417   85.122
  327.000    5.514    0.254    0.397   85.924
  327.250    5.748    0.241    0.401   90.933
  327.500    5.894    0.242    0.406   90.941
  327.750    5.842    0.273    0.416   89.122
  328.000    5.945    0.310    0.404   92.059
  328.250    6.198    0.315    0.399   94.017
  328.500    6.511    0.289    0.398   92.686
  328.750    6.763    0.291    0.397   85.320
  329.000    6.921    0.294    0.382   79.722
  329.250    6.911    0.293    0.378   76.196
  329.500    6.901    0.286    0.377   77.486
  329.750    6.906    0.271    0.392   74.204
  330.000    6.873    0.268    0.391   65.009
  330.250    6.874    0.290    0.399   57.034
  330.500    6.788    0.313    0.393   54.118
  330.750    6.566    0.317    0.380   54.493
  331.000    6.269    0.319    0.379   53.345
  331.250    6.110    0.325    0.376   51.953
  331.500    6.089    0.328    0.371   55.254
  331.750    6.081    0.333    0.368   58.189
  332.000    6.142    0.334    0.377   54.846
  332.250    6.168    0.335    0.389   54.246
  332.500    6.171    0.338    0.400   55.292
  332.750    6.164    0.342    0.386   56.218
  333.000    6.133    0.347    0.395   56.532
  333.250    6.089    0.345    0.403   55.933
  333.500    6.058    0.335    0.418   55.146
  333.750    5.984    0.329    0.416   60.276
  334.000    5.941    0.326    0.389   67.050
  334.250    5.868    0.320    0.395   68.767
  334.500    5.804    0.312    0.404   68.654
  334.750    5.614    0.313    0.421   66.653
  335.000    5.410    0.309    0.418   68.857
  335.250    5.224    0.310    0.383   72.096
  335.500    5.044    0.304    0.396   75.337
  335.750    4.981    0.291    0.418   77.906
  336.000    4.829    0.279    0.410   81.877
  336.250    4.802    0.266    0.416   83.837
  336.500    4.724    0.258    0.412   81.897
  336.750    4.674    0.257    0.418   77.214
  337.000    4.669    0.253    0.418   74.724
  337.250    4.679    0.273    0.400   72.234
  337.500    4.734    0.290    0.379   71.511
  337.750    4.772    0.302    0.402   70.728
  338.000    4.802    0.308    0.418   70.189
  338.250    4.869    0.304    0.427   70.504
  338.500    5.104    0.305    0.439   69.416
  338.750    5.223    0.324    0.465   65.281
  339.000    5.324    0.338    0.446   61.694
  339.250    5.347    0.335    0.409   60.546
  339.500    5.431    0.323    0.395   61.411
  339.750    5.526    0.310    0.389   62.088
  340.000    5.633    0.309    0.391   62.890
  340.250    5.863    0.317    0.409   63.998
  340.500    6.148    0.324    0.399   64.433
  340.750    6.398    0.320    0.384   62.553
  341.000    6.595    0.302    0.391   60.977
  341.250    6.800    0.294    0.381   63.852
  341.500    6.919    0.321    0.382   67.277
  341.750    7.002    0.337    0.398   69.661
  342.000    7.097    0.336    0.381   71.255
  342.250    7.075    0.335    0.382   70.351
  342.500    6.973    0.325    0.386   71.154
  342.750    6.670    0.329    0.396   73.356
  343.000    6.320    0.345    0.415   80.862
  343.250    5.769    0.366    0.427   87.150
  343.500    5.265    0.439    0.441   88.379
  343.750    4.869    0.467    0.469   83.635
  344.000    4.460    0.461    0.459   78.585
  344.250    4.071    0.301    0.410   77.862
  344.500    3.786    0.285    0.422   85.979
  344.750    3.608    0.283    0.409   87.269
  345.000    3.833    0.308    0.413   77.525
  345.250    4.141    0.334    0.405   68.269
  345.500    4.508    0.337    0.382   61.635
  345.750    4.871    0.342    0.394   66.033
  346.000    5.273    0.346    0.410   67.507
  346.250    5.697    0.332    0.405   66.906
  346.500    6.144    0.316    0.413   61.795
  346.750    6.418    0.320    0.406   63.146
