~VERSION INFORMATION
 VERS.                 2.0:   CWLS LOG ASCII STANDARD -VERSION 2.0
 WRAP.                  NO:   ONE LINE PER DEPTH STEP
~WELL INFORMATION BLOCK
#MNEM.UNIT           DATA                    DESCRIPTION OF MNEMONIC
#---------    -------------------            -------------------------------
# Generated from Intellog Unique Number	CW_73_75/WELL/502
WELL.         MANNVILLE ET AL MARTENH 05-36  : Well_name    - WELL
LOC .         00/05-36-074-23W4/0            : Location     - LOCATION
UWI .         00/05-36-074-23W4/0            : Uwi          - UNIQUE WELL ID
ENTR.         JAYE                           : Entered      - ENTERED BY
SRVC.         SCHLUMBERGER                   : Scn          - SERVICE COMPANY
DATE.         29 MAR 81                      : Date         - LOG DATE
STRT.M        455                            : top_depth    - START DEPTH
STOP.M        660                            : bot_depth    - STOP DEPTH
STEP.M        0.25                           : increment    - STEP LENGTH
 NULL. -999.2500:NULL Value
~CURVE INFORMATION BLOCK
#MNEM UNIT       ERCB CURVE CODE    CURVE DESCRIPTION
#-----------   ------------------   ----------------------------------
DEPT.M        00 001 00 00         : DEPTH        - DEPTH
ILD .OHMM     00 120 00 00         : RESD         - DEEP RESISTIVITY (DIL)
NPHI.V/V      00 330 00 00         : PHIN         - NEUTRON POROSITY (SANDSTONE)
DPHI.V/V      00 890 00 00         : PHID         - DENSITY POROSITY (SANDSTONE)
CALI.MM       00 280 01 00         : CAL          - CALIPER
GR  .API      00 310 00 00         : GR           - GAMMA RAY
~PARAMETER INFORMATION
#MNEM.UNIT           DATA             DESCRIPTION OF MNEMONIC
#---------         -----------     ------------------------------
GL  .M        723.3                : gl           - GROUND LEVEL ELEVATION
EREF.M        726.2                : kb           - ELEVATION OF DEPTH REFERENCE
DATM.M        723.3                : datum        - DATUM ELEVATION
TDD .M        691                  : tdd          - TOTAL DEPTH DRILLER
RUN .         ONE                  : Run          - RUN NUMBER
ENG .         ASHTON               : Engineer     - RECORDING ENGINEER
WIT .         SANOIA               : Witness      - WITNESSED BY
BASE.         EDM                  : Branch       - HOME BASE OF LOGGING UNIT
MUD .         GEL CHEM             : Mud_type     - MUD TYPE
MATR.         SANDSTONE            : Logunit      - NEUTRON MATRIX
TMAX.C        27.2                 : BHT          - MAXIMUM RECORDED TEMPERATURE
BHTD.M        691                  : BHTDEP       - MAXIMUM RECORDED TEMPERATURE
RMT .C        27.2                 : MDTP         - TEMPERATURE OF MUD
MUDD.KG/M     1095                 : MWT          - MUD DENSITY
NEUT.         1                    : NEUTRON      - NEUTRON TYPE
RESI.         0                    : RESIST       - RESISTIVITY TYPE
RM  .OHMM     2.784                : RM           - RESISTIVITY OF MUD
RMC .OHMM     0                    : RMC          - RESISTIVITY OF MUD CAKE
RMF .OHMM     4.4                  : RMF          - RESISTIVITY OF MUD FILTRATE
SUFT.C        0                    : SUFT         - SURFACE TEMPERATURE
~A  DEPTH     RESD     PHIN     PHID      CAL       GR
# ...
  637.500    6.232    0.374    0.224  162.870   75.049
  637.750    6.124    0.357    0.245  160.539   63.207
  638.000    5.917    0.354    0.254  159.154   55.799
  638.250    5.536    0.348    0.265  157.767   53.387
  638.500    5.259    0.357    0.272  156.495   53.699
  638.750    5.110    0.361    0.266  155.843   56.158
  639.000    5.060    0.350    0.256  155.527   60.769
  639.250    5.077    0.342    0.240  155.297   65.129
  639.500    5.280    0.337    0.200  155.280   80.115
  639.750    5.629    0.379    0.175  155.270  122.186
  640.000    6.570    0.399    0.140  155.474  124.267
  640.250    7.741    0.373    0.172  155.567  105.086
  640.500    8.283    0.350    0.197  155.344   71.036
  640.750    7.648    0.353    0.241  155.016   56.602
  641.000    6.786    0.355    0.268  154.786   51.915
  641.250    6.373    0.363    0.273  154.455   51.654
  641.500    6.009    0.376    0.265  154.233   53.547
  641.750    5.633    0.367    0.253  154.335   56.639
  642.000    5.452    0.354    0.243  154.534   59.856
  642.250    5.481    0.339    0.223  154.630   63.837
  642.500    5.658    0.324    0.205  154.608   75.597
  642.750    5.896    0.321    0.196  154.608   75.400
  643.000    6.225    0.327    0.201  154.687   75.711
  643.250    6.586    0.325    0.220  154.787   79.815
  643.500    6.994    0.320    0.196  154.782   87.595
  643.750    7.511    0.317    0.175  154.756   98.213
  644.000    7.947    0.330    0.167  154.857   90.929
  644.250    8.600    0.349    0.205  155.175   77.824
  644.500    9.185    0.356    0.217  155.573   68.514
  644.750    9.499    0.358    0.225  155.654   67.941
  645.000    9.586    0.357    0.221  155.752   69.133
  645.250    9.654    0.354    0.200  155.635   73.493
  645.500    9.669    0.350    0.199  155.630   77.217
  645.750    9.757    0.345    0.203  155.393   77.150
  646.000    9.864    0.337    0.198  154.971   74.992
  646.250    9.898    0.318    0.189  155.160   71.378
  646.500    9.527    0.311    0.186  155.785   72.888
  646.750    9.257    0.316    0.189  156.410   80.093
  647.000    9.271    0.325    0.195  156.925   86.479
  647.250    9.462    0.342    0.195  157.431   86.277
  647.500   10.574    0.341    0.167  158.681   79.880
  647.750   11.907    0.289    0.149  162.471   74.747
  648.000   12.083    0.220    0.052  164.993   75.880
  648.250   11.920    0.250    0.090  166.345   80.363
  648.500   11.387    0.295    0.157  167.492   88.455
  648.750   10.047    0.321    0.179  170.436   90.725
  649.000    8.816    0.326    0.176  173.900   88.885
  649.250    8.280    0.322    0.195  178.112   89.825
  649.500    8.075    0.342    0.195  182.948   92.731
  649.750    7.951    0.337    0.180  189.366   99.115
  650.000    8.069    0.329    0.162  195.473  112.014
  650.250    8.569    0.328    0.136  202.736  111.437
  650.500    9.117    0.313    0.132  208.001  106.493
  650.750    9.464    0.308    0.147  212.630  108.705
  651.000    9.389    0.327    0.148  216.515  115.590
  651.250    9.140    0.337    0.141  218.825  114.951
  651.500    8.832    0.306    0.128  218.916  113.428
  651.750    7.793    0.311    0.145  219.229  115.574
  652.000    7.060    0.334    0.155  219.533  118.665
  652.250    6.783    0.359    0.148  219.955  120.111
  652.500    6.923    0.371    0.145  220.345  120.110
  652.750    7.106    0.369    0.148  219.485  119.526
  653.000    7.103    0.373    0.149  217.471  117.303
  653.250    7.047    0.370    0.147  215.460  122.359
  653.500    6.938    0.366    0.144  213.862  127.859
  653.750    6.857    0.380    0.141  211.421  128.924
  654.000    6.777    0.390    0.139  207.935  126.195
  654.250    6.686    0.391    0.139  204.649  122.710
  654.500    6.670    0.387    0.141  200.106  126.625
  654.750    7.084    0.370    0.133  196.503  129.592
  655.000    7.423    0.378    0.129  192.486  127.939
  655.250    7.839    0.385    0.134  188.367  122.045
  655.500    9.793    0.387    0.111  182.230   99.578
  655.750   14.615    0.336    0.090  177.050   77.865
  656.000   24.061    0.166   -0.003  173.979   39.640
  656.250   39.540    0.103   -0.006  170.275   22.293
  656.500   56.281    0.100    0.004  168.050   14.756
  656.750   56.901    0.131    0.024  167.091   30.947
  657.000   53.137    0.147    0.030  166.337   42.459
  657.250   43.227    0.165    0.032  166.856   56.752
  657.500   34.834    0.195    0.075  168.001   72.563
  657.750   25.929    0.234    0.099  168.940   72.242
  658.000   20.196    0.264    0.127  169.661   69.762
  658.250   16.152    0.263    0.122  169.874   66.654
  658.500   13.366    0.286    0.138  170.274   69.054
  658.750   10.450    0.316    0.115  171.525  101.505
  659.000    8.696    0.341    0.093  173.834  114.280
  659.250    8.643    0.361    0.135  176.884  123.384
  659.500    9.496    0.386    0.174  177.823  136.538
  659.750   11.753    0.433    0.240  176.642  114.763
  660.000   14.300    0.401    0.269  171.568   95.331
