~VERSION INFORMATION
 VERS.                 2.0:   CWLS LOG ASCII STANDARD -VERSION 2.0
 WRAP.                  NO:   ONE LINE PER DEPTH STEP
~WELL INFORMATION BLOCK
#MNEM.UNIT           DATA                    DESCRIPTION OF MNEMONIC
#---------    -------------------            -------------------------------
# Generated from Intellog Unique Number	CS_67_68/WELL/637
WELL.         CANADIAN HOMESTEAD OIL         : Well_name    - WELL
LOC .         00/03-19-068-09W4/0            : Location     - LOCATION
UWI .         00/03-19-068-09W4/0            : Uwi          - UNIQUE WELL ID
ENTR.         SP                             : Entered      - ENTERED BY
SRVC.         SCHLUMBERGER                   : Scn          - SERVICE COMPANY
STRT.M        390                            : top_depth    - START DEPTH
STOP.M        609                            : bot_depth    - STOP DEPTH
STEP.M        0.25                           : increment    - STEP LENGTH
 NULL. -999.2500:NULL Value
~CURVE INFORMATION BLOCK
#MNEM UNIT       ERCB CURVE CODE    CURVE DESCRIPTION
#-----------   ------------------   ----------------------------------
DEPT.M        00 001 00 00         : DEPTH        - DEPTH
ILD .OHMM     00 120 00 00         : RESD         - DEEP RESISTIVITY (DIL)
DPHI.V/V      00 890 00 00         : PHID         - DENSITY POROSITY (LIMESTONE)
NPHI.V/V      00 330 00 00         : PHIN         - NEUTRON POROSITY (LIMESTONE)
GR  .API      00 310 00 00         : GR           - GAMMA RAY
~PARAMETER INFORMATION
#MNEM.UNIT           DATA             DESCRIPTION OF MNEMONIC
#---------         -----------     ------------------------------
GL  .M        702.5                : gl           - GROUND LEVEL ELEVATION
EREF.M        705.5                : kb           - ELEVATION OF DEPTH REFERENCE
DATM.M        702.5                : datum        - DATUM ELEVATION
TDD .M        624                  : tdd          - TOTAL DEPTH DRILLER
RUN .         ONE                  : Run          - RUN NUMBER
ENG .         BILL                 : Engineer     - RECORDING ENGINEER
WIT .         JIM                  : Witness      - WITNESSED BY
MUD .         GEL                  : Mud_type     - MUD TYPE
MATR.         LIMESTONE            : Logunit      - NEUTRON MATRIX
TMAX.C        23                   : BHT          - MAXIMUM RECORDED TEMPERATURE
BHTD.M        624                  : BHTDEP       - MAXIMUM RECORDED TEMPERATURE
MATR.         1                    : LOGUNIT      - NEUTRON MATRIX
RMT .C        25                   : MDTP         - TEMPERATURE OF MUD
NEUT.         1                    : NEUTRON      - NEUTRON TYPE
RESI.         0                    : RESIST       - RESISTIVITY TYPE
RMC .OHMM     0.25                 : RMC          - RESISTIVITY OF MUD CAKE
RMF .OHMM     0.25                 : RMF          - RESISTIVITY OF MUD FILTRATE
SUFT.C        15                   : SUFT         - SURFACE TEMPERATURE
~A  DEPTH     RESD     PHID     PHIN       GR
# ...
  433.500    3.514    0.316    0.449  111.357
  433.750    3.555    0.319    0.454  109.122
  434.000    3.637    0.320    0.456  107.190
  434.250    3.756    0.319    0.453  105.198
  434.500    3.908    0.308    0.445  101.332
  434.750    4.081    0.297    0.425   96.801
  435.000    4.318    0.287    0.410   94.023
  435.250    4.500    0.280    0.403   90.399
  435.500    4.561    0.281    0.409   88.406
  435.750    4.554    0.283    0.416   90.463
  436.000    4.479    0.277    0.405   93.608
  436.250    4.324    0.063    0.366   95.302
  436.500    4.245    0.031    0.298   96.875
  436.750    4.168    0.133    0.094   98.146
  437.000    4.122    0.225    0.420   99.054
  437.250    4.070    0.267    0.428  100.265
  437.500    4.048    0.300    0.436  100.207
  437.750    4.026    0.305    0.440   99.544
  438.000    3.998    0.305    0.442  102.507
  438.250    3.999    0.307    0.434  104.745
  438.500    4.015    0.309    0.438  107.588
  438.750    4.031    0.324    0.448  109.161
  439.000    4.063    0.329    0.458  110.553
  439.250    4.133    0.331    0.462  113.093
  439.500    4.220    0.326    0.454  114.968
  439.750    4.285    0.320    0.449  111.888
  440.000    4.311    0.317    0.447  112.071
  440.250    4.288    0.324    0.454  113.040
  440.500    4.202    0.327    0.457  107.784
  440.750    4.087    0.327    0.453  102.710
  441.000    4.012    0.322    0.447  103.678
  441.250    3.938    0.316    0.441  109.301
  441.500    3.874    0.310    0.437  113.110
  441.750    3.796    0.307    0.436  116.739
  442.000    3.762    0.308    0.443  119.339
  442.250    3.735    0.315    0.447  112.874
  442.500    3.687    0.320    0.451  105.564
  442.750    3.654    0.325    0.453   96.198
  443.000    3.594    0.326    0.454   85.805
  443.250    3.548    0.327    0.452   77.708
  443.500    3.464    0.322    0.448   70.820
  443.750    3.426    0.313    0.441   71.004
  444.000    3.395    0.304    0.432   74.088
  444.250    3.371    0.303    0.426   76.931
  444.500    3.391    0.308    0.422   78.443
  444.750    3.417    0.310    0.426   80.319
  445.000    3.457    0.310    0.430   83.947
  445.250    3.497    0.302    0.433   88.663
  445.500    3.531    0.298    0.434   93.016
  445.750    3.579    0.296    0.430   97.128
  446.000    3.600    0.298    0.426  101.058
  446.250    3.594    0.301    0.424   99.670
  446.500    3.568    0.302    0.425   97.496
  446.750    3.510    0.302    0.427   95.867
  447.000    3.478    0.301    0.428   95.505
  447.250    3.447    0.298    0.429   97.079
  447.500    3.435    0.294    0.426   95.811
  447.750    3.436    0.291    0.421   96.962
  448.000    3.463    0.289    0.419   99.683
  448.250    3.516    0.291    0.420  101.075
  448.500    3.659    0.289    0.418   98.297
  448.750    3.680    0.286    0.415   94.129
  449.000    3.865    0.288    0.419   97.757
  449.250    3.968    0.290    0.421  102.292
  449.500    4.083    0.285    0.419  106.222
  449.750    4.255    0.279    0.411  109.850
  450.000    4.461    0.286    0.405  112.813
  450.250    4.606    0.291    0.412  116.200
  450.500    4.712    0.288    0.420  118.800
  450.750    4.767    0.281    0.415  119.830
  451.000    4.768    0.281    0.407  120.496
  451.250    4.743    0.284    0.406  121.344
  451.500    4.736    0.286    0.409  122.253
  451.750    4.693    0.286    0.413  123.705
  452.000    4.668    0.284    0.413  126.306
  452.250    4.669    0.283    0.413  130.478
  452.500    4.697    0.287    0.423  131.386
  452.750    4.752    0.299    0.432  125.707
  453.000    4.780    0.307    0.439  120.330
  453.250    4.817    0.299    0.439  114.591
  453.500    4.855    0.289    0.428  108.489
  453.750    4.883    0.284    0.420  103.293
  454.000    4.922    0.279    0.414   97.433
  454.250    4.951    0.276    0.410   94.957
  454.500    4.962    0.277    0.409   98.283
  454.750    4.954    0.280    0.415  100.460
  455.000    4.937    0.284    0.417  101.550
  455.250    4.892    0.282    0.410  100.706
  455.500    4.803    0.277    0.404   94.785
  455.750    4.733    0.273    0.402   84.815
  456.000    4.664    0.274    0.403   77.323
  456.250    4.578    0.279    0.407   76.297
  456.500    4.470    0.278    0.402   76.179
  456.750    4.339    0.267    0.393   73.823
  457.000    4.284    0.258    0.383   72.858
  457.250    4.261    0.250    0.377   75.943
  457.500    4.247    0.243    0.372   78.241
  457.750    4.288    0.251    0.374   79.754
  458.000    4.313    0.259    0.381   80.541
  458.250    4.339    0.263    0.387   80.181
  458.500    4.348    0.262    0.392   78.551
  458.750    4.325    0.254    0.392   77.163
  459.000    4.294    0.248    0.382   74.989
  459.250    4.153    0.253    0.379   73.903
  459.500    3.891    0.260    0.386   79.949
  459.750    3.763    0.268    0.394   86.901
  460.000    3.736    0.273    0.401   96.270
  460.250    3.793    0.276    0.407  109.931
  460.500    3.895    0.279    0.409  122.262
  460.750    4.030    0.277    0.407  126.615
  461.000    4.146    0.275    0.406  129.216
  461.250    4.257    0.274    0.409  120.334
  461.500    4.290    0.276    0.413  113.023
  461.750    4.228    0.279    0.413  103.536
  462.000    4.143    0.278    0.409   94.231
  462.250    4.067    0.274    0.407   89.277
  462.500    4.031    0.272    0.404   88.796
  462.750    4.010    0.272    0.404   90.127
  463.000    4.034    0.271    0.403   92.002
  463.250    4.057    0.271    0.402   92.609
  463.500    4.104    0.269    0.400   91.221
  463.750    4.175    0.266    0.395   90.135
  464.000    4.263    0.261    0.391   91.043
  464.250    4.329    0.259    0.387   94.671
  464.500    4.387    0.259    0.388  106.821
  464.750    4.380    0.264    0.392  114.800
  465.000    4.324    0.268    0.398  117.220
  465.250    4.214    0.274    0.402  110.695
  465.500    4.091    0.278    0.406  105.862
  465.750    4.009    0.279    0.406  100.183
  466.000    3.965    0.276    0.398  101.393
  466.250    3.900    0.255    0.380  110.642
  466.500    3.793    0.229    0.356  120.193
  466.750    3.641    0.240    0.336  127.024
  467.000    3.267    0.264    0.374  133.553
  467.250    2.772    0.301    0.401  139.296
  467.500    2.492    0.333    0.427  141.232
  467.750    2.270    0.354    0.464  140.025
  468.000    2.052    0.384    0.504  143.049
  468.250    1.912    0.406    0.538  140.694
  468.500    1.902    0.405    0.540  133.444
  468.750    2.001    0.405    0.540  125.408
  469.000    2.261    0.406    0.541  121.481
  469.250    2.502    0.402    0.526  112.660
  469.500    2.800    0.381    0.498  108.129
  469.750    3.211    0.333    0.479  104.746
  470.000    3.507    0.300    0.460  106.319
  470.250    3.918    0.299    0.440  104.750
  470.500    4.169    0.301    0.426  100.884
  470.750    4.225    0.300    0.431   99.073
  471.000    4.179    0.296    0.433   97.745
  471.250    4.095    0.290    0.434   98.291
  471.500    4.006    0.286    0.429  102.403
  471.750    3.947    0.284    0.422  105.849
  472.000    3.868    0.283    0.417  108.752
  472.250    3.819    0.284    0.420  105.793
  472.500    3.834    0.293    0.435  102.834
  472.750    3.864    0.307    0.446  100.176
  473.000    3.916    0.311    0.446   97.156
  473.250    3.954    0.304    0.437   94.016
  473.500    3.985    0.298    0.431   91.298
  473.750    4.009    0.298    0.430   89.728
  474.000    4.010    0.301    0.432   89.972
  474.250    4.004    0.303    0.434   91.122
  474.500    3.975    0.304    0.436   93.481
  474.750    3.946    0.305    0.439   93.665
  475.000    3.933    0.302    0.440   90.524
  475.250    3.926    0.299    0.431   87.867
  475.500    3.913    0.300    0.426   86.901
  475.750    3.929    0.307    0.433   89.562
  476.000    3.952    0.316    0.443   92.344
  476.250    3.983    0.322    0.451   92.830
  476.500    3.992    0.326    0.458   91.321
  476.750    3.971    0.326    0.453   88.603
