~VERSION INFORMATION
 VERS.                 2.0:   CWLS LOG ASCII STANDARD -VERSION 2.0
 WRAP.                  NO:   ONE LINE PER DEPTH STEP
~WELL INFORMATION BLOCK
#MNEM.UNIT           DATA                    DESCRIPTION OF MNEMONIC
#---------    -------------------            -------------------------------
# Generated from Intellog Unique Number	CW_79_81/WELL/3694
WELL.         AMCO                           : Well_name    - WELL
LOC .         00/07-09-078-23W4/0            : Location     - LOCATION
UWI .         00/07-09-078-23W4/0            : Uwi          - UNIQUE WELL ID
ENTR.         TIM                            : Entered      - ENTERED BY
SRVC.         SCHLUMBERGER                   : Scn          - SERVICE COMPANY
DATE.         05\15\92                       : Date         - LOG DATE
STRT.M        250                            : top_depth    - START DEPTH
STOP.M        525                            : bot_depth    - STOP DEPTH
STEP.M        0.25                           : increment    - STEP LENGTH
 NULL. -999.2500:NULL Value
~CURVE INFORMATION BLOCK
#MNEM UNIT       ERCB CURVE CODE    CURVE DESCRIPTION
#-----------   ------------------   ----------------------------------
DEPT.M        00 001 00 00         : DEPTH        - DEPTH
GR  .API      00 310 00 00         : GR           - GAMMA RAY
DPHI.V/V      00 890 00 00         : PHID         - DENSITY POROSITY (SANDSTONE)
ILD .OHMM     00 120 00 00         : RESD         - DEEP RESISTIVITY (DIL)
NPHI.V/V      00 330 00 00         : PHIN         - NEUTRON POROSITY (SANDSTONE)
~PARAMETER INFORMATION
#MNEM.UNIT           DATA             DESCRIPTION OF MNEMONIC
#---------         -----------     ------------------------------
GL  .M        605                  : gl           - GROUND LEVEL ELEVATION
EREF.M        609                  : kb           - ELEVATION OF DEPTH REFERENCE
DATM.M        609                  : datum        - DATUM ELEVATION
TDD .M        525                  : tdd          - TOTAL DEPTH DRILLER
RUN .         ONE                  : Run          - RUN NUMBER
ENG .         JO                   : Engineer     - RECORDING ENGINEER
WIT .         TIM                  : Witness      - WITNESSED BY
MUD .         GEL                  : Mud_type     - MUD TYPE
MATR.         SANDSTONE            : Logunit      - NEUTRON MATRIX
TMAX.C        27                   : BHT          - MAXIMUM RECORDED TEMPERATURE
BHTD.M        525                  : BHTDEP       - MAXIMUM RECORDED TEMPERATURE
RMT .C        20                   : MDTP         - TEMPERATURE OF MUD
MUDD.KG/M     1090                 : MWT          - MUD DENSITY
NEUT.         1                    : NEUTRON      - NEUTRON TYPE
RESI.         0                    : RESIST       - RESISTIVITY TYPE
RM  .OHMM     5.2                  : RM           - RESISTIVITY OF MUD
RMC .OHMM     4                    : RMC          - RESISTIVITY OF MUD CAKE
RMF .OHMM     6.3                  : RMF          - RESISTIVITY OF MUD FILTRATE
SUFT.C        4                    : SUFT         - SURFACE TEMPERATURE
~A  DEPTH       GR     PHID     RESD     PHIN
# ...
  424.000   95.369    0.170    7.055    0.452
  424.250   97.202    0.164    7.191    0.478
  424.500  100.256    0.167    7.473    0.502
  424.750  100.249    0.167    7.616    0.472
  425.000   99.017    0.166    7.909    0.455
  425.250   96.559    0.168    8.068    0.430
  425.500   95.941    0.180    8.078    0.429
  425.750   94.706    0.194    8.088    0.461
  426.000   94.086    0.197    7.956    0.454
  426.250   93.466    0.184    7.963    0.432
  426.500   92.847    0.186    7.829    0.424
  426.750   91.610    0.190    7.838    0.416
  427.000   91.603    0.188    7.845    0.424
  427.250   91.598    0.186    8.000    0.451
  427.500   91.589    0.189    8.158    0.471
  427.750   92.198    0.196    8.321    0.480
  428.000   93.414    0.201    8.488    0.486
  428.250   95.247    0.207    8.653    0.482
  428.500   97.076    0.197    8.821    0.474
  428.750   95.843    0.188    8.837    0.469
  429.000   93.998    0.179    8.845    0.469
  429.250   91.542    0.166    8.856    0.457
  429.500   89.082    0.160    8.870    0.431
  429.750   91.526    0.174    8.717    0.408
  430.000   95.195    0.185    8.728    0.434
  430.250   98.251    0.188    8.739    0.449
  430.500   98.856    0.185    8.593    0.466
  430.750   98.847    0.182    8.601    0.471
  431.000   99.455    0.179    8.456    0.451
  431.250   99.446    0.177    8.316    0.437
  431.500   99.440    0.171    8.323    0.449
  431.750   99.433    0.173    8.182    0.443
  432.000   98.811    0.178    8.200    0.430
  432.250   98.190    0.178    8.057    0.420
  432.500   97.573    0.171    8.064    0.417
  432.750   96.339    0.165    7.930    0.450
  433.000   95.721    0.159    7.937    0.473
  433.250   95.712    0.163    7.808    0.482
  433.500   97.541    0.170    7.815    0.486
  433.750   98.148    0.172    7.827    0.475
  434.000   99.979    0.174    7.839    0.447
  434.250  102.422    0.176    7.847    0.445
  434.500  105.477    0.176    7.859    0.433
  434.750  106.697    0.176    7.864    0.451
  435.000  104.852    0.174    7.873    0.475
  435.250  102.392    0.168    7.888    0.498
  435.500  101.774    0.165    7.752    0.506
  435.750  101.154    0.160    7.759    0.476
  436.000  100.534    0.159    7.769    0.457
  436.250   99.912    0.167    7.640    0.445
  436.500   98.067    0.165    7.652    0.446
  436.750   96.833    0.164    7.659    0.442
  437.000   96.827    0.164    7.532    0.434
  437.250   98.044    0.161    7.407    0.434
  437.500  101.713    0.164    7.411    0.446
  437.750  107.221    0.171    7.290    0.466
  438.000  113.341    0.177    7.295    0.474
  438.250  109.658    0.178    7.174    0.462
  438.500  106.585    0.166    7.185    0.451
  438.750  103.515    0.154    7.189    0.473
  439.000  101.669    0.160    7.068    0.528
  439.250  100.439    0.165    7.209    0.529
  439.500   99.817    0.165    7.218    0.500
  439.750   99.197    0.165    7.496    0.478
  440.000   97.963    0.167    7.787    0.452
  440.250   96.119    0.176    8.083    0.434
  440.500   93.661    0.181    9.034    0.416
  440.750   90.589    0.177   10.664    0.385
  441.000   87.520    0.165   14.306    0.367
  441.250   83.837    0.143   17.839    0.335
  441.500   79.541    0.125   19.578    0.300
  441.750   74.630    0.098   17.889    0.273
  442.000   72.173    0.052   16.054    0.251
  442.250   72.167    0.144   15.783    0.449
  442.500   75.836    0.178   16.386    0.486
  442.750   88.695    0.200   17.337    0.492
  443.000   92.975    0.189   17.679    0.491
  443.250   80.714    0.163   16.761    0.462
  443.500   72.129    0.130   15.886    0.429
  443.750   62.932    0.082   15.324    0.214
  444.000   55.573    0.174   14.002    0.277
  444.250   81.911    0.197   13.035    0.325
  444.500   93.544    0.200   12.130    0.371
  444.750   94.148    0.189   11.292    0.405
  445.000   90.465    0.165   10.893    0.451
  445.250   88.007    0.166   10.327    0.433
  445.500   88.610    0.170    9.972    0.439
  445.750   89.832    0.174    9.797    0.443
  446.000   92.274    0.166    9.457    0.451
  446.250   92.881    0.157    9.469    0.454
  446.500   94.096    0.157    9.483    0.449
  446.750   94.092    0.163    9.673    0.441
  447.000   94.692    0.165    9.679    0.434
  447.250   94.689    0.168   10.055    0.429
  447.500   94.681    0.158   10.443    0.433
  447.750   94.060    0.160   10.649    0.445
  448.000   93.440    0.170   10.662    0.449
  448.250   93.434    0.173   10.872    0.444
  448.500   93.424    0.170   10.688    0.435
  448.750   93.420    0.171   10.514    0.428
  449.000   94.024    0.174   10.333    0.426
  449.250   94.631    0.174   10.158    0.422
  449.500   95.236    0.173    9.983    0.415
  449.750   96.454    0.169    9.643    0.443
  450.000   96.447    0.163    9.643    0.450
  450.250   93.988    0.149    9.153    0.448
  450.500   95.206    0.156    8.827    0.420
  450.750  100.713    0.168    8.844    0.415
  451.000  103.767    0.174    8.849    0.414
  451.250  103.149    0.168    8.863    0.422
  451.500  101.302    0.159    8.871    0.442
  451.750  100.068    0.162    8.885    0.468
  452.000   99.451    0.168    8.737    0.483
  452.250   98.830    0.170    8.745    0.488
  452.500   98.210    0.167    8.600    0.484
  452.750   98.201    0.164    8.608    0.478
  453.000   98.195    0.164    8.618    0.473
  453.250   98.190    0.165    8.475    0.459
  453.500   98.183    0.167    8.483    0.428
  453.750   98.172    0.165    8.494    0.404
  454.000   98.166    0.158    8.504    0.393
  454.250   97.547    0.153    8.360    0.437
  454.500   93.863    0.153    8.373    0.449
  454.750   96.307    0.155    8.384    0.456
  455.000   99.363    0.161    8.397    0.458
  455.250  100.579    0.167    8.402    0.459
  455.500  101.187    0.174    8.262    0.465
  455.750  101.790    0.172    8.275    0.475
  456.000  102.396    0.163    8.288    0.488
  456.250  103.612    0.156    8.293    0.505
  456.500  104.834    0.145    8.153    0.516
  456.750  106.052    0.135    8.165    0.491
  457.000  106.658    0.130    8.175    0.448
  457.250  105.421    0.162    8.040    0.421
  457.500  107.250    0.172    8.040    0.452
  457.750  108.472    0.166    8.057    0.442
  458.000  100.500    0.158    7.921    0.431
  458.250   95.590    0.156    7.928    0.420
  458.500   95.579    0.164    7.938    0.436
  458.750   96.190    0.163    7.953    0.493
  459.000   98.633    0.139    7.957    0.483
  459.250  101.689    0.135    7.825    0.465
  459.500  105.357    0.124    7.835    0.441
  459.750  105.347    0.123    7.989    0.401
  460.000  104.117    0.132    8.149    0.374
  460.250  104.111    0.155    8.620    0.399
  460.500  103.490    0.158    9.288    0.431
  460.750  102.870    0.166    9.818    0.448
  461.000  101.023    0.174   10.775    0.416
  461.250   97.340    0.182   11.818    0.392
  461.500   96.718    0.180   12.965    0.381
  461.750   96.102    0.152   15.036    0.413
  462.000   83.841    0.085   15.615    0.388
  462.250   77.094    0.063   15.347    0.359
  462.500   73.411    0.143   14.550    0.339
  462.750   78.303    0.160   13.540    0.326
  463.000   89.324    0.169   12.596    0.421
  463.250   92.991    0.172   10.899    0.452
  463.500   94.826    0.168    9.781    0.464
  463.750  100.329    0.163    9.265    0.469
  464.000  102.774    0.139    8.781    0.466
  464.250  105.218    0.128    8.800    0.456
  464.500  104.598    0.089    8.808    0.437
  464.750   92.950    0.067    8.979    0.407
  465.000   87.429    0.059    9.497    0.350
  465.250   79.457    0.087   10.611    0.325
  465.500   70.259    0.112   11.853    0.296
  465.750   80.055    0.122   13.012    0.347
  466.000   98.428    0.146   13.265    0.380
  466.250  103.322    0.145   13.285    0.369
  466.500  103.313    0.120   12.824    0.369
  466.750  103.920    0.125   12.154    0.373
  467.000  104.524    0.135   11.729    0.378
  467.250  105.740    0.140   10.915    0.398
