~VERSION INFORMATION
 VERS.                 2.0:   CWLS LOG ASCII STANDARD -VERSION 2.0
 WRAP.                  NO:   ONE LINE PER DEPTH STEP
~WELL INFORMATION BLOCK
#MNEM.UNIT           DATA                    DESCRIPTION OF MNEMONIC
#---------    -------------------            -------------------------------
# Generated from Intellog Unique Number	CS_69_70/WELL/2586
WELL.         08-16-069-07W4                 : Well_name    - WELL
LOC .         00/08-16-069-07W4/0            : Location     - LOCATION
UWI .         00/08-16-069-07W4/0            : Uwi          - UNIQUE WELL ID
ENTR.         TIM                            : Entered      - ENTERED BY
SRVC.         SCHLUMBERGER                   : Scn          - SERVICE COMPANY
STRT.M        285                            : top_depth    - START DEPTH
STOP.M        510                            : bot_depth    - STOP DEPTH
STEP.M        0.25                           : increment    - STEP LENGTH
 NULL. -999.2500:NULL Value
~CURVE INFORMATION BLOCK
#MNEM UNIT       ERCB CURVE CODE    CURVE DESCRIPTION
#-----------   ------------------   ----------------------------------
DEPT.M        00 001 00 00         : DEPTH        - DEPTH
ILD .OHMM     00 120 00 00         : RESD         - DEEP RESISTIVITY (DIL)
DPHI.V/V      00 890 00 00         : PHID         - DENSITY POROSITY (SANDSTONE)
NPHI.V/V      00 330 00 00         : PHIN         - NEUTRON POROSITY (SANDSTONE)
CALI.MM       00 280 01 00         : CAL          - CALIPER
GR  .API      00 310 00 00         : GR           - GAMMA RAY
~PARAMETER INFORMATION
#MNEM.UNIT           DATA             DESCRIPTION OF MNEMONIC
#---------         -----------     ------------------------------
GL  .M        623                  : gl           - GROUND LEVEL ELEVATION
EREF.M        627.1                : kb           - ELEVATION OF DEPTH REFERENCE
DATM.M        627.1                : datum        - DATUM ELEVATION
TDD .M        514                  : tdd          - TOTAL DEPTH DRILLER
RUN .         ONE                  : Run          - RUN NUMBER
ENG .         BILL                 : Engineer     - RECORDING ENGINEER
WIT .         JIM                  : Witness      - WITNESSED BY
MUD .         GEL                  : Mud_type     - MUD TYPE
MATR.         SANDSTONE            : Logunit      - NEUTRON MATRIX
TMAX.C        24                   : BHT          - MAXIMUM RECORDED TEMPERATURE
BHTD.M        514                  : BHTDEP       - MAXIMUM RECORDED TEMPERATURE
RMT .C        8                    : MDTP         - TEMPERATURE OF MUD
MUDD.KG/M     1000                 : MWT          - MUD DENSITY
NEUT.         1                    : NEUTRON      - NEUTRON TYPE
RESI.         0                    : RESIST       - RESISTIVITY TYPE
RM  .OHMM     6.6                  : RM           - RESISTIVITY OF MUD
RMC .OHMM     2.9                  : RMC          - RESISTIVITY OF MUD CAKE
RMF .OHMM     6.7                  : RMF          - RESISTIVITY OF MUD FILTRATE
SUFT.C        4                    : SUFT         - SURFACE TEMPERATURE
~A  DEPTH     RESD     PHID     PHIN      CAL       GR
# ...
  394.500    4.747    0.335    0.464  162.740   69.303
  394.750    4.757    0.330    0.455  162.784   71.136
  395.000    4.760    0.324    0.440  162.827   74.802
  395.250    4.854    0.315    0.419  162.853   77.236
  395.500    4.861    0.284    0.403  162.896   78.469
  395.750    4.959    0.225    0.406  162.914   71.825
  396.000    4.966    0.222    0.412  162.957   69.428
  396.250    4.976    0.238    0.397  162.992   70.055
  396.500    4.979    0.251    0.403  163.018   70.686
  396.750    4.987    0.271    0.425  163.070   71.909
  397.000    4.992    0.301    0.458  163.104   74.353
  397.250    4.999    0.324    0.464  162.121   76.196
  397.500    5.006    0.337    0.460  161.146   77.428
  397.750    5.012    0.340    0.450  159.161   76.238
  398.000    5.019    0.339    0.445  157.185   73.835
  398.250    5.027    0.333    0.464  156.218   73.861
  398.500    4.944    0.327    0.462  156.236   74.483
  398.750    4.949    0.314    0.457  156.270   76.331
  399.000    4.957    0.299    0.456  156.314   76.947
  399.250    4.874    0.294    0.451  156.357   78.180
  399.500    4.880    0.293    0.449  156.383   78.806
  399.750    4.887    0.294    0.452  156.409   78.222
  400.000    4.893    0.294    0.456  156.470   77.647
  400.250    4.900    0.294    0.460  156.487   77.668
  400.500    4.906    0.289    0.465  155.512   78.294
  400.750    4.913    0.282    0.464  151.525   79.532
  401.000    4.918    0.274    0.464  148.522   80.159
  401.250    4.752    0.265    0.466  146.546   80.775
  401.500    4.670    0.260    0.464  145.553   82.613
  401.750    4.590    0.257    0.458  145.588   84.451
  402.000    4.512    0.255    0.460  147.642   87.506
  402.250    4.278    0.254    0.469  149.696   88.128
  402.500    4.131    0.254    0.482  153.770   88.754
  402.750    3.985    0.252    0.484  156.842   90.603
  403.000    3.708    0.250    0.467  160.916   91.230
  403.250    3.148    0.249    0.449  163.988   91.251
  403.500    2.723    0.253    0.454  163.013   91.266
  403.750    2.487    0.265    0.476  163.039   92.504
  404.000    2.272    0.283    0.501  166.120   94.948
  404.250    2.115    0.291    0.507  169.175   99.204
  404.500    2.040    0.295    0.533  172.230  102.860
  404.750    1.899    0.301    0.560  178.341  101.674
  405.000    1.800    0.312    0.578  180.386   99.878
  405.250    1.738    0.318    0.590  181.448   98.687
  405.500    1.739    0.320    0.589  180.473   98.107
  405.750    1.710    0.320    0.564  180.490   97.522
  406.000    1.713    0.310    0.554  179.515   97.537
  406.250    1.746    0.298    0.540  178.540   97.558
  406.500    1.849    0.303    0.532  177.574   96.973
  406.750    1.850    0.310    0.520  175.598   97.004
  407.000    1.923    0.333    0.522  175.615   97.020
  407.250    2.111    0.337    0.532  175.667   97.041
  407.500    2.191    0.344    0.544  175.693   95.850
  407.750    2.588    0.347    0.563  174.735   93.448
  408.000    3.413    0.338    0.546  174.752   92.262
  408.250    4.031    0.326    0.520  174.787   91.677
  408.500    4.763    0.310    0.501  170.783   90.486
  408.750    5.039    0.299    0.482  165.769   90.507
  409.000    5.046    0.288    0.393  163.793   91.128
  409.250    4.962    0.242    0.360  163.828   92.361
  409.500    4.879    0.205    0.375  164.872   88.141
  409.750    4.795    0.152    0.396  165.908   83.315
  410.000    4.630    0.233    0.435  166.952   84.552
  410.250    4.634    0.269    0.482  169.023   86.386
  410.500    4.475    0.288    0.481  171.060   89.441
  410.750    4.399    0.295    0.482  174.141   91.274
  411.000    4.405    0.300    0.488  176.195   93.117
  411.250    4.411    0.285    0.491  177.231   90.715
  411.500    4.419    0.276    0.488  180.304   89.529
  411.750    4.422    0.270    0.480  181.339   88.944
  412.000    4.427    0.265    0.473  183.402   86.541
  412.250    4.518    0.262    0.465  182.418   85.351
  412.500    4.523    0.260    0.445  167.307   84.160
  412.750    4.613    0.256    0.431  163.329   83.580
  413.000    4.621    0.251    0.438  163.346   83.596
  413.250    4.714    0.248    0.457  162.380   83.611
  413.500    4.717    0.246    0.459  162.397   83.632
  413.750    4.723    0.246    0.457  162.458   82.441
  414.000    4.730    0.246    0.454  162.493   81.861
  414.250    4.739    0.248    0.450  163.520   82.488
  414.500    4.744    0.248    0.450  163.554   83.720
  414.750    4.665    0.252    0.451  164.616   84.958
  415.000    4.503    0.255    0.445  164.642   86.796
  415.250    4.678    0.261    0.431  163.658   88.034
  415.500    4.858    0.264    0.435  161.691   88.044
  415.750    5.234    0.265    0.463  159.689   87.459
  416.000    5.640    0.263    0.462  158.714   83.239
  416.250    6.078    0.257    0.450  158.748   79.630
  416.500    6.437    0.246    0.417  158.783   77.223
  416.750    6.328    0.138    0.397  158.826   73.609
  417.000    6.217    0.107    0.365  158.861   69.388
  417.250    5.789    0.081    0.333  159.914   72.444
  417.500    5.687    0.123    0.356  159.949   74.893
  417.750    5.198    0.223    0.401  159.983   76.125
  418.000    4.838    0.259    0.413  160.009   76.752
  418.250    4.753    0.280    0.417  159.052   76.167
  418.500    4.588    0.278    0.422  159.078   74.976
  418.750    4.597    0.264    0.440  159.104   74.391
  419.000    4.518    0.232    0.412  159.147   75.023
  419.250    4.523    0.199    0.403  160.183   75.038
  419.500    4.700    0.160    0.383  160.226   75.054
  419.750    4.793    0.146    0.390  160.261   73.257
  420.000    4.979    0.188    0.419  160.295   75.101
  420.250    4.985    0.215    0.442  160.339   78.151
  420.500    5.088    0.260    0.431  159.364   75.148
  420.750    5.091    0.278    0.419  159.407   78.192
  421.000    5.005    0.263    0.416  159.433   81.242
  421.250    4.744    0.251    0.420  159.476   86.721
  421.500    4.497    0.256    0.413  159.502   89.160
  421.750    4.420    0.230    0.408  160.538   90.998
  422.000    4.190    0.213    0.405  161.582   91.029
  422.250    3.899    0.219    0.405  162.635   89.222
  422.500    3.628    0.240    0.421  163.688   83.801
  422.750    3.375    0.255    0.440  162.713   82.615
  423.000    3.444    0.239    0.434  161.738   82.020
  423.250    3.448    0.243    0.421  161.773   79.011
  423.500    3.391    0.253    0.410  161.799   75.397
  423.750    3.040    0.272    0.399  162.843   71.788
  424.000    2.628    0.290    0.394  163.888   74.838
  424.250    2.357    0.306    0.450  165.942   78.494
  424.500    1.894    0.326    0.514  165.976   80.933
  424.750    1.699    0.358    0.552  165.001   82.165
  425.000    1.640    0.374    0.573  164.035   81.580
  425.250    1.642    0.368    0.577  162.059   81.606
  425.500    1.771    0.362    0.556  161.084   82.243
  425.750    1.908    0.354    0.540  160.117   82.859
  426.000    1.982    0.346    0.537  160.143   83.491
  426.250    1.985    0.335    0.541  159.160   84.118
  426.500    1.987    0.327    0.539  158.185   85.350
  426.750    2.064    0.320    0.541  158.228   87.189
  427.000    2.266    0.312    0.555  157.262   88.421
  427.250    2.486    0.304    0.573  157.279   88.442
  427.500    3.046    0.294    0.544  157.331   87.251
  427.750    3.468    0.281    0.505  157.348   85.454
  428.000    4.096    0.270    0.482  157.392   84.258
  428.250    4.582    0.253    0.454  157.426   80.649
  428.500    4.423    0.223    0.446  158.479   81.276
  428.750    4.190    0.184    0.413  159.541   83.119
  429.000    3.899    0.168    0.394  159.541   84.347
  429.250    3.434    0.251    0.423  169.707   88.008
  429.500    3.195    0.253    0.438  168.706   90.452
  429.750    2.973    0.257    0.454  168.741   91.078
  430.000    2.923    0.260    0.465  169.785   91.099
  430.250    3.271    0.262    0.471  165.798   90.519
  430.500    3.394    0.264    0.471  165.816   90.530
  430.750    3.591    0.262    0.467  167.879   89.955
