~VERSION INFORMATION
 VERS.                 2.0:   CWLS LOG ASCII STANDARD -VERSION 2.0
 WRAP.                  NO:   ONE LINE PER DEPTH STEP
~WELL INFORMATION BLOCK
#MNEM.UNIT           DATA                    DESCRIPTION OF MNEMONIC
#---------    -------------------            -------------------------------
# Generated from Intellog Unique Number	CS_67_68/WELL/2179
WELL.         GLOBEL ARTIC ISLANDS           : Well_name    - WELL
LOC .         00/07-32-067-17W4/0            : Location     - LOCATION
UWI .         00/07-32-067-17W4/0            : Uwi          - UNIQUE WELL ID
ENTR.         SP                             : Entered      - ENTERED BY
SRVC.         SCHLUMBERGER                   : Scn          - SERVICE COMPANY
STRT.M        345                            : top_depth    - START DEPTH
STOP.M        550                            : bot_depth    - STOP DEPTH
STEP.M        0.25                           : increment    - STEP LENGTH
 NULL. -999.2500:NULL Value
~CURVE INFORMATION BLOCK
#MNEM UNIT       ERCB CURVE CODE    CURVE DESCRIPTION
#-----------   ------------------   ----------------------------------
DEPT.M        00 001 00 00         : DEPTH        - DEPTH
ILD .OHMM     00 120 00 00         : RESD         - DEEP RESISTIVITY (DIL)
DPHI.V/V      00 890 00 00         : PHID         - DENSITY POROSITY (LIMESTONE)
NPHI.V/V      00 330 00 00         : PHIN         - NEUTRON POROSITY (LIMESTONE)
GR  .API      00 310 00 00         : GR           - GAMMA RAY
CALI.MM       00 280 01 00         : CAL          - CALIPER
~PARAMETER INFORMATION
#MNEM.UNIT           DATA             DESCRIPTION OF MNEMONIC
#---------         -----------     ------------------------------
GL  .M        589.2                : gl           - GROUND LEVEL ELEVATION
EREF.M        593                  : kb           - ELEVATION OF DEPTH REFERENCE
DATM.M        593                  : datum        - DATUM ELEVATION
TDD .M        555                  : tdd          - TOTAL DEPTH DRILLER
RUN .         ONE                  : Run          - RUN NUMBER
ENG .         BILL                 : Engineer     - RECORDING ENGINEER
WIT .         JIM                  : Witness      - WITNESSED BY
MUD .         GEL                  : Mud_type     - MUD TYPE
MATR.         LIMESTONE            : Logunit      - NEUTRON MATRIX
TMAX.C        19                   : BHT          - MAXIMUM RECORDED TEMPERATURE
BHTD.M        553.5                : BHTDEP       - MAXIMUM RECORDED TEMPERATURE
MATR.         1                    : LOGUNIT      - NEUTRON MATRIX
RMT .C        25                   : MDTP         - TEMPERATURE OF MUD
NEUT.         1                    : NEUTRON      - NEUTRON TYPE
RESI.         0                    : RESIST       - RESISTIVITY TYPE
RMC .OHMM     0.25                 : RMC          - RESISTIVITY OF MUD CAKE
RMF .OHMM     0.25                 : RMF          - RESISTIVITY OF MUD FILTRATE
SUFT.C        15                   : SUFT         - SURFACE TEMPERATURE
~A  DEPTH     RESD     PHID     PHIN       GR      CAL
# ...
  418.000    2.464    0.268    0.434   83.154  160.722
  418.250    2.456    0.250    0.426   81.288  161.362
  418.500    2.408    0.239    0.421   80.699  161.193
  418.750    2.369    0.246    0.420   80.904  160.616
  419.000    2.319    0.250    0.419   81.712  160.344
  419.250    2.273    0.270    0.436   83.434  160.377
  419.500    2.249    0.284    0.446   84.668  160.409
  419.750    2.251    0.270    0.445   86.391  160.745
  420.000    2.240    0.295    0.445   89.634  161.892
  420.250    2.208    0.307    0.455   93.179  166.586
  420.500    2.148    0.292    0.475   96.422  175.339
  420.750    2.068    0.290    0.496   87.626  182.160
  421.000    1.994    0.303    0.474   79.252  184.420
  421.250    1.922    0.313    0.425   74.285  171.480
  421.500    1.906    0.298    0.410   72.178  162.087
  421.750    1.928    0.307    0.406   73.170  159.589
  422.000    1.976    0.291    0.430   75.074  159.213
  422.250    2.026    0.283    0.455   76.613  158.740
  422.500    2.107    0.277    0.472   79.796  158.669
  422.750    2.168    0.288    0.481   82.064  159.317
  423.000    2.218    0.290    0.467   82.326  159.749
  423.250    2.223    0.276    0.463   79.368  160.390
  423.500    2.180    0.268    0.466   74.950  160.928
  423.750    2.121    0.269    0.448   71.869  161.269
  424.000    2.107    0.279    0.433   68.908  161.702
  424.250    2.212    0.291    0.423   66.553  162.343
  424.500    2.572    0.276    0.410   64.323  162.786
  424.750    2.990    0.277    0.393   62.154  163.524
  425.000    3.502    0.216    0.375   59.862  164.673
  425.250    4.721    0.184    0.144   56.174  165.615
  425.500    7.619    0.000    0.117   52.118  166.563
  425.750   13.868    0.000    0.109   48.306  166.998
  426.000   16.485    0.000    0.113   46.075  167.742
  426.250   18.062    0.000    0.118   48.285  168.686
  426.500   19.536    0.000    0.120   48.667  169.324
  426.750   20.284    0.000    0.121   48.203  169.559
  427.000   20.945    0.000    0.122   48.282  169.287
  427.250   20.996    0.000    0.122   48.970  169.321
  427.500   20.433    0.000    0.122   50.270  169.351
  427.750   19.701    0.000    0.126   51.075  169.791
  428.000   18.543    0.000    0.128   49.150  169.824
  428.250   15.822    0.000    0.126   48.318  169.654
  428.500   11.726    0.000    0.126   52.838  169.491
  428.750    8.176    0.001    0.140   57.420  169.419
  429.000    5.850    0.015    0.173   61.754  169.343
  429.250    4.360    0.060    0.220   67.368  169.275
  429.500    3.585    0.149    0.260   71.828  163.935
  429.750    3.053    0.198    0.389   76.102  158.295
  430.000    2.733    0.236    0.425   80.258  155.589
  430.250    2.583    0.218    0.447   84.413  154.911
  430.500    2.628    0.233    0.457   88.749  155.352
  430.750    2.728    0.250    0.463   92.051  155.688
  431.000    2.876    0.252    0.459   93.104  155.728
  431.250    2.888    0.253    0.470   89.232  155.651
  431.500    2.894    0.269    0.475   86.698  155.073
  431.750    2.913    0.272    0.451   89.089  154.804
  432.000    2.908    0.259    0.434   90.385  155.140
  432.250    2.889    0.247    0.424   89.189  155.680
  432.500    2.890    0.236    0.424   88.844  156.319
  432.750    2.903    0.231    0.436   89.775  156.655
  433.000    2.965    0.230    0.445   91.071  156.586
  433.250    3.005    0.224    0.453   92.430  156.418
  433.500    3.108    0.220    0.465   93.299  156.349
  433.750    3.257    0.213    0.457   94.293  156.583
  434.000    3.389    0.204    0.441   95.102  157.632
  434.250    3.499    0.197    0.443   95.121  158.268
  434.500    3.607    0.205    0.438   94.228  159.825
  434.750    3.636    0.221    0.431   91.694  161.173
  435.000    3.612    0.219    0.422   88.857  162.420
  435.250    3.573    0.225    0.417   89.422  162.756
  435.500    3.522    0.225    0.417   93.455  161.978
  435.750    3.511    0.214    0.435   97.308  161.911
  436.000    3.526    0.206    0.455   98.966  163.562
  436.250    3.581    0.206    0.467   98.196  163.800
  436.500    3.610    0.210    0.467   95.116  164.748
  436.750    3.619    0.214    0.456   95.803  165.181
  437.000    3.641    0.213    0.448   97.164  166.226
  437.250    3.643    0.200    0.454   97.545  166.873
  437.500    3.625    0.202    0.464   97.989  167.001
  437.750    3.621    0.196    0.468   99.347  167.844
  438.000    3.609    0.184    0.459  102.042  168.997
  438.250    3.605    0.186    0.452  102.972  170.039
  438.500    3.613    0.179    0.461   99.527  170.577
  438.750    3.622    0.192    0.473   96.991  169.800
  439.000    3.658    0.199    0.433  100.600  168.311
  439.250    3.688    0.182    0.409  102.868  166.519
  439.500    3.689    0.171    0.399  104.895  165.132
  439.750    3.685    0.166    0.395  106.618  164.560
  440.000    3.667    0.174    0.390  107.730  165.401
  440.250    3.641    0.177    0.392  106.472  167.661
  440.500    3.603    0.179    0.412  109.351  169.315
  440.750    3.546    0.190    0.443  112.776  168.842
  441.000    3.463    0.197    0.457  114.497  169.791
  441.250    3.327    0.194    0.462  115.125  171.137
  441.500    3.137    0.185    0.471  112.408  172.792
  441.750    2.931    0.203    0.482  107.624  173.533
  442.000    2.780    0.206    0.492  104.663  172.854
  442.250    2.740    0.219    0.488  102.191  169.444
  442.500    2.774    0.235    0.476  100.871  165.826
  442.750    2.806    0.229    0.470  101.560  163.729
  443.000    2.881    0.235    0.483  103.403  164.674
  443.250    2.936    0.240    0.462  102.149  167.547
  443.500    3.043    0.203    0.453  101.070  169.603
  443.750    3.113    0.193    0.449  101.091  171.058
  444.000    3.203    0.189    0.442  102.812  171.494
  444.250    3.259    0.180    0.433  104.778  171.425
  444.500    3.285    0.193    0.426  106.256  171.253
  444.750    3.262    0.198    0.424  106.886  170.883
  445.000    3.187    0.199    0.427  107.146  171.217
  445.250    3.107    0.200    0.440  107.046  171.961
  445.500    3.149    0.204    0.447  105.787  171.995
  445.750    3.210    0.213    0.453  102.218  171.011
  446.000    3.266    0.197    0.458   99.564  169.219
  446.250    3.298    0.199    0.458  100.372  167.228
  446.500    3.306    0.211    0.464   95.954  165.636
  446.750    3.279    0.219    0.467   90.378  165.364
  447.000    3.267    0.227    0.453   90.701  165.194
  447.250    3.233    0.212    0.439   93.764  164.211
  447.500    3.141    0.199    0.431   96.944  164.956
  447.750    3.006    0.208    0.429   99.942  166.107
  448.000    2.882    0.209    0.436   99.475  167.147
  448.250    2.758    0.201    0.444   97.427  168.092
  448.500    2.596    0.194    0.455   95.197  168.530
  448.750    2.476    0.197    0.446   92.483  167.448
  449.000    2.472    0.200    0.436   90.127  165.150
  449.250    2.649    0.217    0.430   86.197  162.446
  449.500    3.052    0.242    0.424   83.720  159.945
  449.750    3.502    0.241    0.419   81.004  158.153
  450.000    3.788    0.181    0.414   77.009  156.767
  450.250    3.999    0.125    0.404   69.003  156.088
  450.500    3.972    0.105    0.241   62.760  157.643
  450.750    3.550    0.143    0.226   57.610  160.105
  451.000    3.114    0.183    0.266   58.789  162.164
  451.250    2.767    0.214    0.358   60.324  162.298
  451.500    2.432    0.245    0.398   60.649  160.409
  451.750    2.218    0.288    0.408   60.850  160.641
  452.000    2.092    0.293    0.412   60.689  161.586
  452.250    1.987    0.289    0.416   61.498  161.722
  452.500    1.927    0.288    0.422   62.733  161.346
  452.750    1.861    0.300    0.427   63.420  160.772
  453.000    1.839    0.296    0.421   64.047  159.992
  453.250    1.819    0.290    0.417   64.129  159.315
  453.500    1.780    0.289    0.421   63.114  158.642
  453.750    1.745    0.298    0.424   62.587  158.163
  454.000    1.711    0.292    0.423   64.492  157.589
  454.250    1.712    0.303    0.425   66.456  157.925
