~VERSION INFORMATION
 VERS.                 2.0:   CWLS LOG ASCII STANDARD -VERSION 2.0
 WRAP.                  NO:   ONE LINE PER DEPTH STEP
~WELL INFORMATION BLOCK
#MNEM.UNIT           DATA                    DESCRIPTION OF MNEMONIC
#---------    -------------------            -------------------------------
# Generated from Intellog Unique Number	CS_69_70/WELL/786
WELL.         SCEPTRE RESOURCES              : Well_name    - WELL
LOC .         00/06-34-069-14W4/0            : Location     - LOCATION
UWI .         00/06-34-069-14W4/0            : Uwi          - UNIQUE WELL ID
ENTR.         SP                             : Entered      - ENTERED BY
SRVC.         SCHLUMBERGER                   : Scn          - SERVICE COMPANY
STRT.M        280                            : top_depth    - START DEPTH
STOP.M        497                            : bot_depth    - STOP DEPTH
STEP.M        0.25                           : increment    - STEP LENGTH
 NULL. -999.2500:NULL Value
~CURVE INFORMATION BLOCK
#MNEM UNIT       ERCB CURVE CODE    CURVE DESCRIPTION
#-----------   ------------------   ----------------------------------
DEPT.M        00 001 00 00         : DEPTH        - DEPTH
ILD .OHMM     00 120 00 00         : RESD         - DEEP RESISTIVITY (DIL)
DPHI.V/V      00 890 00 00         : PHID         - DENSITY POROSITY (LIMESTONE)
NPHI.V/V      00 330 00 00         : PHIN         - NEUTRON POROSITY (LIMESTONE)
GR  .API      00 310 00 00         : GR           - GAMMA RAY
~PARAMETER INFORMATION
#MNEM.UNIT           DATA             DESCRIPTION OF MNEMONIC
#---------         -----------     ------------------------------
GL  .M        579.8                : gl           - GROUND LEVEL ELEVATION
EREF.M        583.24               : kb           - ELEVATION OF DEPTH REFERENCE
DATM.M        579.8                : datum        - DATUM ELEVATION
TDD .M        505                  : tdd          - TOTAL DEPTH DRILLER
RUN .         ONE                  : Run          - RUN NUMBER
ENG .         BILL                 : Engineer     - RECORDING ENGINEER
WIT .         JIM                  : Witness      - WITNESSED BY
MUD .         GEL                  : Mud_type     - MUD TYPE
MATR.         LIMESTONE            : Logunit      - NEUTRON MATRIX
TMAX.C        23                   : BHT          - MAXIMUM RECORDED TEMPERATURE
BHTD.M        505                  : BHTDEP       - MAXIMUM RECORDED TEMPERATURE
MATR.         1                    : LOGUNIT      - NEUTRON MATRIX
RMT .C        25                   : MDTP         - TEMPERATURE OF MUD
NEUT.         1                    : NEUTRON      - NEUTRON TYPE
RESI.         0                    : RESIST       - RESISTIVITY TYPE
RMC .OHMM     0.25                 : RMC          - RESISTIVITY OF MUD CAKE
RMF .OHMM     0.25                 : RMF          - RESISTIVITY OF MUD FILTRATE
SUFT.C        15                   : SUFT         - SURFACE TEMPERATURE
~A  DEPTH     RESD     PHID     PHIN       GR
# ...
  323.500    3.781    0.268    0.368  116.430
  323.750    3.530    0.288    0.383  113.623
  324.000    3.314    0.344    0.374  113.444
  324.250    3.206    0.397    0.364  116.019
  324.500    3.131    0.381    0.392  117.491
  324.750    3.080    0.328    0.419  117.435
  325.000    3.037    0.324    0.393  116.401
  325.250    2.982    0.322    0.379  113.838
  325.500    2.923    0.316    0.375  109.013
  325.750    2.920    0.323    0.391  105.532
  326.000    2.873    0.312    0.402  110.368
  326.250    2.769    0.290    0.407  104.258
  326.500    2.700    0.322    0.419   94.847
  326.750    2.686    0.363    0.430   95.036
  327.000    2.709    0.442    0.401  101.889
  327.250    2.767    0.403    0.385  100.304
  327.500    2.848    0.354    0.372   98.903
  327.750    2.927    0.290    0.371  100.132
  328.000    3.023    0.277    0.388   93.227
  328.250    3.171    0.275    0.398   84.855
  328.500    3.222    0.372    0.384   89.140
  328.750    3.236    0.548    0.403   96.729
  329.000    3.178    0.428    0.425   99.913
  329.250    3.092    0.367    0.417   86.038
  329.500    2.991    0.351    0.406   75.709
  329.750    2.862    0.354    0.395   71.311
  330.000    2.800    0.344    0.386   78.533
  330.250    2.714    0.332    0.374   82.512
  330.500    2.670    0.334    0.362   82.395
  330.750    2.628    0.348    0.363   77.264
  331.000    2.595    0.351    0.377   75.312
  331.250    2.587    0.351    0.380   69.876
  331.500    2.594    0.357    0.386   77.035
  331.750    2.650    0.362    0.368   81.994
  332.000    2.713    0.372    0.392   79.064
  332.250    2.840    0.337    0.416   83.227
  332.500    2.923    0.309    0.387   85.617
  332.750    3.043    0.293    0.359   86.112
  333.000    3.103    0.277    0.385   80.736
  333.250    3.129    0.268    0.378   77.439
  333.500    3.102    0.297    0.380   81.664
  333.750    3.052    0.317    0.414   83.320
  334.000    3.020    0.303    0.431   83.508
  334.250    3.016    0.295    0.409   91.464
  334.500    3.059    0.319    0.398   96.605
  334.750    3.119    0.328    0.418  101.380
  335.000    3.211    0.302    0.430   97.655
  335.250    3.305    0.269    0.432   92.402
  335.500    3.344    0.241    0.424   92.346
  335.750    3.417    0.243    0.408   97.489
  336.000    3.464    0.329    0.393  101.040
  336.250    3.540    0.306    0.410  104.776
  336.500    3.596    0.273    0.402  106.431
  336.750    3.688    0.298    0.406  102.217
  337.000    3.732    0.318    0.416   97.881
  337.250    3.763    0.301    0.428   94.095
  337.500    3.730    0.287    0.415   88.230
  337.750    3.685    0.276    0.391   89.397
  338.000    3.646    0.259    0.380   94.295
  338.250    3.547    0.250    0.407  100.782
  338.500    3.457    0.243    0.430  103.844
  338.750    3.402    0.277    0.453  101.220
  339.000    3.424    0.298    0.451  101.409
  339.250    3.505    0.311    0.423  104.655
  339.500    3.600    0.267    0.406  106.923
  339.750    3.734    0.254    0.388  104.176
  340.000    3.916    0.254    0.410   94.827
  340.250    4.092    0.254    0.408   89.145
  340.500    4.236    0.264    0.387   89.945
  340.750    4.328    0.277    0.368   99.611
  341.000    4.331    0.254    0.370   95.214
  341.250    4.286    0.258    0.389   92.284
  341.500    4.249    0.276    0.385   91.922
  341.750    4.196    0.291    0.373   87.770
  342.000    4.137    0.304    0.361   85.818
  342.250    4.139    0.266    0.375   89.125
  342.500    4.189    0.237    0.365   94.390
  342.750    4.320    0.216    0.354   97.207
  343.000    4.524    0.228    0.355   95.928
  343.250    4.656    0.238    0.396   96.607
  343.500    4.792    0.242    0.426  101.137
  343.750    4.980    0.235    0.396  103.527
  344.000    5.049    0.229    0.377  102.370
  344.250    4.996    0.224    0.366  106.167
  344.500    4.834    0.231    0.396  108.863
  344.750    4.667    0.260    0.417  111.864
  345.000    4.325    0.284    0.407  109.485
  345.250    4.007    0.290    0.398  112.853
  345.500    3.790    0.292    0.391  110.168
  345.750    3.626    0.310    0.422   96.659
  346.000    3.488    0.315    0.437   79.909
  346.250    3.419    0.320    0.433   77.836
  346.500    3.383    0.322    0.404   83.406
  346.750    3.399    0.320    0.375   88.609
  347.000    3.401    0.312    0.374   84.089
  347.250    3.410    0.306    0.368   84.400
  347.500    3.387    0.311    0.364   83.855
  347.750    3.296    0.326    0.379   78.051
  348.000    3.212    0.338    0.365   70.351
  348.250    3.096    0.339    0.380   64.547
  348.500    3.052    0.331    0.389   68.711
  348.750    3.060    0.323    0.407   72.507
  349.000    3.126    0.314    0.411   77.894
  349.250    3.236    0.309    0.412   77.349
  349.500    3.382    0.308    0.375   73.073
  349.750    3.481    0.327    0.346   74.609
  350.000    3.576    0.317    0.341   76.387
  350.250    3.660    0.302    0.358   76.391
  350.500    3.726    0.318    0.369   81.594
  350.750    3.814    0.289    0.364   89.488
  351.000    3.874    0.263    0.348   93.835
  351.250    3.972    0.259    0.331   87.420
  351.500    4.081    0.262    0.339   89.137
  351.750    4.201    0.269    0.350   97.397
  352.000    4.284    0.258    0.364  100.949
  352.250    4.352    0.250    0.389   99.242
  352.500    4.438    0.243    0.387  102.734
  352.750    4.482    0.247    0.400   99.620
  353.000    4.512    0.255    0.438   92.593
  353.250    4.464    0.237    0.404   93.882
  353.500    4.368    0.269    0.382   96.334
  353.750    4.186    0.316    0.353   88.573
  354.000    3.694    0.328    0.362   77.877
  354.250    3.259    0.334    0.355   63.390
  354.500    3.008    0.333    0.337   53.061
  354.750    2.856    0.333    0.322   46.095
  355.000    2.758    0.345    0.313   45.245
  355.250    2.654    0.355    0.343   45.922
  355.500    2.587    0.358    0.355   47.028
  355.750    2.536    0.350    0.358   49.846
  356.000    2.519    0.348    0.355   54.927
  356.250    2.501    0.355    0.353   57.011
  356.500    2.494    0.362    0.338   55.000
  356.750    2.482    0.357    0.346   54.209
  357.000    2.466    0.350    0.373   55.315
  357.250    2.453    0.349    0.366   50.062
  357.500    2.455    0.358    0.350   51.840
  357.750    2.461    0.374    0.336   52.396
  358.000    2.468    0.382    0.330   47.326
  358.250    2.474    0.362    0.337   49.471
  358.500    2.504    0.349    0.353   55.042
  358.750    2.548    0.350    0.361   57.981
  359.000    2.628    0.350    0.360   60.249
  359.250    2.700    0.335    0.353   65.574
  359.500    2.801    0.306    0.383   73.102
  359.750    2.888    0.275    0.406   78.610
  360.000    2.984    0.234    0.397   86.626
  360.250    3.094    0.228    0.452   93.847
  360.500    3.221    0.245    0.449   95.992
  360.750    3.297    0.301    0.440   90.556
  361.000    3.312    0.333    0.415   83.345
  361.250    3.290    0.352    0.389   78.336
  361.500    3.200    0.357    0.376   73.938
  361.750    3.120    0.369    0.353   73.089
  362.000    3.076    0.408    0.386   74.989
  362.250    3.060    0.371    0.409   75.055
  362.500    3.039    0.362    0.423   72.003
  362.750    3.002    0.358    0.361   65.281
  363.000    2.965    0.352    0.350   59.844
  363.250    2.929    0.352    0.349   61.011
  363.500    2.909    0.379    0.375   62.912
  363.750    2.900    0.352    0.410   67.811
  364.000    2.908    0.342    0.390   69.834
  364.250    2.915    0.335    0.399   70.755
  364.500    2.940    0.329    0.423   72.107
  364.750    2.964    0.336    0.411   72.417
  365.000    2.999    0.340    0.401   66.063
  365.250    3.024    0.335    0.394   64.418
  365.500    3.038    0.331    0.397   66.868
  365.750    3.052    0.327    0.410   68.280
  366.000    3.065    0.327    0.405   71.894
  366.250    3.062    0.354    0.421   70.981
  366.500    3.041    0.366    0.405   63.894
  366.750    2.975    0.351    0.387   71.236
