~VERSION INFORMATION
 VERS.                 2.0:   CWLS LOG ASCII STANDARD -VERSION 2.0
 WRAP.                  NO:   ONE LINE PER DEPTH STEP
~WELL INFORMATION BLOCK
#MNEM.UNIT           DATA                    DESCRIPTION OF MNEMONIC
#---------    -------------------            -------------------------------
# Generated from Intellog Unique Number	CW_73_75/WELL/2731
WELL.         RIVA KELLY 07-22               : Well_name    - WELL
LOC .         00/07-22-073-19W4/0            : Location     - LOCATION
UWI .         00/07-22-073-19W4/0            : Uwi          - UNIQUE WELL ID
ENTR.         JAYE                           : Entered      - ENTERED BY
SRVC.         SCHLUMBERGER                   : Scn          - SERVICE COMPANY
DATE.         16 DEC 77                      : Date         - LOG DATE
STRT.M        365.76                         : top_depth    - START DEPTH
STOP.M        570.01                         : bot_depth    - STOP DEPTH
STEP.M        0.25                           : increment    - STEP LENGTH
 NULL. -999.2500:NULL Value
~CURVE INFORMATION BLOCK
#MNEM UNIT       ERCB CURVE CODE    CURVE DESCRIPTION
#-----------   ------------------   ----------------------------------
DEPT.M        00 001 00 00         : DEPTH        - DEPTH
ILD .OHMM     00 120 00 00         : RESD         - DEEP RESISTIVITY (DIL)
NPHI.V/V      00 330 00 00         : PHIN         - NEUTRON POROSITY (SANDSTONE)
DPHI.V/V      00 890 00 00         : PHID         - DENSITY POROSITY (SANDSTONE)
GR  .API      00 310 00 00         : GR           - GAMMA RAY
CALI.MM       00 280 01 00         : CAL          - CALIPER
~PARAMETER INFORMATION
#MNEM.UNIT           DATA             DESCRIPTION OF MNEMONIC
#---------         -----------     ------------------------------
GL  .M        670.865              : gl           - GROUND LEVEL ELEVATION
EREF.M        673.913              : kb           - ELEVATION OF DEPTH REFERENCE
DATM.M        670.865              : datum        - DATUM ELEVATION
TDD .M        567.842              : tdd          - TOTAL DEPTH DRILLER
RUN .         ONE                  : Run          - RUN NUMBER
ENG .         DALY                 : Engineer     - RECORDING ENGINEER
WIT .         STEIDEL              : Witness      - WITNESSED BY
BASE.         EDM                  : Branch       - HOME BASE OF LOGGING UNIT
MUD .         DAPP                 : Mud_type     - MUD TYPE
MATR.         SANDSTONE            : Logunit      - NEUTRON MATRIX
TMAX.C        23.3333              : BHT          - MAXIMUM RECORDED TEMPERATURE
BHTD.M        566.318              : BHTDEP       - MAXIMUM RECORDED TEMPERATURE
RMT .C        18.8889              : MDTP         - TEMPERATURE OF MUD
MUDD.KG/M     1176                 : MWT          - MUD DENSITY
NEUT.         1                    : NEUTRON      - NEUTRON TYPE
RESI.         0                    : RESIST       - RESISTIVITY TYPE
RM  .OHMM     0.99                 : RM           - RESISTIVITY OF MUD
RMC .OHMM     0                    : RMC          - RESISTIVITY OF MUD CAKE
RMF .OHMM     0                    : RMF          - RESISTIVITY OF MUD FILTRATE
SUFT.C        -17.7778             : SUFT         - SURFACE TEMPERATURE
~A  DEPTH     RESD     PHIN     PHID       GR      CAL
# ...
  402.260    5.433    0.454    0.260   90.052  144.234
  402.510    5.404    0.468    0.262   86.760  147.222
  402.760    5.334    0.463    0.281   80.719  150.002
  403.010    5.207    0.456    0.293   76.987  151.191
  403.260    5.111    0.447    0.281   77.816  151.853
  403.510    5.027    0.442    0.262   85.889  152.092
  403.760    4.897    0.448    0.253   92.775  152.124
  404.010    4.736    0.445    0.267   97.664  152.359
  404.260    4.434    0.431    0.269  103.613  153.135
  404.510    4.121    0.422    0.259  107.690  153.582
  404.760    4.038    0.426    0.241  108.893  154.247
  405.010    4.226    0.440    0.247  110.097  154.694
  405.260    4.585    0.435    0.247  112.110  154.725
  405.510    4.781    0.425    0.244  108.255  154.755
  405.760    4.855    0.428    0.244  103.026  154.884
  406.010    4.848    0.436    0.252   99.921  154.920
  406.260    4.795    0.441    0.265  101.498  154.733
  406.510    4.751    0.441    0.262  106.136  154.439
  406.760    4.717    0.429    0.245  114.022  154.364
  407.010    4.666    0.443    0.235  120.285  154.283
  407.260    4.658    0.446    0.246  118.926  154.312
  407.510    4.767    0.442    0.272  113.636  155.822
  407.760    4.887    0.460    0.291  104.033  158.282
  408.010    5.000    0.452    0.266   98.179  157.783
  408.260    5.126    0.433    0.237   97.696  155.592
  408.510    5.305    0.415    0.227  102.272  154.560
  408.760    5.277    0.399    0.216  106.036  154.798
  409.010    4.941    0.396    0.209  109.613  156.730
  409.260    4.447    0.410    0.213  113.752  159.404
  409.510    3.862    0.428    0.225  116.890  160.382
  409.760    3.303    0.451    0.239  120.717  160.622
  410.010    3.128    0.478    0.238  122.669  161.707
  410.260    2.842    0.509    0.247  123.623  165.543
  410.510    2.697    0.519    0.241  123.952  171.496
  410.760    2.622    0.510    0.253  122.282  168.245
  411.010    2.589    0.510    0.293  119.676  170.072
  411.260    2.659    0.524    0.312  114.197  175.597
  411.510    2.890    0.514    0.332  103.784  171.078
  411.760    3.299    0.525    0.350   95.431  167.511
  412.010    3.752    0.540    0.324   86.205  171.029
  412.260    4.357    0.506    0.264   79.852  164.076
  412.510    5.011    0.458    0.245   76.684  150.780
  412.760    5.530    0.458    0.253   72.454  147.108
  413.010    5.734    0.472    0.276   68.348  147.033
  413.260    5.768    0.462    0.266   64.118  147.798
  413.510    5.836    0.446    0.261   60.325  148.777
  413.760    5.871    0.444    0.289   58.468  148.805
  414.010    5.829    0.439    0.310   58.172  148.097
  414.260    5.765    0.429    0.327   59.937  147.911
  414.510    5.617    0.423    0.322   63.078  148.261
  414.760    5.482    0.430    0.312   65.841  148.501
  415.010    5.321    0.439    0.306   69.668  148.632
  415.260    5.175    0.444    0.299   72.432  148.979
  415.510    5.070    0.419    0.285   75.822  149.645
  415.760    4.921    0.407    0.274   80.210  150.304
  416.010    4.794    0.425    0.257   84.972  150.857
  416.260    4.679    0.437    0.261   89.985  150.782
  416.510    4.465    0.449    0.261   94.499  149.645
  416.760    4.197    0.463    0.268   98.825  152.317
  417.010    3.849    0.485    0.290  103.650  156.786
  417.260    3.465    0.550    0.326   98.609  159.882
  417.510    2.969    0.584    0.364   96.190  161.074
  417.760    2.530    0.595    0.340   99.703  160.894
  418.010    2.239    0.600    0.295  102.344  158.593
  418.260    2.088    0.602    0.274  103.172  156.293
  418.510    2.038    0.599    0.283  103.439  156.850
  418.760    2.043    0.588    0.287  104.019  159.419
  419.010    2.071    0.573    0.278  105.034  160.932
  419.260    2.079    0.562    0.278  106.423  161.484
  419.510    2.092    0.553    0.283  107.377  162.464
  419.760    2.081    0.572    0.291  105.707  162.494
  420.010    2.039    0.583    0.317  101.476  161.148
  420.260    1.997    0.597    0.333   98.496  162.021
  420.510    1.994    0.589    0.347   99.700  164.480
  420.760    2.107    0.565    0.347  100.466  168.103
  421.010    2.248    0.563    0.337  100.232  164.114
  421.260    2.466    0.578    0.347   98.375  159.171
  421.510    2.691    0.599    0.382   93.770  157.296
  421.760    2.816    0.607    0.414   87.729  158.592
  422.010    2.953    0.614    0.440   84.685  160.635
  422.260    3.068    0.609    0.432   88.137  161.608
  422.510    3.133    0.535    0.386   88.092  162.060
  422.760    3.218    0.502    0.284   82.674  162.089
  423.010    3.387    0.468    0.301   71.886  160.636
  423.260    3.809    0.457    0.319   67.595  149.668
  423.510    4.101    0.462    0.312   71.857  146.733
  423.760    4.293    0.478    0.305   75.059  148.563
  424.010    4.459    0.494    0.314   71.829  150.808
  424.260    4.730    0.512    0.324   67.411  154.436
  424.510    5.131    0.459    0.332   62.808  155.730
  424.760    5.641    0.495    0.339   58.576  152.479
  425.010    5.893    0.493    0.344   53.410  146.903
  425.260    6.076    0.460    0.345   51.864  147.885
  425.510    6.205    0.451    0.345   51.882  148.760
  425.760    6.254    0.445    0.346   48.650  149.419
  426.010    6.339    0.439    0.348   47.355  149.237
  426.260    6.378    0.439    0.350   47.747  148.845
  426.510    6.392    0.449    0.353   47.264  148.451
  426.760    6.394    0.446    0.358   46.843  147.738
  427.010    6.360    0.447    0.364   47.361  146.811
  427.260    6.350    0.454    0.369   47.752  146.312
  427.510    6.304    0.464    0.366   47.642  146.973
  427.760    6.271    0.467    0.361   47.410  147.954
  428.010    6.261    0.461    0.353   47.427  148.300
  428.260    6.264    0.455    0.348   47.506  148.538
  428.510    6.230    0.459    0.361   47.461  147.299
  428.760    6.221    0.456    0.363   47.414  146.480
  429.010    6.211    0.444    0.360   45.868  147.249
  429.260    6.201    0.449    0.357   44.137  148.652
  429.510    6.192    0.460    0.358   43.655  148.046
  429.760    6.170    0.463    0.372   43.297  143.630
  430.010    6.161    0.457    0.382   43.063  138.586
  430.260    6.163    0.458    0.385   42.331  137.451
  430.510    6.177    0.467    0.376   41.847  137.274
  430.760    6.167    0.462    0.365   42.239  137.298
  431.010    6.158    0.450    0.360   43.130  137.643
  431.260    6.148    0.454    0.357   43.583  137.884
  431.510    6.185    0.460    0.360   43.600  137.906
  431.760    6.211    0.453    0.367   44.367  138.359
  432.010    6.201    0.444    0.369   45.007  139.129
  432.260    6.191    0.435    0.364   45.337  139.470
  432.510    6.193    0.428    0.358   45.229  139.923
  432.760    6.184    0.425    0.351   44.622  140.270
  433.010    6.186    0.432    0.351   44.639  140.514
  433.260    6.188    0.444    0.358   44.841  140.959
  433.510    6.213    0.447    0.371   45.422  141.621
  433.760    6.239    0.442    0.368   46.000  142.074
  434.010    6.241    0.446    0.366   46.202  141.786
  434.260    6.243    0.444    0.366   46.470  141.815
  434.510    6.245    0.423    0.367   46.173  141.946
  434.760    6.270    0.415    0.369   45.441  143.348
  435.010    6.284    0.420    0.369   46.083  146.655
  435.260    6.251    0.434    0.367   46.286  146.578
  435.510    6.253    0.438    0.364   45.991  144.598
  435.760    6.220    0.434    0.360   45.633  143.147
  436.010    6.210    0.434    0.357   46.148  144.976
  436.260    6.178    0.442    0.356   46.291  146.482
  436.510    6.180    0.451    0.358   47.181  146.615
  436.760    6.182    0.455    0.357   49.757  143.151
  437.010    6.149    0.445    0.354   53.335  140.325
  437.260    6.140    0.450    0.356   53.101  138.979
  437.510    6.118    0.460    0.361   51.619  138.476
  437.760    6.132    0.456    0.365   50.264  138.514
  438.010    6.122    0.444    0.370   49.029  138.644
  438.260    6.112    0.435    0.372   48.046  139.728
  438.510    6.103    0.440    0.376   49.065  140.707
