~VERSION INFORMATION
 VERS.                 2.0:   CWLS LOG ASCII STANDARD -VERSION 2.0
 WRAP.                  NO:   ONE LINE PER DEPTH STEP
~WELL INFORMATION BLOCK
#MNEM.UNIT           DATA                    DESCRIPTION OF MNEMONIC
#---------    -------------------            -------------------------------
# Generated from Intellog Unique Number	CS_69_70/WELL/689
WELL.         AEC PRIMROSE                   : Well_name    - WELL
LOC .         00/05-04-069-04W4/0            : Location     - LOCATION
UWI .         00/05-04-069-04W4/0            : Uwi          - UNIQUE WELL ID
ENTR.         SP                             : Entered      - ENTERED BY
SRVC.         SCHLUMBERGER                   : Scn          - SERVICE COMPANY
STRT.M        350                            : top_depth    - START DEPTH
STOP.M        615                            : bot_depth    - STOP DEPTH
STEP.M        0.25                           : increment    - STEP LENGTH
 NULL. -999.2500:NULL Value
~CURVE INFORMATION BLOCK
#MNEM UNIT       ERCB CURVE CODE    CURVE DESCRIPTION
#-----------   ------------------   ----------------------------------
DEPT.M        00 001 00 00         : DEPTH        - DEPTH
ILD .OHMM     00 120 00 00         : RESD         - DEEP RESISTIVITY (DIL)
DPHI.V/V      00 890 00 00         : PHID         - DENSITY POROSITY (LIMESTONE)
NPHI.V/V      00 330 00 00         : PHIN         - NEUTRON POROSITY (LIMESTONE)
GR  .API      00 310 00 00         : GR           - GAMMA RAY
~PARAMETER INFORMATION
#MNEM.UNIT           DATA             DESCRIPTION OF MNEMONIC
#---------         -----------     ------------------------------
GL  .M        724.4                : gl           - GROUND LEVEL ELEVATION
EREF.M        728.1                : kb           - ELEVATION OF DEPTH REFERENCE
DATM.M        724.4                : datum        - DATUM ELEVATION
TDD .M        625                  : tdd          - TOTAL DEPTH DRILLER
RUN .         ONE                  : Run          - RUN NUMBER
ENG .         BILL                 : Engineer     - RECORDING ENGINEER
WIT .         JIM                  : Witness      - WITNESSED BY
MUD .         GEL                  : Mud_type     - MUD TYPE
MATR.         LIMESTONE            : Logunit      - NEUTRON MATRIX
TMAX.C        23                   : BHT          - MAXIMUM RECORDED TEMPERATURE
BHTD.M        625                  : BHTDEP       - MAXIMUM RECORDED TEMPERATURE
MATR.         1                    : LOGUNIT      - NEUTRON MATRIX
RMT .C        25                   : MDTP         - TEMPERATURE OF MUD
NEUT.         1                    : NEUTRON      - NEUTRON TYPE
RESI.         0                    : RESIST       - RESISTIVITY TYPE
RMC .OHMM     0.25                 : RMC          - RESISTIVITY OF MUD CAKE
RMF .OHMM     0.25                 : RMF          - RESISTIVITY OF MUD FILTRATE
SUFT.C        15                   : SUFT         - SURFACE TEMPERATURE
~A  DEPTH     RESD     PHID     PHIN       GR
# ...
  524.000    2.860    0.243    0.500   84.305
  524.250    3.106    0.256    0.521   84.737
  524.500    3.323    0.263    0.509   88.401
  524.750    3.616    0.251    0.482   91.455
  525.000    3.747    0.235    0.475   93.412
  525.250    3.811    0.224    0.470   91.407
  525.500    3.839    0.231    0.461   92.632
  525.750    3.788    0.237    0.471   94.285
  526.000    3.844    0.242    0.480   95.571
  526.250    3.931    0.239    0.449   96.980
  526.500    4.058    0.234    0.426   99.303
  526.750    4.253    0.215    0.431  101.076
  527.000    4.499    0.219    0.453   99.437
  527.250    4.787    0.230    0.473   89.142
  527.500    5.712    0.168    0.506   71.534
  527.750    7.227    0.053    0.409   55.936
  528.000    9.619    0.073    0.330   55.395
  528.250   11.329    0.241    0.318   58.022
  528.500   12.995    0.272    0.349   58.455
  528.750   14.008    0.291    0.389   53.586
  529.000   15.359    0.303    0.448   51.946
  529.250   16.840    0.307    0.460   53.172
  529.500   18.956    0.309    0.449   55.068
  529.750   21.300    0.314    0.455   57.939
  530.000   24.990    0.317    0.436   58.860
  530.250   27.144    0.324    0.417   55.880
  530.500   29.317    0.337    0.408   54.545
  530.750   31.663    0.345    0.405   56.259
  531.000   33.811    0.351    0.408   58.703
  531.250   35.368    0.353    0.422   62.062
  531.500   36.925    0.346    0.440   65.665
  531.750   37.691    0.339    0.441   68.779
  532.000   31.512    0.337    0.446   71.163
  532.250   27.667    0.336    0.460   67.695
  532.500   24.613    0.334    0.460   65.995
  532.750   23.127    0.330    0.451   66.977
  533.000   21.607    0.327    0.445   69.239
  533.250   20.532    0.326    0.441   71.988
  533.500   19.769    0.320    0.446   74.981
  533.750   18.750    0.311    0.471   78.951
  534.000   17.288    0.305    0.446   82.613
  534.250   16.183    0.301    0.443   86.338
  534.500   15.788    0.296    0.433   83.601
  534.750   15.994    0.290    0.419   77.817
  535.000   15.284    0.282    0.393   80.080
  535.250   14.253    0.272    0.379   84.658
  535.500   11.433    0.259    0.370   88.443
  535.750    9.577    0.244    0.381   90.765
  536.000    8.797    0.232    0.388   92.112
  536.250    8.296    0.228    0.389   91.814
  536.500    8.156    0.236    0.384   93.101
  536.750    7.882    0.248    0.395   95.424
  537.000    8.610    0.259    0.423   96.466
  537.250    9.839    0.255    0.439   84.770
  537.500   11.807    0.260    0.420   65.576
  537.750   13.622    0.282    0.400   59.548
  538.000   16.943    0.297    0.383   61.200
  538.250   21.596    0.314    0.374   66.145
  538.500   27.998    0.325    0.377   67.248
  538.750   33.161    0.324    0.390   70.241
  539.000   32.536    0.316    0.388   75.734
  539.250   18.492    0.316    0.386   81.591
  539.500   14.018    0.305    0.403   86.170
  539.750   13.072    0.287    0.402   81.056
  540.000   13.119    0.273    0.392   64.971
  540.250   13.117    0.276    0.395   53.518
  540.500   14.300    0.278    0.417   51.147
  540.750   14.902    0.298    0.421   55.178
  541.000   12.529    0.307    0.417   66.520
  541.250   11.001    0.269    0.413   79.449
  541.500    9.954    0.234    0.411   90.610
  541.750    8.990    0.204    0.405   96.346
  542.000    8.463    0.198    0.397   92.573
  542.250    7.832    0.237    0.395   86.911
  542.500    7.584    0.291    0.402   78.934
  542.750    7.640    0.317    0.402   73.089
  543.000    8.113    0.332    0.399   65.902
  543.250    9.202    0.340    0.402   64.935
  543.500   11.817    0.334    0.416   69.084
  543.750   13.479    0.325    0.413   75.796
  544.000    9.548    0.324    0.406   78.789
  544.250    8.399    0.321    0.400   80.258
  544.500    7.529    0.311    0.398   83.007
  544.750    7.861    0.300    0.400   87.037
  545.000    8.191    0.289    0.398   88.689
  545.250    8.424    0.273    0.406   88.452
  545.500    8.051    0.256    0.417   85.959
  545.750    7.781    0.246    0.403   81.943
  546.000    7.779    0.239    0.380   79.146
  546.250    7.985    0.226    0.355   78.360
  546.500    8.543    0.211    0.333   79.037
  546.750    8.920    0.194    0.319   78.555
  547.000    9.313    0.211    0.322   76.977
  547.250    9.650    0.234    0.361   72.717
  547.500    9.813    0.256    0.380   70.346
  547.750    9.960    0.261    0.396   75.169
  548.000    9.883    0.259    0.401   80.295
  548.250    9.516    0.254    0.394   83.410
  548.500    8.659    0.246    0.388   84.757
  548.750    7.939    0.261    0.380   80.558
  549.000    7.630    0.283    0.386   72.702
  549.250    8.102    0.300    0.405   68.502
  549.500    9.277    0.308    0.414   71.191
  549.750   10.561    0.314    0.406   73.270
  550.000   11.514    0.319    0.402   74.373
  550.250   12.227    0.328    0.411   71.759
  550.500   12.410    0.336    0.410   65.914
  550.750   11.660    0.336    0.413   62.629
  551.000    8.465    0.332    0.423   64.465
  551.250    6.984    0.336    0.412   66.665
  551.500    6.063    0.327    0.402   69.292
  551.750    5.654    0.315    0.396   72.592
  552.000    5.506    0.317    0.404   75.157
  552.250    5.433    0.324    0.407   77.480
  552.500    5.411    0.330    0.404   76.876
  552.750    5.451    0.326    0.403   73.043
  553.000    5.543    0.319    0.410   72.805
  553.250    5.690    0.319    0.410   73.422
  553.500    5.841    0.322    0.405   74.769
  553.750    5.984    0.311    0.401   75.263
  554.000    6.120    0.306    0.412   74.660
  554.250    6.365    0.303    0.420   74.910
  554.500    6.671    0.277    0.380   78.026
  554.750    7.057    0.252    0.368   81.201
  555.000    7.465    0.232    0.372   79.135
  555.250    7.794    0.222    0.376   73.046
  555.500    7.866    0.276    0.386   67.202
  555.750    7.560    0.295    0.419   67.879
  556.000    6.840    0.308    0.440   69.592
  556.250    6.131    0.315    0.418   71.001
  556.500    5.816    0.320    0.406   71.190
  556.750    5.621    0.323    0.400   71.563
  557.000    5.588    0.314    0.409   72.727
  557.250    5.618    0.308    0.422   73.464
  557.500    5.596    0.302    0.435   71.825
  557.750    5.637    0.295    0.424   74.149
  558.000    5.765    0.289    0.411   78.055
  558.250    5.962    0.288    0.406   82.633
  558.500    6.248    0.295    0.407   88.674
  558.750    6.585    0.285    0.407   93.922
  559.000    6.760    0.275    0.414   89.480
  559.250    6.809    0.267    0.403   83.939
  559.500    6.744    0.256    0.403   80.654
  559.750    6.693    0.223    0.411   76.211
  560.000    6.704    0.117    0.354   72.073
  560.250    6.881    0.077    0.330   77.566
  560.500    7.335    0.152    0.370   89.457
  560.750    7.615    0.173    0.403   99.704
  561.000    7.802    0.182    0.411  100.686
  561.250    7.859    0.196    0.397   96.730
  561.500    7.902    0.206    0.389   95.456
  561.750    7.915    0.182    0.388  106.252
  562.000    7.855    0.174    0.400  110.707
  562.250    7.677    0.194    0.432  113.457
  562.500    7.364    0.212    0.458  114.499
  562.750    7.171    0.192    0.476  110.972
  563.000    7.063    0.168    0.429  105.919
  563.250    7.061    0.221    0.400   97.636
  563.500    7.181    0.256    0.379   85.451
  563.750    7.329    0.279    0.365   78.326
  564.000    7.552    0.276    0.359   75.041
  564.250    7.694    0.238    0.345   81.143
  564.500    7.765    0.187    0.352   92.365
  564.750    7.822    0.176    0.367  105.476
  565.000    7.821    0.183    0.375  108.164
  565.250    7.849    0.175    0.382  106.648
  565.500    7.936    0.168    0.385  102.693
  565.750    8.055    0.169    0.384   99.833
  566.000    8.175    0.170    0.382  100.268
  566.250    8.220    0.176    0.389  100.517
  566.500    8.188    0.179    0.404  100.097
  566.750    8.171    0.181    0.405   99.982
  567.000    8.153    0.179    0.401  100.110
  567.250    8.198    0.176    0.397  100.117
