~VERSION INFORMATION
 VERS.                 2.0:   CWLS LOG ASCII STANDARD -VERSION 2.0
 WRAP.                  NO:   ONE LINE PER DEPTH STEP
~WELL INFORMATION BLOCK
#MNEM.UNIT           DATA                    DESCRIPTION OF MNEMONIC
#---------    -------------------            -------------------------------
# Generated from Intellog Unique Number	CW_79_81/WELL/2461
WELL.         07-23-081-22W4                 : Well_name    - WELL
LOC .         00/07-23-081-22W4/0            : Location     - LOCATION
UWI .         00/07-23-081-22W4/0            : Uwi          - UNIQUE WELL ID
ENTR.         MAX                            : Entered      - ENTERED BY
SRVC.         SCHLUMBERGER                   : Scn          - SERVICE COMPANY
STRT.M        225                            : top_depth    - START DEPTH
STOP.M        439.75                         : bot_depth    - STOP DEPTH
STEP.M        0.25                           : increment    - STEP LENGTH
 NULL. -999.2500:NULL Value
~CURVE INFORMATION BLOCK
#MNEM UNIT       ERCB CURVE CODE    CURVE DESCRIPTION
#-----------   ------------------   ----------------------------------
DEPT.M        00 001 00 00         : DEPTH        - DEPTH
ILD .OHMM     00 120 00 00         : RESD         - DEEP RESISTIVITY (DIL)
NPHI.V/V      00 330 00 00         : PHIN         - NEUTRON POROSITY (SANDSTONE)
DPHI.V/V      00 890 00 00         : PHID         - DENSITY POROSITY (SANDSTONE)
GR  .API      00 310 00 00         : GR           - GAMMA RAY
CALI.MM       00 280 01 00         : CAL          - CALIPER
~PARAMETER INFORMATION
#MNEM.UNIT           DATA             DESCRIPTION OF MNEMONIC
#---------         -----------     ------------------------------
GL  .M        610.7                : gl           - GROUND LEVEL ELEVATION
EREF.M        614                  : kb           - ELEVATION OF DEPTH REFERENCE
DATM.M        610.7                : datum        - DATUM ELEVATION
TDD .M        450                  : tdd          - TOTAL DEPTH DRILLER
RUN .         ONE                  : Run          - RUN NUMBER
ENG .         BILL                 : Engineer     - RECORDING ENGINEER
WIT .         JIM                  : Witness      - WITNESSED BY
MUD .         GEL                  : Mud_type     - MUD TYPE
MATR.         SANDSTONE            : Logunit      - NEUTRON MATRIX
TMAX.C        30                   : BHT          - MAXIMUM RECORDED TEMPERATURE
BHTD.M        450                  : BHTDEP       - MAXIMUM RECORDED TEMPERATURE
MATR.         1                    : LOGUNIT      - NEUTRON MATRIX
RMT .C        21                   : MDTP         - TEMPERATURE OF MUD
NEUT.         1                    : NEUTRON      - NEUTRON TYPE
RESI.         0                    : RESIST       - RESISTIVITY TYPE
RMC .OHMM     4.03                 : RMC          - RESISTIVITY OF MUD CAKE
RMF .OHMM     4.42                 : RMF          - RESISTIVITY OF MUD FILTRATE
SUFT.C        -20                  : SUFT         - SURFACE TEMPERATURE
~A  DEPTH     RESD     PHIN     PHID       GR      CAL
# ...
  407.500   33.552    0.384    0.282   48.885  202.804
  407.750   42.763    0.369    0.293   42.297  201.939
  408.000   48.766    0.364    0.296   39.279  201.891
  408.250   57.106    0.355    0.293   39.490  203.415
  408.500   59.624    0.357    0.285   40.234  204.651
  408.750   57.148    0.364    0.286   41.511  205.387
  409.000   51.725    0.370    0.292   43.260  205.723
  409.250   43.274    0.373    0.286   45.751  206.217
  409.500   37.185    0.376    0.289   47.703  206.991
  409.750   32.974    0.381    0.288   50.290  207.336
  410.000   29.093    0.386    0.287   52.877  207.677
  410.250   25.959    0.393    0.288   55.106  207.819
  410.500   23.743    0.401    0.293   56.917  207.761
  410.750   22.292    0.412    0.297   58.892  207.686
  411.000   21.118    0.418    0.298   60.592  207.627
  411.250   20.641    0.408    0.294   62.228  207.576
  411.500   20.178    0.407    0.282   64.750  207.827
  411.750   19.203    0.399    0.257   67.336  208.371
  412.000   17.618    0.385    0.216   70.103  209.402
  412.250   14.916    0.374    0.160   74.951  211.639
  412.500   11.996    0.375    0.163   79.130  213.251
  412.750    9.265    0.382    0.179   84.573  214.384
  413.000    7.675    0.384    0.192   87.518  214.914
  413.250    6.474    0.390    0.202   90.580  215.254
  413.500    5.576    0.402    0.208   94.353  215.504
  413.750    5.033    0.418    0.205   97.804  215.440
  414.000    5.029    0.428    0.201   99.755  215.375
  414.250    5.328    0.447    0.193   99.721  215.318
  414.500    6.167    0.441    0.181   89.156  215.266
  414.750    7.597    0.421    0.163   79.244  215.215
  415.000    9.772    0.389    0.139   77.068  215.162
  415.250   13.009    0.341    0.118   86.885  215.176
  415.500   13.407    0.377    0.136   93.299  215.530
  415.750   12.162    0.413    0.173   96.835  216.261
  416.000    9.734    0.420    0.188  102.872  216.703
  416.250    8.098    0.420    0.199  106.886  217.049
  416.500    7.255    0.427    0.210  107.090  217.292
  416.750    6.898    0.451    0.218  103.340  217.302
  417.000    6.945    0.451    0.225   97.850  217.662
  417.250    7.630    0.432    0.227   92.343  218.007
  417.500    9.771    0.419    0.234   83.800  218.340
  417.750   12.885    0.404    0.242   75.198  218.482
  418.000   15.820    0.387    0.246   69.213  218.333
  418.250   19.674    0.382    0.238   68.267  217.862
  418.500   22.261    0.375    0.227   68.483  217.803
  418.750   23.929    0.382    0.214   67.962  217.746
  419.000   26.418    0.376    0.205   67.100  217.689
  419.250   29.484    0.366    0.196   66.476  217.638
  419.500   31.960    0.357    0.187   66.443  217.689
  419.750   30.815    0.357    0.189   67.714  218.100
  420.000   27.902    0.362    0.214   70.650  218.454
  420.250   23.638    0.404    0.221   73.716  218.403
  420.500   18.415    0.415    0.213   75.707  218.640
  420.750   13.045    0.408    0.201   77.817  218.779
  421.000    9.419    0.401    0.191   81.414  218.821
  421.250    7.373    0.417    0.185   88.037  219.232
  421.500    6.430    0.404    0.181   88.002  219.586
  421.750    6.101    0.403    0.183   89.868  219.541
  422.000    6.087    0.409    0.182   91.743  219.784
  422.250    6.286    0.414    0.174   92.067  220.124
  422.500    6.695    0.415    0.164   91.019  220.464
  422.750    7.556    0.402    0.168   90.603  220.875
  423.000    8.285    0.386    0.175   91.070  221.229
  423.250    8.403    0.386    0.177   94.368  221.965
  423.500    8.196    0.398    0.181   96.419  222.409
  423.750    7.805    0.416    0.190   98.172  222.752
  424.000    7.282    0.438    0.208   99.803  223.093
  424.250    6.579    0.469    0.239  100.959  223.510
  424.500    6.377    0.495    0.235  102.171  223.870
  424.750    6.373    0.495    0.213  105.230  224.607
  425.000    6.581    0.486    0.176  106.684  225.934
  425.250    7.091    0.447    0.139  106.890  227.464
  425.500    7.919    0.389    0.114  106.561  228.898
  425.750    9.081    0.358    0.116  106.658  230.180
  426.000   10.437    0.356    0.133  106.127  230.953
  426.250   11.139    0.351    0.138  105.376  231.684
  426.500   11.575    0.350    0.145  104.629  231.535
  426.750   11.697    0.352    0.150  103.645  230.892
  427.000   11.625    0.353    0.151  102.422  230.144
  427.250   11.720    0.348    0.142  100.896  229.674
  427.500   12.268    0.335    0.117   99.369  229.621
  427.750   13.475    0.319    0.112  100.997  230.351
  428.000   14.499    0.314    0.122  100.313  230.492
  428.250   15.264    0.315    0.124   97.070  230.239
  428.500   15.685    0.313    0.113   92.276  229.891
  428.750   15.648    0.300    0.100   87.891  229.827
  429.000   15.517    0.308    0.088   86.368  229.762
  429.250   15.280    0.312    0.089   88.000  230.113
  429.500   15.046    0.323    0.099   89.810  230.447
  429.750   14.817    0.337    0.106   91.441  230.586
  430.000   14.618    0.352    0.105   92.298  229.642
  430.250   14.564    0.357    0.106   90.906  225.348
  430.500   14.894    0.339    0.101   87.651  221.983
  430.750   15.667    0.310    0.085   83.333  219.943
  431.000   16.927    0.278    0.067   75.800  217.610
  431.250   18.731    0.253    0.055   69.337  214.776
  431.500   21.043    0.239    0.053   65.436  211.742
  431.750   24.066    0.230    0.066   62.429  208.886
  432.000   27.227    0.230    0.100   60.655  206.761
  432.250   29.054    0.237    0.117   61.814  205.117
  432.500   30.356    0.245    0.136   62.433  203.470
  432.750   31.697    0.249    0.163   61.567  202.027
  433.000   33.471    0.249    0.199   59.039  200.789
  433.250   36.184    0.247    0.245   54.680  199.281
  433.500   38.463    0.245    0.274   50.926  197.977
  433.750   42.247    0.238    0.333   48.995  197.529
  434.000   46.922    0.234    0.351   47.058  197.379
  434.250   51.300    0.240    0.335   45.357  197.322
  434.500   54.700    0.257    0.300   43.833  197.360
  434.750   57.628    0.284    0.258   42.076  197.771
  435.000   55.860    0.305    0.223   41.792  198.125
  435.250   53.400    0.318    0.198   39.858  198.074
  435.500   51.046    0.311    0.109   39.884  198.023
  435.750   49.361    0.295    0.060   42.470  197.969
  436.000   48.523    0.288    0.077   47.674  198.109
  436.250   49.061    0.319    0.109   55.012  198.912
  436.500   52.154    0.349    0.130   54.980  199.272
  436.750   59.373    0.328    0.099   46.378  199.617
  437.000   67.322    0.300    0.081   40.275  199.950
  437.250   71.829    0.303    0.085   40.360  200.089
  437.500   70.420    0.335    0.105   45.026  199.938
  437.750   62.245    0.349    0.119   47.811  199.395
  438.000   50.057    0.326    0.117   50.007  198.917
  438.250   44.388    0.323    0.112   54.498  198.871
  438.500   41.018    0.355    0.123   62.202  198.817
  438.750   40.124    0.390    0.140   68.598  198.758
  439.000   41.572    0.406    0.152   70.352  198.799
  439.250   47.197    0.393    0.147   64.172  199.219
  439.500   61.601    0.370    0.135   58.434  199.568
  439.750   68.644    0.343    0.131   57.441  199.511
