~VERSION INFORMATION
 VERS.                 2.0:   CWLS LOG ASCII STANDARD -VERSION 2.0
 WRAP.                  NO:   ONE LINE PER DEPTH STEP
~WELL INFORMATION BLOCK
#MNEM.UNIT           DATA                    DESCRIPTION OF MNEMONIC
#---------    -------------------            -------------------------------
# Generated from Intellog Unique Number	CW_70_72/WELL/877
NULL.         -999.25                        : NULL_VALUE
WELL.         SUNDANCE MCMORAN SMITH 07-08   : Well_name    - WELL              
LOC .         07-08-072-24W4                 : Location     - LOCATION          
UWI .         00/07-08-072-24W4/0            : Uwi          - UNIQUE WELL ID    
ENTR.         JAYE                           : Entered      - ENTERED BY        
SRVC.         SCHLUMBERGER                   : Scn          - SERVICE COMPANY   
DATE.         24 JAN 73                      : Date         - LOG DATE          
STRT.M        329.184                        : top_depth    - START DEPTH       
STOP.M        535.434                        : bot_depth    - STOP DEPTH        
STEP.M        0.25                           : increment    - STEP LENGTH       
~CURVE INFORMATION BLOCK
#MNEM UNIT       ERCB CURVE CODE    CURVE DESCRIPTION
#-----------   ------------------   ----------------------------------
DEPT.M        00 001 00 00         : DEPTH        - DEPTH                       
DPHI.V/V      00 890 00 00         : PHID         - DENSITY POROSITY (SANDSTONE)
NPHI.V/V      00 330 00 00         : PHIN         - NEUTRON POROSITY (SANDSTONE)
GR  .API      00 310 00 00         : GR           - GAMMA RAY                   
CALI.MM       00 280 01 00         : CAL          - CALIPER                     
ILD .OHMM     00 120 00 00         : RESD         - DEEP RESISTIVITY (DIL)      
~PARAMETER INFORMATION       
#MNEM.UNIT           DATA             DESCRIPTION OF MNEMONIC
#---------         -----------     ------------------------------
GL  .M        560.222              : gl           - GROUND LEVEL ELEVATION      
EREF.M        562.661              : kb           - ELEVATION OF DEPTH REFERENCE
DATM.M        560.222              : datum        - DATUM ELEVATION             
TDD .M        544.068              : tdd          - TOTAL DEPTH DRILLER         
RUN .         ONE                  : Run          - RUN NUMBER                  
MATR.         SANDSTONE            : Logunit      - NEUTRON MATRIX              
TMAX.C        23.3333              : BHT          - MAXIMUM RECORDED TEMPERATURE
BHTD.M        543.763              : BHTDEP       - MAXIMUM RECORDED TEMPERATURE
RMT .C        21.1111              : MDTP         - TEMPERATURE OF MUD          
MUDD.KG/M     0                    : MWT          - MUD DENSITY                 
NEUT.         1                    : NEUTRON      - NEUTRON TYPE                
RESI.         0                    : RESIST       - RESISTIVITY TYPE            
RM  .OHMM     3.82                 : RM           - RESISTIVITY OF MUD          
RMC .OHMM     0                    : RMC          - RESISTIVITY OF MUD CAKE     
RMF .OHMM     2.92                 : RMF          - RESISTIVITY OF MUD FILTRATE 
SUFT.C        -17.7778             : SUFT         - SURFACE TEMPERATURE         
~A  DEPTH     PHID     PHIN       GR      CAL     RESD
# ...
  438.684    0.193    0.450  110.230  160.373    6.195
  438.934    0.194    0.464  108.417  163.375    6.132
  439.184    0.191    0.478  108.913  163.699    6.037
  439.434    0.189    0.475  110.260  163.307    5.944
  439.684    0.178    0.478  111.545  162.707    5.841
  439.934    0.159    0.484  113.074  162.620    5.730
  440.184    0.140    0.494  115.697  162.946    5.693
  440.434    0.149    0.505  112.730  163.581    5.793
  440.684    0.175    0.503  111.283  164.831    5.972
  440.934    0.183    0.479  110.504  166.390    6.235
  441.184    0.193    0.501  109.358  166.924    6.392
  441.434    0.164    0.471  106.512  166.116    6.446
  441.684    0.188    0.426   99.840  164.898    6.415
  441.934    0.185    0.421   99.728  164.403    6.375
  442.184    0.181    0.445  104.659  164.522    6.370
  442.434    0.187    0.472  109.469  165.469    6.410
  442.684    0.189    0.457  111.302  165.896    6.464
  442.934    0.182    0.439  108.699  166.631    6.554
  443.184    0.176    0.442  107.251  167.368    6.656
  443.434    0.171    0.457  107.322  168.206    6.675
  443.684    0.177    0.469  111.646  169.254    6.621
  443.934    0.170    0.458  116.273  169.684    6.542
  444.184    0.158    0.458  114.279  169.699    6.464
  444.434    0.170    0.458  115.017  169.717    6.353
  444.684    0.173    0.464  116.668  169.938    6.255
  444.934    0.168    0.477  118.440  169.958    6.180
  445.184    0.164    0.499  108.911  169.868    6.052
  445.434    0.184    0.517  104.547  169.680    5.969
  445.684    0.194    0.506  104.618  169.393    5.876
  445.934    0.197    0.488  107.909  168.997    5.839
  446.184    0.195    0.472  110.046  168.907    5.770
  446.434    0.194    0.464  110.176  168.927    5.681
  446.684    0.185    0.503  106.784  169.045    5.791
  446.934    0.189    0.525  105.823  169.371    6.024
  447.184    0.184    0.539  106.440  169.388    6.454
  447.434    0.176    0.525  105.478  168.170    6.991
  447.684    0.192    0.490  100.142  166.438    7.670
  447.934    0.203    0.456   90.431  164.809    8.354
  448.184    0.222    0.442   84.974  164.004    9.099
  448.434    0.204    0.422   81.096  163.611    9.783
  448.684    0.174    0.405   79.891  163.423   10.290
  448.934    0.165    0.394   80.994  163.131    9.518
  449.184    0.162    0.379   79.121  162.941    8.788
  449.434    0.152    0.368   78.159  162.959    8.371
  449.684    0.141    0.401   80.721  163.285    8.660
  449.934    0.149    0.430   83.707  163.504   10.491
  450.184    0.165    0.451   82.686  163.937   13.406
  450.434    0.182    0.428   79.354  164.773   15.800
  450.684    0.110    0.361   75.718  166.025   15.274
  450.934    0.057    0.283   68.863  167.689   12.355
  451.184    0.026    0.221   63.649  168.836    9.922
  451.434    0.046    0.229   68.823  169.265    8.026
  451.684    0.074    0.277   80.316  169.387    6.872
  451.934    0.110    0.411   87.616  169.303    6.094
  452.184    0.167    0.443   92.121  169.011    5.678
  452.434    0.175    0.437   95.291  168.717    5.438
  452.684    0.189    0.446   98.460  168.321    5.306
  452.934    0.172    0.489  103.451  167.825    5.311
  453.184    0.165    0.506  107.835  167.327    5.355
  453.434    0.191    0.477  109.728  167.860    5.510
  453.684    0.186    0.458  109.800  168.493    5.648
  453.934    0.181    0.454  110.175  168.820    5.800
  454.184    0.171    0.463  111.035  168.838    6.001
  454.434    0.186    0.467  111.713  168.749    6.186
  454.684    0.179    0.474  111.602  168.870    6.341
  454.934    0.187    0.479  109.972  169.200    6.417
  455.184    0.173    0.463  107.856  169.318    6.364
  455.434    0.152    0.440  106.954  169.435    6.290
  455.684    0.153    0.417  101.982  169.661    6.192
  455.934    0.158    0.404   98.835  169.678    6.175
  456.184    0.175    0.447  101.030  169.588    6.238
  456.434    0.193    0.437  105.233  169.401    6.302
  456.684    0.191    0.465  108.584  169.315    6.330
  456.934    0.159    0.468  110.113  169.640    6.279
  457.184    0.143    0.428  106.356  169.659    6.147
  457.434    0.136    0.396   98.285  169.365    5.965
  457.684    0.145    0.425   99.450  168.558    5.818
  457.934    0.175    0.458  104.381  168.164    5.686
  458.184    0.182    0.454  108.522  168.597    5.528
  458.434    0.192    0.437  107.439  168.405    5.451
  458.684    0.190    0.441   98.883  168.525    5.407
  458.934    0.181    0.452  100.837  168.953    5.392
  459.184    0.189    0.457  101.940  168.970    5.367
  459.434    0.180    0.458  101.950  168.680    5.333
  459.684    0.173    0.452  103.966  168.698    5.309
  459.934    0.182    0.445  105.859  168.816    5.285
  460.184    0.193    0.436  107.389  169.143    5.261
  460.434    0.186    0.431  111.407  169.262    5.353
  460.684    0.169    0.440  115.852  169.278    5.620
  460.934    0.175    0.469  113.736  168.886    6.110
  461.184    0.175    0.498  110.222  168.387    6.704
  461.434    0.180    0.523  105.737  167.786    7.450
  461.684    0.185    0.536  101.615  167.289    8.099
  461.934    0.174    0.461   94.882  166.996    8.504
  462.184    0.164    0.439   91.187  166.910    8.465
  462.434    0.168    0.428   88.888  166.826    7.902
  462.684    0.155    0.430   95.034  166.841    7.268
  462.934    0.160    0.433  100.148  166.655    6.601
  463.184    0.130    0.439  100.218  166.878    6.358
  463.434    0.122    0.455  104.663  166.896    6.179
  463.684    0.153    0.484  112.024  166.910    6.208
  463.934    0.180    0.544  109.969  166.618    6.410
  464.184    0.210    0.527  103.417  166.845    6.706
  464.434    0.245    0.507  100.389  166.755    6.506
  464.684    0.238    0.503  100.764  167.183    6.040
  464.934    0.231    0.487  103.751  167.511    5.556
  465.184    0.219    0.472  103.458  167.835    5.196
  465.434    0.206    0.477  105.412  167.954    4.931
  465.684    0.157    0.477  108.703  167.971    4.855
  465.934    0.150    0.467  110.535  167.886    4.841
  466.184    0.169    0.479  113.764  168.110    4.909
  466.434    0.179    0.474  115.841  168.231    4.967
  466.684    0.179    0.462  118.037  168.245    5.046
  466.934    0.178    0.471  119.323  168.469    5.108
  467.184    0.171    0.460  117.267  168.589    5.149
  467.434    0.159    0.468  114.058  168.711    5.211
  467.684    0.149    0.469  110.727  168.622    5.283
  467.934    0.147    0.462  107.516  168.332    5.327
  468.184    0.178    0.447  110.504  168.141    5.393
  468.434    0.179    0.410  113.369  167.749    5.437
  468.684    0.163    0.430  113.744  167.662    5.492
  468.934    0.141    0.452  112.781  167.680    5.497
  469.184    0.155    0.459  113.582  167.901    5.482
  469.434    0.156    0.453  115.717  168.023    5.466
  469.684    0.145    0.448  115.971  167.936    5.462
  469.934    0.126    0.440  113.612  167.746    5.527
  470.184    0.137    0.468  111.859  167.560    5.635
  470.434    0.151    0.468  112.964  167.476    5.993
  470.684    0.165    0.449  113.095  167.695    6.734
  470.934    0.163    0.435  109.095  168.023    7.388
  471.184    0.148    0.427  103.273  168.347    8.003
  471.434    0.168    0.412   96.479  168.572    8.055
  471.684    0.154    0.368   88.956  168.587    7.786
  471.934    0.119    0.343   83.073  168.812    7.554
  472.184    0.083    0.323   78.649  168.932    7.169
  472.434    0.103    0.361   86.130  168.946    6.754
  472.684    0.139    0.414   96.833  169.168    6.433
  472.934    0.154    0.439   99.637  169.390    6.310
  473.184    0.149    0.460   99.891  169.615    6.236
  473.434    0.142    0.449  100.083  169.735    6.185
  473.684    0.141    0.465  103.070  169.855    6.213
  473.934    0.150    0.484  107.697  170.076    6.140
  474.184    0.159    0.475  102.665  169.990    6.055
  474.434    0.157    0.464   98.909  169.904    5.984
  474.684    0.145    0.439   97.339  169.923    5.892
  474.934    0.141    0.421   99.050  170.147    5.790
