~VERSION INFORMATION
 VERS.                 2.0:   CWLS LOG ASCII STANDARD -VERSION 2.0
 WRAP.                  NO:   ONE LINE PER DEPTH STEP
~WELL INFORMATION BLOCK
#MNEM.UNIT           DATA                    DESCRIPTION OF MNEMONIC
#---------    -------------------            -------------------------------
# Generated from Intellog Unique Number	CW_76_78/WELL/773
WELL.         GULF ET AL MANNY 08-26         : Well_name    - WELL
LOC .         00/08-26-076-21W4/0            : Location     - LOCATION
UWI .         00/08-26-076-21W4/0            : Uwi          - UNIQUE WELL ID
ENTR.         JAYE                           : Entered      - ENTERED BY
SRVC.         SCHLUMBERGER                   : Scn          - SERVICE COMPANY
DATE.         5 MAR 81                       : Date         - LOG DATE
STRT.M        395                            : top_depth    - START DEPTH
STOP.M        587                            : bot_depth    - STOP DEPTH
STEP.M        0.25                           : increment    - STEP LENGTH
 NULL. -999.2500:NULL Value
~CURVE INFORMATION BLOCK
#MNEM UNIT       ERCB CURVE CODE    CURVE DESCRIPTION
#-----------   ------------------   ----------------------------------
DEPT.M        00 001 00 00         : DEPTH        - DEPTH
ILD .OHMM     00 120 00 00         : RESD         - DEEP RESISTIVITY (DIL)
NPHI.V/V      00 330 00 00         : PHIN         - NEUTRON POROSITY (SANDSTONE)
DPHI.V/V      00 890 00 00         : PHID         - DENSITY POROSITY (SANDSTONE)
GR  .API      00 310 00 00         : GR           - GAMMA RAY
CALI.MM       00 280 01 00         : CAL          - CALIPER
~PARAMETER INFORMATION
#MNEM.UNIT           DATA             DESCRIPTION OF MNEMONIC
#---------         -----------     ------------------------------
GL  .M        723.85               : gl           - GROUND LEVEL ELEVATION
EREF.M        728.35               : kb           - ELEVATION OF DEPTH REFERENCE
DATM.M        723.85               : datum        - DATUM ELEVATION
TDD .M        612                  : tdd          - TOTAL DEPTH DRILLER
RUN .         ONE                  : Run          - RUN NUMBER
ENG .         MCEWAN               : Engineer     - RECORDING ENGINEER
WIT .         WOOD                 : Witness      - WITNESSED BY
BASE.         EDM                  : Branch       - HOME BASE OF LOGGING UNIT
MUD .         GEL                  : Mud_type     - MUD TYPE
MATR.         SANDSTONE            : Logunit      - NEUTRON MATRIX
TMAX.C        22.2                 : BHT          - MAXIMUM RECORDED TEMPERATURE
BHTD.M        609                  : BHTDEP       - MAXIMUM RECORDED TEMPERATURE
RMT .C        14.4                 : MDTP         - TEMPERATURE OF MUD
MUDD.KG/M     9.5                  : MWT          - MUD DENSITY
NEUT.         1                    : NEUTRON      - NEUTRON TYPE
RESI.         0                    : RESIST       - RESISTIVITY TYPE
RM  .OHMM     6.35                 : RM           - RESISTIVITY OF MUD
RMC .OHMM     0                    : RMC          - RESISTIVITY OF MUD CAKE
RMF .OHMM     8.17                 : RMF          - RESISTIVITY OF MUD FILTRATE
SUFT.C        0                    : SUFT         - SURFACE TEMPERATURE
~A  DEPTH     RESD     PHIN     PHID       GR      CAL
  395.000    2.713    0.498    0.199  114.818  166.274
  395.250    2.666    0.494    0.218  117.125  165.686
  395.500    2.528    0.492    0.221  104.858  167.579
  395.750    2.330    0.489    0.209  103.636  169.994
  396.000    2.294    0.501    0.193   96.210  172.409
  396.250    2.390    0.513    0.202   96.354  173.056
  396.500    2.499    0.519    0.218  100.160  172.782
  396.750    2.569    0.542    0.217   99.186  172.613
  397.000    2.636    0.497    0.225  104.729  171.917
  397.250    2.742    0.500    0.234  107.355  171.330
  397.500    2.797    0.512    0.224  102.720  170.740
  397.750    2.870    0.486    0.202   95.914  169.635
  398.000    2.895    0.475    0.217   97.423  168.736
  398.250    2.910    0.493    0.212   94.899  164.736
  398.500    2.953    0.518    0.206   97.091  164.462
  398.750    3.018    0.497    0.211   93.015  163.046
  399.000    3.138    0.466    0.221   91.360  162.044
  399.250    3.294    0.483    0.215   86.787  166.940
  399.500    3.425    0.497    0.222   69.926  168.727
  399.750    3.353    0.475    0.214   76.153  165.970
  400.000    3.144    0.395    0.095   77.724  161.450
  400.250    2.876    0.423    0.118   74.392  167.691
  400.500    2.758    0.461    0.221   80.059  173.722
  400.750    2.741    0.470    0.220   75.550  170.549
  401.000    2.644    0.483    0.221   81.216  168.927
  401.250    2.502    0.531    0.237   85.767  174.651
  401.500    2.319    0.542    0.244   77.594  175.923
  401.750    2.224    0.517    0.236   74.326  176.475
  402.000    2.253    0.523    0.217   76.083  175.162
  402.250    2.364    0.540    0.230   74.427  174.578
  402.500    2.567    0.590    0.272   67.063  174.194
  402.750    3.161    0.553    0.310   66.214  169.573
  403.000    4.141    0.498    0.303   69.275  163.813
  403.250    6.622    0.437    0.272   70.908  159.192
  403.500    7.794    0.444    0.287   76.451  158.399
  403.750    6.895    0.412    0.302   67.846  155.121
  404.000    5.710    0.401    0.280   64.763  152.983
  404.250    5.859    0.392    0.250   61.183  161.497
  404.500    6.605    0.409    0.262   57.788  165.774
  404.750    7.473    0.439    0.282   61.719  161.668
  405.000    7.828    0.459    0.301   68.999  157.360
  405.250    7.723    0.423    0.313   72.990  156.045
  405.500    7.938    0.415    0.272   65.066  158.872
  405.750    8.635    0.433    0.272   66.825  162.833
  406.000    9.235    0.438    0.293   68.582  162.351
  406.250    9.127    0.401    0.285   75.427  160.833
  406.500    8.819    0.403    0.262   74.269  159.829
  406.750    8.520    0.404    0.266   68.641  158.209
  407.000    8.004    0.376    0.287   69.530  154.207
  407.250    7.392    0.367    0.253   75.631  152.174
  407.500    7.444    0.383    0.248   72.983  153.344
  407.750    7.696    0.434    0.234   70.273  156.996
  408.000    7.506    0.437    0.243   65.204  159.201
  408.250    6.972    0.394    0.261   64.604  159.752
  408.500    6.625    0.400    0.270   60.898  163.303
  408.750    6.509    0.413    0.229   62.967  167.989
  409.000    6.458    0.428    0.251   58.208  169.677
  409.250    6.466    0.431    0.268   61.083  164.953
  409.500    6.062    0.447    0.286   78.293  157.541
  409.750    5.352    0.444    0.292   89.546  156.641
  410.000    4.611    0.399    0.280  100.426  157.503
  410.250    4.785    0.403    0.226  104.789  161.673
  410.500    5.528    0.470    0.212   73.407  167.703
  410.750    6.482    0.487    0.234   57.293  172.082
  411.000    7.658    0.453    0.267   51.292  168.080
  411.250    8.600    0.412    0.294   45.354  160.666
  411.500    8.342    0.389    0.334   58.035  157.598
  411.750    8.029    0.366    0.337   56.813  156.597
  412.000    8.086    0.401    0.315   52.864  156.118
  412.250    8.359    0.435    0.287   50.524  155.838
  412.500    8.958    0.449    0.259   46.323  155.665
  412.750    9.436    0.423    0.260   44.916  155.493
  413.000    9.774    0.390    0.272   51.577  155.418
  413.250    9.972    0.402    0.299   55.754  155.141
  413.500    9.968    0.416    0.307   53.105  155.076
  413.750    9.888    0.411    0.290   57.158  155.106
  414.000    9.959    0.439    0.298   64.067  155.759
  414.250   10.333    0.424    0.299   62.411  157.035
  414.500   10.928    0.401    0.281   57.901  157.787
  414.750   11.363    0.399    0.302   52.150  158.340
  415.000   11.614    0.410    0.315   49.873  159.715
  415.250   11.695    0.302    0.150   59.636  159.853
  415.500   11.713    0.267    0.076   62.076  160.198
  415.750   11.510    0.251    0.090   62.220  159.919
  416.000   11.037    0.344    0.255   64.972  159.645
  416.250   10.564    0.418    0.271   57.420  158.855
  416.500   10.037    0.434    0.279   60.481  158.263
  416.750    9.588    0.417    0.307   67.451  156.535
  417.000    8.924    0.408    0.318   66.415  154.498
  417.250    8.461    0.415    0.306   74.627  153.911
  417.500    8.084    0.417    0.306   82.281  154.773
  417.750    7.884    0.389    0.286   83.852  156.358
  418.000    7.575    0.390    0.259   95.538  158.148
  418.250    7.333    0.398    0.261   71.605  158.910
  418.500    7.553    0.419    0.272   55.861  158.731
  418.750    7.957    0.440    0.284   53.895  158.769
  419.000    7.952    0.422    0.283   71.229  159.108
  419.250    7.979    0.386    0.259   75.594  159.144
  419.500    7.929    0.368    0.254   77.227  159.278
  419.750    7.618    0.381    0.274   90.155  159.311
  420.000    7.265    0.415    0.263   95.139  161.412
  420.250    7.470    0.439    0.235   93.421  164.034
  420.500    7.928    0.395    0.264   90.587  163.239
  420.750    8.399    0.394    0.275   91.537  161.205
  421.000    8.901    0.386    0.241   92.365  160.306
  421.250    9.253    0.360    0.233   89.032  159.827
  421.500    9.458    0.349    0.228   82.785  160.374
  421.750    9.507    0.361    0.207   86.964  160.613
  422.000    9.377    0.383    0.237   84.873  160.335
  422.250    9.622    0.406    0.247   69.999  159.753
  422.500   10.446    0.427    0.246   49.911  159.058
  422.750   11.600    0.404    0.211   34.912  158.363
  423.000   12.383    0.390    0.231   40.083  157.575
  423.250   12.898    0.394    0.277   37.683  157.294
  423.500   12.370    0.352    0.333   33.421  156.809
  423.750   11.818    0.345    0.318   39.957  156.531
  424.000   11.227    0.354    0.308   49.908  152.222
  424.250   10.568    0.355    0.309   50.857  154.325
  424.500   10.153    0.339    0.282   40.885  157.568
  424.750    9.845    0.389    0.255   43.760  158.629
  425.000    9.180    0.383    0.282   56.192  158.461
  425.250    8.672    0.318    0.306   71.852  157.976
  425.500    8.145    0.353    0.274   84.904  157.491
  425.750    7.594    0.384    0.256   89.266  157.108
  426.000    7.380    0.402    0.249   81.468  156.933
  426.250    7.516    0.408    0.245   71.558  157.178
  426.500    7.668    0.398    0.230   73.253  157.416
  426.750    7.825    0.400    0.257   80.906  157.655
  427.000    7.850    0.398    0.274   90.296  157.689
  427.250    7.642    0.359    0.252   81.690  158.651
  427.500    7.246    0.385    0.234   88.785  162.101
  427.750    6.531    0.418    0.209   81.047  163.269
  428.000    5.574    0.438    0.257  106.326  160.716
  428.250    4.812    0.437    0.293  117.392  157.751
  428.500    3.838    0.465    0.266  117.971  158.403
  428.750    3.233    0.583    0.233  107.689  161.643
  429.000    2.838    0.589    0.205  106.963  165.297
  429.250    2.676    0.528    0.172  110.520  167.499
  429.500    2.610    0.502    0.172  115.567  167.326
  429.750    2.545    0.493    0.176  123.531  169.119
  430.000    2.502    0.516    0.183  129.571  173.495
  430.250    2.501    0.528    0.204  121.648  172.184
  430.500    2.576    0.519    0.192  119.370  170.563
  430.750    2.698    0.505    0.196  135.216  171.732
  431.000    2.869    0.541    0.192  125.803  174.454
  431.250    3.068    0.544    0.175  117.198  176.661
