~VERSION INFORMATION
 VERS.                 2.0:   CWLS LOG ASCII STANDARD -VERSION 2.0
 WRAP.                  NO:   ONE LINE PER DEPTH STEP
~WELL INFORMATION BLOCK
#MNEM.UNIT           DATA                    DESCRIPTION OF MNEMONIC
#---------    -------------------            -------------------------------
# Generated from Intellog Unique Number	CW_73_75/WELL/199
WELL.         GLEN ISLE ET AL MITSUE 02-01   : Well_name    - WELL
LOC .         00/02-01-074-05W5/0            : Location     - LOCATION
UWI .         00/02-01-074-05W5/0            : Uwi          - UNIQUE WELL ID
ENTR.         JAYE                           : Entered      - ENTERED BY
SRVC.         WESTERN ATLAS                  : Scn          - SERVICE COMPANY
DATE.         8 DEC 88                       : Date         - LOG DATE
STRT.M        370                            : top_depth    - START DEPTH
STOP.M        630                            : bot_depth    - STOP DEPTH
STEP.M        0.25                           : increment    - STEP LENGTH
 NULL. -999.2500:NULL Value
~CURVE INFORMATION BLOCK
#MNEM UNIT       ERCB CURVE CODE    CURVE DESCRIPTION
#-----------   ------------------   ----------------------------------
DEPT.M        00 001 00 00         : DEPTH        - DEPTH
GR  .API      00 310 00 00         : GR           - GAMMA RAY
NPHI.V/V      00 330 00 00         : PHIN         - NEUTRON POROSITY (SANDSTONE)
DPHI.V/V      00 890 00 00         : PHID         - DENSITY POROSITY (SANDSTONE)
ILD .OHMM     00 120 00 00         : RESD         - DEEP RESISTIVITY (DIL)
CALI.MM       00 280 01 00         : CAL          - CALIPER
~PARAMETER INFORMATION
#MNEM.UNIT           DATA             DESCRIPTION OF MNEMONIC
#---------         -----------     ------------------------------
GL  .M        589.5                : gl           - GROUND LEVEL ELEVATION
EREF.M        593.84               : kb           - ELEVATION OF DEPTH REFERENCE
DATM.M        589.5                : datum        - DATUM ELEVATION
TDD .M        1650                 : tdd          - TOTAL DEPTH DRILLER
RUN .         ONE                  : Run          - RUN NUMBER
ENG .         YEAGER               : Engineer     - RECORDING ENGINEER
WIT .         PUTZ                 : Witness      - WITNESSED BY
BASE.         LEDUC                : Branch       - HOME BASE OF LOGGING UNIT
MATR.         SANDSTONE            : Logunit      - NEUTRON MATRIX
TMAX.C        51                   : BHT          - MAXIMUM RECORDED TEMPERATURE
BHTD.M        1650.3               : BHTDEP       - MAXIMUM RECORDED TEMPERATURE
RMT .C        51                   : MDTP         - TEMPERATURE OF MUD
MUDD.KG/M     1125                 : MWT          - MUD DENSITY
NEUT.         1                    : NEUTRON      - NEUTRON TYPE
RESI.         0                    : RESIST       - RESISTIVITY TYPE
RM  .OHMM     6.27                 : RM           - RESISTIVITY OF MUD
RMC .OHMM     4.87                 : RMC          - RESISTIVITY OF MUD CAKE
RMF .OHMM     8.75                 : RMF          - RESISTIVITY OF MUD FILTRATE
SUFT.C        0                    : SUFT         - SURFACE TEMPERATURE
~A  DEPTH       GR     PHIN     PHID     RESD      CAL
# ...
  479.500   75.050    0.351    0.216    4.919  255.599
  479.750   74.679    0.379    0.214    5.658  255.905
  480.000   82.261    0.389    0.240    6.690  256.119
  480.250   83.240    0.379    0.272    7.306  255.699
  480.500   72.535    0.369    0.282    7.534  255.198
  480.750   70.027    0.385    0.291    7.474  255.801
  481.000   56.448    0.401    0.298    7.525  256.818
  481.250   62.251    0.409    0.308    7.589  257.714
  481.500   61.765    0.394    0.314    7.613  257.824
  481.750   51.305    0.372    0.311    7.580  258.328
  482.000   57.290    0.357    0.307    7.576  258.540
  482.250   63.163    0.376    0.301    7.571  258.937
  482.500   56.803    0.359    0.289    7.524  259.242
  482.750   53.553    0.354    0.288    7.464  259.013
  483.000   53.738    0.364    0.290    7.323  258.629
  483.250   54.838    0.375    0.296    7.119  257.895
  483.500   64.562    0.358    0.289    6.869  257.687
  483.750   64.068    0.351    0.285    6.652  257.802
  484.000   53.058    0.361    0.294    6.514  257.778
  484.250   49.263    0.365    0.301    6.474  257.891
  484.500   55.379    0.372    0.303    6.470  257.995
  484.750   54.030    0.382    0.308    6.430  258.160
  485.000   52.192    0.373    0.309    6.332  258.693
  485.250   50.778    0.352    0.311    6.246  258.693
  485.500   55.798    0.340    0.310    6.185  258.892
  485.750   54.267    0.366    0.307    6.181  258.686
  486.000   64.234    0.370    0.306    6.166  258.678
  486.250   60.564    0.362    0.302    6.117  258.169
  486.500   50.100    0.358    0.300    6.113  257.749
  486.750   56.397    0.359    0.306    6.098  257.049
  487.000   57.001    0.340    0.300    6.072  256.229
  487.250   55.357    0.329    0.298    6.181  255.203
  487.500   54.797    0.328    0.298    6.316  253.764
  487.750   58.410    0.309    0.300    6.586  252.539
  488.000   64.337    0.291    0.299    6.893  251.113
  488.250   63.296    0.296    0.297    7.335  249.580
  488.500   59.747    0.292    0.294    7.763  248.361
  488.750   53.815    0.293    0.297    7.830  246.217
  489.000   51.979    0.294    0.292    7.840  243.662
  489.250   58.274    0.288    0.295    8.055  241.317
  489.500   57.961    0.291    0.288    8.353  239.063
  489.750   59.064    0.293    0.285    8.889  238.037
  490.000   73.312    0.289    0.278    9.672  236.812
  490.250   70.673    0.272    0.261   10.961  235.891
  490.500   63.647    0.177    0.200   13.323  235.076
  490.750   53.066    0.117    0.053   17.152  234.151
  491.000   40.463    0.110    0.036   19.763  233.444
  491.250   45.539    0.147   -0.008   17.907  232.412
  491.500   42.656    0.174    0.003   16.560  231.794
  491.750   44.434    0.210    0.202   15.570  231.896
  492.000   44.858    0.245    0.204   15.474  231.891
  492.250   43.993    0.166    0.030   15.870  232.408
  492.500   46.323    0.109    0.014   15.256  233.004
  492.750   44.045    0.107    0.028   13.272  233.706
  493.000   43.993    0.114    0.057   11.764  235.025
  493.250   47.355    0.150    0.089   10.254  237.167
  493.500   45.639    0.176    0.125    9.004  239.518
  493.750   44.663    0.215    0.181    8.069  241.349
  494.000   50.528    0.270    0.202    7.699  241.438
  494.250   52.721    0.282    0.217    7.456  239.516
  494.500   49.300    0.285    0.229    7.222  236.852
  494.750   48.811    0.296    0.255    7.007  235.523
  495.000   53.149    0.308    0.274    6.649  233.987
  495.250   50.027    0.320    0.300    6.380  232.977
  495.500   52.776    0.331    0.322    6.260  231.329
  495.750   57.424    0.339    0.317    6.468  230.206
  496.000   61.515    0.353    0.297    6.896  229.088
  496.250   68.493    0.363    0.292    7.298  228.475
  496.500   57.422    0.367    0.301    7.680  228.062
  496.750   61.452    0.342    0.288    7.979  227.861
  497.000   61.879    0.314    0.272    7.915  226.827
  497.250   56.740    0.310    0.281    7.751  225.814
  497.500   57.167    0.313    0.298    7.675  225.480
  497.750   50.132    0.335    0.317    7.728  225.590
  498.000   50.312    0.342    0.343    7.822  225.888
  498.250   51.044    0.291    0.290    7.949  226.598
  498.500   56.791    0.288    0.218    8.018  227.108
  498.750   60.389    0.300    0.239    8.058  227.105
  499.000   56.175    0.322    0.296    8.068  226.902
  499.250   55.315    0.329    0.303    8.047  226.905
  499.500   53.599    0.315    0.322    7.954  228.010
  499.750   53.236    0.300    0.352    7.890  230.165
  500.000   49.196    0.295    0.352    7.670  232.596
  500.250   60.568    0.294    0.323    7.442  234.224
  500.500   54.451    0.294    0.327    7.355  234.725
  500.750   50.229    0.294    0.346    7.228  234.632
  501.000   55.056    0.294    0.384    7.171  235.225
  501.250   52.603    0.293    0.432    7.075  235.329
  501.500   52.793    0.292    0.477    7.084  235.640
  501.750   52.475    0.292    0.406    7.092  235.829
  502.000   51.317    0.293    0.415    7.167  235.936
  502.250   45.020    0.298    0.438    7.189  236.137
  502.500   48.804    0.309    0.387    7.157  236.140
  502.750   50.214    0.308    0.350    7.101  236.320
  503.000   55.652    0.303    0.342    7.005  236.710
  503.250   47.760    0.297    0.343    6.873  237.143
  503.500   50.329    0.295    0.346    6.792  237.345
  503.750   56.381    0.297    0.344    6.714  237.933
  504.000   50.997    0.300    0.333    6.684  237.948
  504.250   43.597    0.303    0.323    6.582  237.836
  504.500   59.249    0.307    0.318    6.530  237.424
  504.750   58.206    0.312    0.319    6.526  236.612
  505.000   56.551    0.318    0.325    6.558  236.103
  505.250   55.941    0.315    0.326    6.663  237.205
  505.500   54.711    0.312    0.330    6.721  237.417
  505.750   59.295    0.308    0.333    6.705  237.198
  506.000   57.155    0.307    0.317    6.713  237.109
  506.250   55.506    0.314    0.304    6.746  236.866
  506.500   56.291    0.320    0.304    6.754  236.663
  506.750   60.137    0.322    0.313    6.775  236.378
  507.000   64.235    0.323    0.310    6.771  236.070
  507.250   71.215    0.322    0.284    6.742  235.856
  507.500   67.664    0.319    0.273    6.738  236.170
  507.750   63.194    0.313    0.270    6.709  236.572
  508.000   62.402    0.303    0.255    6.754  237.792
  508.250   57.441    0.285    0.209    6.825  238.696
  508.500   43.561    0.255    0.161    7.170  239.409
  508.750   44.903    0.297    0.176    7.272  240.028
  509.000   52.547    0.311    0.197    7.095  240.603
  509.250   56.641    0.287    0.146    6.909  241.233
  509.500   63.063    0.328    0.167    6.754  242.053
  509.750   55.965    0.355    0.238    6.433  243.148
  510.000   65.199    0.339    0.310    6.060  244.088
  510.250   68.493    0.322    0.310    5.912  245.303
  510.500   72.778    0.326    0.281    5.985  246.831
  510.750   67.578    0.324    0.280    6.015  247.850
  511.000   75.708    0.316    0.288    6.078  248.547
  511.250   64.453    0.328    0.281    6.007  248.853
  511.500   71.057    0.337    0.286    5.712  248.853
  511.750   64.570    0.332    0.273    5.440  248.652
  512.000   62.797    0.316    0.245    5.327  248.532
  512.250   77.774    0.325    0.225    5.150  248.425
  512.500   85.850    0.346    0.240    5.015  248.334
  512.750   75.206    0.356    0.255    4.875  247.809
  513.000   66.882    0.379    0.269    4.765  247.504
  513.250   84.559    0.404    0.271    4.624  246.590
  513.500   73.304    0.367    0.271    4.461  245.357
  513.750   70.607    0.360    0.262    4.376  244.036
  514.000   68.280    0.370    0.258    4.406  242.600
  514.250   64.430    0.383    0.257    4.486  242.396
  514.500   79.593    0.398    0.258    4.600  244.943
  514.750   73.226    0.372    0.257    4.649  247.994
  515.000   71.089    0.342    0.261    4.689  249.504
  515.250   73.778    0.355    0.261    4.704  250.029
  515.500   77.014    0.362    0.256    4.736  250.940
  515.750   76.157    0.350    0.253    4.741  251.434
