~VERSION INFORMATION
 VERS.                 2.0:   CWLS LOG ASCII STANDARD -VERSION 2.0
 WRAP.                  NO:   ONE LINE PER DEPTH STEP
~WELL INFORMATION BLOCK
#MNEM.UNIT           DATA                    DESCRIPTION OF MNEMONIC
#---------    -------------------            -------------------------------
# Generated from Intellog Unique Number	CS_73_76/WELL/2178
WELL.         ASHLAND OIL CANADA LIMITED     : Well_name    - WELL
LOC .         00/07-32-074-18W4/0            : Location     - LOCATION
UWI .         00/07-32-074-18W4/0            : Uwi          - UNIQUE WELL ID
ENTR.         SP                             : Entered      - ENTERED BY
SRVC.         SCHLUMBERGER                   : Scn          - SERVICE COMPANY
STRT.M        335.280                        : top_depth    - START DEPTH
STOP.M        490.530                        : bot_depth    - STOP DEPTH
STEP.M        0.25                           : increment    - STEP LENGTH
 NULL. -999.2500:NULL Value
~CURVE INFORMATION BLOCK
#MNEM UNIT       ERCB CURVE CODE    CURVE DESCRIPTION
#-----------   ------------------   ----------------------------------
DEPT.M        00 001 00 00         : DEPTH        - DEPTH
GR  .API      00 310 00 00         : GR           - GAMMA RAY
DPHI.V/V      00 890 00 00         : PHID         - DENSITY POROSITY (SANDSTONE)
NPHI.V/V      00 330 00 00         : PHIN         - NEUTRON POROSITY (SANDSTONE)
ILD .OHMM     00 120 00 00         : RESD         - DEEP RESISTIVITY (DIL)
~PARAMETER INFORMATION
#MNEM.UNIT           DATA             DESCRIPTION OF MNEMONIC
#---------         -----------     ------------------------------
GL  .M        583.844              : gl           - GROUND LEVEL ELEVATION
EREF.M        586.892              : kb           - ELEVATION OF DEPTH REFERENCE
DATM.M        583.844              : datum        - DATUM ELEVATION
TDD .M        513.588              : tdd          - TOTAL DEPTH DRILLER
RUN .         ONE                  : Run          - RUN NUMBER
ENG .         BILL                 : Engineer     - RECORDING ENGINEER
WIT .         JIM                  : Witness      - WITNESSED BY
MUD .         GEL                  : Mud_type     - MUD TYPE
MATR.         SANDSTONE            : Logunit      - NEUTRON MATRIX
TMAX.C        60                   : BHT          - MAXIMUM RECORDED TEMPERATURE
BHTD.M        513.588              : BHTDEP       - MAXIMUM RECORDED TEMPERATURE
MATR.         1                    : LOGUNIT      - NEUTRON MATRIX
RMT .C        25                   : MDTP         - TEMPERATURE OF MUD
NEUT.         1                    : NEUTRON      - NEUTRON TYPE
RESI.         0                    : RESIST       - RESISTIVITY TYPE
RMC .OHMM     0.25                 : RMC          - RESISTIVITY OF MUD CAKE
RMF .OHMM     0.25                 : RMF          - RESISTIVITY OF MUD FILTRATE
SUFT.C        15                   : SUFT         - SURFACE TEMPERATURE
~A  DEPTH       GR     PHID     PHIN     RESD
# ...
  422.280   80.685    0.051    0.298   11.098
  422.530   76.239    0.025    0.247   12.993
  422.780   68.638    0.007    0.236   15.223
  423.030   60.997    0.064    0.264   16.709
  423.280   58.950    0.114    0.293   15.723
  423.530   64.145    0.149    0.430   11.977
  423.780   68.158    0.161    0.466    9.785
  424.030   70.766    0.168    0.479    8.811
  424.280   72.094    0.155    0.487    7.774
  424.530   78.328    0.137    0.502    7.243
  424.780   86.015    0.157    0.523    6.812
  425.030   91.482    0.168    0.504    6.713
  425.280   94.912    0.149    0.476    6.553
  425.530   94.387    0.138    0.478    6.711
  425.780   93.374    0.147    0.494    6.912
  426.030   93.871    0.162    0.513    7.132
  426.280   95.267    0.159    0.524    7.194
  426.530   97.982    0.148    0.536    7.415
  426.780   98.789    0.138    0.529    7.598
  427.030  100.350    0.156    0.513    7.583
  427.280  100.863    0.178    0.490    7.577
  427.530  101.535    0.174    0.472    7.555
  427.780  101.405    0.199    0.470    7.182
  428.030  100.213    0.262    0.459    6.964
  428.280   96.256    0.317    0.473    6.752
  428.530   91.639    0.336    0.472    6.542
  428.780   89.744    0.304    0.484    6.534
  429.030   87.988    0.224    0.493    6.539
  429.280   86.157    0.226    0.480    6.637
  429.530   90.005    0.218    0.478    6.777
  429.780   87.293    0.203    0.470    6.761
  430.030   83.890    0.255    0.497    6.570
  430.280   86.128    0.249    0.513    5.283
  430.530   87.335    0.297    0.550    4.441
  430.780   86.000    0.336    0.585    3.523
  431.030   82.902    0.344    0.601    3.054
  431.280   80.083    0.349    0.678    2.763
  431.530   79.811    0.337    0.691    2.445
  431.780   78.896    0.324    0.709    2.277
  432.030   81.945    0.320    0.762    2.172
  432.280   82.996    0.323    0.737    2.160
  432.530   79.186    0.344    0.713    2.207
  432.780   77.630    0.351    0.718    2.332
  433.030   78.752    0.381    0.752    2.671
  433.280   76.200    0.409    0.711    3.004
  433.530   75.971    0.410    0.655    3.474
  433.780   78.769    0.367    0.638    4.111
  434.030   81.939    0.327    0.659    4.716
  434.280   84.582    0.305    0.706    5.289
  434.530   86.969    0.282    0.666    5.974
  434.780   89.068    0.266    0.578    6.288
  435.030   86.899    0.305    0.534    6.939
  435.280   84.647    0.275    0.444    7.663
  435.530   81.230    0.310    0.490    8.202
  435.780   76.558    0.009    0.469    9.447
  436.030   74.101    0.062    0.361   10.405
  436.280   78.672    0.071    0.339   11.403
  436.530   81.002    0.078    0.368   11.617
  436.780   81.089    0.094    0.381   10.554
  437.030   80.140    0.151    0.409    9.672
  437.280   79.546    0.286    0.481    8.156
  437.530   82.078    0.350    0.509    6.846
  437.780   84.290    0.405    0.548    5.886
  438.030   81.677    0.444    0.585    5.182
  438.280   78.225    0.465    0.610    4.906
  438.530   75.815    0.476    0.653    4.649
  438.780   74.238    0.459    0.740    4.523
  439.030   76.610    0.449    0.745    4.739
  439.280   78.787    0.438    0.710    4.923
  439.530   80.090    0.376    0.642    5.235
  439.780   79.997    0.277    0.620    5.547
  440.030   75.313    0.311    0.510    6.024
  440.280   71.784    0.333    0.547    6.270
  440.530   71.685    0.364    0.622    6.274
  440.780   74.942    0.381    0.654    6.100
  441.030   77.847    0.418    0.675    5.838
  441.280   80.392    0.338    0.702    5.542
  441.530   79.053    0.311    0.631    5.379
  441.780   78.036    0.338    0.619    5.058
  442.030   77.603    0.370    0.633    4.777
  442.280   78.568    0.423    0.670    4.314
  442.530   82.229    0.412    0.665    4.201
  442.780   85.551    0.396    0.667    4.092
  443.030   84.932    0.379    0.676    4.094
  443.280   83.891    0.393    0.686    4.411
  443.530   83.646    0.361    0.661    4.607
  443.780   84.186    0.242    0.559    4.817
  444.030   85.765    0.206    0.521    5.010
  444.280   87.049    0.273    0.476    5.190
  444.530   86.856    0.285    0.548    5.048
  444.780   90.339    0.264    0.573    4.460
  445.030   93.078    0.236    0.594    4.035
  445.280   94.991    0.252    0.621    3.685
  445.530   94.121    0.269    0.687    3.389
  445.780   89.779    0.270    0.664    3.330
  446.030   88.224    0.275    0.649    3.391
  446.280   88.235    0.265    0.611    3.759
  446.530   88.574    0.246    0.592    4.134
  446.780   89.976    0.271    0.554    4.625
  447.030   89.515    0.276    0.527    5.115
  447.280   92.956    0.287    0.579    5.806
  447.530   97.926    0.259    0.605    6.084
  447.780   99.847    0.240    0.628    6.070
  448.030   95.295    0.237    0.633    6.155
  448.280   89.130    0.131    0.515    6.672
  448.530   83.910    0.060    0.366    7.452
  448.780   80.477    0.086    0.371    7.963
  449.030   79.852    0.114    0.409    7.969
  449.280   88.257    0.175    0.467    7.970
  449.530  101.473    0.147    0.415    7.894
  449.780  103.086    0.152    0.400    8.147
  450.030  100.140    0.135    0.404    8.405
  450.280   96.728    0.133    0.416    8.565
  450.530   95.128    0.146    0.387    8.875
  450.780   95.610    0.143    0.377    9.015
  451.030   96.847    0.142    0.363    9.043
  451.280   98.077    0.142    0.361    8.855
  451.530   99.111    0.153    0.384    8.735
  451.780   98.029    0.165    0.405    8.758
  452.030   96.684    0.167    0.425    8.843
  452.280   96.043    0.166    0.423    8.693
  452.530   95.926    0.168    0.388    8.517
  452.780   94.272    0.101    0.390    8.368
  453.030   91.685    0.109    0.432    8.364
  453.280   95.834    0.132    0.483    8.357
  453.530  103.976    0.141    0.523    8.353
  453.780  101.642    0.140    0.462    8.365
  454.030   98.385    0.081    0.375    8.181
  454.280   93.249    0.146    0.397    8.191
  454.530   92.817    0.161    0.412    8.187
  454.780   95.808    0.150    0.405    8.185
  455.030   95.467    0.134    0.409    8.068
  455.280   98.692    0.128    0.419    8.082
  455.530  102.787    0.107    0.429    8.170
  455.780  105.134    0.108    0.459    8.272
  456.030  106.587    0.126    0.501    8.318
  456.280  107.428    0.147    0.477    8.170
  456.530  105.888    0.155    0.480    7.955
  456.780  101.071    0.170    0.519    7.392
  457.030   92.653    0.206    0.508    6.972
  457.280   84.237    0.255    0.696    6.404
  457.530   79.076    0.251    0.639    6.180
  457.780   81.278    0.234    0.486    6.172
  458.030   83.484    0.209    0.435    6.321
  458.280   85.756    0.167    0.415    6.781
  458.530   83.144    0.162    0.478    7.077
  458.780   81.172    0.172    0.519    7.404
  459.030   96.799    0.232    0.509    7.823
  459.280   94.578    0.266    0.459    8.074
  459.530   77.216    0.284    0.426    7.837
  459.780   56.703    0.274    0.402    7.024
  460.030   49.018    0.257    0.380    6.798
  460.280   45.389    0.228    0.366    6.760
  460.530   50.755    0.190    0.359    6.969
  460.780   56.415    0.152    0.353    7.198
  461.030   63.727    0.158    0.359    7.976
  461.280   70.527    0.193    0.368    8.177
  461.530   73.364    0.210    0.388    8.666
  461.780   63.670    0.214    0.373    9.014
  462.030   58.475    0.204    0.368    9.111
  462.280   58.170    0.197    0.362    9.407
  462.530   66.442    0.185    0.368    9.501
  462.780   71.813    0.179    0.381    9.992
  463.030   74.576    0.158    0.390   10.302
  463.280   75.831    0.127    0.377   10.787
  463.530   81.559    0.113    0.362   10.889
  463.780   94.255    0.104    0.367   10.979
  464.030  101.329    0.105    0.378   10.995
  464.280  105.181    0.119    0.381   10.686
  464.530  100.536    0.123    0.361   10.369
  464.780   92.921    0.118    0.343   10.062
  465.030   85.311    0.080    0.334    9.802
  465.280   79.326    0.045    0.356    9.815
  465.530   85.781    0.089    0.404    9.934
