~VERSION INFORMATION
 VERS.                 2.0:   CWLS LOG ASCII STANDARD -VERSION 2.0
 WRAP.                  NO:   ONE LINE PER DEPTH STEP
~WELL INFORMATION BLOCK
#MNEM.UNIT           DATA                    DESCRIPTION OF MNEMONIC
#---------    -------------------            -------------------------------
# Generated from Intellog Unique Number	CS_77_79/WELL/3270
WELL.         LOGAN RESOURCES LTD.           : Well_name    - WELL
LOC .         00/03-02-077-14W4/0            : Location     - LOCATION
UWI .         00/03-02-077-14W4/0            : Uwi          - UNIQUE WELL ID
ENTR.         JO                             : Entered      - ENTERED BY
SRVC.         SCHLUMBERGER                   : Scn          - SERVICE COMPANY
DATE.         05/22/92                       : Date         - LOG DATE
STRT.M        285                            : top_depth    - START DEPTH
STOP.M        515                            : bot_depth    - STOP DEPTH
STEP.M        0.25                           : increment    - STEP LENGTH
 NULL. -999.2500:NULL Value
~CURVE INFORMATION BLOCK
#MNEM UNIT       ERCB CURVE CODE    CURVE DESCRIPTION
#-----------   ------------------   ----------------------------------
DEPT.M        00 001 00 00         : DEPTH        - DEPTH
ILD .OHMM     00 120 00 00         : RESD         - DEEP RESISTIVITY (DIL)
DPHI.V/V      00 890 00 00         : PHID         - DENSITY POROSITY (SANDSTONE)
NPHI.V/V      00 330 00 00         : PHIN         - NEUTRON POROSITY (SANDSTONE)
GR  .API      00 310 00 00         : GR           - GAMMA RAY
~PARAMETER INFORMATION
#MNEM.UNIT           DATA             DESCRIPTION OF MNEMONIC
#---------         -----------     ------------------------------
GL  .M        671.9                : gl           - GROUND LEVEL ELEVATION
EREF.M        675.4                : kb           - ELEVATION OF DEPTH REFERENCE
DATM.M        675.4                : datum        - DATUM ELEVATION
TDD .M        522                  : tdd          - TOTAL DEPTH DRILLER
RUN .         ONE                  : Run          - RUN NUMBER
ENG .         BILL                 : Engineer     - RECORDING ENGINEER
WIT .         JIM                  : Witness      - WITNESSED BY
MUD .         GEL                  : Mud_type     - MUD TYPE
MATR.         SANDSTONE            : Logunit      - NEUTRON MATRIX
TMAX.C        30                   : BHT          - MAXIMUM RECORDED TEMPERATURE
BHTD.M        522.2                : BHTDEP       - MAXIMUM RECORDED TEMPERATURE
RMT .C        18                   : MDTP         - TEMPERATURE OF MUD
MUDD.KG/M     1160                 : MWT          - MUD DENSITY
NEUT.         1                    : NEUTRON      - NEUTRON TYPE
RESI.         0                    : RESIST       - RESISTIVITY TYPE
RM  .OHMM     2.8                  : RM           - RESISTIVITY OF MUD
RMC .OHMM     1.9                  : RMC          - RESISTIVITY OF MUD CAKE
RMF .OHMM     2.2                  : RMF          - RESISTIVITY OF MUD FILTRATE
SUFT.C        4                    : SUFT         - SURFACE TEMPERATURE
~A  DEPTH     RESD     PHID     PHIN       GR
# ...
  459.000    4.899    0.187    0.394   85.226
  459.250    5.270    0.177    0.400   95.885
  459.500    5.466    0.164    0.395   96.458
  459.750    5.461    0.152    0.377   81.606
  460.000    5.454    0.140    0.395   82.178
  460.250    5.450    0.198    0.435   96.985
  460.500    5.443    0.211    0.440  107.649
  460.750    5.436    0.213    0.400   93.983
  461.000    5.739    0.182    0.395   85.652
  461.250    5.951    0.166    0.398   89.191
  461.500    6.171    0.181    0.395   98.669
  461.750    6.638    0.192    0.393   91.524
  462.000    7.008    0.181    0.394   87.944
  462.250    7.269    0.171    0.404   89.703
  462.500    7.675    0.154    0.403   92.051
  462.750    8.259    0.119    0.385   86.696
  463.000    9.221    0.076    0.363   78.370
  463.250    8.876    0.050    0.253   70.044
  463.500    8.231    0.103    0.316   61.119
  463.750    7.924    0.147    0.344   74.151
  464.000    7.482    0.167    0.368   82.442
  464.250    7.341    0.158    0.363   84.191
  464.500    7.198    0.141    0.352   85.362
  464.750    6.929    0.130    0.357   81.782
  465.000    6.797    0.167    0.363   98.968
  465.250    6.540    0.174    0.384  106.655
  465.500    6.297    0.174    0.386  105.453
  465.750    6.176    0.166    0.380   98.313
  466.000    6.052    0.157    0.373   93.547
  466.250    6.049    0.195    0.395   93.526
  466.500    6.043    0.193    0.394   96.472
  466.750    6.148    0.187    0.445   98.232
  467.000    6.258    0.174    0.426   97.613
  467.250    6.731    0.150    0.382   95.225
  467.500    7.242    0.129    0.364   78.588
  467.750    7.793    0.121    0.394   69.668
  468.000    8.541    0.158    0.405   72.614
  468.250    9.188    0.152    0.393   89.206
  468.500   10.070    0.160    0.376   89.186
  468.750   11.036    0.177    0.352   78.486
  469.000   11.873    0.210    0.359   80.834
  469.250   12.774    0.229    0.365   83.780
  469.500   13.490    0.237    0.374   84.951
  469.750   15.343    0.244    0.370   70.094
  470.000   15.906    0.252    0.359   64.140
  470.250   14.214    0.254    0.361   78.952
  470.500   12.705    0.259    0.362   75.372
  470.750   11.563    0.251    0.357   76.538
  471.000   11.563    0.234    0.366   93.724
  471.250   11.755    0.231    0.378  110.315
  471.500   11.963    0.252    0.392   85.970
  471.750   11.954    0.264    0.381   74.677
  472.000   12.392    0.252    0.368   96.016
  472.250   12.152    0.233    0.368   99.555
  472.500   11.066    0.218    0.376  104.276
  472.750   10.073    0.200    0.388  106.629
  473.000    9.521    0.181    0.373  106.020
  473.250    8.995    0.141    0.349   83.450
  473.500    8.821    0.192    0.361   98.262
  473.750    8.650    0.182    0.379  110.701
  474.000    8.805    0.173    0.387  113.647
  474.250   10.012    0.164    0.382  114.220
  474.500   12.041    0.214    0.378  117.161
  474.750   14.748    0.248    0.367  118.327
  475.000   18.060    0.268    0.351  107.633
  475.250   20.930    0.287    0.323   85.067
  475.500   24.243    0.302    0.328   67.836
  475.750   24.218    0.293    0.365   69.003
  476.000   22.471    0.254    0.366   73.724
  476.250   20.461    0.237    0.367   74.895
  476.500   18.627    0.230    0.385   78.429
  476.750   16.956    0.236    0.381   81.969
  477.000   17.574    0.240    0.365   85.513
  477.250   18.565    0.224    0.349   89.646
  477.500   19.251    0.224    0.337   78.353
  477.750   20.325    0.234    0.327   65.275
  478.000   20.690    0.224    0.332   65.255
  478.250   21.443    0.221    0.344   69.981
  478.500   21.427    0.215    0.336   61.650
  478.750   21.399    0.212    0.342   65.189
  479.000   21.377    0.221    0.349   67.547
  479.250   20.573    0.255    0.357   66.928
  479.500   19.804    0.269    0.374   64.540
  479.750   18.033    0.246    0.366   69.859
  480.000   16.123    0.221    0.358   84.671
  480.250   14.408    0.194    0.360   98.890
  480.500   13.120    0.179    0.362  107.176
  480.750   12.397    0.171    0.359   86.390
  481.000   11.497    0.166    0.364   81.025
  481.250   11.070    0.162    0.363   83.378
  481.500   10.656    0.155    0.360   87.501
  481.750   10.447    0.163    0.354   88.079
  482.000   10.437    0.162    0.363   88.657
  482.250   10.428    0.160    0.354   93.976
  482.500   10.418    0.159    0.347   76.750
  482.750   10.407    0.177    0.346   82.069
  483.000   10.591    0.192    0.362   95.102
  483.250   11.182    0.200    0.385   98.641
  483.500   13.696    0.195    0.391  101.587
  483.750   15.292    0.212    0.393   89.701
  484.000   16.759    0.233    0.401   78.398
  484.250   18.367    0.254    0.389   78.976
  484.500   20.884    0.248    0.375   81.324
  484.750   22.895    0.244    0.384   84.868
  485.000   25.091    0.235    0.374   87.814
  485.250   27.499    0.251    0.378   69.996
  485.500   31.276    0.274    0.389   67.602
  485.750   29.555    0.280    0.380   65.203
  486.000   24.080    0.292    0.389   68.748
  486.250   19.259    0.289    0.403   72.277
  486.500   15.687    0.260    0.390   74.635
  486.750   13.512    0.210    0.373   85.892
  487.000   12.533    0.169    0.384   85.269
  487.250   11.413    0.182    0.377   90.000
  487.500   10.584    0.196    0.372   97.692
  487.750   10.004    0.195    0.364   98.859
  488.000    9.277    0.187    0.359  101.211
  488.250    8.926    0.183    0.363  103.564
  488.500    8.757    0.177    0.369  107.697
  488.750    8.588    0.172    0.369  107.677
  489.000    8.579    0.166    0.366  108.250
  489.250    8.568    0.163    0.364  110.602
  489.500    8.559    0.159    0.377  115.328
  489.750    8.550    0.156    0.383  120.643
  490.000    8.544    0.161    0.376  120.627
  490.250    8.850    0.173    0.369  112.894
  490.500    9.011    0.172    0.376  106.343
  490.750    9.344    0.219    0.386  111.069
  491.000   10.045    0.227    0.370  110.455
  491.250   10.040    0.205    0.357  105.095
  491.500   10.030    0.182    0.352  101.515
  491.750    9.833    0.166    0.357  110.988
  492.000   10.191    0.178    0.359  113.934
  492.250   10.568    0.183    0.359  113.315
  492.500   10.959    0.185    0.357  116.266
  492.750   12.235    0.194    0.356  110.906
  493.000   14.711    0.204    0.355   94.862
  493.250   19.405    0.221    0.349   86.536
  493.500   24.213    0.242    0.347   46.172
  493.750   26.537    0.228    0.336   50.304
  494.000   26.503    0.233    0.340   56.810
  494.250   25.050    0.233    0.352   66.876
  494.500   22.810    0.196    0.336   70.415
  494.750   20.389    0.161    0.311   77.514
  495.000   17.881    0.132    0.284   65.030
  495.250   17.212    0.123    0.278   56.110
  495.500   16.565    0.249    0.364   57.865
  495.750   16.253    0.266    0.363   58.433
  496.000   15.938    0.271    0.363   59.609
  496.250   15.938    0.270    0.398   60.775
  496.500   14.486    0.278    0.390   64.908
  496.750   14.213    0.238    0.378   75.567
  497.000   12.939    0.195    0.349   84.441
  497.250   12.005    0.216    0.329   73.746
  497.500   11.773    0.240    0.345   71.946
  497.750   11.977    0.256    0.350   75.486
  498.000   12.420    0.216    0.356   75.455
  498.250   12.636    0.180    0.349   73.062
  498.500   12.627    0.199    0.338   70.080
  498.750   11.928    0.206    0.345   66.500
  499.000   11.275    0.215    0.355   64.700
  499.250   10.651    0.172    0.349   71.206
  499.500   10.062    0.143    0.339   83.041
  499.750    9.508    0.135    0.332   84.811
  500.000    9.501    0.142    0.331   88.944
  500.250    9.317    0.150    0.336   95.449
  500.500    9.305    0.147    0.336  100.175
  500.750    9.293    0.151    0.334   97.189
  501.000    9.460    0.157    0.332   98.355
  501.250    9.985    0.163    0.334   95.962
  501.500   10.169    0.168    0.330   90.591
  501.750   10.349    0.178    0.328   91.763
  502.000   10.726    0.179    0.329   93.522
  502.250   10.913    0.178    0.330   87.569
