~VERSION INFORMATION
 VERS.                 2.0:   CWLS LOG ASCII STANDARD -VERSION 2.0
 WRAP.                  NO:   ONE LINE PER DEPTH STEP
~WELL INFORMATION BLOCK
#MNEM.UNIT           DATA                    DESCRIPTION OF MNEMONIC
#---------    -------------------            -------------------------------
# Generated from Intellog Unique Number	CN_94_101/WELL/3386
WELL.         PARAMOUNT RES                  : Well_name    - WELL
LOC .         00/03-28-095-18W4/0            : Location     - LOCATION
UWI .         00/03-28-095-18W400            : Uwi          - UNIQUE WELL ID
ENTR.         T                              : Entered      - ENTERED BY
SRVC.         SCHLUMBERGER                   : Scn          - SERVICE COMPANY
DATE.         07/07/92                       : Date         - LOG DATE
STRT.M        225                            : top_depth    - START DEPTH
STOP.M        400                            : bot_depth    - STOP DEPTH
STEP.M        0.25                           : increment    - STEP LENGTH
 NULL. -999.2500:NULL Value
~CURVE INFORMATION BLOCK
#MNEM UNIT       ERCB CURVE CODE    CURVE DESCRIPTION
#-----------   ------------------   ----------------------------------
DEPT.M        00 001 00 00         : DEPTH        - DEPTH
GR  .API      00 310 00 00         : GR           - GAMMA RAY
NPHI.V/V      00 330 00 00         : PHIN         - NEUTRON POROSITY (SANDSTONE)
DPHI.V/V      00 890 00 00         : PHID         - DENSITY POROSITY (SANDSTONE)
ILD .OHMM     00 120 00 00         : RESD         - DEEP RESISTIVITY (DIL)
~PARAMETER INFORMATION
#MNEM.UNIT           DATA             DESCRIPTION OF MNEMONIC
#---------         -----------     ------------------------------
GL  .M        680.3                : gl           - GROUND LEVEL ELEVATION
EREF.M        683.8                : kb           - ELEVATION OF DEPTH REFERENCE
DATM.M        683.8                : datum        - DATUM ELEVATION
TDD .M        398                  : tdd          - TOTAL DEPTH DRILLER
RUN .         ONE                  : Run          - RUN NUMBER
ENG .         JO                   : Engineer     - RECORDING ENGINEER
WIT .         TIM                  : Witness      - WITNESSED BY
MUD .         GEL                  : Mud_type     - MUD TYPE
MATR.         SANDSTONE            : Logunit      - NEUTRON MATRIX
TMAX.C        32                   : BHT          - MAXIMUM RECORDED TEMPERATURE
BHTD.M        398                  : BHTDEP       - MAXIMUM RECORDED TEMPERATURE
RMT .C        21                   : MDTP         - TEMPERATURE OF MUD
MUDD.KG/M     1100                 : MWT          - MUD DENSITY
NEUT.         1                    : NEUTRON      - NEUTRON TYPE
RESI.         0                    : RESIST       - RESISTIVITY TYPE
RM  .OHMM     4                    : RM           - RESISTIVITY OF MUD
RMC .OHMM     3.5                  : RMC          - RESISTIVITY OF MUD CAKE
RMF .OHMM     5                    : RMF          - RESISTIVITY OF MUD FILTRATE
SUFT.C        4                    : SUFT         - SURFACE TEMPERATURE
~A  DEPTH       GR     PHIN     PHID     RESD
# ...
  312.000   65.079    0.317    0.190    6.979
  312.250   68.282    0.336    0.249    6.855
  312.500   76.600    0.390    0.292    6.489
  312.750   81.722    0.443    0.311    6.376
  313.000   77.271    0.448    0.299    6.263
  313.250   74.093    0.416    0.280    6.273
  313.500   75.391    0.398    0.247    6.279
  313.750   76.676    0.407    0.254    6.287
  314.000   80.521    0.414    0.249    6.299
  314.250   83.728    0.426    0.240    6.303
  314.500   89.484    0.439    0.248    6.314
  314.750   95.245    0.448    0.253    6.322
  315.000   98.452    0.401    0.258    5.872
  315.250   96.555    0.399    0.270    5.660
  315.500   95.288    0.431    0.281    5.357
  315.750  100.414    0.436    0.274    5.164
  316.000  107.448    0.452    0.273    5.073
  316.250  116.401    0.477    0.274    5.079
  316.500  114.500    0.473    0.281    5.088
  316.750  111.322    0.457    0.285    5.096
  317.000  105.590    0.439    0.292    5.196
  317.250   97.305    0.445    0.315    5.403
  317.500   85.827    0.458    0.330    5.834
  317.750   75.626    0.463    0.320    6.543
  318.000   71.810    0.451    0.262    7.065
  318.250   66.720    0.439    0.213    7.630
  318.500   65.457    0.428    0.223    7.786
  318.750   65.472    0.421    0.245    7.793
  319.000   68.040    0.430    0.278    7.374
  319.250   71.243    0.443    0.295    6.719
  319.500   87.219    0.455    0.292    5.784
  319.750   94.257    0.470    0.286    4.888
  320.000  101.298    0.489    0.274    4.371
  320.250  103.870    0.496    0.264    3.983
  320.500  105.161    0.475    0.256    3.768
  320.750  106.453    0.477    0.249    3.703
  321.000  107.744    0.486    0.248    3.851
  321.250  108.401    0.491    0.248    3.928
  321.500  109.688    0.479    0.249    4.087
  321.750  110.338    0.461    0.252    4.247
  322.000  108.440    0.446    0.255    4.502
  322.250  103.982    0.455    0.262    4.682
  322.500  100.165    0.466    0.269    4.774
  322.750  103.372    0.475    0.275    4.782
  323.000  105.302    0.472    0.278    4.788
  323.250  101.489    0.462    0.274    4.705
  323.500   98.950    0.447    0.271    4.892
  323.750   97.684    0.429    0.273    5.184
  324.000   94.506    0.419    0.274    5.707
  324.250   90.690    0.416    0.270    5.932
  324.500   89.427    0.418    0.264    6.168
  324.750   93.276    0.422    0.260    6.411
  325.000   95.841    0.428    0.257    6.669
  325.250   97.132    0.430    0.260    6.675
  325.500   97.788    0.433    0.262    6.813
  325.750   97.799    0.437    0.270    6.950
  326.000   95.260    0.442    0.274    7.091
  326.250   89.528    0.439    0.270    7.238
  326.500   83.158    0.426    0.261    7.528
  326.750   82.534    0.415    0.253    7.533
  327.000   87.656    0.423    0.261    7.548
  327.250   91.501    0.428    0.267    7.552
  327.500   92.158    0.439    0.261    7.711
  327.750   88.338    0.445    0.253    8.015
  328.000   81.329    0.415    0.262    8.496
  328.250   85.813    0.407    0.280    8.663
  328.500   89.662    0.411    0.292    8.356
  328.750   88.399    0.424    0.268    7.756
  329.000   90.333    0.439    0.263    6.681
  329.250   90.978    0.451    0.298    5.863
  329.500   89.077    0.449    0.317    5.547
  329.750   80.792    0.416    0.337    6.104
  330.000   76.975    0.401    0.319    6.841
  330.250   73.801    0.398    0.294    7.817
  330.500   78.281    0.431    0.282    7.683
  330.750   88.515    0.452    0.267    6.999
  331.000   95.552    0.468    0.267    6.258
  331.250  101.313    0.482    0.268    5.290
  331.500  107.712    0.476    0.272    4.820
  331.750  110.919    0.465    0.277    4.391
  332.000  114.767    0.466    0.283    4.079
  332.250  114.782    0.468    0.289    4.008
  332.500  111.600    0.472    0.292    4.327
  332.750  103.315    0.476    0.295    4.759
  333.000   95.029    0.478    0.286    5.438
  333.250   88.020    0.476    0.259    6.700
  333.500   82.927    0.459    0.239    8.572
  333.750   78.472    0.445    0.278   10.174
  334.000   78.490    0.439    0.303    9.630
  334.250   81.694    0.440    0.270    9.112
  334.500   86.816    0.434    0.254    8.459
  334.750   90.661    0.437    0.244    7.852
  335.000   95.145    0.444    0.269    6.637
  335.250  100.909    0.447    0.281    5.937
  335.500  102.200    0.440    0.269    5.721
  335.750  102.215    0.429    0.263    5.413
  336.000  101.591    0.421    0.265    5.420
  336.250  100.332    0.425    0.270    5.429
  336.500   99.701    0.428    0.276    5.539
  336.750   99.076    0.428    0.278    5.650
  337.000   97.175    0.425    0.278    6.103
  337.250   95.275    0.419    0.278    6.343
  337.500   92.742    0.411    0.188    6.854
  337.750   91.476    0.399    0.158    6.991
  338.000   88.940    0.390    0.112    7.133
  338.250   87.036    0.398    0.157    7.278
  338.500   90.239    0.407    0.178    7.288
  338.750   95.361    0.417    0.199    7.297
  339.000  100.494    0.403    0.220    7.170
  339.250  101.778    0.397    0.235    7.045
  339.500  103.708    0.408    0.249    6.796
  339.750  103.723    0.412    0.239    6.675
  340.000  102.464    0.407    0.235    6.318
  340.250  101.836    0.408    0.240    5.867
  340.500   99.939    0.418    0.245    5.761
  340.750  100.592    0.426    0.243    5.453
  341.000  103.163    0.436    0.235    5.256
  341.250  104.448    0.438    0.229    4.975
  341.500  107.654    0.449    0.225    4.796
  341.750  113.419    0.482    0.218    4.539
  342.000  115.348    0.509    0.212    4.376
  342.250  110.890    0.548    0.201    4.301
  342.500  102.604    0.513    0.166    4.307
  342.750   89.850    0.491    0.165    4.650
  343.000   92.421    0.410    0.191    5.116
  343.250  102.648    0.428    0.212    5.736
  343.500  112.239    0.439    0.230    6.312
  343.750  107.149    0.428    0.234    6.819
  344.000  103.972    0.415    0.234    7.088
  344.250  107.813    0.399    0.232    7.368
  344.500  112.935    0.385    0.230    7.958
  344.750  118.696    0.391    0.230    8.432
  345.000  123.180    0.403    0.230    8.765
  345.250  120.640    0.409    0.231    9.467
  345.500  115.547    0.395    0.232    9.659
  345.750  110.457    0.375    0.232    9.675
  346.000  107.914    0.355    0.233    9.681
  346.250  104.101    0.357    0.231    9.697
  346.500  102.200    0.395    0.227    9.706
  346.750  100.300    0.362    0.214    9.719
  347.000   99.672    0.338    0.189    9.731
  347.250   99.686    0.336    0.195    9.383
  347.500  106.727    0.362    0.207    9.220
  347.750  112.488    0.397    0.214    8.727
  348.000  111.229    0.427    0.215    8.104
  348.250  109.328    0.431    0.215    7.525
  348.500  112.535    0.441    0.212    7.120
  348.750  117.019    0.440    0.208    6.996
  349.000  114.476    0.422    0.211    7.003
  349.250  113.852    0.401    0.224    7.145
  349.500  108.123    0.388    0.234    7.430
  349.750  104.942    0.382    0.240    7.725
  350.000  103.045    0.376    0.234    8.035
  350.250  101.782    0.370    0.228    8.199
  350.500  101.797    0.364    0.225    8.366
  350.750  103.088    0.360    0.226    8.536
  351.000  105.653    0.359    0.230    8.547
  351.250  108.221    0.363    0.230    8.555
  351.500  108.874    0.370    0.229    8.566
  351.750  108.888    0.375    0.225    8.423
  352.000  108.264    0.369    0.222    8.276
  352.250  107.002    0.366    0.229    8.284
  352.500  103.189    0.369    0.239    8.292
  352.750  104.477    0.374    0.230    8.153
  353.000  107.045    0.379    0.226    8.161
  353.250  111.529    0.388    0.223    8.174
  353.500  113.459    0.404    0.222    8.187
  353.750  114.750    0.414    0.213    8.193
  354.000  114.126    0.411    0.203    8.206
  354.250  113.502    0.406    0.206    8.066
  354.500  110.962    0.400    0.209    7.923
  354.750  108.423    0.400    0.213    7.785
  355.000  107.160    0.406    0.213    7.795
  355.250  109.094    0.414    0.212    7.662
