~VERSION INFORMATION
 VERS.                 2.0:   CWLS LOG ASCII STANDARD -VERSION 2.0
 WRAP.                  NO:   ONE LINE PER DEPTH STEP
~WELL INFORMATION BLOCK
#MNEM.UNIT           DATA                    DESCRIPTION OF MNEMONIC
#---------    -------------------            -------------------------------
# Generated from Intellog Unique Number	CW_70_72/WELL/773
NULL.         -999.25                        : NULL_VALUE
WELL.         CANOXY SMITH 06-29             : Well_name    - WELL              
LOC .         06-29-071-01W5                 : Location     - LOCATION          
UWI .         00/06-29-071-01W5/0            : Uwi          - UNIQUE WELL ID    
ENTR.         JAYE                           : Entered      - ENTERED BY        
SRVC.         SCHLUMBERGER                   : Scn          - SERVICE COMPANY   
DATE.         31 DEC 76                      : Date         - LOG DATE          
STRT.M        387.096                        : top_depth    - START DEPTH       
STOP.M        646.096                        : bot_depth    - STOP DEPTH        
STEP.M        0.25                           : increment    - STEP LENGTH       
~CURVE INFORMATION BLOCK
#MNEM UNIT       ERCB CURVE CODE    CURVE DESCRIPTION
#-----------   ------------------   ----------------------------------
DEPT.M        00 001 00 00         : DEPTH        - DEPTH                       
DPHI.V/V      00 890 00 00         : PHID         - DENSITY POROSITY (SANDSTONE)
NPHI.V/V      00 330 00 00         : PHIN         - NEUTRON POROSITY (SANDSTONE)
GR  .API      00 310 00 00         : GR           - GAMMA RAY                   
CALI.MM       00 280 01 00         : CAL          - CALIPER                     
ILD .OHMM     00 120 00 00         : RESD         - DEEP RESISTIVITY (DIL)      
~PARAMETER INFORMATION       
#MNEM.UNIT           DATA             DESCRIPTION OF MNEMONIC
#---------         -----------     ------------------------------
GL  .M        585.826              : gl           - GROUND LEVEL ELEVATION      
EREF.M        588.874              : kb           - ELEVATION OF DEPTH REFERENCE
DATM.M        585.826              : datum        - DATUM ELEVATION             
TDD .M        660.806              : tdd          - TOTAL DEPTH DRILLER         
RUN .         ONE                  : Run          - RUN NUMBER                  
BASE.         EDM                  : Branch       - HOME BASE OF LOGGING UNIT   
MATR.         SANDSTONE            : Logunit      - NEUTRON MATRIX              
TMAX.C        27.2222              : BHT          - MAXIMUM RECORDED TEMPERATURE
BHTD.M        660.502              : BHTDEP       - MAXIMUM RECORDED TEMPERATURE
RMT .C        8.33333              : MDTP         - TEMPERATURE OF MUD          
MUDD.KG/M     0                    : MWT          - MUD DENSITY                 
NEUT.         1                    : NEUTRON      - NEUTRON TYPE                
RESI.         0                    : RESIST       - RESISTIVITY TYPE            
RM  .OHMM     4.28                 : RM           - RESISTIVITY OF MUD          
RMC .OHMM     0                    : RMC          - RESISTIVITY OF MUD CAKE     
RMF .OHMM     3.46                 : RMF          - RESISTIVITY OF MUD FILTRATE 
SUFT.C        -17.7778             : SUFT         - SURFACE TEMPERATURE         
~A  DEPTH     PHID     PHIN       GR      CAL     RESD
# ...
  569.596    0.069    0.335  101.278  181.046    7.920
  569.846    0.074    0.329  100.573  181.292    7.978
  570.096    0.087    0.330  102.299  181.443    8.171
  570.346    0.095    0.331  101.534  181.479    8.368
  570.596    0.079    0.330   99.796  181.526    8.586
  570.846    0.054    0.329   97.574  181.669    8.713
  571.096    0.058    0.325   97.720  181.813    8.728
  571.346    0.081    0.322   99.264  181.955    8.663
  571.596    0.085    0.334   98.922  181.800    8.472
  571.846    0.070    0.323   97.855  181.829    8.045
  572.096    0.077    0.313   98.062  181.873    7.810
  572.346    0.069    0.302   98.630  182.123    7.824
  572.596    0.059    0.305  100.477  182.262    8.057
  572.846    0.009    0.304  102.081  182.408    8.252
  573.096   -0.012    0.298  104.477  181.935    8.085
  573.346    0.021    0.301  106.625  181.979    7.706
  573.596    0.018    0.312  109.564  182.017    7.385
  573.846    0.065    0.321  113.415  183.187    6.986
  574.096    0.095    0.334  116.842  186.110    6.477
  574.346    0.090    0.350  114.010  188.620    6.004
  574.596    0.096    0.345  107.415  190.310    5.515
  574.846    0.084    0.323  108.047  191.170    4.395
  575.096    0.086    0.395  110.501  193.065    3.119
  575.346    0.156    0.434  112.894  197.426    2.485
  575.596    0.177    0.509  114.679  206.309    2.055
  575.846    0.185    0.519  110.574  215.298    2.017
  576.096    0.156    0.459  109.686  215.648    2.093
  576.346    0.132    0.437  110.198  208.491    2.342
  576.596    0.114    0.451  111.679  207.616    2.554
  576.846    0.127    0.474  114.256  206.722    2.868
  577.096    0.119    0.481  109.602  197.506    3.361
  577.346    0.087    0.466  102.399  203.926    3.767
  577.596    0.052    0.427   97.929  203.246    4.580
  577.846    0.008    0.395   97.589  191.565    5.725
  578.096   -0.001    0.380   99.922  181.526    6.659
  578.346   -0.013    0.370  103.832  180.135    7.548
  578.596   -0.015    0.363  108.412  180.998    7.948
  578.846    0.063    0.354  113.539  182.273    7.730
  579.096    0.084    0.343  117.329  183.236    7.394
  579.346    0.075    0.348  114.683  184.104    7.258
  579.596    0.071    0.352  112.216  184.761    7.799
  579.846    0.084    0.345  110.846  184.391    8.583
  580.096    0.054    0.332  109.290  183.405    9.290
  580.346    0.041    0.317  106.519  182.209    9.891
  580.596    0.029    0.281  103.993  180.712   10.627
  580.846    0.000    0.296   99.948  179.514   11.419
  581.096    0.045    0.328   95.234  178.116   10.984
  581.346    0.031    0.311   91.435  177.023    8.916
  581.596    0.017    0.275   95.526  176.861    7.678
  581.846    0.028    0.326  101.564  178.036    7.157
  582.096    0.059    0.395  108.572  181.058    7.104
  582.346    0.061    0.415  109.690  186.758    7.249
  582.596    0.129    0.388  108.623  193.788    7.646
  582.846    0.128    0.352  109.072  186.630    8.186
  583.096    0.068    0.357  107.760  181.737    8.461
  583.346    0.044    0.356  108.514  181.165    8.413
  583.596    0.006    0.363  109.328  180.695    8.289
  583.846    0.037    0.357  109.534  180.435    8.182
  584.096    0.064    0.333  109.558  180.365    8.121
  584.346    0.087    0.320  109.522  179.792    8.210
  584.596    0.073    0.316  109.180  179.313    8.332
  584.846    0.056    0.333  107.324  178.843    8.408
  585.096    0.051    0.347  100.119  178.783    8.438
  585.346    0.070    0.357   87.329  178.815    8.391
  585.596    0.095    0.338   71.197  178.355    7.997
  585.846    0.119    0.313   59.985  178.079    7.265
  586.096    0.186    0.269   49.987  176.474    5.621
  586.346    0.223    0.279   45.216  169.519    4.665
  586.596    0.199    0.299   44.145  165.654    3.944
  586.846    0.229    0.314   42.225  164.052    3.377
  587.096    0.245    0.331   37.938  164.708    2.908
  587.346    0.237    0.353   36.930  165.371    2.676
  587.596    0.217    0.353   37.077  165.515    2.537
  587.846    0.237    0.350   37.951  165.557    2.422
  588.096    0.222    0.346   38.461  165.701    2.338
  588.346    0.210    0.343   37.756  165.635    2.296
  588.596    0.216    0.341   36.871  165.686    2.266
  588.846    0.216    0.344   36.409  165.930    2.249
  589.096    0.225    0.340   36.192  166.282    2.253
  589.346    0.240    0.336   36.275  166.627    2.253
  589.596    0.257    0.339   35.571  166.876    2.261
  589.846    0.250    0.342   34.258  166.812    2.281
  590.096    0.263    0.342   33.371  167.056    2.319
  590.346    0.226    0.339   33.034  166.893    2.353
  590.596    0.204    0.341   33.178  166.836    2.384
  590.846    0.215    0.344   33.445  166.782    2.406
  591.096    0.217    0.345   33.955  166.723    2.450
  591.346    0.236    0.343   36.166  166.555    2.495
  591.596    0.231    0.349   39.472  166.483    2.509
  591.846    0.219    0.340   41.195  166.111    2.513
  592.096    0.220    0.331   39.885  165.641    2.513
  592.346    0.199    0.330   40.459  164.858    2.508
  592.596    0.202    0.339   41.269  164.800    2.499
  592.846    0.221    0.341   42.146  165.044    2.517
  593.096    0.231    0.333   43.505  166.112    2.517
  593.346    0.216    0.332   44.440  167.697    2.521
  593.596    0.224    0.332   41.975  168.461    2.516
  593.846    0.210    0.332   40.419  168.702    2.516
  594.096    0.218    0.333   41.174  168.849    2.530
  594.346    0.221    0.333   42.230  168.483    2.529
  594.596    0.238    0.335   44.294  167.528    2.833
  594.846    0.220    0.344   45.179  167.384    2.854
  595.096    0.205    0.344   45.686  167.014    2.869
  595.346    0.218    0.339   46.024  166.457    2.878
  595.596    0.219    0.339   45.992  166.201    2.883
  595.846    0.211    0.341   46.746  165.947    2.910
  596.096    0.204    0.346   48.230  165.883    2.931
  596.346    0.203    0.354   49.656  165.735    2.957
  596.596    0.215    0.356   49.866  165.691    3.000
  596.846    0.226    0.351   49.047  165.426    3.055
  597.096    0.223    0.342   48.656  165.380    3.141
  597.346    0.221    0.334   51.047  165.522    3.210
  597.596    0.210    0.332   54.652  165.784    3.367
  597.846    0.187    0.348   57.286  165.944    3.505
  598.096    0.175    0.355   58.951  165.997    3.618
  598.346    0.168    0.360   61.102  166.254    3.656
  598.596    0.167    0.353   64.225  166.497    3.702
  598.846    0.181    0.347   65.102  166.551    3.772
  599.096    0.168    0.346   65.312  166.909    3.840
  599.346    0.152    0.346   65.829  166.953    3.947
  599.596    0.143    0.345   66.766  167.318    4.079
  599.846    0.145    0.344   68.494  167.679    4.225
  600.096    0.155    0.342   68.219  167.513    4.319
  600.346    0.164    0.340   67.824  167.471    4.366
  600.596    0.177    0.338   68.158  167.208    4.429
  600.846    0.165    0.343   67.947  167.068    4.510
  601.096    0.140    0.345   67.552  167.010    4.612
  601.346    0.150    0.336   68.067  167.051    4.670
  601.596    0.140    0.337   69.003  167.103    4.712
  601.846    0.149    0.344   70.367  167.258    4.728
  602.096    0.136    0.351   71.731  167.534    4.718
  602.346    0.131    0.358   73.580  167.777    4.719
  602.596    0.114    0.365   76.515  167.925    4.726
  602.846    0.130    0.356   83.756  168.072    4.717
  603.096    0.149    0.336   80.332  168.335    4.714
  603.346    0.146    0.328   75.879  168.492    4.751
  603.596    0.140    0.333   76.817  168.736    4.821
  603.846    0.145    0.329   80.179  168.999    4.910
  604.096    0.136    0.325   81.118  169.262    4.979
  604.346    0.123    0.323   81.573  169.318    5.167
  604.596    0.125    0.314   81.965  169.457    5.289
  604.846    0.128    0.320   84.418  169.500    5.438
  605.096    0.132    0.328   89.417  169.560    5.547
  605.346    0.137    0.328   98.234  170.024    5.628
  605.596    0.124    0.329  105.896  170.581    5.765
  605.846    0.090    0.338   93.627  171.555    5.956
