~VERSION INFORMATION
 VERS.                 2.0:   CWLS LOG ASCII STANDARD -VERSION 2.0
 WRAP.                  NO:   ONE LINE PER DEPTH STEP
~WELL INFORMATION BLOCK
#MNEM.UNIT           DATA                    DESCRIPTION OF MNEMONIC
#---------    -------------------            -------------------------------
# Generated from Intellog Unique Number	CS_73_76/WELL/2809
WELL.         ESSO WINEFRED LAKR             : Well_name    - WELL
LOC .         00/03-31-075-03W4/0            : Location     - LOCATION
UWI .         00/03-31-075-03W4/0            : Uwi          - UNIQUE WELL ID
ENTR.         TIM                            : Entered      - ENTERED BY
SRVC.         SCHLUMBERGER                   : Scn          - SERVICE COMPANY
STRT.M        250                            : top_depth    - START DEPTH
STOP.M        495                            : bot_depth    - STOP DEPTH
STEP.M        0.25                           : increment    - STEP LENGTH
 NULL. -999.2500:NULL Value
~CURVE INFORMATION BLOCK
#MNEM UNIT       ERCB CURVE CODE    CURVE DESCRIPTION
#-----------   ------------------   ----------------------------------
DEPT.M        00 001 00 00         : DEPTH        - DEPTH
ILD .OHMM     00 120 00 00         : RESD         - DEEP RESISTIVITY (DIL)
DPHI.V/V      00 890 00 00         : PHID         - DENSITY POROSITY (SANDSTONE)
NPHI.V/V      00 330 00 00         : PHIN         - NEUTRON POROSITY (SANDSTONE)
GR  .API      00 310 00 00         : GR           - GAMMA RAY
~PARAMETER INFORMATION
#MNEM.UNIT           DATA             DESCRIPTION OF MNEMONIC
#---------         -----------     ------------------------------
GL  .M        623.9                : gl           - GROUND LEVEL ELEVATION
EREF.M        627.65               : kb           - ELEVATION OF DEPTH REFERENCE
DATM.M        627.65               : datum        - DATUM ELEVATION
TDD .M        505                  : tdd          - TOTAL DEPTH DRILLER
RUN .         ONE                  : Run          - RUN NUMBER
ENG .         BILL                 : Engineer     - RECORDING ENGINEER
WIT .         JIM                  : Witness      - WITNESSED BY
MUD .         GEL                  : Mud_type     - MUD TYPE
MATR.         SANDSTONE            : Logunit      - NEUTRON MATRIX
TMAX.C        32                   : BHT          - MAXIMUM RECORDED TEMPERATURE
BHTD.M        505                  : BHTDEP       - MAXIMUM RECORDED TEMPERATURE
RMT .C        20                   : MDTP         - TEMPERATURE OF MUD
MUDD.KG/M     1160                 : MWT          - MUD DENSITY
NEUT.         1                    : NEUTRON      - NEUTRON TYPE
RESI.         0                    : RESIST       - RESISTIVITY TYPE
RM  .OHMM     1.5                  : RM           - RESISTIVITY OF MUD
RMC .OHMM     2.2                  : RMC          - RESISTIVITY OF MUD CAKE
RMF .OHMM     3.1                  : RMF          - RESISTIVITY OF MUD FILTRATE
SUFT.C        4                    : SUFT         - SURFACE TEMPERATURE
~A  DEPTH     RESD     PHID     PHIN       GR
  250.000    2.998    0.233    0.491   80.692
  250.250    3.002    0.196    0.474   81.957
  250.500    3.061    0.178    0.463   83.215
  250.750    3.123    0.207    0.454   84.477
  251.000    3.185    0.245    0.446   85.738
  251.250    3.250    0.242    0.442   86.377
  251.500    3.193    0.235    0.449   87.016
  251.750    3.198    0.226    0.477   87.647
  252.000    3.144    0.228    0.501   90.162
  252.250    3.090    0.235    0.519   92.049
  252.500    3.094    0.235    0.520   92.056
  252.750    3.157    0.232    0.508   91.442
  253.000    3.163    0.229    0.505   90.201
  253.250    3.166    0.229    0.511   88.961
  253.500    3.169    0.231    0.526   88.974
  253.750    3.114    0.236    0.536   89.610
  254.000    3.005    0.238    0.528   90.874
  254.250    3.008    0.241    0.517   91.507
  254.500    2.957    0.241    0.500   92.141
  254.750    2.961    0.239    0.491   92.151
  255.000    3.020    0.236    0.491   92.790
  255.250    3.197    0.233    0.494   92.801
  255.500    3.260    0.232    0.503   92.811
  255.750    3.788    0.231    0.479   90.945
  256.000    4.240    0.224    0.386   84.076
  256.250    4.574    0.208    0.358   78.457
  256.500    4.749    0.176    0.341   72.215
  256.750    4.935    0.129    0.348   67.845
  257.000    5.731    0.124    0.367   63.479
  257.250    7.441    0.199    0.391   60.988
  257.500    8.483    0.238    0.289   54.741
  257.750    8.338    0.254    0.284   30.983
  258.000    7.610    0.206    0.295   23.488
  258.250    6.692    0.200    0.331   22.248
  258.500    5.567    0.211    0.385   47.903
  258.750    5.081    0.225    0.418   76.060
  259.000    5.481    0.235    0.407   81.708
  259.250    6.019    0.249    0.401   79.837
  259.500    6.735    0.263    0.389   74.218
  259.750    7.537    0.270    0.374   69.850
  260.000    8.437    0.250    0.363   72.988
  260.250    8.767    0.249    0.408   76.752
  260.500    9.110    0.279    0.444   75.511
  260.750    9.292    0.352    0.481   71.769
  261.000   10.024    0.409    0.558   66.775
  261.250   11.007    0.363    0.540   64.910
  261.500   11.870    0.321    0.419   64.920
  261.750   12.569    0.311    0.399   64.305
  262.000   13.056    0.312    0.389   58.686
  262.250   13.321    0.314    0.386   54.944
  262.500   13.842    0.315    0.389   55.583
  262.750   14.383    0.316    0.393   57.467
  263.000   14.671    0.316    0.402   59.982
  263.250   14.425    0.315    0.413   61.869
  263.500   13.662    0.313    0.417   63.131
  263.750   12.940    0.307    0.413   65.020
  264.000   12.485    0.304    0.409   68.781
  264.250   12.271    0.294    0.420   73.173
  264.500   12.065    0.284    0.427   76.936
  264.750   12.073    0.277    0.412   78.198
  265.000   12.318    0.270    0.405   77.580
  265.250   12.561    0.263    0.405   75.714
  265.500   12.577    0.260    0.416   70.721
  265.750   12.837    0.275    0.412   66.353
  266.000   12.849    0.296    0.405   63.236
  266.250   12.625    0.291    0.401   63.252
  266.500   12.189    0.285    0.395   62.637
  266.750   11.753    0.278    0.395   64.524
  267.000   10.931    0.261    0.417   67.662
  267.250    9.796    0.251    0.430   71.423
  267.500    9.272    0.247    0.445   74.561
  267.750    8.623    0.244    0.438   76.448
  268.000    8.317    0.242    0.430   76.458
  268.250    7.883    0.241    0.423   73.341
  268.500    7.748    0.238    0.433   78.356
  268.750    7.758    0.236    0.446   82.119
  269.000    7.765    0.234    0.442   84.632
  269.250    7.923    0.242    0.435   86.521
  269.500    8.079    0.252    0.449   84.033
  269.750    8.395    0.319    0.468   77.786
  270.000    8.886    0.342    0.465   78.424
  270.250    9.954    0.167    0.355   80.309
  270.500   10.147    0.156    0.361   80.319
  270.750   10.741    0.156    0.368   75.326
  271.000   11.161    0.170    0.366   70.333
  271.250   11.597    0.185    0.361   67.218
  271.500   12.054    0.215    0.353   65.975
  271.750   12.295    0.238    0.348   63.484
  272.000   12.541    0.255    0.348   60.367
  272.250   12.788    0.272    0.345   55.999
  272.500   12.805    0.284    0.343   51.006
  272.750   12.821    0.284    0.349   46.638
  273.000   12.838    0.264    0.368   51.030
  273.250   12.386    0.264    0.377   55.416
  273.500   12.174    0.271    0.377   56.680
  273.750   11.746    0.271    0.368   52.940
  274.000   11.125    0.236    0.361   51.072
  274.250   10.734    0.215    0.366   76.727
  274.500    9.623    0.187    0.375   89.873
  274.750    9.108    0.149    0.387   94.892
  275.000    8.010    0.154    0.399   94.898
  275.250    7.176    0.169    0.410   94.908
  275.500    6.083    0.201    0.422   97.421
  275.750    5.350    0.211    0.436  102.435
  276.000    4.881    0.202    0.455  106.827
  276.250    4.373    0.200    0.473  103.710
  276.500    3.846    0.208    0.489  102.469
  276.750    3.510    0.212    0.500  106.233
  277.000    3.203    0.220    0.509  108.120
  277.250    3.091    0.228    0.515  108.130
  277.500    3.095    0.235    0.515  107.515
  277.750    3.400    0.243    0.513  106.903
  278.000    3.598    0.237    0.490  104.412
  278.250    4.027    0.223    0.452  101.292
  278.500    4.855    0.227    0.446   96.299
  278.750    5.743    0.260    0.441   90.055
  279.000    7.183    0.282    0.432   83.810
  279.250    8.984    0.302    0.422   75.690
  279.500   10.831    0.326    0.420   66.944
  279.750   13.297    0.330    0.418   63.201
  280.000   16.026    0.329    0.413   61.961
  280.250   17.605    0.326    0.409   63.225
  280.500   17.963    0.322    0.409   63.866
  280.750   17.986    0.320    0.406   63.249
  281.000   18.009    0.317    0.401   63.262
  281.250   17.701    0.311    0.398   63.270
  281.500   16.457    0.304    0.400   63.906
  281.750   15.301    0.298    0.408   65.793
  282.000   14.492    0.292    0.419   68.931
  282.250   13.986    0.285    0.422   72.066
  282.500   13.743    0.278    0.408   75.207
  282.750   13.769    0.284    0.397   73.969
  283.000   13.778    0.289    0.401   73.349
  283.250   13.800    0.286    0.407   71.483
  283.500   13.813    0.292    0.411   70.868
  283.750   14.090    0.299    0.413   71.504
  284.000   14.372    0.308    0.414   72.142
  284.250   14.659    0.313    0.412   72.781
  284.500   15.527    0.309    0.408   79.669
  284.750   15.833    0.296    0.405   74.050
  285.000   16.160    0.287    0.392   68.432
  285.250   16.468    0.302    0.378   64.689
  285.500   16.803    0.303    0.368   70.329
  285.750   17.139    0.268    0.365   73.467
  286.000   18.834    0.259    0.362   65.347
  286.250   20.683    0.271    0.357   56.600
  286.500   24.019    0.287    0.354   47.229
  286.750   27.903    0.304    0.350   37.231
  287.000   31.216    0.321    0.341   29.111
  287.250   35.609    0.331    0.335   24.745
  287.500   37.013    0.331    0.334   24.759
  287.750   37.049    0.330    0.329   24.764
  288.000   37.108    0.326    0.326   24.149
  288.250   36.450    0.322    0.329   22.909
  288.500   36.496    0.321    0.334   21.671
  288.750   35.224    0.332    0.338   20.433
  289.000   33.362    0.333    0.341   20.441
  289.250   31.608    0.340    0.342   20.451
  289.500   30.477    0.344    0.344   24.215
  289.750   29.965    0.328    0.345   29.229
  290.000   29.994    0.315    0.345   37.371
  290.250   30.042    0.322    0.334   43.016
  290.500   30.653    0.325    0.322   43.022
  290.750   31.247    0.260    0.334   44.283
  291.000   31.892    0.278    0.347   48.049
  291.250   31.923    0.308    0.348   49.936
  291.500   30.801    0.331    0.343   52.449
  291.750   28.645    0.320    0.351   53.090
  292.000   26.624    0.311    0.366   53.095
  292.250   24.761    0.322    0.378   52.480
  292.500   24.329    0.345    0.370   53.742
  292.750   23.482    0.352    0.364   55.003
  293.000   22.663    0.332    0.365   55.639
  293.250   22.261    0.320    0.366   56.903
