~VERSION INFORMATION
 VERS.                 2.0:   CWLS LOG ASCII STANDARD -VERSION 2.0
 WRAP.                  NO:   ONE LINE PER DEPTH STEP
~WELL INFORMATION BLOCK
#MNEM.UNIT           DATA                    DESCRIPTION OF MNEMONIC
#---------    -------------------            -------------------------------
# Generated from Intellog Unique Number	CS_73_76/WELL/2106
WELL.         ANDERSON EXPLORATION LTD.      : Well_name    - WELL
LOC .         00/07-10-075-11W4/0            : Location     - LOCATION
UWI .         00/07-10-075-11W4/0            : Uwi          - UNIQUE WELL ID
ENTR.         SP                             : Entered      - ENTERED BY
SRVC.         SCHLUMBERGER                   : Scn          - SERVICE COMPANY
STRT.M        270                            : top_depth    - START DEPTH
STOP.M        500                            : bot_depth    - STOP DEPTH
STEP.M        0.25                           : increment    - STEP LENGTH
 NULL. -999.2500:NULL Value
~CURVE INFORMATION BLOCK
#MNEM UNIT       ERCB CURVE CODE    CURVE DESCRIPTION
#-----------   ------------------   ----------------------------------
DEPT.M        00 001 00 00         : DEPTH        - DEPTH
ILD .OHMM     00 120 00 00         : RESD         - DEEP RESISTIVITY (DIL)
DPHI.V/V      00 890 00 00         : PHID         - DENSITY POROSITY (LIMESTONE)
GR  .API      00 310 00 00         : GR           - GAMMA RAY
NPHI.V/V      00 330 00 00         : PHIN         - NEUTRON POROSITY (LIMESTONE)
~PARAMETER INFORMATION
#MNEM.UNIT           DATA             DESCRIPTION OF MNEMONIC
#---------         -----------     ------------------------------
GL  .M        649                  : gl           - GROUND LEVEL ELEVATION
EREF.M        652.5                : kb           - ELEVATION OF DEPTH REFERENCE
DATM.M        649                  : datum        - DATUM ELEVATION
TDD .M        505                  : tdd          - TOTAL DEPTH DRILLER
RUN .         ONE                  : Run          - RUN NUMBER
ENG .         BILL                 : Engineer     - RECORDING ENGINEER
WIT .         JIM                  : Witness      - WITNESSED BY
MUD .         GEL                  : Mud_type     - MUD TYPE
MATR.         LIMESTONE            : Logunit      - NEUTRON MATRIX
TMAX.C        10                   : BHT          - MAXIMUM RECORDED TEMPERATURE
BHTD.M        505                  : BHTDEP       - MAXIMUM RECORDED TEMPERATURE
MATR.         1                    : LOGUNIT      - NEUTRON MATRIX
RMT .C        25                   : MDTP         - TEMPERATURE OF MUD
NEUT.         1                    : NEUTRON      - NEUTRON TYPE
RESI.         0                    : RESIST       - RESISTIVITY TYPE
RMC .OHMM     0.25                 : RMC          - RESISTIVITY OF MUD CAKE
RMF .OHMM     0.25                 : RMF          - RESISTIVITY OF MUD FILTRATE
SUFT.C        15                   : SUFT         - SURFACE TEMPERATURE
~A  DEPTH     RESD     PHID       GR     PHIN
  270.000    3.095    0.259  106.898    0.565
  270.250    3.039    0.258  106.906    0.554
  270.500    3.039    0.260  106.917    0.545
  270.750    3.040    0.265  105.716    0.563
  271.000    3.155    0.272  105.123    0.584
  271.250    3.336    0.283  105.137    0.602
  271.500    3.527    0.289  105.149    0.578
  271.750    3.593    0.285  105.162    0.564
  272.000    3.730    0.283  105.780    0.543
  272.250    3.662    0.284  105.797    0.537
  272.500    3.595    0.283  105.804    0.542
  272.750    3.664    0.276  102.781    0.553
  273.000    3.733    0.270  101.578    0.552
  273.250    3.874    0.274  100.375    0.544
  273.500    3.947    0.260   97.960    0.555
  273.750    4.022    0.238   95.543    0.568
  274.000    3.876    0.216   94.339    0.555
  274.250    3.806    0.221   95.567    0.524
  274.500    4.099    0.196   98.617    0.510
  274.750    4.334    0.243  101.668    0.536
  275.000    5.121    0.254  104.716    0.548
  275.250    5.724    0.268  107.159    0.553
  275.500    6.052    0.273  107.776    0.531
  275.750    5.030    0.291  102.935    0.514
  276.000    4.338    0.311   99.906    0.499
  276.250    3.882    0.351   85.951    0.508
  276.500    4.030    0.429   64.707    0.557
  276.750    5.033    0.581   53.181    0.591
  277.000    6.771    0.623   42.868    0.616
  277.250    8.776    0.612   42.276    0.638
  277.500   10.370    0.599   44.110    0.622
  277.750   11.169    0.582   45.337    0.595
  278.000   11.809    0.561   45.958    0.567
  278.250   11.173    0.541   46.580    0.554
  278.500   11.175    0.563   46.587    0.569
  278.750   12.725    0.577   48.426    0.585
  279.000   14.759    0.573   51.478    0.585
  279.250   16.497    0.556   54.525    0.567
  279.500   17.122    0.534   58.180    0.554
  279.750   16.199    0.447   63.661    0.498
  280.000   14.770    0.365   65.490    0.465
  280.250   13.466    0.365   69.147    0.447
  280.500   12.507    0.382   69.768    0.432
  280.750   11.616    0.390   71.603    0.423
  281.000   11.618    0.405   76.472    0.415
  281.250   11.621    0.349   83.773    0.451
  281.500   11.622    0.317   94.110    0.451
  281.750   11.624    0.294   99.590    0.447
  282.000   10.998    0.312   94.142    0.444
  282.250   10.215    0.359   91.720    0.451
  282.500    9.844    0.407   85.661    0.480
  282.750    9.314    0.425   82.029    0.528
  283.000    9.145    0.446   80.824    0.574
  283.250   10.607    0.388   84.484    0.534
  283.500   12.305    0.389   85.708    0.509
  283.750   13.009    0.466   78.433    0.514
  284.000   14.813    0.529   70.552    0.559
  284.250   15.373    0.455   71.782    0.549
  284.500   15.957    0.357   79.694    0.508
  284.750   15.667    0.333   83.346    0.467
  285.000   15.101    0.322   87.002    0.470
  285.250   14.825    0.314   90.053    0.484
  285.500   14.289    0.328   91.886    0.499
  285.750   13.028    0.330   94.328    0.498
  286.000   12.791    0.354   95.556    0.483
  286.250   12.328    0.434   91.317    0.464
  286.500   12.561    0.495   84.649    0.487
  286.750   13.038    0.531   77.978    0.536
  287.000   13.284    0.566   76.170    0.565
  287.250   13.787    0.573   81.044    0.596
  287.500   14.048    0.460   84.091    0.546
  287.750   13.792    0.385   87.748    0.493
  288.000   13.794    0.339   86.544    0.479
  288.250   13.051    0.373   81.092    0.480
  288.500   12.122    0.422   72.603    0.474
  288.750   11.901    0.451   66.541    0.491
  289.000   12.125    0.506   62.301    0.555
  289.250   13.061    0.514   58.672    0.578
  289.500   14.331    0.511   56.864    0.585
  289.750   15.724    0.547   56.875    0.611
  290.000   16.624    0.488   58.712    0.616
  290.250   18.242    0.394   62.975    0.569
  290.500   18.933    0.335   66.023    0.489
  290.750   19.650    0.333   68.464    0.458
  291.000   20.395    0.342   69.087    0.459
  291.250   21.567    0.340   69.100    0.466
  291.500   21.569    0.337   68.502    0.459
  291.750   21.574    0.334   67.909    0.453
  292.000   21.576    0.336   66.708    0.452
  292.250   21.186    0.340   64.292    0.466
  292.500   21.188    0.339   63.088    0.473
  292.750   21.194    0.345   61.277    0.479
  293.000   21.197    0.354   60.073    0.491
  293.250   21.199    0.360   60.697    0.508
  293.500   20.815    0.358   60.709    0.515
  293.750   20.437    0.353   59.508    0.513
  294.000   20.439    0.353   58.309    0.500
  294.250   20.068    0.353   57.710    0.494
  294.500   20.072    0.346   58.944    0.503
  294.750   20.075    0.342   60.169    0.520
  295.000   19.711    0.336   61.394    0.531
  295.250   19.715    0.338   63.228    0.513
  295.500   19.718    0.338   64.453    0.490
  295.750   19.360    0.344   68.115    0.500
  296.000   19.007    0.344   70.555    0.519
  296.250   17.653    0.339   72.385    0.503
  296.500   15.800    0.345   76.045    0.479
  296.750   13.376    0.350   79.092    0.462
  297.000   10.913    0.336   82.140    0.460
  297.250    8.740    0.325   87.013    0.456
  297.500    7.000    0.321   94.315    0.461
  297.750    6.037    0.302   99.792    0.473
  298.000    5.711    0.251  107.700    0.500
  298.250    5.819    0.227  116.213    0.512
  298.500    6.385    0.192  113.798    0.534
  298.750    6.751    0.143  109.559    0.504
  299.000    7.687    0.176  116.861    0.486
  299.250    8.435    0.290  121.733    0.511
  299.500    9.255    0.308  120.527    0.502
  299.750    9.785    0.367  109.002    0.487
  300.000   10.736    0.424   98.083    0.521
  300.250   11.143    0.456   95.664    0.547
  300.500   11.782    0.439   96.892    0.496
  300.750   11.784    0.415   94.474    0.468
  301.000   10.744    0.388   90.240    0.495
  301.250    9.978    0.418   87.823    0.526
  301.500    9.097    0.397   90.875    0.507
  301.750    8.294    0.345   95.135    0.468
  302.000    8.144    0.334  103.043    0.466
  302.250    7.995    0.345  107.307    0.493
  302.500    7.426    0.335  109.139    0.517
  302.750    6.897    0.331  110.976    0.506
  303.000    6.647    0.304  107.954    0.488
  303.250    7.029    0.313  100.680    0.505
  303.500    7.431    0.418   95.828    0.522
  303.750    8.155    0.499   85.517    0.534
  304.000    8.308    0.540   74.598    0.542
  304.250    8.465    0.496   69.147    0.550
  304.500    8.625    0.434   77.053    0.554
  304.750    9.290    0.365   87.392    0.515
  305.000    9.641    0.316   96.515    0.492
  305.250   11.185    0.285   98.954    0.473
  305.500   11.825    0.283   95.931    0.464
  305.750   12.503    0.300   86.228    0.464
  306.000   12.977    0.307   83.201    0.465
  306.250   13.468    0.320   81.400    0.471
  306.500   13.979    0.314   81.409    0.475
  306.750   13.725    0.301   80.207    0.487
  307.000   14.246    0.285   79.607    0.494
  307.250   14.248    0.280   78.410    0.506
  307.500   13.480    0.273   77.815    0.451
  307.750   11.844    0.249   77.218    0.410
  308.000   10.797    0.220   76.620    0.375
  308.250   10.602    0.257   81.493    0.375
  308.500   10.802    0.307   87.581    0.458
  308.750   11.006    0.321   90.629    0.511
  309.000   11.213    0.310   90.035    0.522
  309.250   11.010    0.327   87.011    0.518
  309.500   10.611    0.332   83.989    0.504
  309.750    9.855    0.308   83.999    0.514
  310.000    9.499    0.290   87.658    0.504
  310.250    9.500    0.297   91.924    0.496
  310.500    9.502    0.292   93.145    0.504
  310.750    9.158    0.284   94.980    0.490
  311.000    8.827    0.270   94.388    0.481
  311.250    8.351    0.269   96.829    0.475
  311.500    7.901    0.273   97.448    0.471
  311.750    6.942    0.304   90.784    0.482
  312.000    6.691    0.349   87.152    0.505
  312.250    6.692    0.427   82.911    0.520
  312.500    6.946    0.503   78.670    0.554
  312.750    7.209    0.583   75.038    0.573
  313.000    7.482    0.592   78.093    0.649
  313.250    7.912    0.605   80.529    0.656
