~VERSION INFORMATION
 VERS.                 2.0:   CWLS LOG ASCII STANDARD -VERSION 2.0
 WRAP.                  NO:   ONE LINE PER DEPTH STEP
~WELL INFORMATION BLOCK
#MNEM.UNIT           DATA                    DESCRIPTION OF MNEMONIC
#---------    -------------------            -------------------------------
# Generated from Intellog Unique Number	CS_69_70/WELL/772
WELL.         ALGAS MINERAL ENTERPRISES      : Well_name    - WELL
LOC .         00/06-20-069-16W4/0            : Location     - LOCATION
UWI .         00/06-20-069-16W4/0            : Uwi          - UNIQUE WELL ID
ENTR.         SP                             : Entered      - ENTERED BY
SRVC.         SCHLUMBERGER                   : Scn          - SERVICE COMPANY
STRT.M        283.464                        : top_depth    - START DEPTH
STOP.M        481.214                        : bot_depth    - STOP DEPTH
STEP.M        0.25                           : increment    - STEP LENGTH
 NULL. -999.2500:NULL Value
~CURVE INFORMATION BLOCK
#MNEM UNIT       ERCB CURVE CODE    CURVE DESCRIPTION
#-----------   ------------------   ----------------------------------
DEPT.M        00 001 00 00         : DEPTH        - DEPTH
GR  .API      00 310 00 00         : GR           - GAMMA RAY
DPHI.V/V      00 890 00 00         : PHID         - DENSITY POROSITY (SANDSTONE)
NPHI.V/V      00 330 00 00         : PHIN         - NEUTRON POROSITY (SANDSTONE)
ILD .OHMM     00 120 00 00         : RESD         - DEEP RESISTIVITY (DIL)
~PARAMETER INFORMATION
#MNEM.UNIT           DATA             DESCRIPTION OF MNEMONIC
#---------         -----------     ------------------------------
GL  .M        561.899              : gl           - GROUND LEVEL ELEVATION
EREF.M        565.252              : kb           - ELEVATION OF DEPTH REFERENCE
DATM.M        561.899              : datum        - DATUM ELEVATION
TDD .M        493.166              : tdd          - TOTAL DEPTH DRILLER
RUN .         ONE                  : Run          - RUN NUMBER
ENG .         BILL                 : Engineer     - RECORDING ENGINEER
WIT .         JIM                  : Witness      - WITNESSED BY
MUD .         GEL                  : Mud_type     - MUD TYPE
MATR.         SANDSTONE            : Logunit      - NEUTRON MATRIX
TMAX.C        25.5556              : BHT          - MAXIMUM RECORDED TEMPERATURE
BHTD.M        493.166              : BHTDEP       - MAXIMUM RECORDED TEMPERATURE
MATR.         1                    : LOGUNIT      - NEUTRON MATRIX
RMT .C        25                   : MDTP         - TEMPERATURE OF MUD
NEUT.         1                    : NEUTRON      - NEUTRON TYPE
RESI.         0                    : RESIST       - RESISTIVITY TYPE
RMC .OHMM     0.25                 : RMC          - RESISTIVITY OF MUD CAKE
RMF .OHMM     0.25                 : RMF          - RESISTIVITY OF MUD FILTRATE
SUFT.C        15                   : SUFT         - SURFACE TEMPERATURE
~A  DEPTH       GR     PHID     PHIN     RESD
# ...
  370.464   90.717    0.217    0.397    4.272
  370.714   96.649    0.210    0.397    3.411
  370.964  100.368    0.204    0.408    2.961
  371.214  102.448    0.204    0.414    2.706
  371.464  103.076    0.202    0.418    2.621
  371.714  102.914    0.197    0.428    2.687
  371.964  103.318    0.194    0.433    2.769
  372.214  104.292    0.195    0.425    2.878
  372.464  104.993    0.196    0.415    2.946
  372.714  104.858    0.198    0.413    3.004
  372.964  104.227    0.204    0.411    3.036
  373.214  103.008    0.211    0.412    3.021
  373.464  102.472    0.225    0.417    2.937
  373.714  102.683    0.229    0.425    2.794
  373.964  101.463    0.231    0.432    2.687
  374.214   97.949    0.236    0.436    2.458
  374.464   95.249    0.238    0.432    2.316
  374.714   92.253    0.230    0.422    2.187
  374.964   90.342    0.220    0.399    2.080
  375.214   90.204    0.212    0.388    2.045
  375.464   90.838    0.203    0.382    2.237
  375.714   90.973    0.196    0.369    2.454
  375.964   91.196    0.178    0.356    2.768
  376.214   91.036    0.163    0.343    3.145
  376.464   90.504    0.140    0.328    3.445
  376.714   88.710    0.118    0.313    3.708
  376.964   87.694    0.138    0.307    3.974
  377.214   87.880    0.167    0.324    4.212
  377.464   89.903    0.177    0.370    4.298
  377.714   97.210    0.181    0.393    4.044
  377.964  103.566    0.179    0.418    3.611
  378.214  105.976    0.174    0.414    3.373
  378.464  107.529    0.167    0.401    3.243
  378.714  109.004    0.162    0.403    3.199
  378.964  109.156    0.159    0.417    3.222
  379.214  107.205    0.160    0.428    3.276
  379.464  106.770    0.163    0.431    3.339
  379.714  107.825    0.165    0.433    3.424
  379.964  109.439    0.166    0.416    3.473
  380.214  110.515    0.165    0.403    3.496
  380.464  110.798    0.162    0.415    3.526
  380.714  110.849    0.163    0.405    3.539
  380.964  111.509    0.167    0.419    3.540
  381.214  112.802    0.172    0.434    3.533
  381.464  114.434    0.178    0.437    3.520
  381.714  114.685    0.183    0.422    3.493
  381.964  112.743    0.192    0.412    3.472
  382.214  110.929    0.204    0.405    3.445
  382.464  109.366    0.214    0.395    3.400
  382.714  107.156    0.222    0.408    3.304
  382.964  104.771    0.229    0.403    3.215
  383.214  103.311    0.233    0.421    3.134
  383.464  103.057    0.233    0.426    3.078
  383.714  103.466    0.233    0.414    3.038
  383.964  103.473    0.244    0.409    2.972
  384.214  102.603    0.261    0.416    2.926
  384.464  101.149    0.280    0.442    2.848
  384.714   99.896    0.288    0.457    2.701
  384.964   98.890    0.301    0.466    2.503
  385.214   99.139    0.321    0.444    2.323
  385.464  100.578    0.348    0.492    2.119
  385.714  103.393    0.368    0.551    1.892
  385.964  106.318    0.352    0.574    1.675
  386.214  109.752    0.330    0.592    1.505
  386.464  113.812    0.314    0.579    1.367
  386.714  114.404    0.300    0.557    1.276
  386.964  114.259    0.282    0.539    1.277
  387.214  114.084    0.255    0.523    1.388
  387.464  114.417    0.225    0.513    1.593
  387.714  114.719    0.194    0.493    1.836
  387.964  112.695    0.181    0.466    2.174
  388.214  110.240    0.181    0.431    2.457
  388.464  107.556    0.182    0.407    2.688
  388.714  105.391    0.182    0.396    2.923
  388.964  104.356    0.184    0.408    3.091
  389.214  104.180    0.188    0.421    3.261
  389.464  104.652    0.191    0.430    3.323
  389.714  104.664    0.188    0.423    3.305
  389.964  104.857    0.190    0.422    3.230
  390.214  105.190    0.194    0.414    3.168
  390.464  104.681    0.196    0.401    3.132
  390.714  103.641    0.200    0.391    3.170
  390.964  102.127    0.197    0.398    3.330
  391.214   99.148    0.193    0.389    3.483
  391.464   96.158    0.190    0.371    3.668
  391.714   91.284    0.189    0.351    3.916
  391.964   85.298    0.206    0.335    4.184
  392.214   78.721    0.226    0.324    4.455
  392.464   85.513    0.221    0.304    4.270
  392.714   88.987    0.204    0.275    4.088
  392.964   91.887    0.190    0.243    4.574
  393.214   91.052    0.168    0.217    5.541
  393.464   82.750    0.139    0.193    7.771
  393.714   73.438    0.159    0.172   10.620
  393.964   67.956    0.199    0.160   13.240
  394.214   70.053    0.228    0.318   15.794
  394.464   73.297    0.256    0.358    5.059
  394.714   76.279    0.275    0.392    4.322
  394.964   78.614    0.282    0.406    3.776
  395.214   80.427    0.284    0.412    3.264
  395.464   81.539    0.286    0.419    2.858
  395.714   81.815    0.290    0.416    2.662
  395.964   80.341    0.292    0.414    2.662
  396.214   77.020    0.292    0.419    2.891
  396.464   75.653    0.289    0.407    3.124
  396.714   75.276    0.287    0.402    3.188
  396.964   74.719    0.287    0.403    2.861
  397.214   73.491    0.291    0.400    2.535
  397.464   73.364    0.290    0.396    2.222
  397.714   73.901    0.291    0.397    1.988
  397.964   74.605    0.297    0.403    1.870
  398.214   75.013    0.297    0.391    1.700
  398.464   75.157    0.288    0.384    1.600
  398.714   74.982    0.289    0.382    1.502
  398.964   74.094    0.292    0.380    1.460
  399.214   73.519    0.290    0.373    1.412
  399.464   73.974    0.280    0.364    1.393
  399.714   74.381    0.273    0.354    1.395
  399.964   74.051    0.262    0.341    1.396
  400.214   73.666    0.244    0.318    1.427
  400.464   73.418    0.218    0.287    1.514
  400.714   73.166    0.193    0.265    1.634
  400.964   73.414    0.172    0.248    1.820
  401.214   74.256    0.160    0.235    1.995
  401.464   76.262    0.205    0.226    2.317
  401.714   79.259    0.236    0.336    2.445
  401.964   82.808    0.255    0.370    2.641
  402.214   85.265    0.264    0.397    2.469
  402.464   86.638    0.253    0.393    2.226
  402.714   87.010    0.246    0.384    2.010
  402.964   86.731    0.230    0.384    1.917
  403.214   85.692    0.213    0.372    1.957
  403.464   83.875    0.200    0.357    2.065
  403.714   82.707    0.211    0.355    2.191
  403.964   84.282    0.231    0.389    2.314
  404.214   86.628    0.216    0.397    2.362
  404.464   89.165    0.201    0.386    2.395
  404.714   92.696    0.214    0.408    2.461
  404.964   96.570    0.202    0.430    2.522
  405.214   99.398    0.187    0.428    2.651
  405.464  101.012    0.182    0.406    2.815
  405.714  100.352    0.180    0.394    3.016
  405.964   96.987    0.178    0.408    3.173
  406.214   96.192    0.176    0.405    3.326
  406.464   98.194    0.175    0.406    3.459
  406.714   98.427    0.180    0.400    3.522
  406.964   94.384    0.185    0.399    3.595
  407.214   94.267    0.181    0.399    3.626
  407.464   97.138    0.183    0.399    3.599
  407.714  100.507    0.183    0.409    3.523
  407.964  102.261    0.176    0.419    3.461
  408.214  103.093    0.172    0.421    3.438
  408.464  103.970    0.172    0.419    3.458
  408.714  104.549    0.174    0.414    3.590
  408.964  104.560    0.176    0.435    3.721
  409.214  102.737    0.178    0.457    3.844
  409.464  100.233    0.188    0.457    3.719
  409.714   99.965    0.198    0.444    3.234
  409.964  102.934    0.215    0.450    2.760
  410.214  107.346    0.225    0.488    2.446
  410.464  111.845    0.216    0.508    2.185
  410.714  116.887    0.216    0.516    2.080
  410.964  119.149    0.213    0.508    1.997
  411.214  120.861    0.219    0.507    1.958
  411.464  120.322    0.224    0.520    1.970
  411.714  119.021    0.228    0.550    2.004
  411.964  118.129    0.228    0.547    2.028
  412.214  118.159    0.224    0.561    1.975
  412.464  118.845    0.214    0.561    1.936
  412.714  119.320    0.207    0.522    1.901
  412.964  118.699    0.200    0.494    1.895
  413.214  115.762    0.189    0.477    1.917
  413.464  112.612    0.180    0.470    1.955
  413.714  108.974    0.186    0.459    2.035
