~VERSION INFORMATION
 VERS.                 2.0:   CWLS LOG ASCII STANDARD -VERSION 2.0
 WRAP.                  NO:   ONE LINE PER DEPTH STEP
~WELL INFORMATION BLOCK
#MNEM.UNIT           DATA                    DESCRIPTION OF MNEMONIC
#---------    -------------------            -------------------------------
# Generated from Intellog Unique Number	CS_77_79/WELL/898
WELL.         TRANS-PRAIRIE PIPELINES        : Well_name    - WELL
LOC .         00/07-15-077-12W4/0            : Location     - LOCATION
UWI .         00/07-15-077-12W4/0            : Uwi          - UNIQUE WELL ID
ENTR.         SP                             : Entered      - ENTERED BY
SRVC.         SCHLUMBERGER                   : Scn          - SERVICE COMPANY
STRT.M        242.621                        : top_depth    - START DEPTH
STOP.M        467.871                        : bot_depth    - STOP DEPTH
STEP.M        0.25                           : increment    - STEP LENGTH
 NULL. -999.2500:NULL Value
~CURVE INFORMATION BLOCK
#MNEM UNIT       ERCB CURVE CODE    CURVE DESCRIPTION
#-----------   ------------------   ----------------------------------
DEPT.M        00 001 00 00         : DEPTH        - DEPTH
GR  .API      00 310 00 00         : GR           - GAMMA RAY
DPHI.V/V      00 890 00 00         : PHID         - DENSITY POROSITY (SANDSTONE)
NPHI.V/V      00 330 00 00         : PHIN         - NEUTRON POROSITY (SANDSTONE)
ILD .OHMM     00 120 00 00         : RESD         - DEEP RESISTIVITY (DIL)
~PARAMETER INFORMATION
#MNEM.UNIT           DATA             DESCRIPTION OF MNEMONIC
#---------         -----------     ------------------------------
GL  .M        635.66               : gl           - GROUND LEVEL ELEVATION
EREF.M        639.166              : kb           - ELEVATION OF DEPTH REFERENCE
DATM.M        635.66               : datum        - DATUM ELEVATION
TDD .M        472.44               : tdd          - TOTAL DEPTH DRILLER
RUN .         ONE                  : Run          - RUN NUMBER
ENG .         BILL                 : Engineer     - RECORDING ENGINEER
WIT .         JIM                  : Witness      - WITNESSED BY
MUD .         GEL                  : Mud_type     - MUD TYPE
MATR.         SANDSTONE            : Logunit      - NEUTRON MATRIX
TMAX.C        21.1111              : BHT          - MAXIMUM RECORDED TEMPERATURE
BHTD.M        472.44               : BHTDEP       - MAXIMUM RECORDED TEMPERATURE
MATR.         1                    : LOGUNIT      - NEUTRON MATRIX
RMT .C        25                   : MDTP         - TEMPERATURE OF MUD
NEUT.         1                    : NEUTRON      - NEUTRON TYPE
RESI.         0                    : RESIST       - RESISTIVITY TYPE
RMC .OHMM     0.25                 : RMC          - RESISTIVITY OF MUD CAKE
RMF .OHMM     0.25                 : RMF          - RESISTIVITY OF MUD FILTRATE
SUFT.C        15                   : SUFT         - SURFACE TEMPERATURE
~A  DEPTH       GR     PHID     PHIN     RESD
# ...
  286.121   77.492    0.248    0.591    6.673
  286.371   81.362    0.280    0.575    7.042
  286.621   85.018    0.234    0.591    7.757
  286.871   92.902    0.264    0.597    8.776
  287.121   90.829    0.324    0.578    9.237
  287.371   85.291    0.349    0.553    9.209
  287.621   74.176    0.356    0.551    8.169
  287.871   68.339    0.334    0.550    7.222
  288.121   63.063    0.316    0.554    6.549
  288.371   64.552    0.298    0.580    6.748
  288.621   68.419    0.352    0.631    7.895
  288.871   69.392    0.404    0.627    9.159
  289.121   67.139    0.435    0.625   10.182
  289.371   56.948    0.449    0.621   11.710
  289.621   47.707    0.476    0.619   13.038
  289.871   44.002    0.294    0.614   14.083
  290.121   43.927    0.304    0.579   15.058
  290.371   46.484    0.322    0.525   15.503
  290.621   48.176    0.328    0.497   15.680
  290.871   49.458    0.340    0.513   15.646
  291.121   51.467    0.349    0.494   15.990
  291.371   52.431    0.348    0.478   15.958
  291.621   50.660    0.329    0.493   15.965
  291.871   51.180    0.338    0.500   15.990
  292.121   51.061    0.339    0.503   16.260
  292.371   51.809    0.342    0.504   16.248
  292.621   51.050    0.338    0.492   16.246
  292.871   50.355    0.345    0.488   16.018
  293.121   51.955    0.340    0.508   15.950
  293.371   52.856    0.342    0.512   15.938
  293.621   54.178    0.347    0.502   15.935
  293.871   54.994    0.356    0.499   15.932
  294.121   53.467    0.363    0.501   15.929
  294.371   52.812    0.359    0.511   15.927
  294.621   52.056    0.369    0.522   15.924
  294.871   51.605    0.362    0.530   15.921
  295.121   52.043    0.363    0.524   15.897
  295.371   54.031    0.350    0.456   15.841
  295.621   53.571    0.347    0.469   15.019
  295.871   51.764    0.361    0.504   15.054
  296.121   52.159    0.369    0.520   15.057
  296.371   52.184    0.364    0.535   15.057
  296.621   51.421    0.359    0.537   15.072
  296.871   52.101    0.363    0.524   14.782
  297.121   52.270    0.345    0.513   14.637
  297.371   54.644    0.350    0.516   14.183
  297.621   54.455    0.361    0.529   13.740
  297.871   54.148    0.348    0.523   13.624
  298.121   53.882    0.337    0.526   13.222
  298.371   53.392    0.325    0.533   13.020
  298.621   52.550    0.337    0.545   12.887
  298.871   53.285    0.352    0.554   12.747
  299.121   54.184    0.357    0.569   12.741
  299.371   55.869    0.361    0.539   12.740
  299.621   56.783    0.351    0.520   12.738
  299.871   56.830    0.344    0.506   12.709
  300.121   56.123    0.335    0.478   12.982
  300.371   55.613    0.320    0.459   13.185
  300.621   54.890    0.270    0.425   14.322
  300.871   54.818    0.120    0.352   15.583
  301.121   54.376    0.021    0.197   19.466
  301.371   52.488    0.105    0.210   21.217
  301.621   50.473    0.146    0.261   19.990
  301.871   47.000    0.188    0.316   18.359
  302.121   50.814    0.270    0.398   16.279
  302.371   56.242    0.331    0.471   14.135
  302.621   60.800    0.347    0.527   13.074
  302.871   59.860    0.333    0.557   12.676
  303.121   59.617    0.318    0.554   12.940
  303.371   60.574    0.308    0.537   13.215
  303.621   61.447    0.318    0.523   13.694
  303.871   61.365    0.288    0.499   14.643
  304.121   60.774    0.224    0.473   15.447
  304.371   58.509    0.153    0.412   15.840
  304.621   55.435    0.250    0.289   16.141
  304.871   53.559    0.300    0.326   15.624
  305.121   52.338    0.319    0.421   14.092
  305.371   50.717    0.339    0.497   13.273
  305.621   53.645    0.348    0.548   12.738
  305.871   58.946    0.352    0.517   12.453
  306.121   60.022    0.354    0.502   12.181
  306.371   58.721    0.359    0.527   12.470
  306.621   58.252    0.353    0.548   12.450
  306.871   58.899    0.350    0.562   12.611
  307.121   58.724    0.347    0.573   12.459
  307.371   58.769    0.333    0.570   12.675
  307.621   58.889    0.326    0.522   12.559
  307.871   57.356    0.317    0.501   12.447
  308.121   53.285    0.331    0.516   12.251
  308.371   51.301    0.343    0.532   12.234
  308.621   51.712    0.361    0.541   11.978
  308.871   54.345    0.363    0.538   11.825
  309.121   55.504    0.358    0.525   11.764
  309.371   58.131    0.374    0.536   11.761
  309.621   58.855    0.345    0.554   11.526
  309.871   56.271    0.361    0.538   11.541
  310.121   55.265    0.348    0.523   11.537
  310.371   54.242    0.346    0.515   11.423
  310.621   53.243    0.333    0.530   11.332
  310.871   51.778    0.350    0.538   11.320
  311.121   50.133    0.355    0.522   11.231
  311.371   47.829    0.345    0.551   11.122
  311.621   48.181    0.365    0.563   10.956
  311.871   51.264    0.367    0.567   10.916
  312.121   52.704    0.364    0.558   10.909
  312.371   53.329    0.361    0.536   10.770
  312.621   52.436    0.327    0.533   10.725
  312.871   52.034    0.332    0.532   10.516
  313.121   53.353    0.345    0.536   10.419
  313.371   54.566    0.342    0.553   10.126
  313.621   57.730    0.344    0.539    9.958
  313.871   60.032    0.352    0.542    9.850
  314.121   58.464    0.354    0.552    9.742
  314.371   59.810    0.353    0.557    9.582
  314.621   58.620    0.349    0.558    9.309
  314.871   59.772    0.342    0.559    9.225
  315.121   60.303    0.338    0.531    9.070
  315.371   61.159    0.334    0.552    8.891
  315.621   61.497    0.344    0.574    8.735
  315.871   59.908    0.341    0.597    8.627
  316.121   57.550    0.350    0.555    8.538
  316.371   59.647    0.340    0.526    8.421
  316.621   60.708    0.328    0.507    8.261
  316.871   60.184    0.313    0.573    8.096
  317.121   60.251    0.323    0.556    8.110
  317.371   60.471    0.326    0.550    8.108
  317.621   60.701    0.340    0.568    8.106
  317.871   59.589    0.334    0.576    8.090
  318.121   58.738    0.341    0.594    8.273
  318.371   57.770    0.348    0.584    8.255
  318.621   57.130    0.354    0.571    8.395
  318.871   58.280    0.346    0.574    8.562
  319.121   60.176    0.343    0.592    8.709
  319.371   58.568    0.355    0.596    8.824
  319.621   56.793    0.363    0.597    8.689
  319.871   55.922    0.366    0.582    8.715
  320.121   56.154    0.350    0.565    8.375
  320.371   57.993    0.327    0.561    8.020
  320.621   59.986    0.313    0.576    7.299
  320.871   62.102    0.296    0.586    6.744
  321.121   64.406    0.309    0.593    6.235
  321.371   67.530    0.322    0.600    5.797
  321.621   69.038    0.321    0.613    5.435
  321.871   66.610    0.298    0.616    5.112
  322.121   67.426    0.279    0.618    4.953
  322.371   70.735    0.252    0.622    4.925
  322.621   75.322    0.264    0.637    5.007
  322.871   79.163    0.288    0.633    5.429
  323.121   81.670    0.287    0.621    5.860
  323.371   76.974    0.303    0.614    6.414
  323.621   72.183    0.292    0.579    7.117
  323.871   68.040    0.297    0.582    7.529
  324.121   66.897    0.300    0.578    7.554
  324.371   68.154    0.280    0.545    7.163
  324.621   69.499    0.260    0.540    6.821
  324.871   70.582    0.232    0.546    6.056
  325.121   72.478    0.223    0.561    5.666
  325.371   76.589    0.221    0.577    5.204
  325.621   77.530    0.256    0.593    4.601
  325.871   77.184    0.271    0.610    4.306
  326.121   77.747    0.256    0.629    4.104
  326.371   78.456    0.253    0.612    4.100
  326.621   82.965    0.256    0.620    4.120
  326.871   84.429    0.255    0.611    4.377
  327.121   83.713    0.224    0.610    4.713
  327.371   83.058    0.218    0.608    4.737
  327.621   81.964    0.246    0.602    4.841
  327.871   83.984    0.227    0.594    4.603
  328.121   86.674    0.199    0.582    4.477
  328.371   86.655    0.219    0.610    4.335
  328.621   83.878    0.215    0.624    4.300
  328.871   81.411    0.229    0.624    4.165
  329.121   79.434    0.221    0.609    4.077
  329.371   82.710    0.239    0.618    4.082
