~VERSION INFORMATION
 VERS.                 2.0:   CWLS LOG ASCII STANDARD -VERSION 2.0
 WRAP.                  NO:   ONE LINE PER DEPTH STEP
~WELL INFORMATION BLOCK
#MNEM.UNIT           DATA                    DESCRIPTION OF MNEMONIC
#---------    -------------------            -------------------------------
# Generated from Intellog Unique Number	CS_67_68/WELL/784
WELL.         BOW VALLEY EXPLORATION         : Well_name    - WELL
LOC .         00/07-34-068-14W4/0            : Location     - LOCATION
UWI .         00/07-34-068-14W4/0            : Uwi          - UNIQUE WELL ID
ENTR.         SP                             : Entered      - ENTERED BY
SRVC.         SCHLUMBERGER                   : Scn          - SERVICE COMPANY
STRT.M        268.224                        : top_depth    - START DEPTH
STOP.M        472.224                        : bot_depth    - STOP DEPTH
STEP.M        0.25                           : increment    - STEP LENGTH
 NULL. -999.2500:NULL Value
~CURVE INFORMATION BLOCK
#MNEM UNIT       ERCB CURVE CODE    CURVE DESCRIPTION
#-----------   ------------------   ----------------------------------
DEPT.M        00 001 00 00         : DEPTH        - DEPTH
GR  .API      00 310 00 00         : GR           - GAMMA RAY
DPHI.V/V      00 890 00 00         : PHID         - DENSITY POROSITY (SANDSTONE)
NPHI.V/V      00 330 00 00         : PHIN         - NEUTRON POROSITY (SANDSTONE)
ILD .OHMM     00 120 00 00         : RESD         - DEEP RESISTIVITY (DIL)
~PARAMETER INFORMATION
#MNEM.UNIT           DATA             DESCRIPTION OF MNEMONIC
#---------         -----------     ------------------------------
GL  .M        561.289              : gl           - GROUND LEVEL ELEVATION
EREF.M        564.49               : kb           - ELEVATION OF DEPTH REFERENCE
DATM.M        561.289              : datum        - DATUM ELEVATION
TDD .M        472.44               : tdd          - TOTAL DEPTH DRILLER
RUN .         ONE                  : Run          - RUN NUMBER
ENG .         BILL                 : Engineer     - RECORDING ENGINEER
WIT .         JIM                  : Witness      - WITNESSED BY
MUD .         GEL                  : Mud_type     - MUD TYPE
MATR.         SANDSTONE            : Logunit      - NEUTRON MATRIX
TMAX.C        23.3333              : BHT          - MAXIMUM RECORDED TEMPERATURE
BHTD.M        472.44               : BHTDEP       - MAXIMUM RECORDED TEMPERATURE
MATR.         1                    : LOGUNIT      - NEUTRON MATRIX
RMT .C        25                   : MDTP         - TEMPERATURE OF MUD
NEUT.         1                    : NEUTRON      - NEUTRON TYPE
RESI.         0                    : RESIST       - RESISTIVITY TYPE
RMC .OHMM     0.25                 : RMC          - RESISTIVITY OF MUD CAKE
RMF .OHMM     0.25                 : RMF          - RESISTIVITY OF MUD FILTRATE
SUFT.C        15                   : SUFT         - SURFACE TEMPERATURE
~A  DEPTH       GR     PHID     PHIN     RESD
# ...
  355.224   50.198    0.111    0.315    3.601
  355.474   52.030    0.170    0.387    2.899
  355.724   53.117    0.244    0.446    2.479
  355.974   54.241    0.304    0.469    2.466
  356.224   55.167    0.318    0.478    2.705
  356.474   56.192    0.313    0.463    2.995
  356.724   57.621    0.297    0.455    3.688
  356.974   59.250    0.292    0.462    4.316
  357.224   60.622    0.271    0.464    5.138
  357.474   58.912    0.221    0.460    5.990
  357.724   53.162    0.166    0.305    6.113
  357.974   50.065    0.110    0.254    5.652
  358.224   49.880    0.075    0.242    5.351
  358.474   51.977    0.075    0.277    4.910
  358.724   54.517    0.128    0.342    3.866
  358.974   57.050    0.188    0.404    3.034
  359.224   59.724    0.227    0.446    3.100
  359.474   61.746    0.293    0.459    3.357
  359.724   64.289    0.260    0.461    3.554
  359.974   65.267    0.243    0.466    3.863
  360.224   67.172    0.232    0.457    3.966
  360.474   67.594    0.224    0.454    4.013
  360.724   66.999    0.226    0.464    4.039
  360.974   66.409    0.228    0.460    4.084
  361.224   66.784    0.226    0.475    4.098
  361.474   68.013    0.237    0.470    4.061
  361.724   68.721    0.244    0.463    3.979
  361.974   69.415    0.247    0.462    3.880
  362.224   69.868    0.247    0.466    3.812
  362.474   70.107    0.241    0.463    3.833
  362.724   69.506    0.234    0.464    3.996
  362.974   67.857    0.228    0.471    4.179
  363.224   65.963    0.225    0.469    4.349
  363.474   65.408    0.226    0.462    4.393
  363.724   66.311    0.225    0.461    4.319
  363.974   66.808    0.221    0.457    4.124
  364.224   66.953    0.222    0.453    3.884
  364.474   66.092    0.228    0.462    3.693
  364.724   64.253    0.238    0.470    3.496
  364.974   63.042    0.252    0.463    3.342
  365.224   62.436    0.266    0.456    3.328
  365.474   62.626    0.271    0.463    3.350
  365.724   62.885    0.261    0.470    3.301
  365.974   63.118    0.273    0.474    3.271
  366.224   62.699    0.291    0.466    3.330
  366.474   62.554    0.283    0.462    3.475
  366.724   63.830    0.286    0.471    3.622
  366.974   66.350    0.291    0.474    3.790
  367.224   68.226    0.264    0.484    3.924
  367.474   68.923    0.246    0.498    4.009
  367.724   68.009    0.242    0.495    3.856
  367.974   64.850    0.246    0.482    3.622
  368.224   61.896    0.246    0.467    3.407
  368.474   60.166    0.252    0.459    3.260
  368.724   58.843    0.268    0.468    3.141
  368.974   57.994    0.277    0.461    3.070
  369.224   57.765    0.278    0.472    3.151
  369.474   58.895    0.293    0.480    3.339
  369.724   59.856    0.293    0.461    3.681
  369.974   59.285    0.281    0.440    3.974
  370.224   58.663    0.269    0.429    4.208
  370.474   58.394    0.274    0.445    4.375
  370.724   58.503    0.286    0.445    4.396
  370.974   59.267    0.297    0.431    4.259
  371.224   60.131    0.280    0.434    4.271
  371.474   60.395    0.251    0.438    4.529
  371.724   60.090    0.214    0.436    5.177
  371.974   56.813    0.178    0.437    5.976
  372.224   53.479    0.140    0.395    6.630
  372.474   47.812    0.096    0.276    7.174
  372.724   44.516    0.057    0.235    7.606
  372.974   41.931    0.048    0.317    7.508
  373.224   52.492    0.116    0.406    6.500
  373.474   58.889    0.160    0.440    5.680
  373.724   63.170    0.182    0.453    5.133
  373.974   65.354    0.189    0.460    4.796
  374.224   66.554    0.193    0.461    4.518
  374.474   65.974    0.196    0.450    4.392
  374.724   67.636    0.202    0.441    4.311
  374.974   69.084    0.211    0.447    4.290
  375.224   69.945    0.215    0.455    4.283
  375.474   71.450    0.217    0.459    4.147
  375.724   74.190    0.225    0.474    3.601
  375.974   75.995    0.241    0.470    2.805
  376.224   76.950    0.248    0.462    2.356
  376.474   75.659    0.262    0.467    2.145
  376.724   73.123    0.294    0.507    2.048
  376.974   73.265    0.326    0.530    2.049
  377.224   74.122    0.341    0.557    2.104
  377.474   73.106    0.318    0.535    2.267
  377.724   72.602    0.311    0.551    2.422
  377.974   72.775    0.317    0.534    2.629
  378.224   73.486    0.271    0.528    2.881
  378.474   74.208    0.254    0.517    3.131
  378.724   74.302    0.252    0.505    3.321
  378.974   73.336    0.257    0.491    3.508
  379.224   72.057    0.257    0.493    3.592
  379.474   70.171    0.268    0.494    3.619
  379.724   69.364    0.269    0.502    3.640
  379.974   69.388    0.255    0.493    3.650
  380.224   69.355    0.243    0.480    3.650
  380.474   68.479    0.235    0.473    3.632
  380.724   66.963    0.226    0.483    3.611
  380.974   64.688    0.220    0.480    3.274
  381.224   61.088    0.217    0.489    3.144
  381.474   58.651    0.253    0.498    3.109
  381.724   56.728    0.279    0.495    3.094
  381.974   55.055    0.273    0.479    3.085
  382.224   53.186    0.270    0.469    3.064
  382.474   52.780    0.254    0.457    2.994
  382.724   53.405    0.232    0.454    2.888
  382.974   53.361    0.272    0.468    2.733
  383.224   52.579    0.298    0.461    2.625
  383.474   50.075    0.309    0.473    2.461
  383.724   48.484    0.325    0.484    2.347
  383.974   46.216    0.337    0.467    2.165
  384.224   44.953    0.350    0.456    2.099
  384.474   43.181    0.354    0.445    2.062
  384.724   42.029    0.348    0.448    2.032
  384.974   41.218    0.341    0.459    2.010
  385.224   40.772    0.332    0.471    2.030
  385.474   40.023    0.322    0.456    2.072
  385.724   39.411    0.325    0.444    2.119
  385.974   39.181    0.333    0.438    2.216
  386.224   39.579    0.338    0.436    2.279
  386.474   40.337    0.332    0.443    2.344
  386.724   41.013    0.326    0.454    2.410
  386.974   40.395    0.320    0.469    2.513
  387.224   39.159    0.314    0.474    2.565
  387.474   38.148    0.309    0.467    2.571
  387.724   37.992    0.299    0.454    2.535
  387.974   37.985    0.307    0.427    2.532
  388.224   37.415    0.295    0.415    2.718
  388.474   36.145    0.289    0.410    2.913
  388.724   34.905    0.274    0.402    3.573
  388.974   33.272    0.253    0.391    4.693
  389.224   33.454    0.176    0.328    5.393
  389.474   34.439    0.076    0.170    5.863
  389.724   35.404    0.106    0.194    5.966
  389.974   36.416    0.153    0.338    5.937
  390.224   36.924    0.216    0.364    6.311
  390.474   36.870    0.268    0.379    6.971
  390.724   36.244    0.141    0.292    7.307
  390.974   35.407    0.072    0.220    6.237
  391.224   36.836    0.045    0.189    4.651
  391.474   38.639    0.155    0.275    3.912
  391.724   40.242    0.235    0.345    3.439
  391.974   41.348    0.292    0.397    2.711
  392.224   42.209    0.317    0.429    2.314
  392.474   42.755    0.323    0.438    2.221
  392.724   42.856    0.313    0.440    2.292
  392.974   42.138    0.298    0.451    2.348
  393.224   42.015    0.284    0.451    2.467
  393.474   42.787    0.265    0.429    2.561
  393.724   43.933    0.244    0.404    2.618
  393.974   45.194    0.235    0.386    2.640
  394.224   46.456    0.297    0.445    2.612
  394.474   47.447    0.316    0.468    2.535
  394.724   48.536    0.315    0.477    2.470
  394.974   50.088    0.317    0.450    2.401
  395.224   51.148    0.331    0.455    2.383
  395.474   52.065    0.328    0.465    2.373
  395.724   52.971    0.324    0.448    2.400
  395.974   52.862    0.327    0.453    2.428
  396.224   52.322    0.324    0.453    2.465
  396.474   51.346    0.327    0.448    2.482
  396.724   52.431    0.324    0.446    2.528
  396.974   54.194    0.314    0.444    2.595
  397.224   55.385    0.304    0.459    2.788
  397.474   56.794    0.297    0.477    2.987
  397.724   58.050    0.294    0.478    3.061
  397.974   59.218    0.289    0.466    3.145
  398.224   59.840    0.280    0.476    3.194
  398.474   59.875    0.275    0.464    3.248
