~VERSION INFORMATION
 VERS.                 2.0:   CWLS LOG ASCII STANDARD -VERSION 2.0
 WRAP.                  NO:   ONE LINE PER DEPTH STEP
~WELL INFORMATION BLOCK
#MNEM.UNIT           DATA                    DESCRIPTION OF MNEMONIC
#---------    -------------------            -------------------------------
# Generated from Intellog Unique Number	CN_91_93/WELL/3273
WELL.         AMOCO CANADA PETROLEUM CO.LTD. : Well_name    - WELL
LOC .         00/07-22-093-19W4/0            : Location     - LOCATION
UWI .         00/07-22-093-19W4/0            : Uwi          - UNIQUE WELL ID
ENTR.         JOETTE                         : Entered      - ENTERED BY
SRVC.         SCHLUMBERGER                   : Scn          - SERVICE COMPANY
DATE.         04\29\92                       : Date         - LOG DATE
STRT.F        260                            : top_depth    - START DEPTH
STOP.F        789.856                        : bot_depth    - STOP DEPTH
STEP.F        0.82                           : increment    - STEP LENGTH
 NULL. -999.2500:NULL Value
~CURVE INFORMATION BLOCK
#MNEM UNIT       ERCB CURVE CODE    CURVE DESCRIPTION
#-----------   ------------------   ----------------------------------
DEPT.F        00 001 00 00         : DEPTH        - DEPTH
CALI.IN       00 280 01 00         : CAL          - CALIPER
GR  .API      00 310 00 00         : GR           - GAMMA RAY
NPHI.V/V      00 330 00 00         : PHIN         - NEUTRON POROSITY (SANDSTONE)
DPHI.V/V      00 890 00 00         : PHID         - DENSITY POROSITY (SANDSTONE)
ILD .OHMM     00 120 00 00         : RESD         - DEEP RESISTIVITY (DIL)
~PARAMETER INFORMATION
#MNEM.UNIT           DATA             DESCRIPTION OF MNEMONIC
#---------         -----------     ------------------------------
GL  .F        1711                 : gl           - GROUND LEVEL ELEVATION
EREF.F        1722.6               : kb           - ELEVATION OF DEPTH REFERENCE
DATM.F        1722.6               : datum        - DATUM ELEVATION
TDD .F        787                  : tdd          - TOTAL DEPTH DRILLER
RUN .         ONE                  : Run          - RUN NUMBER
ENG .         JO                   : Engineer     - RECORDING ENGINEER
WIT .         TIM                  : Witness      - WITNESSED BY
MUD .         GEL                  : Mud_type     - MUD TYPE
MATR.         SANDSTONE            : Logunit      - NEUTRON MATRIX
TMAX.F        75                   : BHT          - MAXIMUM RECORDED TEMPERATURE
BHTD.F        787                  : BHTDEP       - MAXIMUM RECORDED TEMPERATURE
RMT .F        47                   : MDTP         - TEMPERATURE OF MUD
MUDD.LB/G     8.8                  : MWT          - MUD DENSITY
NEUT.         1                    : NEUTRON      - NEUTRON TYPE
RESI.         0                    : RESIST       - RESISTIVITY TYPE
RM  .OHMM     2.18                 : RM           - RESISTIVITY OF MUD
RMC .OHMM     2.3                  : RMC          - RESISTIVITY OF MUD CAKE
RMF .OHMM     3.35                 : RMF          - RESISTIVITY OF MUD FILTRATE
SUFT.F        39.2                 : SUFT         - SURFACE TEMPERATURE
~A  DEPTH      CAL       GR     PHIN     PHID     RESD
# ...
  619.252    9.474   92.661    0.486    0.135   13.116
  620.072    9.474   89.973    0.438    0.116   14.603
  620.892    9.468   88.747    0.423    0.153   16.399
  621.713    9.468   88.129    0.426    0.199   16.077
  622.533    9.481   88.077    0.384    0.198   15.053
  623.353    9.499   88.623    0.404    0.166   14.620
  624.173    9.496   89.755    0.404    0.111   14.326
  624.993    9.491   91.176    0.419    0.162   13.784
  625.814    9.510   91.140    0.424    0.174   13.514
  626.634    9.510   90.506    0.409    0.204   12.762
  627.454    9.503   89.285    0.405    0.202   12.401
  628.274    9.501   88.368    0.418    0.197   12.042
  629.094    9.501   88.322    0.432    0.195   12.019
  629.915    9.515   90.917    0.454    0.173   11.993
  630.735    9.532   92.935    0.473    0.178   12.187
  631.555    9.527   89.948    0.448    0.168   12.389
  632.375    9.525   86.678    0.435    0.161   13.053
  633.196    9.525   86.930    0.422    0.166   13.517
  634.016    9.519   86.883    0.383    0.148   14.768
  634.836    9.519   84.205    0.347    0.107   16.142
  635.656    9.493   80.049    0.303    0.072   19.333
  636.476    9.492   76.480    0.342    0.097   22.935
  637.297    9.487   75.553    0.404    0.141   19.968
  638.117    9.466   78.153    0.430    0.177   17.072
  638.937    9.444   79.574    0.430    0.180   14.995
  639.757    9.444   78.652    0.417    0.191   14.700
  640.577    9.438   80.083    0.407    0.198   15.355
  641.398    9.436   80.335    0.418    0.126   16.780
  642.218    9.436   76.761    0.402    0.080   19.370
  643.038    9.428   70.849    0.365    0.057   20.797
  643.858    9.446   68.166    0.315    0.048   20.194
  644.678    9.446   73.109    0.304    0.171   18.732
  645.499    9.440   72.476    0.384    0.193   17.870
  646.319    9.457   74.489    0.437    0.192   16.732
  647.139    9.457   71.224    0.428    0.173   15.958
  647.959    9.451   65.600    0.384    0.148   15.640
  648.780    9.451   67.902    0.352    0.131   15.749
  649.600    9.444   73.437    0.328    0.111   16.301
  650.420    9.462   76.918    0.373    0.163   16.541
  651.240    9.462   79.518    0.459    0.188   16.994
  652.060    9.456   75.949    0.458    0.182   16.994
  652.881    9.456   70.325    0.398    0.168   20.466
  653.701    9.450   67.344    0.339    0.070   21.203
  654.521    9.450   75.237    0.411    0.073   16.254
  655.341    9.443   80.479    0.468    0.091   14.945
  656.161    9.443   85.124    0.498    0.128   12.324
  656.982    9.438   87.132    0.497    0.148   11.024
  657.802    9.438   89.737    0.525    0.177   10.516
  658.622    9.432   93.511    0.544    0.183   10.493
  659.442    9.450   99.340    0.531    0.167   10.567
  660.262    9.464  100.184    0.535    0.157   10.534
  661.083    9.463   95.441    0.596    0.153   10.622
  661.903    9.480   89.524    0.557    0.139   10.694
  662.723    9.480   87.711    0.539    0.169   10.872
  663.543    9.475   88.849    0.572    0.170   11.253
  664.364    9.475   89.096    0.588    0.145   11.647
  665.184    9.447   86.412    0.580    0.121   11.946
  666.004    9.466   87.252    0.535    0.069   11.813
  666.824    9.466   94.548    0.514    0.100   11.470
  667.644    9.460   97.436    0.551    0.124   10.942
  668.465    9.460  100.042    0.579    0.162   10.526
  669.285    9.512  101.468    0.615    0.171   10.508
  670.105    9.549  100.247    0.633    0.162   10.481
  670.925    9.566   94.922    0.602    0.170   10.466
  671.745    9.564   93.995    0.583    0.181   10.466
  672.566    9.564   87.198    0.568    0.132   10.423
  673.386    9.557   93.907    0.588    0.086   10.403
  674.206    9.535   95.333    0.549    0.172   10.383
  675.026    9.531   97.052    0.530    0.182   10.645
  675.846    9.529   98.185    0.544    0.173   11.021
  676.667    9.529   97.840    0.535    0.160   11.511
  677.487    9.524   94.868    0.547    0.144   12.130
  678.307    9.524   89.533    0.529    0.135   12.556
  679.127    9.496   85.094    0.489    0.089   12.532
  679.948    9.456   83.286    0.436    0.060   12.055
  680.768    9.456   93.811    0.389   -0.015   11.605
  681.588    9.429  101.108    0.500    0.052   11.066
  682.408    9.408  104.290    0.482    0.112   10.551
  683.228    9.405  107.776    0.457    0.152    9.884
  684.049    9.405  105.679    0.489    0.136    8.843
  684.869    9.380  100.056    0.589    0.155    8.131
  685.689    9.377   96.781    0.564    0.156    7.615
  686.509    9.335   95.266    0.549    0.160    7.396
  687.329    9.335   94.638    0.559    0.175    7.582
  688.150    9.309   94.303    0.588    0.188    7.850
  688.970    9.229   91.326    0.588    0.190    8.426
  689.790    9.187   87.464    0.569    0.186    9.127
  690.610    9.183   76.557    0.557    0.182   10.065
  691.430    9.220   65.944    0.519    0.201   10.905
  692.251    9.315   48.580    0.355    0.250   12.362
  693.071    9.390   28.569    0.303    0.371   24.858
  693.891    9.406   27.935    0.264    0.373   87.856
  694.711    9.404   29.948    0.181    0.362  121.641
  695.531    9.381   29.901    0.139    0.353  134.210
  696.352    9.381   28.691    0.127    0.361  118.964
  697.172    9.376   28.057    0.129    0.356  111.416
  697.992    9.353   28.603    0.135    0.339  105.299
  698.812    9.350   31.198    0.147    0.325   98.594
  699.633    9.350   33.504    0.157    0.321   91.437
  700.453    9.344   35.512    0.174    0.330   88.849
  701.273    9.342   35.177    0.175    0.344   91.109
  702.093    9.342   33.956    0.172    0.357   93.449
  702.913    9.334   37.725    0.170    0.361   96.725
  703.734    9.333   39.744    0.173    0.356   98.311
  704.554    9.330   40.284    0.180    0.355   96.332
  705.374    9.326   40.536    0.208    0.356   85.430
  706.194    9.325   39.907    0.231    0.359   60.344
  707.014    9.325   37.806    0.245    0.353   47.961
  707.835    9.319   36.302    0.279    0.332   43.303
  708.655    9.319   35.375    0.356    0.317   36.035
  709.475    9.311   35.622    0.404    0.300   30.816
  710.295    9.310   35.580    0.421    0.291   26.340
  711.115    9.305   35.539    0.433    0.283   24.218
  711.936    9.304   35.791    0.427    0.277   23.730
  712.756    9.299   36.043    0.422    0.282   23.679
  713.576    9.317   36.588    0.436    0.294   23.645
  714.396    9.317   37.705    0.452    0.305   23.810
  715.217    9.312   39.435    0.466    0.306   23.764
  716.037    9.329   41.737    0.485    0.301   23.930
  716.857    9.326   44.049    0.524    0.305   24.539
  717.677    9.323   44.877    0.561    0.314   25.637
  718.497    9.323   43.662    0.597    0.314   27.016
  719.318    9.317   43.332    0.600    0.317   28.991
  720.138    9.334   44.166    0.584    0.307   31.126
  720.958    9.329   45.592    0.583    0.296   33.410
  721.778    9.347   46.132    0.599    0.303   34.219
  722.598    9.347   45.792    0.547    0.300   38.855
  723.419    9.342   43.407    0.529    0.307   41.329
  724.239    9.339   44.535    0.555    0.311   46.004
  725.059    9.334   46.548    0.558    0.301   51.209
  725.879    9.333   47.382    0.551    0.292   59.639
  726.699    9.331   46.460    0.540    0.305   60.069
  727.520    9.326   46.125    0.544    0.295   73.229
  728.340    9.325   45.491    0.553    0.284   78.584
  729.160    9.322   42.509    0.548    0.270   82.101
  729.980    9.318   39.826    0.547    0.258   83.427
  730.801    9.318   39.197    0.509    0.267   82.534
  731.621    9.313   40.031    0.495    0.276   79.377
  732.441    9.313   42.637    0.488    0.269   76.433
  733.261    9.306   43.182    0.551    0.258   73.544
  734.081    9.324   41.663    0.566    0.237   70.765
  734.902    9.324   38.691    0.528    0.258   68.730
  735.722    9.318   37.759    0.557    0.267   67.330
  736.542    9.318   38.011    0.517    0.263   67.201
  737.362    9.330   35.611    0.483    0.254   69.573
  738.182    9.328   34.987    0.452    0.243   75.361
