~VERSION INFORMATION
 VERS.                 2.0:   CWLS LOG ASCII STANDARD -VERSION 2.0
 WRAP.                  NO:   ONE LINE PER DEPTH STEP
~WELL INFORMATION BLOCK
#MNEM.UNIT           DATA                    DESCRIPTION OF MNEMONIC
#---------    -------------------            -------------------------------
# Generated from Intellog Unique Number	CS_67_68/WELL/2170
WELL.         06-16-067-05W4                 : Well_name    - WELL
LOC .         00/06-16-067-05W4/0            : Location     - LOCATION
UWI .         00/06-16-067-05W4/0            : Uwi          - UNIQUE WELL ID
ENTR.         SP                             : Entered      - ENTERED BY
SRVC.         SCHLUMBERGER                   : Scn          - SERVICE COMPANY
STRT.M        325                            : top_depth    - START DEPTH
STOP.M        545                            : bot_depth    - STOP DEPTH
STEP.M        0.25                           : increment    - STEP LENGTH
 NULL. -999.2500:NULL Value
~CURVE INFORMATION BLOCK
#MNEM UNIT       ERCB CURVE CODE    CURVE DESCRIPTION
#-----------   ------------------   ----------------------------------
DEPT.M        00 001 00 00         : DEPTH        - DEPTH
ILD .OHMM     00 120 00 00         : RESD         - DEEP RESISTIVITY (DIL)
DPHI.V/V      00 890 00 00         : PHID         - DENSITY POROSITY (LIMESTONE)
NPHI.V/V      00 330 00 00         : PHIN         - NEUTRON POROSITY (LIMESTONE)
GR  .API      00 310 00 00         : GR           - GAMMA RAY
CALI.MM       00 280 01 00         : CAL          - CALIPER
~PARAMETER INFORMATION
#MNEM.UNIT           DATA             DESCRIPTION OF MNEMONIC
#---------         -----------     ------------------------------
GL  .M        656.66               : gl           - GROUND LEVEL ELEVATION
EREF.M        660.02               : kb           - ELEVATION OF DEPTH REFERENCE
DATM.M        660.02               : datum        - DATUM ELEVATION
TDD .M        550                  : tdd          - TOTAL DEPTH DRILLER
RUN .         ONE                  : Run          - RUN NUMBER
ENG .         BILL                 : Engineer     - RECORDING ENGINEER
WIT .         JIM                  : Witness      - WITNESSED BY
MUD .         GEL                  : Mud_type     - MUD TYPE
MATR.         LIMESTONE            : Logunit      - NEUTRON MATRIX
TMAX.C        24                   : BHT          - MAXIMUM RECORDED TEMPERATURE
BHTD.M        550.4                : BHTDEP       - MAXIMUM RECORDED TEMPERATURE
MATR.         1                    : LOGUNIT      - NEUTRON MATRIX
RMT .C        25                   : MDTP         - TEMPERATURE OF MUD
NEUT.         1                    : NEUTRON      - NEUTRON TYPE
RESI.         0                    : RESIST       - RESISTIVITY TYPE
RMC .OHMM     0.25                 : RMC          - RESISTIVITY OF MUD CAKE
RMF .OHMM     0.25                 : RMF          - RESISTIVITY OF MUD FILTRATE
SUFT.C        15                   : SUFT         - SURFACE TEMPERATURE
~A  DEPTH     RESD     PHID     PHIN       GR      CAL
# ...
  507.500    5.339    0.260    0.371   79.295  204.350
  507.750    5.058    0.266    0.380   80.171  204.896
  508.000    5.107    0.267    0.385   81.171  205.341
  508.250    5.246    0.259    0.402   82.230  205.574
  508.500    5.337    0.209    0.395   77.238  205.708
  508.750    5.370    0.152    0.349   72.672  205.646
  509.000    5.361    0.122    0.303   70.241  205.469
  509.250    5.527    0.129    0.316   74.604  205.402
  509.500    5.995    0.239    0.351   81.169  205.642
  509.750    6.626    0.276    0.382   84.431  205.978
  510.000    7.406    0.301    0.396   77.539  206.217
  510.250    8.436    0.319    0.407   70.221  207.172
  510.500    9.132    0.332    0.414   64.370  208.118
  510.750    9.757    0.340    0.419   59.678  208.457
  511.000    9.543    0.336    0.408   56.639  206.350
  511.250    8.369    0.330    0.393   67.487  204.549
  511.500    6.990    0.314    0.383   77.111  203.570
  511.750    5.728    0.299    0.383   84.410  203.195
  512.000    4.488    0.294    0.388   86.020  203.018
  512.250    3.906    0.285    0.386   86.285  203.264
  512.500    3.624    0.279    0.386   86.428  204.003
  512.750    3.722    0.282    0.405   84.249  204.752
  513.000    3.940    0.287    0.419   86.101  205.295
  513.250    4.186    0.274    0.413   92.727  205.532
  513.500    4.422    0.265    0.405   98.130  204.752
  513.750    4.734    0.261    0.424  102.555  203.969
  514.000    4.954    0.255    0.417  103.922  203.288
  514.250    5.334    0.238    0.402  103.759  203.937
  514.500    5.571    0.202    0.385  104.025  205.192
  514.750    5.831    0.182    0.384  104.961  206.448
  515.000    5.966    0.170    0.406  107.427  207.913
  515.250    5.980    0.170    0.417  110.446  208.656
  515.500    5.882    0.169    0.404  110.771  209.097
  515.750    5.710    0.167    0.391  111.098  208.317
  516.000    5.626    0.172    0.411  111.545  207.025
  516.250    5.628    0.178    0.427  113.034  206.754
  516.500    5.781    0.183    0.422  114.460  207.296
  516.750    5.859    0.178    0.405  110.504  208.044
  517.000    5.917    0.173    0.392  101.351  208.589
  517.250    5.908    0.165    0.406   95.804  208.724
  517.500    5.789    0.137    0.391   92.338  208.150
  517.750    5.662    0.114    0.344   93.397  207.159
  518.000    5.528    0.117    0.326  100.146  205.868
  518.250    5.467    0.164    0.343  106.040  205.696
  518.500    5.449    0.177    0.360  104.591  206.240
  518.750    5.452    0.183    0.384  100.270  207.089
  519.000    5.463    0.200    0.386   96.618  207.734
  519.250    5.517    0.213    0.376   93.335  207.773
  519.500    5.688    0.195    0.370   98.126  207.497
  519.750    5.953    0.176    0.387  104.942  207.224
  520.000    6.149    0.171    0.396  109.177  207.054
  520.250    6.186    0.183    0.383  116.355  206.884
  520.500    6.107    0.192    0.379  122.492  206.511
  520.750    5.840    0.180    0.395  127.466  205.625
  521.000    5.574    0.176    0.412  129.138  204.438
  521.250    5.482    0.216    0.403  120.597  204.168
  521.500    5.673    0.239    0.389  114.743  204.810
  521.750    5.959    0.190    0.374  108.891  204.944
  522.000    6.260    0.157    0.373  105.241  205.596
  522.250    6.515    0.162    0.380  102.631  205.626
  522.500    6.654    0.163    0.392   99.961  205.657
  522.750    6.720    0.162    0.400  100.656  205.698
  523.000    6.786    0.160    0.397  101.101  206.030
  523.250    6.801    0.155    0.390   99.226  206.372
  523.500    6.829    0.148    0.382   97.410  206.712
  523.750    6.832    0.144    0.375   98.534  206.951
  524.000    6.834    0.156    0.387  100.511  207.288
  524.250    6.811    0.164    0.398  101.999  207.422
  524.500    6.801    0.169    0.388  102.141  207.763
  524.750    6.740    0.172    0.382  101.915  207.905
  525.000    6.730    0.171    0.376  101.753  208.136
  525.250    6.670    0.159    0.372  101.895  208.273
  525.500    6.659    0.161    0.379  102.955  208.311
  525.750    6.661    0.150    0.387  104.260  208.644
  526.000    6.740    0.141    0.395  105.198  209.697
  526.250    6.832    0.143    0.397  105.523  211.672
  526.500    6.938    0.148    0.386  104.870  212.313
  526.750    7.007    0.152    0.382  104.281  212.245
  527.000    7.088    0.157    0.393  103.933  212.177
  527.250    7.118    0.156    0.389  104.626  211.806
  527.500    7.107    0.154    0.366  105.871  211.429
  527.750    7.110    0.161    0.354  107.113  211.362
  528.000    7.126    0.151    0.375  108.482  211.191
  528.250    7.143    0.147    0.388  108.437  211.534
  528.500    7.172    0.145    0.389  105.828  211.669
  528.750    7.175    0.150    0.378  106.155  212.311
  529.000    7.177    0.156    0.368  106.969  212.650
  529.250    7.193    0.161    0.379  105.766  212.684
  529.500    7.183    0.161    0.387  103.768  211.698
  529.750    7.185    0.159    0.394  101.402  209.696
  530.000    7.188    0.161    0.395  100.383  208.607
  530.250    7.190    0.166    0.389  103.401  208.542
  530.500    7.221    0.161    0.386  105.624  208.468
  530.750    7.264    0.140    0.376  106.377  208.404
  531.000    7.294    0.141    0.374  106.520  208.333
  531.250    7.297    0.132    0.382  106.294  208.368
  531.500    7.286    0.131    0.378  106.988  208.715
  531.750    7.262    0.142    0.391  107.498  208.742
  532.000    7.237    0.151    0.398  106.479  208.574
  532.250    7.212    0.157    0.388  106.070  208.704
  532.500    7.188    0.151    0.377  105.909  208.535
  532.750    7.177    0.143    0.369  106.049  208.569
  533.000    7.180    0.143    0.364  106.009  208.604
  533.250    7.197    0.147    0.369  105.845  208.431
  533.500    7.226    0.149    0.368  105.008  208.060
  533.750    7.283    0.163    0.372  100.442  207.587
  534.000    7.314    0.186    0.396   97.831  207.207
  534.250    7.330    0.199    0.396   98.892  205.814
  534.500    7.333    0.175    0.383   99.890  205.443
  534.750    7.336    0.145    0.372  100.583  205.372
  535.000    7.352    0.156    0.371  102.320  205.407
  535.250    7.327    0.163    0.371  103.868  205.540
  535.500    7.303    0.156    0.375  105.539  205.880
  535.750    7.237    0.154    0.380  107.764  205.917
  536.000    7.186    0.156    0.381  109.678  206.153
  536.250    7.161    0.159    0.374  111.104  206.800
  536.500    7.124    0.155    0.366  107.454  207.548
  536.750    7.073    0.144    0.362  109.064  208.398
  537.000    6.970    0.132    0.366  111.470  209.249
  537.250    6.843    0.124    0.368  106.352  209.998
  537.500    6.705    0.127    0.370   95.730  210.434
  537.750    6.509    0.130    0.383   88.409  209.955
  538.000    6.294    0.148    0.395   83.780  209.175
  538.250    6.087    0.177    0.389   88.146  208.292
  538.500    5.909    0.195    0.380   93.427  207.512
  538.750    5.790    0.190    0.396   96.932  206.835
  539.000    5.880    0.185    0.439   98.664  206.053
  539.250    6.438    0.186    0.426   90.610  204.859
  539.500    7.062    0.189    0.406   73.441  203.259
  539.750    7.864    0.211    0.393   52.848  201.357
  540.000   10.084    0.207    0.383   33.600  200.677
  540.250   14.584    0.188    0.358   21.631  200.813
  540.500   19.128    0.088    0.322   19.939  200.743
  540.750   25.134    0.083    0.263   19.470  199.758
  541.000   31.569    0.091    0.226   19.980  200.506
  541.250   35.822    0.091    0.205   20.000  200.540
  541.500   37.702    0.084    0.190   20.082  201.187
  541.750   37.858    0.064    0.182   19.614  201.730
  542.000   37.730    0.034    0.181   19.204  202.069
  542.250   38.029    0.009    0.182   18.128  202.108
  542.500   40.026    0.009    0.183   17.717  202.238
  542.750   41.810    0.024    0.183   17.492  202.479
  543.000   41.826    0.038    0.181   17.575  202.304
  543.250   41.763    0.036    0.178   17.778  201.624
  543.500   42.413    0.034    0.176   17.796  200.536
  543.750   43.974    0.050    0.173   18.245  199.859
