~VERSION INFORMATION
 VERS.                 2.0:   CWLS LOG ASCII STANDARD -VERSION 2.0
 WRAP.                  NO:   ONE LINE PER DEPTH STEP
~WELL INFORMATION BLOCK
#MNEM.UNIT           DATA                    DESCRIPTION OF MNEMONIC
#---------    -------------------            -------------------------------
# Generated from Intellog Unique Number	CW_70_72/WELL/199
NULL.         -999.25                        : NULL_VALUE
WELL.         GULF NORCEN MITSUE 02-36       : Well_name    - WELL              
LOC .         02-36-072-04W5                 : Location     - LOCATION          
UWI .         00/02-36-072-04W5/0            : Uwi          - UNIQUE WELL ID    
ENTR.         JAYE                           : Entered      - ENTERED BY        
SRVC.         COMPUTALOG                     : Scn          - SERVICE COMPANY   
DATE.         20 JAN 83                      : Date         - LOG DATE          
STRT.M        375                            : top_depth    - START DEPTH       
STOP.M        580                            : bot_depth    - STOP DEPTH        
STEP.M        0.25                           : increment    - STEP LENGTH       
~CURVE INFORMATION BLOCK
#MNEM UNIT       ERCB CURVE CODE    CURVE DESCRIPTION
#-----------   ------------------   ----------------------------------
DEPT.M        00 001 00 00         : DEPTH        - DEPTH                       
DPHI.V/V      00 890 00 00         : PHID         - DENSITY POROSITY (SANDSTONE)
NPHI.V/V      00 330 00 00         : PHIN         - NEUTRON POROSITY (SANDSTONE)
GR  .API      00 310 00 00         : GR           - GAMMA RAY                   
CALI.MM       00 280 01 00         : CAL          - CALIPER                     
ILD .OHMM     00 120 00 00         : RESD         - DEEP RESISTIVITY (DIL)      
~PARAMETER INFORMATION       
#MNEM.UNIT           DATA             DESCRIPTION OF MNEMONIC
#---------         -----------     ------------------------------
GL  .M        588.1                : gl           - GROUND LEVEL ELEVATION      
EREF.M        592.9                : kb           - ELEVATION OF DEPTH REFERENCE
DATM.M        588.1                : datum        - DATUM ELEVATION             
TDD .M        1647                 : tdd          - TOTAL DEPTH DRILLER         
RUN .         ONE                  : Run          - RUN NUMBER                  
ENG .         AASLAND              : Engineer     - RECORDING ENGINEER          
WIT .         FITZGERALD           : Witness      - WITNESSED BY                
BASE.         EDM                  : Branch       - HOME BASE OF LOGGING UNIT   
MUD .         GEL CHEM             : Mud_type     - MUD TYPE                    
MATR.         SANDSTONE            : Logunit      - NEUTRON MATRIX              
TMAX.C        52                   : BHT          - MAXIMUM RECORDED TEMPERATURE
BHTD.M        1645.6               : BHTDEP       - MAXIMUM RECORDED TEMPERATURE
RMT .C        21                   : MDTP         - TEMPERATURE OF MUD          
MUDD.KG/M     1100                 : MWT          - MUD DENSITY                 
NEUT.         1                    : NEUTRON      - NEUTRON TYPE                
RESI.         0                    : RESIST       - RESISTIVITY TYPE            
RM  .OHMM     0.37                 : RM           - RESISTIVITY OF MUD          
RMC .OHMM     0.38                 : RMC          - RESISTIVITY OF MUD CAKE     
RMF .OHMM     0.34                 : RMF          - RESISTIVITY OF MUD FILTRATE 
SUFT.C        0                    : SUFT         - SURFACE TEMPERATURE         
~A  DEPTH     PHID     PHIN       GR      CAL     RESD
# ...
  521.000    0.190    0.428   68.108  315.178    4.603
  521.250    0.188    0.423   69.810  317.490    4.725
  521.500    0.187    0.412   70.509  319.284    4.821
  521.750    0.192    0.405   71.022  320.035    4.893
  522.000    0.195    0.404   71.910  321.301    4.954
  522.250    0.191    0.405   73.797  322.574    5.144
  522.500    0.180    0.408   75.123  321.549    5.464
  522.750    0.175    0.411   73.944  320.524    5.544
  523.000    0.185    0.446   72.580  316.371    5.364
  523.250    0.207    0.451   71.338  309.088    5.052
  523.500    0.223    0.446   68.033  300.762    4.563
  523.750    0.217    0.434   65.165  301.407    4.406
  524.000    0.199    0.429   66.366  307.684    4.328
  524.250    0.180    0.437   68.819  313.544    4.317
  524.500    0.169    0.446   71.521  315.441    4.348
  524.750    0.166    0.456   74.410  313.896    4.377
  525.000    0.163    0.442   77.176  314.749    4.450
  525.250    0.155    0.428   76.936  315.186    4.524
  525.500    0.157    0.412   74.508  315.101    4.617
  525.750    0.163    0.434   73.392  314.700    4.712
  526.000    0.171    0.436   72.403  315.138    4.948
  526.250    0.185    0.435   71.662  315.468    5.346
  526.500    0.196    0.437   70.860  314.966    5.911
  526.750    0.203    0.450   69.494  313.630    6.561
  527.000    0.195    0.454   69.192  302.903    7.580
  527.250    0.156    0.431   63.571  293.848    8.874
  527.500    0.124    0.364   55.196  294.388    9.248
  527.750    0.127    0.344   53.455  308.906    7.479
  528.000    0.125    0.327   55.971  312.055    6.501
  528.250    0.108    0.306   60.612  308.633    5.535
  528.500    0.122    0.322   65.755  308.859    4.812
  528.750    0.134    0.361   71.275  310.550    4.321
  529.000    0.148    0.416   75.353  311.190    3.693
  529.250    0.156    0.421   71.985  311.000    3.452
  529.500    0.145    0.428   69.306  318.633    3.437
  529.750    0.129    0.438   69.255  319.487    3.435
  530.000    0.113    0.451   70.895  316.376    3.498
  530.250    0.112    0.459   72.719  315.353    3.591
  530.500    0.137    0.452   75.108  315.163    3.671
  530.750    0.149    0.440   76.060  314.973    3.676
  531.000    0.152    0.441   75.193  314.785    3.597
  531.250    0.153    0.441   72.201  314.385    3.561
  531.500    0.161    0.450   71.147  314.402    3.592
  531.750    0.169    0.456   71.910  314.109    3.694
  532.000    0.174    0.460   73.112  313.710    3.909
  532.250    0.175    0.459   72.810  313.419    4.273
  532.500    0.177    0.438   71.694  313.227    4.599
  532.750    0.182    0.424   70.015  313.454    4.858
  533.000    0.188    0.429   68.275  314.307    4.910
  533.250    0.192    0.430   66.659  317.770    4.796
  533.500    0.197    0.415   64.793  312.675    4.622
  533.750    0.194    0.382   63.114  315.928    4.354
  534.000    0.183    0.393   61.061  315.949    4.000
  534.250    0.173    0.435   64.826  314.299    3.690
  534.500    0.167    0.452   69.844  313.795    3.509
  534.750    0.161    0.447   75.425  313.606    3.480
  535.000    0.156    0.428   80.255  313.624    3.518
  535.250    0.151    0.421   79.015  314.268    3.556
  535.500    0.150    0.419   77.211  314.494    3.614
  535.750    0.149    0.424   76.034  314.516    3.696
  536.000    0.152    0.436   75.794  314.428    3.779
  536.250    0.162    0.451   76.682  314.029    3.879
  536.500    0.196    0.453   77.132  314.256    3.974
  536.750    0.208    0.434   74.828  315.116    4.078
  537.000    0.212    0.439   70.144  315.963    4.186
  537.250    0.202    0.445   65.963  316.608    4.312
  537.500    0.186    0.437   66.099  316.627    4.409
  537.750    0.176    0.424   68.739  316.754    4.508
  538.000    0.166    0.425   72.192  316.769    4.689
  538.250    0.157    0.428   74.581  317.101    4.795
  538.500    0.148    0.428   69.837  317.014    4.820
  538.750    0.141    0.430   69.286  317.452    4.725
  539.000    0.152    0.414   68.732  316.739    4.570
  539.250    0.152    0.398   68.932  313.943    4.448
  539.500    0.141    0.380   68.944  313.440    4.411
  539.750    0.137    0.387   67.391  311.164    4.433
  540.000    0.144    0.404   67.088  310.663    4.558
  540.250    0.143    0.419   71.605  312.870    4.787
  540.500    0.139    0.432   71.743  312.159    4.702
  540.750    0.142    0.420   67.873  306.546    4.363
  541.000    0.148    0.395   67.697  301.350    4.261
  541.250    0.154    0.377   68.647  299.803    4.578
  541.500    0.163    0.396   73.232  300.761    5.129
  541.750    0.188    0.443   73.801  300.155    5.960
  542.000    0.209    0.444   74.313  296.940    7.291
  542.250    0.222    0.402   72.697  282.042    8.800
  542.500    0.134    0.363   67.702  270.379   12.001
  542.750    0.084    0.316   62.331  272.171   12.178
  543.000    0.080    0.285   55.646  278.450   10.792
  543.250    0.098    0.304   52.216  283.369   10.106
  543.500    0.191    0.343   55.355  276.816    9.629
  543.750    0.206    0.375   59.372  265.153    9.480
  544.000    0.210    0.387   60.197  275.812    9.526
  544.250    0.217    0.395   62.401  280.837    9.575
  544.500    0.230    0.403   64.788  276.684    9.550
  544.750    0.236    0.362   63.297  274.302    9.451
  545.000    0.229    0.332   54.423  280.788    8.903
  545.250    0.217    0.364   55.748  280.390    8.290
  545.500    0.212    0.405   57.824  279.891    7.809
  545.750    0.212    0.392   60.902  279.699    7.775
  546.000    0.209    0.387   62.228  279.821    8.009
  546.250    0.207    0.383   62.364  280.155    8.924
  546.500    0.209    0.380   62.939  281.321   10.507
  546.750    0.189    0.332   62.824  283.110   11.507
  547.000    0.158    0.292   60.645  285.007   11.218
  547.250    0.127    0.249   57.090  286.800   10.268
  547.500    0.069    0.238   52.344  288.591    9.292
  547.750    0.134    0.282   45.973  283.081    8.346
  548.000    0.163    0.326   46.423  281.016    7.697
  548.250    0.184    0.374   50.626  280.617    7.236
  548.500    0.194    0.390   55.332  280.740    6.987
  548.750    0.202    0.398   57.282  281.177    7.009
  549.000    0.206    0.408   57.356  281.925    7.141
  549.250    0.208    0.414   56.804  283.613    7.328
  549.500    0.207    0.408   57.066  284.571    7.492
  549.750    0.203    0.403   57.391  285.215    7.602
  550.000    0.205    0.404   57.338  286.069    7.540
  550.250    0.214    0.407   56.411  286.712    7.421
  550.500    0.216    0.413   52.980  287.566    7.344
  550.750    0.217    0.421   52.366  288.732    7.270
  551.000    0.216    0.432   53.753  289.900    7.141
  551.250    0.210    0.406   55.143  290.648    6.935
  551.500    0.204    0.370   54.216  291.603    6.931
  551.750    0.194    0.360   51.097  292.874    7.005
  552.000    0.183    0.368   50.920  295.083    7.041
  552.250    0.185    0.376   53.372  297.397    6.996
  552.500    0.186    0.368   55.824  299.607    6.911
  552.750    0.172    0.352   57.650  301.921    6.776
  553.000    0.158    0.345   57.663  303.399    6.618
  553.250    0.150    0.344   56.798  304.881    6.601
  553.500    0.145    0.341   56.746  305.628    6.534
  553.750    0.140    0.333   58.134  305.648    6.250
  554.000    0.133    0.329   60.148  305.874    5.922
  554.250    0.124    0.330   62.975  305.580    5.706
  554.500    0.118    0.336   66.804  305.494    5.324
  554.750    0.122    0.344   71.134  305.408    5.199
  555.000    0.119    0.356   75.087  306.470    5.215
  555.250    0.127    0.370   79.229  307.740    5.425
  555.500    0.146    0.393   80.116  306.404    5.840
  555.750    0.128    0.399   78.940  304.232    6.275
  556.000    0.105    0.380   78.137  301.955    6.755
  556.250    0.094    0.352   78.210  301.139    7.203
  556.500    0.111    0.339   80.162  295.943    7.394
  556.750    0.123    0.339   82.175  292.312    7.289
  557.000    0.111    0.345   82.876  291.079    6.999
  557.250    0.091    0.361   79.819  290.368    7.021
