~VERSION INFORMATION
 VERS.                 2.0:   CWLS LOG ASCII STANDARD -VERSION 2.0
 WRAP.                  NO:   ONE LINE PER DEPTH STEP
~WELL INFORMATION BLOCK
#MNEM.UNIT           DATA                    DESCRIPTION OF MNEMONIC
#---------    -------------------            -------------------------------
# Generated from Intellog Unique Number	CW_79_81/WELL/2448
WELL.         SHELL FINA PASTECHO            : Well_name    - WELL
LOC .         00/05-25-081-03W5/0            : Location     - LOCATION
UWI .         00/05-25-081-03W5/0            : Uwi          - UNIQUE WELL ID
ENTR.         MAX                            : Entered      - ENTERED BY
SRVC.         SCHLUMBERGER                   : Scn          - SERVICE COMPANY
STRT.M        250                            : top_depth    - START DEPTH
STOP.M        479.75                         : bot_depth    - STOP DEPTH
STEP.M        0.25                           : increment    - STEP LENGTH
 NULL. -999.2500:NULL Value
~CURVE INFORMATION BLOCK
#MNEM UNIT       ERCB CURVE CODE    CURVE DESCRIPTION
#-----------   ------------------   ----------------------------------
DEPT.M        00 001 00 00         : DEPTH        - DEPTH
ILD .OHMM     00 120 00 00         : RESD         - DEEP RESISTIVITY (DIL)
NPHI.V/V      00 330 00 00         : PHIN         - NEUTRON POROSITY (SANDSTONE)
DPHI.V/V      00 890 00 00         : PHID         - DENSITY POROSITY (SANDSTONE)
GR  .API      00 310 00 00         : GR           - GAMMA RAY
CALI.MM       00 280 01 00         : CAL          - CALIPER
~PARAMETER INFORMATION
#MNEM.UNIT           DATA             DESCRIPTION OF MNEMONIC
#---------         -----------     ------------------------------
GL  .M        574.37               : gl           - GROUND LEVEL ELEVATION
EREF.M        578.37               : kb           - ELEVATION OF DEPTH REFERENCE
DATM.M        574.37               : datum        - DATUM ELEVATION
TDD .M        455.2                : tdd          - TOTAL DEPTH DRILLER
RUN .         ONE                  : Run          - RUN NUMBER
ENG .         BILL                 : Engineer     - RECORDING ENGINEER
WIT .         JIM                  : Witness      - WITNESSED BY
MUD .         GEL                  : Mud_type     - MUD TYPE
MATR.         SANDSTONE            : Logunit      - NEUTRON MATRIX
TMAX.C        16.7                 : BHT          - MAXIMUM RECORDED TEMPERATURE
BHTD.M        455.2                : BHTDEP       - MAXIMUM RECORDED TEMPERATURE
MATR.         1                    : LOGUNIT      - NEUTRON MATRIX
RMT .C        22.2                 : MDTP         - TEMPERATURE OF MUD
NEUT.         1                    : NEUTRON      - NEUTRON TYPE
RESI.         0                    : RESIST       - RESISTIVITY TYPE
RMC .OHMM     3.58                 : RMC          - RESISTIVITY OF MUD CAKE
RMF .OHMM     2.73                 : RMF          - RESISTIVITY OF MUD FILTRATE
SUFT.C        -20                  : SUFT         - SURFACE TEMPERATURE
~A  DEPTH     RESD     PHIN     PHID       GR      CAL
# ...
  323.000   11.760    0.502    0.347   64.238  211.530
  323.250   11.567    0.500    0.351   64.492  211.939
  323.500   11.402    0.502    0.358   65.728  211.948
  323.750   11.165    0.490    0.346   68.800  211.958
  324.000   10.516    0.487    0.332   72.049  212.265
  324.250    9.974    0.491    0.314   75.828  212.473
  324.500    9.733    0.491    0.286   78.783  212.680
  324.750    9.873    0.456    0.210   78.290  213.645
  325.000   10.186    0.397    0.065   80.508  214.476
  325.250    9.615    0.333    0.093   83.816  214.879
  325.500    8.826    0.341    0.197   86.770  214.990
  325.750    8.037    0.409    0.261   88.074  215.001
  326.000    7.233    0.491    0.264   87.845  215.012
  326.250    6.274    0.509    0.276   87.618  215.024
  326.500    6.047    0.505    0.287   87.624  215.036
  326.750    6.052    0.506    0.290   87.159  215.049
  327.000    6.390    0.502    0.282   86.164  215.648
  327.250    6.853    0.501    0.279   84.166  216.640
  327.500    7.222    0.506    0.285   81.991  217.634
  327.750    7.215    0.512    0.297   82.058  218.123
  328.000    6.903    0.520    0.286   83.541  218.544
  328.250    6.612    0.530    0.286   82.840  216.984
  328.500    6.124    0.526    0.291   82.315  216.602
  328.750    5.790    0.522    0.288   82.793  216.614
  329.000    5.732    0.523    0.279   83.567  216.625
  329.250    6.091    0.532    0.275   81.561  216.394
  329.500    6.630    0.522    0.298   77.392  215.177
  329.750    7.389    0.543    0.296   75.748  214.009
  330.000    8.198    0.548    0.309   75.695  213.430
  330.250    8.899    0.548    0.324   77.353  213.637
  330.500    9.375    0.548    0.328   80.071  214.630
  330.750    9.706    0.549    0.311   81.258  216.216
  331.000    9.940    0.556    0.296   75.370  216.228
  331.250   10.092    0.533    0.330   70.897  215.061
  331.500   10.470    0.515    0.347   68.368  213.892
  331.750   10.636    0.509    0.349   67.785  212.725
  332.000   10.252    0.510    0.342   69.560  211.854
  332.250    9.061    0.504    0.334   75.552  212.030
  332.500    8.107    0.501    0.312   80.718  212.859
  332.750    7.430    0.507    0.299   79.783  213.263
  333.000    7.046    0.518    0.303   77.607  213.372
  333.250    6.927    0.523    0.314   72.779  213.384
  333.500    7.057    0.518    0.332   67.127  213.298
  333.750    7.556    0.503    0.369   65.771  212.754
  334.000    8.224    0.504    0.371   66.023  211.946
  334.250    8.594    0.516    0.370   66.029  211.564
  334.500    9.032    0.515    0.364   67.274  212.068
  334.750    9.311    0.507    0.354   70.464  212.865
  335.000    9.300    0.500    0.342   74.656  213.563
  335.250    8.890    0.494    0.331   77.504  214.053
  335.500    8.193    0.479    0.316   78.739  214.473
  335.750    7.733    0.475    0.302   79.924  214.880
  336.000    7.547    0.471    0.283   81.641  215.577
  336.250    7.689    0.461    0.247   82.591  216.766
  336.500    8.194    0.440    0.191   79.533  217.958
  336.750    9.313    0.394    0.108   65.755  217.810
  337.000   10.618    0.330    0.040   58.147  217.001
  337.250   10.704    0.294    0.048   62.162  217.010
  337.500    9.982    0.326    0.114   73.252  217.906
  337.750    8.662    0.396    0.174   85.168  219.491
  338.000    7.100    0.465    0.205   93.486  220.976
  338.250    5.545    0.489    0.226   95.568  220.907
  338.500    5.304    0.475    0.216   95.329  220.511
  338.750    5.465    0.456    0.207   93.686  219.734
  339.000    5.812    0.442    0.193   92.042  218.960
  339.250    6.191    0.427    0.190   90.280  217.988
  339.500    6.417    0.419    0.206   88.989  216.918
  339.750    6.252    0.450    0.241   89.371  216.064
  340.000    5.893    0.480    0.263   88.886  215.666
  340.250    5.644    0.501    0.268   89.837  215.285
  340.500    5.410    0.507    0.270   90.963  214.608
  340.750    5.280    0.508    0.272   91.913  214.030
  341.000    5.234    0.510    0.274   92.569  214.041
  341.250    5.172    0.511    0.268   92.901  215.642
  341.500    5.215    0.514    0.257   92.172  217.700
  341.750    5.297    0.514    0.258   93.828  217.712
  342.000    5.321    0.516    0.262   95.309  217.134
  342.250    5.325    0.516    0.260   96.731  216.359
  342.500    5.329    0.511    0.252   97.798  215.977
  342.750    5.335    0.503    0.248   97.561  217.267
  343.000    5.339    0.516    0.244   96.339  219.735
  343.250    5.343    0.527    0.247   95.403  219.355
  343.500    5.377    0.521    0.251   97.826  218.973
  343.750    5.440    0.506    0.249   98.777  218.591
  344.000    5.525    0.494    0.241   97.722  218.307
  344.250    5.620    0.501    0.234   98.437  218.320
  344.500    5.668    0.530    0.235   98.445  218.332
  344.750    5.713    0.536    0.235   96.565  218.345
  345.000    5.759    0.528    0.231   93.447  218.355
  345.250    5.931    0.519    0.220   90.153  218.365
  345.500    6.280    0.517    0.202   87.213  218.279
  345.750    7.000    0.524    0.160   81.974  217.817
  346.000    8.494    0.511    0.053   68.715  217.419
  346.250   10.150    0.333    0.085   63.536  217.038
  346.500   12.942    0.345    0.136   67.551  216.362
  346.750   16.679    0.424    0.202   72.627  215.979
  347.000   19.385    0.490    0.270   74.815  215.990
  347.250   16.790    0.503    0.314   75.038  215.761
  347.500   13.084    0.480    0.306   78.485  214.543
  347.750    9.697    0.482    0.266   82.028  214.553
  348.000    7.308    0.472    0.256   85.042  215.448
  348.250    6.223    0.460    0.254   87.761  216.639
  348.500    5.904    0.457    0.251   90.008  217.537
  348.750    5.936    0.474    0.251   91.195  217.386
  349.000    6.078    0.490    0.252   91.203  216.577
  349.250    6.353    0.494    0.258   88.379  215.802
  349.500    6.711    0.495    0.267   85.026  215.616
  349.750    6.793    0.501    0.286   84.796  215.628
  350.000    6.532    0.509    0.301   88.340  215.738
  350.250    6.198    0.501    0.275   94.823  216.471
  350.500    6.110    0.498    0.253  102.445  218.122
  350.750    6.160    0.499    0.252  101.744  218.132
  351.000    6.345    0.500    0.259   98.391  218.143
  351.250    6.631    0.510    0.263   94.742  218.154
  351.500    6.984    0.525    0.262   92.037  218.165
  351.750    7.381    0.528    0.260   90.345  218.179
  352.000    7.500    0.516    0.253   90.107  218.191
  352.250    7.344    0.508    0.237   87.992  218.202
  352.500    7.073    0.489    0.232   87.644  217.919
  352.750    6.624    0.475    0.246   90.363  217.340
  353.000    6.150    0.470    0.265   94.202  216.762
  353.250    5.859    0.471    0.251   93.925  216.776
  353.500    5.689    0.475    0.254   93.688  216.786
  353.750    5.571    0.485    0.243   93.693  216.798
  354.000    5.515    0.481    0.248   92.815  216.810
  354.250    5.500    0.475    0.257   91.053  216.821
  354.500    5.524    0.477    0.262   89.468  216.832
  354.750    5.628    0.498    0.255   90.626  216.846
  355.000    5.720    0.509    0.239   92.844  216.857
  355.250    5.724    0.516    0.238   94.973  216.868
  355.500    5.729    0.523    0.239   95.510  217.174
  355.750    5.775    0.525    0.242   93.866  216.596
  356.000    5.906    0.522    0.246   90.808  214.839
  356.250    6.267    0.517    0.251   87.917  212.906
  356.500    6.769    0.512    0.254   85.222  214.964
  356.750    7.543    0.505    0.268   82.164  216.545
  357.000    8.283    0.494    0.291   78.397  216.950
  357.250    9.014    0.480    0.299   73.452  216.569
  357.500    9.760    0.470    0.288   69.274  215.892
  357.750   10.639    0.473    0.271   70.814  215.513
  358.000   11.316    0.488    0.249   73.768  215.525
  358.250   12.083    0.492    0.264   75.425  215.538
  358.500   12.770    0.476    0.274   73.015  215.547
  358.750   13.117    0.445    0.262   70.900  215.361
  359.000   12.984    0.414    0.222   72.204  214.979
  359.250   12.191    0.415    0.180   79.503  214.435
