~VERSION INFORMATION
 VERS.                 2.0:   CWLS LOG ASCII STANDARD -VERSION 2.0
 WRAP.                  NO:   ONE LINE PER DEPTH STEP
~WELL INFORMATION BLOCK
#MNEM.UNIT           DATA                    DESCRIPTION OF MNEMONIC
#---------    -------------------            -------------------------------
# Generated from Intellog Unique Number	CS_77_79/WELL/845
WELL.         CANADIAN OCCIDENTAL            : Well_name    - WELL
LOC .         00/03-28-077-02W4/0            : Location     - LOCATION
UWI .         00/03-28-077-02W4/0            : Uwi          - UNIQUE WELL ID
ENTR.         SP                             : Entered      - ENTERED BY
SRVC.         SCHLUMBERGER                   : Scn          - SERVICE COMPANY
STRT.M        204.12                         : top_depth    - START DEPTH
STOP.M        463.12                         : bot_depth    - STOP DEPTH
STEP.M        0.25                           : increment    - STEP LENGTH
 NULL. -999.2500:NULL Value
~CURVE INFORMATION BLOCK
#MNEM UNIT       ERCB CURVE CODE    CURVE DESCRIPTION
#-----------   ------------------   ----------------------------------
DEPT.M        00 001 00 00         : DEPTH        - DEPTH
GR  .API      00 310 00 00         : GR           - GAMMA RAY
DPHI.V/V      00 890 00 00         : PHID         - DENSITY POROSITY (SANDSTONE)
NPHI.V/V      00 330 00 00         : PHIN         - NEUTRON POROSITY (SANDSTONE)
ILD .OHMM     00 120 00 00         : RESD         - DEEP RESISTIVITY (DIL)
~PARAMETER INFORMATION
#MNEM.UNIT           DATA             DESCRIPTION OF MNEMONIC
#---------         -----------     ------------------------------
GL  .M        592.531              : gl           - GROUND LEVEL ELEVATION
EREF.M        595.884              : kb           - ELEVATION OF DEPTH REFERENCE
DATM.M        592.531              : datum        - DATUM ELEVATION
TDD .M        472.44               : tdd          - TOTAL DEPTH DRILLER
RUN .         ONE                  : Run          - RUN NUMBER
ENG .         BILL                 : Engineer     - RECORDING ENGINEER
WIT .         JIM                  : Witness      - WITNESSED BY
MUD .         GEL                  : Mud_type     - MUD TYPE
MATR.         SANDSTONE            : Logunit      - NEUTRON MATRIX
TMAX.C        23.8889              : BHT          - MAXIMUM RECORDED TEMPERATURE
BHTD.M        472.44               : BHTDEP       - MAXIMUM RECORDED TEMPERATURE
MATR.         1                    : LOGUNIT      - NEUTRON MATRIX
RMT .C        25                   : MDTP         - TEMPERATURE OF MUD
NEUT.         1                    : NEUTRON      - NEUTRON TYPE
RESI.         0                    : RESIST       - RESISTIVITY TYPE
RMC .OHMM     0.25                 : RMC          - RESISTIVITY OF MUD CAKE
RMF .OHMM     0.25                 : RMF          - RESISTIVITY OF MUD FILTRATE
SUFT.C        15                   : SUFT         - SURFACE TEMPERATURE
~A  DEPTH       GR     PHID     PHIN     RESD
# ...
  291.120   52.112    0.331    0.435   13.846
  291.370   53.148    0.323    0.423   13.501
  291.620   52.597    0.338    0.427   12.807
  291.870   52.000    0.335    0.442   12.423
  292.120   52.450    0.347    0.459   12.011
  292.370   52.296    0.352    0.468   12.007
  292.620   51.938    0.345    0.479   12.261
  292.870   50.964    0.356    0.494   12.630
  293.120   49.179    0.344    0.488   13.031
  293.370   49.504    0.340    0.471   13.165
  293.620   49.166    0.346    0.479   13.429
  293.870   48.249    0.337    0.480   13.414
  294.120   48.246    0.341    0.477   13.183
  294.370   48.920    0.344    0.475   12.802
  294.620   48.859    0.344    0.460   12.125
  294.870   51.412    0.340    0.453   10.537
  295.120   56.456    0.326    0.455    9.540
  295.370   61.730    0.300    0.445    7.909
  295.620   68.817    0.263    0.452    7.058
  295.870   75.114    0.246    0.464    5.906
  296.120   79.418    0.248    0.463    5.133
  296.370   82.277    0.255    0.495    4.687
  296.620   83.182    0.260    0.511    4.428
  296.870   83.503    0.255    0.507    4.358
  297.120   83.520    0.255    0.499    4.227
  297.370   82.348    0.262    0.497    4.101
  297.620   83.909    0.264    0.514    3.973
  297.870   85.607    0.263    0.537    3.962
  298.120   86.487    0.263    0.547    4.050
  298.370   83.911    0.269    0.551    4.173
  298.620   81.638    0.278    0.543    4.327
  298.870   77.224    0.280    0.535    4.602
  299.120   73.872    0.284    0.519    5.040
  299.370   68.569    0.283    0.483    5.506
  299.620   65.405    0.280    0.472    6.144
  299.870   63.595    0.300    0.457    6.786
  300.120   62.329    0.301    0.454    7.593
  300.370   60.215    0.313    0.469    8.483
  300.620   56.848    0.328    0.486    9.183
  300.870   54.202    0.340    0.487   10.173
  301.120   53.198    0.349    0.474   10.968
  301.370   54.982    0.353    0.468   11.439
  301.620   53.739    0.364    0.464   11.910
  301.870   53.662    0.362    0.474   12.088
  302.120   54.528    0.347    0.481   12.345
  302.370   53.808    0.351    0.470   12.316
  302.620   53.132    0.353    0.451   12.311
  302.870   53.968    0.367    0.460   12.306
  303.120   55.542    0.361    0.477   12.309
  303.370   56.221    0.358    0.484   11.922
  303.620   55.150    0.362    0.488   11.857
  303.870   53.720    0.359    0.486   11.849
  304.120   54.035    0.360    0.482   11.845
  304.370   54.296    0.360    0.504   11.840
  304.620   54.770    0.368    0.490   11.858
  304.870   55.734    0.373    0.485   11.617
  305.120   56.679    0.369    0.473   11.396
  305.370   55.695    0.353    0.464   11.248
  305.620   54.062    0.345    0.492   11.194
  305.870   55.444    0.353    0.497   11.184
  306.120   57.960    0.356    0.507   11.181
  306.370   57.715    0.358    0.501   11.178
  306.620   57.810    0.356    0.492   11.175
  306.870   57.719    0.355    0.483   11.172
  307.120   58.383    0.353    0.483   11.174
  307.370   59.384    0.366    0.469   10.998
  307.620   60.653    0.365    0.458   10.678
  307.870   62.667    0.369    0.453   10.124
  308.120   65.181    0.374    0.463    9.684
  308.370   66.598    0.365    0.475    9.245
  308.620   67.297    0.357    0.485    9.275
  308.870   66.598    0.352    0.493    9.253
  309.120   63.837    0.346    0.498    9.446
  309.370   61.888    0.341    0.487    9.610
  309.620   61.189    0.335    0.494    9.700
  309.870   61.028    0.342    0.504   10.003
  310.120   58.963    0.337    0.494   10.473
  310.370   57.274    0.325    0.478   11.561
  310.620   55.504    0.276    0.355   13.095
  310.870   53.000    0.165    0.307   15.314
  311.120   51.189    0.106    0.265   16.390
  311.370   50.928    0.110    0.264   15.975
  311.620   52.009    0.158    0.344   15.044
  311.870   49.777    0.225    0.387   14.054
  312.120   47.911    0.243    0.411   13.331
  312.370   50.346    0.125    0.354   12.565
  312.620   55.518    0.150    0.293   11.584
  312.870   60.339    0.225    0.396   10.716
  313.120   61.486    0.277    0.463   10.277
  313.370   59.604    0.330    0.504    9.882
  313.620   60.259    0.329    0.484    9.737
  313.870   61.617    0.334    0.492    9.820
  314.120   63.000    0.340    0.498    9.903
  314.370   65.050    0.330    0.496   10.075
  314.620   66.530    0.326    0.502    9.883
  314.870   66.408    0.331    0.508    9.697
  315.120   67.946    0.332    0.508    8.543
  315.370   69.572    0.340    0.515    7.905
  315.620   71.091    0.324    0.527    6.503
  315.870   71.271    0.319    0.518    5.556
  316.120   72.797    0.314    0.502    4.415
  316.370   78.365    0.297    0.477    3.572
  316.620   85.151    0.271    0.516    3.125
  316.870   89.005    0.250    0.545    2.804
  317.120   92.560    0.263    0.559    2.634
  317.370   92.677    0.267    0.564    2.653
  317.620   95.793    0.279    0.573    2.680
  317.870   98.047    0.285    0.574    2.726
  318.120   99.075    0.267    0.553    2.801
  318.370   96.781    0.227    0.549    2.827
  318.620   96.100    0.235    0.561    2.876
  318.870   93.297    0.236    0.563    2.932
  319.120   92.499    0.262    0.563    2.983
  319.370   94.494    0.246    0.568    2.889
  319.620   95.670    0.250    0.576    2.868
  319.870   95.626    0.237    0.595    2.774
  320.120   95.127    0.246    0.607    2.770
  320.370   95.400    0.292    0.595    2.768
  320.620   94.478    0.280    0.596    2.764
  320.870   90.265    0.264    0.601    2.717
  321.120   85.630    0.279    0.595    2.471
  321.370   79.660    0.289    0.581    2.603
  321.620   77.072    0.286    0.545    2.852
  321.870   73.224    0.271    0.529    3.314
  322.120   72.682    0.334    0.532    3.762
  322.370   74.325    0.336    0.506    4.201
  322.620   76.678    0.331    0.525    4.770
  322.870   77.630    0.348    0.549    4.758
  323.120   78.812    0.346    0.545    4.421
  323.370   80.164    0.299    0.526    4.233
  323.620   80.002    0.283    0.542    4.309
  323.870   76.545    0.301    0.568    4.633
  324.120   74.892    0.357    0.574    5.333
  324.370   75.508    0.314    0.528    5.732
  324.620   76.074    0.286    0.501    6.293
  324.870   77.654    0.257    0.493    5.988
  325.120   78.490    0.279    0.494    5.716
  325.370   80.792    0.286    0.496    5.732
  325.620   78.296    0.281    0.511    5.892
  325.870   80.746    0.286    0.518    6.201
  326.120   80.561    0.283    0.500    6.473
  326.370   76.404    0.275    0.494    7.070
  326.620   73.705    0.271    0.483    7.706
  326.870   69.707    0.281    0.489    8.294
  327.120   66.036    0.301    0.501    8.878
  327.370   63.852    0.302    0.506    9.243
  327.620   64.654    0.303    0.506    9.564
  327.870   66.203    0.320    0.506    9.759
  328.120   65.653    0.331    0.486    9.734
  328.370   68.509    0.314    0.466    9.751
  328.620   71.922    0.310    0.473    9.541
  328.870   73.311    0.302    0.481    9.392
  329.120   73.760    0.313    0.485    9.104
  329.370   72.772    0.312    0.481    8.811
  329.620   72.676    0.319    0.476    8.407
  329.870   75.461    0.304    0.482    8.146
  330.120   77.547    0.301    0.481    8.073
  330.370   74.471    0.303    0.483    7.805
  330.620   72.541    0.305    0.495    7.742
  330.870   74.577    0.307    0.506    7.496
  331.120   77.093    0.301    0.498    7.287
  331.370   79.923    0.302    0.506    6.949
  331.620   82.182    0.295    0.499    6.839
  331.870   82.873    0.272    0.492    6.754
  332.120   79.510    0.268    0.495    6.671
  332.370   78.587    0.263    0.500    6.255
  332.620   79.788    0.259    0.506    5.844
  332.870   81.735    0.258    0.517    5.341
  333.120   82.614    0.238    0.518    4.951
  333.370   84.322    0.236    0.499    4.589
  333.620   85.249    0.241    0.482    4.050
  333.870   86.753    0.220    0.500    3.510
  334.120   88.417    0.257    0.515    3.265
  334.370   89.324    0.259    0.501    3.035
