~VERSION INFORMATION
 VERS.                 2.0:   CWLS LOG ASCII STANDARD -VERSION 2.0
 WRAP.                  NO:   ONE LINE PER DEPTH STEP
~WELL INFORMATION BLOCK
#MNEM.UNIT           DATA                    DESCRIPTION OF MNEMONIC
#---------    -------------------            -------------------------------
# Generated from Intellog Unique Number	CW_76_78/WELL/2570
WELL.         ATCOR ET AL PELICAN            : Well_name    - WELL
LOC .         00/06-34-078-25W4/0            : Location     - LOCATION
UWI .         00/06-34-078-25W4/0            : Uwi          - UNIQUE WELL ID
ENTR.         MAX                            : Entered      - ENTERED BY
SRVC.         COMPUTALOG                     : Scn          - SERVICE COMPANY
STRT.M        270                            : top_depth    - START DEPTH
STOP.M        490                            : bot_depth    - STOP DEPTH
STEP.M        0.25                           : increment    - STEP LENGTH
 NULL. -999.2500:NULL Value
~CURVE INFORMATION BLOCK
#MNEM UNIT       ERCB CURVE CODE    CURVE DESCRIPTION
#-----------   ------------------   ----------------------------------
DEPT.M        00 001 00 00         : DEPTH        - DEPTH
ILD .OHMM     00 120 00 00         : RESD         - DEEP RESISTIVITY (DIL)
NPHI.V/V      00 330 00 00         : PHIN         - NEUTRON POROSITY (SANDSTONE)
DPHI.V/V      00 890 00 00         : PHID         - DENSITY POROSITY (SANDSTONE)
CALI.MM       00 280 01 00         : CAL          - CALIPER
GR  .API      00 310 00 00         : GR           - GAMMA RAY
~PARAMETER INFORMATION
#MNEM.UNIT           DATA             DESCRIPTION OF MNEMONIC
#---------         -----------     ------------------------------
GL  .M        581                  : gl           - GROUND LEVEL ELEVATION
EREF.M        584.7                : kb           - ELEVATION OF DEPTH REFERENCE
DATM.M        581                  : datum        - DATUM ELEVATION
TDD .M        491.9                : tdd          - TOTAL DEPTH DRILLER
RUN .         ONE                  : Run          - RUN NUMBER
ENG .         BILL                 : Engineer     - RECORDING ENGINEER
WIT .         JIM                  : Witness      - WITNESSED BY
MUD .         GEL                  : Mud_type     - MUD TYPE
MATR.         SANDSTONE            : Logunit      - NEUTRON MATRIX
TMAX.C        30                   : BHT          - MAXIMUM RECORDED TEMPERATURE
BHTD.M        491.9                : BHTDEP       - MAXIMUM RECORDED TEMPERATURE
RMT .C        19                   : MDTP         - TEMPERATURE OF MUD
MUDD.KG/M     1120                 : MWT          - MUD DENSITY
NEUT.         1                    : NEUTRON      - NEUTRON TYPE
RESI.         0                    : RESIST       - RESISTIVITY TYPE
RM  .OHMM     4.4                  : RM           - RESISTIVITY OF MUD
RMC .OHMM     0.25                 : RMC          - RESISTIVITY OF MUD CAKE
RMF .OHMM     4.1                  : RMF          - RESISTIVITY OF MUD FILTRATE
SUFT.C        -10                  : SUFT         - SURFACE TEMPERATURE
~A  DEPTH     RESD     PHIN     PHID      CAL       GR
# ...
  416.000   10.484    0.378    0.164  196.420   87.297
  416.250   10.021    0.381    0.169  195.474   91.894
  416.500    9.670    0.397    0.175  196.042   95.277
  416.750    9.683    0.418    0.173  199.660   94.096
  417.000    9.785    0.421    0.154  199.736   81.352
  417.250   10.364    0.418    0.143  199.266   81.393
  417.500   11.075    0.424    0.156  198.835   85.076
  417.750   12.058    0.408    0.165  198.888   83.596
  418.000   13.252    0.382    0.165  198.449   76.020
  418.250   14.564    0.365    0.141  197.995   71.797
  418.500   16.771    0.363    0.114  197.548   65.447
  418.750   18.431    0.371    0.122  197.624   67.001
  419.000   20.071    0.378    0.167  197.677   70.084
  419.250   21.056    0.374    0.183  197.238   67.691
  419.500   22.088    0.371    0.168  196.799   67.114
  419.750   22.957    0.372    0.183  196.337   66.238
  420.000   23.864    0.392    0.210  195.898   65.665
  420.250   24.115    0.412    0.231  195.459   64.793
  420.500   24.832    0.398    0.187  195.512   61.782
  420.750   25.578    0.376    0.152  195.565   59.089
  421.000   26.098    0.372    0.199  195.633   60.343
  421.250   26.620    0.375    0.227  195.694   63.722
  421.500   27.152    0.380    0.181  195.754   65.888
  421.750   27.699    0.385    0.135  195.823   66.537
  422.000   28.527    0.400    0.132  196.383   66.883
  422.250   29.107    0.406    0.176  196.451   66.002
  422.500   30.252    0.404    0.199  197.019   63.603
  422.750   31.150    0.390    0.205  197.586   60.597
  423.000   32.075    0.390    0.191  198.162   58.199
  423.250   32.413    0.391    0.178  198.222   58.235
  423.500   33.382    0.368    0.174  198.275   58.581
  423.750   33.751    0.357    0.178  198.343   58.308
  424.000   33.472    0.363    0.171  198.926   58.040
  424.250   32.005    0.384    0.165  198.972   58.081
  424.500   30.303    0.370    0.166  198.540   57.200
  424.750   27.902    0.354    0.168  199.108   55.719
  425.000   23.408    0.345    0.156  199.661   55.147
  425.250   20.387    0.334    0.134  199.721   55.797
  425.500   18.092    0.324    0.100  200.304   60.088
  425.750   16.354    0.338    0.100  200.410   69.867
  426.000   14.780    0.350    0.112  200.425   75.685
  426.250   12.997    0.370    0.119  200.478   76.634
  426.500   12.537    0.397    0.138  200.546   75.467
  426.750   12.537    0.408    0.158  200.652   76.407
  427.000   12.455    0.412    0.165  200.168   77.965
  427.250   12.470    0.422    0.160  200.229   77.088
  427.500   12.962    0.410    0.164  199.782   77.429
  427.750   13.349    0.378    0.169  199.850   78.387
  428.000   13.616    0.360    0.166  199.388   78.732
  428.250   13.762    0.376    0.150  199.457   79.064
  428.500   13.762    0.391    0.155  199.563   79.709
  428.750   13.802    0.398    0.167  199.578   80.054
  429.000   13.695    0.396    0.168  199.646   80.390
  429.250   13.584    0.385    0.163  199.699   77.692
  429.500   13.354    0.379    0.145  199.760   77.424
  429.750   13.246    0.372    0.127  199.828   79.904
  430.000   13.021    0.367    0.142  200.403   82.061
  430.250   12.682    0.364    0.154  200.448   79.972
  430.500   12.463    0.371    0.137  200.517   79.700
  430.750   12.137    0.376    0.133  201.084   80.040
  431.000   11.927    0.397    0.151  201.152   81.299
  431.250   11.947    0.411    0.159  201.205   81.944
  431.500   11.963    0.415    0.154  201.274   80.763
  431.750   12.088    0.412    0.138  201.849   78.374
  432.000   12.223    0.387    0.133  201.917   76.575
  432.250   12.352    0.373    0.142  201.978   76.925
  432.500   12.601    0.374    0.158  202.031   77.870
  432.750   12.736    0.371    0.149  202.084   76.993
  433.000   12.756    0.370    0.149  202.159   78.256
  433.250   12.773    0.379    0.165  202.212   77.066
  433.500   12.670    0.373    0.151  202.273   76.194
  433.750   12.567    0.365    0.143  202.349   77.143
  434.000   12.352    0.365    0.151  202.409   77.793
  434.250   12.261    0.371    0.146  202.470   77.820
  434.500   12.275    0.372    0.130  202.530   79.387
  434.750   12.176    0.374    0.125  202.591   80.032
  435.000   11.968    0.377    0.109  202.644   79.459
  435.250   11.763    0.382    0.118  202.712   81.017
  435.500   11.564    0.385    0.146  202.765   84.101
  435.750   11.366    0.381    0.155  202.826   83.220
  436.000   11.366    0.375    0.139  202.387   80.822
  436.250   11.395    0.368    0.144  201.933   80.254
  436.500   11.519    0.390    0.157  201.494   80.899
  436.750   11.751    0.395    0.160  201.562   80.931
  437.000   12.100    0.383    0.145  201.562   79.146
  437.250   12.934    0.387    0.125  201.183   76.744
  437.500   13.821    0.391    0.140  201.244   75.567
  437.750   14.774    0.389    0.155  201.244   75.000
  438.000   15.942    0.379    0.177  201.373   74.123
  438.250   17.038    0.367    0.186  201.918   73.246
  438.500   18.551    0.368    0.186  202.493   72.061
  438.750   20.196    0.366    0.182  202.554   71.194
  439.000   22.402    0.341    0.173  202.614   71.525
  439.250   24.620    0.327    0.156  202.175   69.132
  439.500   27.575    0.297    0.076  202.228   62.469
  439.750   30.024    0.279    0.041  202.296   56.120
  440.000   30.916    0.267    0.060  201.842   55.239
  440.250   30.666    0.263    0.081  200.896   51.928
  440.500   28.776    0.270    0.067  200.449   52.278
  440.750   26.012    0.287    0.057  200.003   55.048
  441.000   23.951    0.304    0.090  199.564   60.870
  441.250   21.852    0.336    0.159  199.632   64.558
  441.500   20.312    0.348    0.150  199.677   66.112
  441.750   18.026    0.357    0.128  199.746   64.018
  442.000   16.753    0.356    0.105  199.814   66.498
  442.250   15.285    0.348    0.140  200.896   73.528
  442.500   14.078    0.348    0.148  202.463   78.134
  442.750   13.209    0.349    0.116  203.538   76.957
  443.000   12.395    0.350    0.088  201.577   76.989
  443.250   11.733    0.355    0.119  200.109   79.469
  443.500   11.324    0.371    0.147  199.178   82.539
  443.750   11.234    0.393    0.152  199.223   88.057
  444.000   11.246    0.398    0.149  200.306   92.972
  444.250   11.909    0.398    0.137  201.888   93.003
  444.500   13.213    0.385    0.132  203.470   79.342
  444.750   14.519    0.371    0.128  202.509   67.515
  445.000   16.561    0.354    0.098  200.049   63.895
  445.250   21.327    0.324    0.066  198.603   65.149
  445.500   22.166    0.314    0.056  198.641   73.719
  445.750   21.183    0.330    0.057  199.716   74.351
  446.000   19.327    0.333    0.076  201.805   76.830
  446.250   17.474    0.335    0.096  201.873   79.296
  446.500   17.474    0.341    0.115  201.442   83.289
  446.750   16.275    0.344    0.135  201.487   86.981
  447.000   15.546    0.338    0.118  201.086   87.640
  447.250   15.546    0.326    0.115  201.109   88.276
  447.500   15.164    0.336    0.120  201.109   89.525
  447.750   14.353    0.336    0.137  200.753   92.608
  448.000   13.594    0.337    0.142  200.276   96.296
  448.250   13.742    0.354    0.140  199.829   99.076
  448.500   14.283    0.388    0.122  199.890   83.893
  448.750   14.844    0.370    0.112  199.951   76.622
  449.000   15.001    0.353    0.133  200.518   76.363
  449.250   15.024    0.337    0.149  200.579   78.529
  449.500   14.764    0.329    0.156  200.639   78.566
  449.750   14.246    0.325    0.158  200.715   78.293
  450.000   13.747    0.330    0.158  200.776   79.855
  450.250   13.507    0.347    0.156  200.337   81.418
  450.500   13.155    0.355    0.142  200.397   78.102
  450.750   13.051    0.356    0.114  200.450   75.400
  451.000   13.071    0.350    0.038  200.503   74.528
  451.250   12.845    0.344    0.079  201.071   79.733
  451.500   12.511    0.346    0.113  201.147   84.029
  451.750   12.070    0.360    0.172  201.722   70.068
  452.000   11.752    0.362    0.225  200.753   57.628
  452.250   11.233    0.358    0.252  198.286   44.575
