~VERSION INFORMATION
 VERS.                 2.0:   CWLS LOG ASCII STANDARD -VERSION 2.0
 WRAP.                  NO:   ONE LINE PER DEPTH STEP
~WELL INFORMATION BLOCK
#MNEM.UNIT           DATA                    DESCRIPTION OF MNEMONIC
#---------    -------------------            -------------------------------
# Generated from Intellog Unique Number	CC_84_87/WELL/1060
NULL.         -999.25                        : NULL_VALUE
WELL.         COSEKA ET AL SALESKI           : Well_name    - WELL              
LOC .         05-13-087-18W4                 : Location     - LOCATION          
UWI .         00/05-13-087-18W400            : Uwi          - UNIQUE WELL ID    
ENTR.         JHS                            : Entered      - ENTERED BY        
SRVC.         COMPUTALOG                     : Scn          - SERVICE COMPANY   
DATE.         20 MAR 82                      : Date         - LOG DATE
STRT.M        172                            : top_depth    - START DEPTH       
STOP.M        221.501                        : bot_depth    - STOP DEPTH        
STEP.M        0.3                            : increment    - STEP LENGTH       
~CURVE INFORMATION BLOCK
#MNEM UNIT       ERCB CURVE CODE    CURVE DESCRIPTION
#-----------   ------------------   ----------------------------------
DEPT.M        00 001 00 00         : DEPTH        - DEPTH                       
DPHI.V/V      00 890 00 00         : PHID         - DENSITY POROSITY (LIMESTONE)
NPHI.V/V      00 330 00 00         : PHIN         - NEUTRON POROSITY (LIMESTONE)
GR  .API      00 310 00 00         : GR           - GAMMA RAY                   
ILD .OHMM     00 120 00 00         : RESD         - DEEP RESISTIVITY (DIL)      
~PARAMETER INFORMATION       
#MNEM.UNIT           DATA             DESCRIPTION OF MNEMONIC
#---------         -----------     ------------------------------
GL  .M        507.83               : gl           - GROUND LEVEL ELEVATION      
EREF.M        511.33               : kb           - ELEVATION OF DEPTH REFERENCE
DATM.M        511.33               : datum        - DATUM ELEVATION             
TDD .M        223                  : tdd          - TOTAL DEPTH DRILLER         
RUN .         ONE                  : Run          - RUN NUMBER                  
ENG .         BILL                 : Engineer     - RECORDING ENGINEER          
WIT .         JIM                  : Witness      - WITNESSED BY                
MUD .         GEL                  : Mud_type     - MUD TYPE                    
MATR.         LIMESTONE            : Logunit      - NEUTRON MATRIX              
TMAX.C        24                   : BHT          - MAXIMUM RECORDED TEMPERATURE
BHTD.M        223                  : BHTDEP       - MAXIMUM RECORDED TEMPERATURE
MATR.         1                    : LOGUNIT      - NEUTRON MATRIX              
RMT .C        25                   : MDTP         - TEMPERATURE OF MUD          
NEUT.         1                    : NEUTRON      - NEUTRON TYPE                
RESI.         0                    : RESIST       - RESISTIVITY TYPE            
RMC .OHMM     0.25                 : RMC          - RESISTIVITY OF MUD CAKE     
RMF .OHMM     0.25                 : RMF          - RESISTIVITY OF MUD FILTRATE 
SUFT.C        15                   : SUFT         - SURFACE TEMPERATURE         
~A  DEPTH     PHID     PHIN       GR     RESD
  172.000    0.322    0.405  100.831   14.526
  172.300    0.185    0.349   97.753   12.740
  172.600    0.123    0.318  101.518   12.051
  172.900    0.113    0.333  107.150   11.844
  173.200    0.141    0.405  105.317   11.857
  173.500    0.106    0.338  101.615   11.876
  173.800    0.168    0.316  103.518   11.673
  174.100    0.225    0.340  108.528   11.469
  174.400    0.211    0.346  108.561   11.057
  174.700    0.190    0.344  109.222   10.460
  175.000    0.210    0.360  112.988   10.089
  175.300    0.173    0.387  111.156   10.491
  175.600    0.180    0.371  105.587   10.913
  175.900    0.192    0.368  104.372   10.932
  176.200    0.193    0.424  105.030   10.740
  176.500    0.222    0.398  107.550   10.552
  176.800    0.219    0.372  101.984   11.622
  177.100    0.132    0.304   94.548   13.291
  177.400    0.116    0.283   97.073   13.826
  177.700    0.223    0.329  105.194   14.109
  178.000    0.193    0.331  104.606   13.866
  178.300    0.190    0.349  109.624   13.371
  178.600    0.193    0.370  113.389   12.411
  178.900    0.173    0.386  118.400   11.091
  179.200    0.168    0.311  120.302   11.318
  179.500    0.087    0.261  119.088   12.947
  179.800    0.133    0.267  112.896   14.809
  180.100    0.184    0.316  107.956   15.697
  180.400    0.207    0.348  104.872   16.644
  180.700    0.207    0.327  105.530   16.352
  181.000    0.205    0.343  107.428   16.073
  181.300    0.218    0.393  101.864   17.698
  181.600    0.090    0.251   93.184   20.624
  181.900    0.012    0.199   90.725   22.288
  182.200    0.091    0.270  105.073   20.686
  182.500    0.203    0.329  113.822   17.800
  182.800    0.180    0.348  116.344   14.746
  183.100    0.169    0.346  115.135   14.218
  183.400    0.187    0.349  109.565   14.239
  183.700    0.195    0.357  106.486   14.258
  184.000    0.191    0.335  113.366   14.833
  184.300    0.189    0.335  117.134   15.143
  184.600    0.175    0.346  110.319   15.455
  184.900    0.121    0.308  104.755   15.180
  185.200    0.051    0.303  111.632   14.364
  185.500    0.121    0.351  112.910   12.359
  185.800    0.161    0.408  116.053   10.632
  186.100    0.183    0.430  123.559    8.809
  186.400    0.191    0.372  125.457    8.176
  186.700    0.184    0.371  123.624    7.589
  187.000    0.192    0.406  114.320    8.356
  187.300    0.180    0.279   91.328   11.780
  187.600    0.053    0.228   85.136   13.727
  187.900    0.082    0.235  103.839   15.405
  188.200    0.198    0.321  110.102   15.142
  188.500    0.191    0.385  107.641   13.278
  188.800    0.198    0.381  114.520   10.790
  189.100    0.187    0.387  116.424    8.938
  189.400    0.182    0.374  118.322    7.988
  189.700    0.176    0.377  116.489    7.556
  190.000    0.175    0.374  120.880    7.426
  190.300    0.183    0.344  122.157    7.578
  190.600    0.177    0.389  120.327    8.190
  190.900    0.130    0.315  109.775    9.367
  191.200    0.040    0.253  108.564    9.743
  191.500    0.112    0.314  121.669    9.394
  191.800    0.178    0.368  119.215    9.410
  192.100    0.164    0.377  119.870   10.559
  192.400    0.157    0.299  116.793   12.541
  192.700    0.089    0.299  113.711   14.901
  193.000    0.075    0.307  115.611   16.724
  193.300    0.139    0.322  118.759   17.393
  193.600    0.149    0.323  120.656   17.090
  193.900    0.201    0.363  121.940   14.988
  194.200    0.179    0.328  120.726   13.653
  194.500    0.172    0.308  117.647   13.412
  194.800    0.163    0.304  115.813   13.435
  195.100    0.176    0.313  115.847   13.452
  195.400    0.183    0.305  117.123   14.262
  195.700    0.199    0.294  110.932   15.119
  196.000    0.207    0.249  104.122   16.968
  196.300    0.078    0.200   96.061   22.164
  196.600    0.007    0.190   94.852   25.836
  196.900    0.056    0.253  104.842   24.908
  197.200    0.157    0.309  107.988   20.633
  197.500    0.181    0.326  107.399   17.425
  197.800    0.176    0.315  104.321   16.176
  198.100    0.130    0.310  109.333   16.203
  198.400    0.165    0.325  110.614   16.530
  198.700    0.170    0.344  105.046   16.558
  199.000    0.166    0.337  102.587   16.269
  199.300    0.181    0.317  105.732   15.688
  199.600    0.171    0.319  105.145   15.127
  199.900    0.187    0.350  108.912   15.143
  200.200    0.187    0.384  111.433   15.754
  200.500    0.162    0.319  103.997   17.023
  200.800    0.084    0.270   98.430   16.410
  201.100    0.043    0.286  101.575   14.950
  201.400    0.167    0.360  108.459   13.360
  201.700    0.177    0.337  114.091   11.937
  202.000    0.183    0.354  124.702    9.520
  202.300    0.175    0.407  122.868    7.886
  202.600    0.158    0.402  116.056    7.047
  202.900    0.182    0.421   96.796    7.615
  203.200    0.206    0.393   77.535    9.396
  203.500    0.260    0.362   50.809   12.749
  203.800    0.286    0.389   45.864   25.280
  204.100    0.298    0.380   42.782   71.896
  204.400    0.287    0.353   44.061   80.687
  204.700    0.249    0.358   40.364   79.303
  205.000    0.273    0.361   40.396   89.024
  205.300    0.277    0.354   41.673   96.167
  205.600    0.270    0.351   39.837   98.122
  205.900    0.280    0.341   38.007  102.083
  206.200    0.259    0.340   38.664   94.752
  206.500    0.266    0.345   44.916   81.537
  206.800    0.287    0.367   49.933   68.838
  207.100    0.289    0.362   48.097   60.348
  207.400    0.290    0.332   56.221   52.923
  207.700    0.256    0.335   61.232   46.420
  208.000    0.256    0.386   58.776   43.089
  208.300    0.284    0.420   56.323   39.998
  208.600    0.297    0.392   60.710   37.838
  208.900    0.273    0.364   63.234   35.124
  209.200    0.267    0.369   59.534   31.993
  209.500    0.280    0.405   63.303   28.049
  209.800    0.268    0.385   68.937   24.131
  210.100    0.208    0.381   72.081   21.160
  210.400    0.215    0.379   77.718   18.209
  210.700    0.199    0.310   87.085   15.082
  211.000    0.169    0.307  114.503   10.733
  211.300    0.175    0.347  131.961    5.128
  211.600    0.200    0.372  136.352    4.168
  211.900    0.202    0.398  128.916    3.725
  212.200    0.194    0.416  123.348    3.875
  212.500    0.182    0.378  124.629    4.517
  212.800    0.176    0.399  126.526    5.366
  213.100    0.160    0.410  124.073    6.021
  213.400    0.142    0.372  117.258    5.484
  213.700    0.153    0.383  117.915    5.091
  214.000    0.183    0.419  123.550    5.607
  214.300    0.193    0.420  127.939    6.660
  214.600    0.204    0.359  116.769    9.748
  214.900    0.296    0.207   86.929   15.105
  215.200    0.340    0.147   81.360   28.301
  215.500    0.314    0.168   85.751   30.580
  215.800    0.250    0.259   90.763   29.481
  216.100    0.230    0.322   87.687   26.856
  216.400    0.247    0.335   81.493   26.394
  216.700    0.273    0.352   74.062   27.452
  217.000    0.268    0.245   83.431   30.798
  217.300    0.295    0.150   97.154   33.914
  217.600    0.361    0.126   95.321   34.621
  217.900    0.368    0.107   97.843   38.846
  218.200    0.338    0.132  101.613   48.852
  218.500    0.284    0.176   98.531   60.289
  218.800    0.263    0.227   98.570   62.720
  219.100    0.274    0.181  101.090   54.988
  219.400    0.306    0.244   99.256   55.073
  219.700    0.328    0.192   97.423   70.582
  220.000    0.259    0.170   98.076  115.767
  220.300    0.225    0.176   98.732  125.079
  220.600    0.193    0.173   96.277  125.266
  220.900    0.192    0.168   96.311  103.787
  221.201    0.192    0.181   98.832   91.006
  221.501    0.205    0.184   98.245   81.320
