~VERSION INFORMATION
 VERS.                 2.0:   CWLS LOG ASCII STANDARD -VERSION 2.0
 WRAP.                  NO:   ONE LINE PER DEPTH STEP
~WELL INFORMATION BLOCK
#MNEM.UNIT           DATA                    DESCRIPTION OF MNEMONIC
#---------    -------------------            -------------------------------
# Generated from Intellog Unique Number	CS_69_70/WELL/905
NULL.         -999.25                        : NULL_VALUE
WELL.         HUSKY OIL OPERATIONS LTD.      : Well_name    - WELL              
LOC .         00/09-35-070-06W4/0            : Location     - LOCATION          
UWI .         00/09-35-070-06W4/0            : Uwi          - UNIQUE WELL ID    
ENTR.         SP                             : Entered      - ENTERED BY        
SRVC.         SCHLUMBERGER                   : Scn          - SERVICE COMPANY   
STRT.M        310                            : top_depth    - START DEPTH       
STOP.M        560                            : bot_depth    - STOP DEPTH        
STEP.M        0.25                           : increment    - STEP LENGTH       
~CURVE INFORMATION BLOCK
#MNEM UNIT       ERCB CURVE CODE    CURVE DESCRIPTION
#-----------   ------------------   ----------------------------------
DEPT.M        00 001 00 00         : DEPTH        - DEPTH                       
ILD .OHMM     00 120 00 00         : RESD         - DEEP RESISTIVITY (DIL)      
DPHI.V/V      00 890 00 00         : PHID         - DENSITY POROSITY (LIMESTONE)
NPHI.V/V      00 330 00 00         : PHIN         - NEUTRON POROSITY (LIMESTONE)
GR  .API      00 310 00 00         : GR           - GAMMA RAY                   
~PARAMETER INFORMATION       
#MNEM.UNIT           DATA             DESCRIPTION OF MNEMONIC
#---------         -----------     ------------------------------
GL  .M        664.6                : gl           - GROUND LEVEL ELEVATION      
EREF.M        668.7                : kb           - ELEVATION OF DEPTH REFERENCE
DATM.M        664.6                : datum        - DATUM ELEVATION             
TDD .M        566                  : tdd          - TOTAL DEPTH DRILLER         
RUN .         ONE                  : Run          - RUN NUMBER                  
ENG .         BILL                 : Engineer     - RECORDING ENGINEER          
WIT .         JIM                  : Witness      - WITNESSED BY                
MUD .         GEL                  : Mud_type     - MUD TYPE                    
MATR.         LIMESTONE            : Logunit      - NEUTRON MATRIX              
TMAX.C        25                   : BHT          - MAXIMUM RECORDED TEMPERATURE
BHTD.M        566                  : BHTDEP       - MAXIMUM RECORDED TEMPERATURE
MATR.         1                    : LOGUNIT      - NEUTRON MATRIX              
RMT .C        25                   : MDTP         - TEMPERATURE OF MUD          
NEUT.         1                    : NEUTRON      - NEUTRON TYPE                
RESI.         0                    : RESIST       - RESISTIVITY TYPE            
RMC .OHMM     0.25                 : RMC          - RESISTIVITY OF MUD CAKE     
RMF .OHMM     0.25                 : RMF          - RESISTIVITY OF MUD FILTRATE 
SUFT.C        15                   : SUFT         - SURFACE TEMPERATURE         
~A  DEPTH     RESD     PHID     PHIN       GR
# ...
  440.500    4.516    0.285    0.483   83.888
  440.750    4.575    0.290    0.482   81.779
  441.000    4.634    0.285    0.494   78.100
  441.250    4.774    0.280    0.498   78.530
  441.500    5.011    0.279    0.495   81.197
  441.750    5.367    0.278    0.492   79.814
  442.000    5.540    0.273    0.485   77.041
  442.250    5.890    0.278    0.481   77.472
  442.500    6.034    0.290    0.472   77.963
  442.750    6.251    0.284    0.457   77.124
  443.000    6.721    0.275    0.451   73.565
  443.250    6.911    0.267    0.450   69.463
  443.500    7.080    0.263    0.437   68.563
  443.750    7.185    0.274    0.419   68.752
  444.000    7.131    0.283    0.427   68.881
  444.250    7.025    0.280    0.435   68.646
  444.500    6.959    0.279    0.432   67.445
  444.750    6.971    0.283    0.438   66.244
  445.000    7.062    0.279    0.448   65.102
  445.250    7.329    0.279    0.457   66.319
  445.500    7.621    0.285    0.440   69.347
  445.750    8.178    0.282    0.418   69.233
  446.000    8.425    0.283    0.399   66.340
  446.250    8.793    0.292    0.388   68.160
  446.500    9.246    0.299    0.407   69.619
  446.750    8.565    0.229    0.433   69.142
  447.000    8.758    0.166    0.420   67.820
  447.250    8.971    0.158    0.362   64.080
  447.500    8.971    0.244    0.404   64.449
  447.750    7.362    0.282    0.445   66.935
  448.000    6.571    0.298    0.460   66.882
  448.250    6.213    0.277    0.453   65.499
  448.500    6.155    0.241    0.444   66.655
  448.750    6.108    0.203    0.399   67.509
  449.000    6.017    0.179    0.366   67.153
  449.250    5.917    0.215    0.399   68.188
  449.500    5.796    0.269    0.441   70.855
  449.750    5.699    0.289    0.454   72.494
  450.000    5.604    0.266    0.459   73.649
  450.250    5.635    0.233    0.443   74.564
  450.500    5.624    0.211    0.427   74.630
  450.750    5.623    0.214    0.416   75.846
  451.000    5.632    0.239    0.439   75.189
  451.250    5.643    0.256    0.445   72.296
  451.500    5.823    0.266    0.434   70.127
  451.750    5.877    0.269    0.453   72.551
  452.000    6.157    0.108    0.461   73.647
  452.250    6.559    0.097    0.310   67.187
  452.500    6.330    0.158    0.342   61.151
  452.750    5.692    0.202    0.384   60.312
  453.000    5.195    0.233    0.411   69.022
  453.250    4.875    0.254    0.438   78.760
  453.500    4.794    0.256    0.450   81.185
  453.750    4.784    0.256    0.440   79.016
  454.000    4.748    0.263    0.438   77.512
  454.250    4.748    0.265    0.449   77.096
  454.500    4.765    0.260    0.442   77.588
  454.750    4.782    0.251    0.435   78.261
  455.000    4.800    0.253    0.444   78.327
  455.250    4.826    0.239    0.462   77.247
  455.500    4.763    0.212    0.452   75.078
  455.750    4.563    0.211    0.439   76.294
  456.000    4.203    0.238    0.453   81.922
  456.250    4.042    0.236    0.479   84.347
  456.500    4.011    0.204    0.470   78.069
  456.750    4.109    0.193    0.450   76.022
  457.000    4.426    0.216    0.479   80.381
  457.250    4.858    0.242    0.485   82.684
  457.500    5.586    0.262    0.454   76.829
  457.750    6.051    0.275    0.443   70.310
  458.000    6.893    0.290    0.436   65.481
  458.250    8.151    0.303    0.423   61.319
  458.500    9.692    0.234    0.312   57.821
  458.750   10.499    0.196    0.308   55.592
  459.000    9.129    0.161    0.355   54.148
  459.250    8.270    0.200    0.394   55.908
  459.500    6.762    0.253    0.416   61.295
  459.750    5.793    0.281    0.405   67.890
  460.000    4.692    0.304    0.391   72.672
  460.250    4.012    0.242    0.402   77.211
  460.500    3.662    0.224    0.439   82.477
  460.750    3.405    0.239    0.498   87.561
  461.000    3.213    0.242    0.522   93.490
  461.250    3.136    0.246    0.486   92.834
  461.500    3.101    0.251    0.467   90.725
  461.750    3.101    0.251    0.469   88.800
  462.000    3.129    0.250    0.473   88.746
  462.250    3.230    0.252    0.483   91.170
  462.500    3.499    0.241    0.505   92.205
  462.750    3.898    0.231    0.480   87.740
  463.000    4.678    0.217    0.423   75.659
  463.250    6.492    0.182    0.391   61.585
  463.500    7.748    0.174    0.354   62.560
  463.750    8.599    0.224    0.384   69.456
  464.000    8.826    0.240    0.408   73.091
  464.250    8.566    0.209    0.414   68.625
  464.500    7.759    0.187    0.383   64.946
  464.750    7.055    0.197    0.395   67.008
  465.000    6.771    0.220    0.427   73.603
  465.250    7.146    0.234    0.449   73.550
  465.500    7.655    0.245    0.432   67.271
  465.750    8.449    0.253    0.416   62.383
  466.000    9.412    0.260    0.409   61.062
  466.250   10.544    0.265    0.414   62.217
  466.500   11.337    0.268    0.423   60.411
  466.750   11.614    0.272    0.424   59.271
  467.000   11.743    0.272    0.406   59.399
  467.250   11.830    0.267    0.397   59.648
  467.500   12.096    0.261    0.391   61.649
  467.750   13.006    0.250    0.384   64.134
  468.000   13.933    0.119    0.323   63.477
  468.250   14.677    0.086    0.280   59.012
  468.500   14.785    0.132    0.344   61.920
  468.750   14.511    0.171    0.394   65.674
  469.000   14.083    0.216    0.406   66.769
  469.250   12.499    0.247    0.371   62.970
  469.500   11.134    0.151    0.333   65.696
  469.750    9.772    0.121    0.333   69.815
  470.000    8.985    0.156    0.353   71.030
  470.250    8.737    0.195    0.366   70.976
  470.500    9.482    0.211    0.377   70.681
  470.750   10.063    0.222    0.400   71.232
  471.000   10.861    0.246    0.419   73.174
  471.250   11.613    0.263    0.430   76.444
  471.500   12.257    0.281    0.417   80.924
  471.750   12.486    0.296    0.409   85.343
  472.000   12.095    0.284    0.414   87.889
  472.250   10.815    0.260    0.420   88.621
  472.500    9.509    0.251    0.375   85.244
  472.750    8.842    0.242    0.356   83.439
  473.000    8.550    0.232    0.358   85.078
  473.250    8.923    0.224    0.370   86.535
  473.500   10.203    0.219    0.377   87.208
  473.750   13.516    0.220    0.387   85.462
  474.000   20.551    0.232    0.379   72.536
  474.250   29.550    0.268    0.354   58.643
  474.500   39.218    0.291    0.342   40.579
  474.750   50.994    0.309    0.362   29.406
  475.000   70.905    0.315    0.371   27.660
  475.250   65.929    0.308    0.340   33.107
  475.500   50.411    0.293    0.325   40.186
  475.750   37.275    0.274    0.342   44.968
  476.000   29.860    0.265    0.361   41.712
  476.250   30.475    0.280    0.357   35.010
  476.500   33.822    0.295    0.349   27.946
  476.750   34.972    0.305    0.353   29.464
  477.000   31.096    0.295    0.343   40.834
  477.250   25.712    0.278    0.334   51.236
  477.500   21.023    0.261    0.329   59.221
  477.750   19.045    0.251    0.347   65.332
  478.000   24.856    0.256    0.377   58.027
  478.250   42.501    0.286    0.381   45.887
  478.500   60.319    0.301    0.366   34.653
  478.750   73.070    0.309    0.354   30.671
  479.000   75.133    0.315    0.350   32.552
  479.250   60.300    0.321    0.355   35.823
  479.500   39.649    0.304    0.344   41.451
  479.750   24.561    0.272    0.334   49.315
  480.000   16.701    0.233    0.329   58.448
  480.250   13.656    0.214    0.327   66.493
  480.500   12.165    0.202    0.323   73.995
  480.750   11.762    0.198    0.322   78.958
  481.000   15.495    0.204    0.322   74.916
  481.250   20.641    0.221    0.342   64.770
  481.500   26.839    0.285    0.368   58.914
  481.750   33.372    0.305    0.373   59.587
  482.000   33.368    0.310    0.384   61.347
  482.250   23.550    0.311    0.398   63.046
  482.500   14.427    0.304    0.389   69.097
  482.750   11.643    0.287    0.380   75.692
  483.000    9.882    0.273    0.371   82.468
  483.250    8.803    0.268    0.359   89.003
  483.500    8.124    0.261    0.354   91.065
  483.750    7.959    0.252    0.353   89.803
