~VERSION INFORMATION
 VERS.                 2.0:   CWLS LOG ASCII STANDARD -VERSION 2.0
 WRAP.                  NO:   ONE LINE PER DEPTH STEP
~WELL INFORMATION BLOCK
#MNEM.UNIT           DATA                    DESCRIPTION OF MNEMONIC
#---------    -------------------            -------------------------------
# Generated from Intellog Unique Number	CS_77_79/WELL/919
WELL.         NOVALTA WINEFRED               : Well_name    - WELL
LOC .         00/08-17-078-03W4/0            : Location     - LOCATION
UWI .         00/08-17-078-03W4/0            : Uwi          - UNIQUE WELL ID
ENTR.         JHS                            : Entered      - ENTERED BY
SRVC.         SCHLUMBERGER                   : Scn          - SERVICE COMPANY
STRT.M        150                            : top_depth    - START DEPTH
STOP.M        430                            : bot_depth    - STOP DEPTH
STEP.M        0.25                           : increment    - STEP LENGTH
 NULL. -999.2500:NULL Value
~CURVE INFORMATION BLOCK
#MNEM UNIT       ERCB CURVE CODE    CURVE DESCRIPTION
#-----------   ------------------   ----------------------------------
DEPT.M        00 001 00 00         : DEPTH        - DEPTH
DPHI.V/V      00 890 00 00         : PHID         - DENSITY POROSITY (LIMESTONE)
NPHI.V/V      00 330 00 00         : PHIN         - NEUTRON POROSITY (LIMESTONE)
GR  .API      00 310 00 00         : GR           - GAMMA RAY
ILD .OHMM     00 120 00 00         : RESD         - DEEP RESISTIVITY (DIL)
RHOB.KG/M3    00 350 00 00         : DENS         - BULK DENSITY
~PARAMETER INFORMATION
#MNEM.UNIT           DATA             DESCRIPTION OF MNEMONIC
#---------         -----------     ------------------------------
GL  .M        567                  : gl           - GROUND LEVEL ELEVATION
EREF.M        570                  : kb           - ELEVATION OF DEPTH REFERENCE
DATM.M        570                  : datum        - DATUM ELEVATION
TDD .M        428                  : tdd          - TOTAL DEPTH DRILLER
RUN .         ONE                  : Run          - RUN NUMBER
ENG .         BILL                 : Engineer     - RECORDING ENGINEER
WIT .         JIM                  : Witness      - WITNESSED BY
MUD .         GEL                  : Mud_type     - MUD TYPE
MATR.         LIMESTONE            : Logunit      - NEUTRON MATRIX
TMAX.C        25                   : BHT          - MAXIMUM RECORDED TEMPERATURE
BHTD.M        428                  : BHTDEP       - MAXIMUM RECORDED TEMPERATURE
MATR.         1                    : LOGUNIT      - NEUTRON MATRIX
RMT .C        25                   : MDTP         - TEMPERATURE OF MUD
NEUT.         1                    : NEUTRON      - NEUTRON TYPE
RESI.         0                    : RESIST       - RESISTIVITY TYPE
RMC .OHMM     0.25                 : RMC          - RESISTIVITY OF MUD CAKE
RMF .OHMM     0.25                 : RMF          - RESISTIVITY OF MUD FILTRATE
SUFT.C        15                   : SUFT         - SURFACE TEMPERATURE
~A  DEPTH     PHID     PHIN       GR     RESD     DENS
# ...
  332.500    0.286    0.359   67.350    3.479 2220.790
  332.750    0.291    0.345   58.951    3.353 2212.510
  333.000    0.286    0.347   55.352    3.291 2220.770
  333.250    0.270    0.355   57.153    3.415 2247.650
  333.500    0.264    0.365   66.154    3.543 2257.990
  333.750    0.268    0.373   72.156    3.676 2251.780
  334.000    0.269    0.359   73.957    3.814 2249.700
  334.250    0.252    0.343   69.758    3.957 2278.650
  334.500    0.249    0.327   67.359    3.957 2284.850
  334.750    0.238    0.349   69.760    4.339 2303.460
  335.000    0.216    0.396   82.362    4.672 2340.680
  335.250    0.182    0.413   90.763    5.030 2398.600
  335.500    0.170    0.399   98.564    5.516 2419.270
  335.750    0.170    0.387  100.365    5.938 2419.260
  336.000    0.172    0.394  100.366    6.276 2415.120
  336.250    0.171    0.402  100.367    6.633 2417.180
  336.500    0.166    0.407  104.569    6.512 2425.450
  336.750    0.164    0.419  106.970    6.392 2429.570
  337.000    0.170    0.426  102.171    6.274 2419.220
  337.250    0.174    0.412  100.972    6.274 2413.010
  337.500    0.174    0.399  106.373    6.159 2413.000
  337.750    0.176    0.401  106.974    6.158 2408.860
  338.000    0.176    0.411  105.176    6.273 2408.850
  338.250    0.172    0.404  103.976    6.389 2415.050
  338.500    0.170    0.391  102.178    6.389 2419.180
  338.750    0.170    0.395  102.179    6.507 2419.170
  339.000    0.170    0.417  102.780    6.507 2419.160
  339.250    0.174    0.420  103.981    6.506 2412.950
  339.500    0.180    0.419  103.382    6.506 2402.600
  339.750    0.185    0.424  102.184    6.627 2394.310
  340.000    0.181    0.412  100.985    6.626 2400.510
  340.250    0.174    0.402  101.586    6.626 2412.920
  340.500    0.164    0.407  103.987    6.625 2429.460
  340.750    0.157    0.419  106.988    6.625 2441.860
  341.000    0.162    0.427  107.589    6.503 2433.580
  341.250    0.170    0.445  108.190    6.503 2419.090
  341.500    0.176    0.448  109.391    6.383 2408.740
  341.750    0.180    0.442  111.192    6.151 2402.520
  342.000    0.181    0.436  110.594    5.928 2400.450
  342.250    0.187    0.431  107.595    5.819 2390.100
  342.500    0.179    0.429  106.996    5.608 2404.570
  342.750    0.170    0.444  113.597    5.404 2419.040
  343.000    0.182    0.454  120.198    5.304 2398.350
  343.250    0.183    0.463  125.000    5.207 2396.270
  343.500    0.175    0.465  122.601    5.111 2410.740
  343.750    0.173    0.462  118.402    5.111 2414.870
  344.000    0.183    0.463  113.603    5.111 2396.250
  344.250    0.190    0.464  118.404    5.110 2385.900
  344.500    0.188    0.448  123.205    5.110 2387.960
  344.750    0.186    0.436  119.607    5.205 2392.090
  345.000    0.183    0.453  118.408    5.204 2396.220
  345.250    0.182    0.459  119.609    5.204 2398.270
  345.500    0.182    0.446  119.610    5.204 2398.270
  345.750    0.181    0.429  117.211    5.300 2400.330
  346.000    0.179    0.424  116.612    5.499 2404.460
  346.250    0.179    0.417  116.613    5.499 2404.450
  346.500    0.188    0.396  110.015    5.107 2387.900
  346.750    0.228    0.373   85.415    4.092 2319.630
  347.000    0.268    0.359   57.817    3.218 2251.360
  347.250    0.321    0.343   46.418    2.827 2160.330
  347.500    0.338    0.327   35.619    2.484 2131.360
  347.750    0.341    0.325   30.820    2.224 2127.220
  348.000    0.336    0.334   27.221    1.990 2135.480
  348.250    0.330    0.325   28.422    1.954 2145.820
  348.500    0.319    0.323   30.824    1.953 2164.430
  348.750    0.314    0.326   31.425    1.953 2172.700
  349.000    0.326    0.319   30.226    1.953 2152.000
  349.250    0.340    0.311   29.627    1.953 2129.240
  349.500    0.344    0.328   30.828    1.953 2120.960
  349.750    0.351    0.354   32.629    1.953 2110.610
  350.000    0.342    0.349   31.430    1.953 2125.080
  350.250    0.332    0.331   29.032    1.953 2141.620
  350.500    0.326    0.323   28.433    1.952 2151.960
  350.750    0.336    0.351   29.034    1.952 2135.400
  351.000    0.347    0.364   30.235    1.952 2116.780
  351.250    0.353    0.358   30.236    1.952 2106.420
  351.500    0.353    0.345   29.037    1.952 2106.410
  351.750    0.353    0.336   27.838    1.916 2106.410
  352.000    0.354    0.343   25.440    1.916 2104.330
  352.250    0.355    0.338   23.641    1.916 2102.250
  352.500    0.358    0.325   22.442    1.881 2098.110
  352.750    0.355    0.325   25.443    1.846 2102.240
  353.000    0.354    0.340   27.244    1.846 2104.300
  353.250    0.358    0.349   27.245    1.880 2098.090
  353.500    0.359    0.351   27.247    1.915 2096.010
  353.750    0.355    0.357   30.248    1.951 2102.210
  354.000    0.346    0.347   33.849    1.987 2118.750
  354.250    0.339    0.337   35.650    1.987 2131.150
  354.500    0.343    0.340   33.851    1.987 2122.870
  354.750    0.349    0.346   29.652    2.023 2112.520
  355.000    0.351    0.340   26.653    1.986 2110.440
  355.250    0.348    0.332   29.654    1.986 2114.570
  355.500    0.346    0.340   34.456    1.986 2118.700
  355.750    0.342    0.340   35.657    1.986 2124.900
  356.000    0.341    0.330   30.858    1.986 2126.960
  356.250    0.342    0.316   26.059    1.986 2124.880
  356.500    0.342    0.308   27.860    1.985 2124.870
  356.750    0.340    0.323   31.462    1.985 2129.000
  357.000    0.336    0.333   30.863    1.985 2135.200
  357.250    0.337    0.335   29.664    1.985 2133.120
  357.500    0.339    0.329   31.465    1.985 2131.050
  357.750    0.329    0.323   33.867    1.985 2147.590
  358.000    0.322    0.320   35.067    2.022 2159.990
  358.250    0.317    0.318   36.869    2.021 2168.260
  358.500    0.326    0.311   36.270    2.059 2151.700
  358.750    0.326    0.316   35.071    2.097 2151.690
  359.000    0.320    0.329   33.272    2.097 2162.030
  359.250    0.322    0.329   32.673    2.097 2159.950
  359.500    0.324    0.325   32.074    2.058 2155.810
  359.750    0.322    0.317   33.276    2.058 2159.940
  360.000    0.323    0.311   34.476    2.020 2157.860
  360.250    0.328    0.307   32.078    2.020 2149.580
  360.500    0.334    0.313   30.879    2.020 2139.230
  360.750    0.336    0.323   31.480    2.020 2135.080
  361.000    0.335    0.323   32.681    2.020 2137.140
  361.250    0.320    0.322   33.883    2.020 2161.960
  361.500    0.317    0.324   34.483    2.020 2168.150
  361.750    0.322    0.329   33.885    1.982 2159.870
  362.000    0.333    0.341   31.486    1.982 2141.250
  362.250    0.337    0.357   29.087    1.982 2132.970
  362.500    0.335    0.350   28.488    1.982 2137.090
  362.750    0.328    0.331   29.689    1.982 2149.500
  363.000    0.319    0.322   32.690    2.019 2163.970
  363.250    0.307    0.317   38.691    2.173 2184.650
  363.500    0.270    0.317   45.893    2.340 2248.770
  363.750    0.249    0.336   56.094    2.614 2283.920
  364.000    0.237    0.358   66.895    2.867 2304.600
  364.250    0.229    0.359   68.096    3.202 2319.070
  364.500    0.224    0.351   75.897    3.448 2327.340
  364.750    0.212    0.350   90.298    3.712 2348.020
  365.000    0.200    0.403   99.900    3.996 2368.690
  365.250    0.218    0.400   90.901    3.996 2337.660
  365.500    0.254    0.387   75.302    3.995 2275.590
  365.750    0.293    0.382   56.103    3.576 2209.390
  366.000    0.331    0.391   47.704    3.142 2143.190
  366.250    0.347    0.382   44.105    2.812 2116.290
  366.500    0.356    0.373   42.306    2.471 2101.800
  366.750    0.362    0.371   41.708    2.131 2091.450
  367.000    0.357    0.359   39.909    2.054 2099.720
  367.250    0.340    0.348   37.510    2.016 2128.670
  367.500    0.312    0.341   45.911    2.131 2176.240
  367.750    0.298    0.346   55.512    2.211 2201.050
  368.000    0.288    0.390   60.313    2.380 2217.590
  368.250    0.304    0.382   57.914    2.470 2190.700
  368.500    0.332    0.368   50.715    2.516 2143.110
  368.750    0.304    0.361   50.717    2.562 2190.680
