~VERSION INFORMATION
 VERS.                 2.0:   CWLS LOG ASCII STANDARD -VERSION 2.0
 WRAP.                  NO:   ONE LINE PER DEPTH STEP
~WELL INFORMATION BLOCK
#MNEM.UNIT           DATA                    DESCRIPTION OF MNEMONIC
#---------    -------------------            -------------------------------
# Generated from Intellog Unique Number	CS_73_76/WELL/1079
WELL.         PETROFINA CANADA LTD.          : Well_name    - WELL
LOC .         00/06-25-075-12W4/0            : Location     - LOCATION
UWI .         00/06-25-075-12W4/0            : Uwi          - UNIQUE WELL ID
ENTR.         SP                             : Entered      - ENTERED BY
SRVC.         SCHLUMBERGER                   : Scn          - SERVICE COMPANY
STRT.M        298.704                        : top_depth    - START DEPTH
STOP.M        525.204                        : bot_depth    - STOP DEPTH
STEP.M        0.25                           : increment    - STEP LENGTH
 NULL. -999.2500:NULL Value
~CURVE INFORMATION BLOCK
#MNEM UNIT       ERCB CURVE CODE    CURVE DESCRIPTION
#-----------   ------------------   ----------------------------------
DEPT.M        00 001 00 00         : DEPTH        - DEPTH
GR  .API      00 310 00 00         : GR           - GAMMA RAY
DPHI.V/V      00 890 00 00         : PHID         - DENSITY POROSITY (SANDSTONE)
NPHI.V/V      00 330 00 00         : PHIN         - NEUTRON POROSITY (SANDSTONE)
ILD .OHMM     00 120 00 00         : RESD         - DEEP RESISTIVITY (DIL)
~PARAMETER INFORMATION
#MNEM.UNIT           DATA             DESCRIPTION OF MNEMONIC
#---------         -----------     ------------------------------
GL  .M        669.524              : gl           - GROUND LEVEL ELEVATION
EREF.M        672.602              : kb           - ELEVATION OF DEPTH REFERENCE
DATM.M        669.524              : datum        - DATUM ELEVATION
TDD .M        560.832              : tdd          - TOTAL DEPTH DRILLER
RUN .         ONE                  : Run          - RUN NUMBER
ENG .         BILL                 : Engineer     - RECORDING ENGINEER
WIT .         JIM                  : Witness      - WITNESSED BY
MUD .         GEL                  : Mud_type     - MUD TYPE
MATR.         SANDSTONE            : Logunit      - NEUTRON MATRIX
TMAX.C        16.6667              : BHT          - MAXIMUM RECORDED TEMPERATURE
BHTD.M        560.832              : BHTDEP       - MAXIMUM RECORDED TEMPERATURE
MATR.         1                    : LOGUNIT      - NEUTRON MATRIX
RMT .C        25                   : MDTP         - TEMPERATURE OF MUD
NEUT.         1                    : NEUTRON      - NEUTRON TYPE
RESI.         0                    : RESIST       - RESISTIVITY TYPE
RMC .OHMM     0.25                 : RMC          - RESISTIVITY OF MUD CAKE
RMF .OHMM     0.25                 : RMF          - RESISTIVITY OF MUD FILTRATE
SUFT.C        15                   : SUFT         - SURFACE TEMPERATURE
~A  DEPTH       GR     PHID     PHIN     RESD
  298.704  105.492    0.218    0.560    3.966
  298.954  107.691    0.216    0.550    3.814
  299.204  107.242    0.210    0.555    3.741
  299.454  107.345    0.193    0.558    3.676
  299.704  107.496    0.177    0.564    3.909
  299.954  105.108    0.157    0.551    4.173
  300.204  102.547    0.144    0.507    4.652
  300.454  105.300    0.177    0.493    5.092
  300.704  111.403    0.205    0.491    5.569
  300.954  114.139    0.218    0.483    5.740
  301.204  112.545    0.223    0.471    5.797
  301.454  111.639    0.220    0.467    5.865
  301.704  113.092    0.220    0.468    5.854
  301.954  113.866    0.208    0.469    5.981
  302.204  111.113    0.195    0.479    6.084
  302.454  108.520    0.194    0.491    6.284
  302.704  105.895    0.202    0.498    6.329
  302.954  106.020    0.208    0.488    6.667
  303.204  108.047    0.219    0.484    6.732
  303.454  109.312    0.226    0.488    6.947
  303.704  107.517    0.224    0.491    6.835
  303.954  108.096    0.224    0.499    6.617
  304.204  107.970    0.221    0.504    6.555
  304.454  106.406    0.211    0.503    6.419
  304.704  106.335    0.208    0.497    6.562
  304.954  109.282    0.202    0.502    6.684
  305.204  111.883    0.207    0.501    6.766
  305.454  114.491    0.204    0.497    6.804
  305.704  114.759    0.196    0.502    6.814
  305.954  113.763    0.187    0.509    6.644
  306.204  112.253    0.201    0.516    6.942
  306.454  111.196    0.210    0.507    6.701
  306.704  109.637    0.200    0.500    6.501
  306.954  107.205    0.205    0.503    6.306
  307.204  106.977    0.208    0.510    6.116
  307.454  109.403    0.209    0.512    5.925
  307.704  111.792    0.208    0.513    5.869
  307.954  111.396    0.212    0.509    5.871
  308.204  110.690    0.209    0.503    5.896
  308.454  111.176    0.216    0.494    6.089
  308.704  111.532    0.200    0.486    6.275
  308.954  112.690    0.188    0.482    6.449
  309.204  114.167    0.183    0.481    6.448
  309.454  114.588    0.189    0.475    6.308
  309.704  113.374    0.207    0.474    6.305
  309.954  110.795    0.223    0.472    6.210
  310.204  109.042    0.222    0.470    6.041
  310.454  108.103    0.214    0.483    5.871
  310.704  106.750    0.219    0.503    6.124
  310.954  102.502    0.215    0.515    6.867
  311.204   94.690    0.227    0.512    7.918
  311.454   85.545    0.244    0.493    8.903
  311.704   75.608    0.264    0.465    9.914
  311.954   69.253    0.291    0.432   11.018
  312.204   69.789    0.273    0.434   11.734
  312.454   72.665    0.254    0.440   11.667
  312.704   75.097    0.256    0.448   11.270
  312.954   76.407    0.260    0.455   11.594
  313.204   74.571    0.248    0.458   11.951
  313.454   73.091    0.236    0.458   12.134
  313.704   71.876    0.246    0.457   11.955
  313.954   72.948    0.258    0.463   11.693
  314.204   75.374    0.266    0.467   11.181
  314.454   77.405    0.272    0.472   10.451
  314.704   78.335    0.277    0.473    9.892
  314.954   82.902    0.266    0.465    9.387
  315.204   90.287    0.245    0.457    8.806
  315.454   95.236    0.227    0.457    8.384
  315.704   95.919    0.227    0.461    8.298
  315.954   92.530    0.235    0.464    8.028
  316.204   89.031    0.241    0.468    7.909
  316.454   88.840    0.233    0.476    7.968
  316.704   91.204    0.229    0.481    8.230
  316.954   90.191    0.224    0.468    8.361
  317.204   88.471    0.229    0.456    8.600
  317.454   87.546    0.239    0.459    8.683
  317.704   89.128    0.247    0.464    8.699
  317.954   92.490    0.230    0.463    8.481
  318.204   93.148    0.230    0.472    8.075
  318.454   90.366    0.242    0.471    7.850
  318.704   90.035    0.244    0.453    7.472
  318.954   90.085    0.242    0.457    7.240
  319.204   87.903    0.241    0.464    7.279
  319.454   84.874    0.246    0.471    7.522
  319.704   82.322    0.255    0.474    7.883
  319.954   81.492    0.261    0.469    8.437
  320.204   80.808    0.263    0.476    8.874
  320.454   77.762    0.271    0.484    9.603
  320.704   74.718    0.281    0.470   10.429
  320.954   72.399    0.284    0.469   11.062
  321.204   69.419    0.280    0.478   11.638
  321.454   68.460    0.282    0.466   12.018
  321.704   69.258    0.289    0.459   11.740
  321.954   70.800    0.271    0.447   11.403
  322.204   74.638    0.267    0.447   10.833
  322.454   77.284    0.268    0.449   10.849
  322.704   74.493    0.262    0.451   11.073
  322.954   72.284    0.256    0.446   11.306
  323.204   70.580    0.261    0.437   11.515
  323.454   72.270    0.266    0.433   11.249
  323.704   74.917    0.264    0.432   11.270
  323.954   74.855    0.248    0.441   11.049
  324.204   74.889    0.239    0.445   11.019
  324.454   75.429    0.237    0.446   10.671
  324.704   78.179    0.248    0.452   10.340
  324.954   82.951    0.261    0.458    9.965
  325.204   89.690    0.273    0.451    9.383
  325.454   93.192    0.250    0.449    8.913
  325.704   95.643    0.242    0.457    8.664
  325.954   94.461    0.244    0.461    8.391
  326.204   95.328    0.249    0.465    8.354
  326.454   96.286    0.247    0.460    8.720
  326.704   94.319    0.231    0.454    9.172
  326.954   91.992    0.281    0.453    8.904
  327.204   93.850    0.239    0.448    8.373
  327.454   98.727    0.229    0.449    7.740
  327.704  105.286    0.219    0.471    7.166
  327.954  108.463    0.213    0.497    6.720
  328.204  108.501    0.222    0.509    6.430
  328.454  108.592    0.222    0.509    6.319
  328.704  109.633    0.216    0.510    6.213
  328.954  110.416    0.215    0.514    6.218
  329.204  109.552    0.209    0.519    6.226
  329.454  106.751    0.221    0.515    6.417
  329.704  100.949    0.239    0.505    6.807
  329.954   96.165    0.240    0.488    7.234
  330.204   92.032    0.241    0.476    7.735
  330.454   88.044    0.227    0.478    8.185
  330.704   83.621    0.238    0.478    8.525
  330.954   80.694    0.251    0.463    8.973
  331.204   78.152    0.260    0.455    9.243
  331.454   80.354    0.259    0.448    9.375
  331.704   84.844    0.244    0.457    9.038
  331.954   89.984    0.236    0.458    8.296
  332.204   94.536    0.223    0.465    7.563
  332.454   98.002    0.218    0.484    7.096
  332.704  100.535    0.210    0.495    6.666
  332.954   97.815    0.197    0.491    6.311
  333.204   94.341    0.168    0.475    6.530
  333.454   92.121    0.143    0.465    7.091
  333.704   91.972    0.168    0.469    7.944
  333.954   94.151    0.203    0.471    8.516
  334.204   98.667    0.232    0.485    9.019
  334.454  102.417    0.234    0.501    9.307
  334.704  105.961    0.248    0.518    9.342
  334.954  108.448    0.247    0.507    9.047
  335.204  111.484    0.236    0.489    8.700
  335.454  112.974    0.231    0.483    8.361
  335.704  114.053    0.242    0.478    8.109
  335.954  114.185    0.249    0.482    7.910
  336.204  113.522    0.237    0.473    7.922
  336.454  110.836    0.229    0.466    8.117
  336.704  107.502    0.237    0.460    8.636
  336.954  104.443    0.247    0.459    9.194
  337.204  102.044    0.246    0.464    9.395
  337.454   99.752    0.233    0.472    9.727
  337.704   96.644    0.230    0.476    9.884
  337.954   94.237    0.238    0.490   10.095
  338.204   92.701    0.240    0.506   10.329
  338.454   90.535    0.247    0.501   10.489
  338.704   90.192    0.251    0.489   10.575
  338.954   89.097    0.249    0.489   10.688
  339.204   87.778    0.245    0.493   10.897
  339.454   90.545    0.238    0.490   10.972
  339.704   93.515    0.238    0.480   10.876
  339.954   97.378    0.238    0.478   10.619
  340.204  100.867    0.229    0.486   10.156
  340.454  104.400    0.209    0.494    9.229
  340.704  107.124    0.205    0.503    8.405
  340.954  109.577    0.223    0.509    7.839
  341.204  111.773    0.225    0.520    7.251
  341.454  108.064    0.221    0.529    7.081
  341.704   99.438    0.251    0.533    7.089
  341.954   92.615    0.289    0.539    7.676
