~VERSION INFORMATION
 VERS.                 2.0:   CWLS LOG ASCII STANDARD -VERSION 2.0
 WRAP.                  NO:   ONE LINE PER DEPTH STEP
~WELL INFORMATION BLOCK
#MNEM.UNIT           DATA                    DESCRIPTION OF MNEMONIC
#---------    -------------------            -------------------------------
# Generated from Intellog Unique Number	CS_77_79/WELL/854
WELL.         HB THORNBURY                   : Well_name    - WELL
LOC .         00/05-10-078-12W4/0            : Location     - LOCATION
UWI .         00/05-10-078-12W4/0            : Uwi          - UNIQUE WELL ID
ENTR.         JHS                            : Entered      - ENTERED BY
SRVC.         SCHLUMBERGER                   : Scn          - SERVICE COMPANY
STRT.M        256.032                        : top_depth    - START DEPTH
STOP.M        478.282                        : bot_depth    - STOP DEPTH
STEP.M        0.25                           : increment    - STEP LENGTH
 NULL. -999.2500:NULL Value
~CURVE INFORMATION BLOCK
#MNEM UNIT       ERCB CURVE CODE    CURVE DESCRIPTION
#-----------   ------------------   ----------------------------------
DEPT.M        00 001 00 00         : DEPTH        - DEPTH
RHOB.KG/M3    00 350 00 00         : DENS         - BULK DENSITY
GR  .API      00 310 00 00         : GR           - GAMMA RAY
DPHI.V/V      00 890 00 00         : PHID         - DENSITY POROSITY (SANDSTONE)
NPHI.V/V      00 330 00 00         : PHIN         - NEUTRON POROSITY (SANDSTONE)
ILD .OHMM     00 120 00 00         : RESD         - DEEP RESISTIVITY (DIL)
~PARAMETER INFORMATION
#MNEM.UNIT           DATA             DESCRIPTION OF MNEMONIC
#---------         -----------     ------------------------------
GL  .M        674.797              : gl           - GROUND LEVEL ELEVATION
EREF.M        674.797              : kb           - ELEVATION OF DEPTH REFERENCE
DATM.M        674.797              : datum        - DATUM ELEVATION
TDD .M        484.632              : tdd          - TOTAL DEPTH DRILLER
RUN .         ONE                  : Run          - RUN NUMBER
ENG .         BILL                 : Engineer     - RECORDING ENGINEER
WIT .         JIM                  : Witness      - WITNESSED BY
MUD .         GEL                  : Mud_type     - MUD TYPE
MATR.         SANDSTONE            : Logunit      - NEUTRON MATRIX
TMAX.C        21.6667              : BHT          - MAXIMUM RECORDED TEMPERATURE
BHTD.M        484.632              : BHTDEP       - MAXIMUM RECORDED TEMPERATURE
MATR.         1                    : LOGUNIT      - NEUTRON MATRIX
RMT .C        25                   : MDTP         - TEMPERATURE OF MUD
NEUT.         1                    : NEUTRON      - NEUTRON TYPE
RESI.         0                    : RESIST       - RESISTIVITY TYPE
RMC .OHMM     0.25                 : RMC          - RESISTIVITY OF MUD CAKE
RMF .OHMM     0.25                 : RMF          - RESISTIVITY OF MUD FILTRATE
SUFT.C        15                   : SUFT         - SURFACE TEMPERATURE
~A  DEPTH     DENS       GR     PHID     PHIN     RESD
# ...
  329.032   -0.000   52.294    0.356    0.439   15.675
  329.282   -0.000   51.931    0.349    0.445   16.003
  329.532   -0.000   51.798    0.355    0.448   16.006
  329.782    0.000   51.207    0.363    0.439   15.723
  330.032    0.000   51.216    0.342    0.451   15.713
  330.282    0.000   51.226    0.348    0.451   15.680
  330.532   -0.000   51.274    0.352    0.445   15.435
  330.782   -0.000   51.567    0.362    0.450   15.452
  331.032   -0.000   51.901    0.346    0.465   15.465
  331.282    0.000   52.424    0.361    0.468   15.475
  331.532    0.000   52.533    0.362    0.462   15.483
  331.782    0.000   53.251    0.357    0.454   15.494
  332.032   -0.000   53.873    0.359    0.447   15.303
  332.282   -0.000   53.725    0.353    0.451   15.233
  332.532    0.000   53.299    0.351    0.451   15.236
  332.782    0.000   53.125    0.354    0.452   15.242
  333.032    0.000   56.375    0.366    0.445   15.241
  333.282   -0.000   57.780    0.370    0.432   15.519
  333.532   -0.000   55.234    0.364    0.426   15.557
  333.782   -0.000   52.663    0.363    0.463   15.602
  334.032    0.000   52.185    0.367    0.496   15.878
  334.282    0.000   54.098    0.363    0.473   15.898
  334.532    0.000   55.373    0.370    0.457   15.569
  334.782   -0.000   55.864    0.352    0.454   15.091
  335.032   -0.000   56.179    0.344    0.467   14.982
  335.282    0.000   57.285    0.331    0.457   14.512
  335.532    0.000   58.766    0.342    0.451   14.553
  335.782    0.000   59.192    0.356    0.457   14.243
  336.032   -0.000   58.081    0.373    0.467   14.259
  336.282   -0.000   57.406    0.384    0.476   14.579
  336.532   -0.000   57.609    0.388    0.458   14.600
  336.782    0.000   59.142    0.373    0.454   14.843
  337.032    0.000   60.553    0.369    0.461   14.837
  337.282    0.000   61.938    0.354    0.469   14.826
  337.532   -0.000   63.449    0.348    0.485   14.569
  337.782   -0.000   63.904    0.349    0.478   14.493
  338.032   -0.000   61.787    0.359    0.471   14.341
  338.282    0.000   59.529    0.367    0.489   14.315
  338.532    0.000   59.644    0.376    0.488   14.620
  338.782   -0.000   60.692    0.350    0.477   15.158
  339.032   -0.000   62.457    0.345    0.466   15.452
  339.282   -0.000   62.695    0.336    0.470   15.799
  339.532    0.000   63.791    0.328    0.456   15.780
  339.782    0.000   65.140    0.305    0.452   15.809
  340.032    0.000   66.485    0.324    0.469   15.452
  340.282   -0.000   68.550    0.361    0.482   15.228
  340.532   -0.000   70.358    0.361    0.478   15.249
  340.782   -0.000   71.326    0.354    0.496   15.267
  341.032    0.000   72.754    0.333    0.499   15.783
  341.282    0.000   74.643    0.322    0.478   15.832
  341.532    0.000   75.624    0.314    0.466   15.853
  341.782   -0.000   75.048    0.305    0.465   15.574
  342.032   -0.000   71.429    0.307    0.487   15.194
  342.282    0.000   69.083    0.322    0.501   15.033
  342.532    0.000   71.598    0.343    0.505   14.608
  342.782    0.000   75.948    0.348    0.515   14.216
  343.032   -0.000   74.776    0.361    0.523   14.268
  343.282   -0.000   72.705    0.355    0.507   13.970
  343.532   -0.000   72.169    0.323    0.489   14.007
  343.782    0.000   71.572    0.326    0.482   13.806
  344.032    0.000   72.739    0.331    0.478   13.771
  344.282    0.000   74.114    0.339    0.493   13.772
  344.532   -0.000   73.551    0.346    0.488   13.773
  344.782   -0.000   72.749    0.362    0.493   13.714
  345.032    0.000   71.799    0.350    0.491   13.543
  345.282    0.000   71.104    0.349    0.498   13.390
  345.532    0.000   71.887    0.334    0.492   13.280
  345.782   -0.000   71.886    0.335    0.484   12.849
  346.032   -0.000   72.544    0.348    0.481   12.718
  346.282   -0.000   74.030    0.351    0.474   12.591
  346.532    0.000   75.602    0.338    0.463   12.405
  346.782    0.000   76.020    0.334    0.465   12.154
  347.032    0.000   75.598    0.344    0.472   12.184
  347.282   -0.000   73.907    0.346    0.498   12.198
  347.532   -0.000   73.513    0.345    0.505   12.278
  347.782   -0.000   72.099    0.356    0.483   12.434
  348.032    0.000   71.254    0.359    0.478   12.443
  348.282    0.000   75.793    0.344    0.483   12.454
  348.532   -0.000   82.883    0.346    0.497   12.258
  348.782   -0.000   88.242    0.354    0.511    9.772
  349.032   -0.000   94.449    0.334    0.485    6.244
  349.282    0.000  102.639    0.318    0.481    5.255
  349.532    0.000  105.535    0.286    0.544    5.594
  349.782    0.000  103.287    0.271    0.527    6.890
  350.032   -0.000   94.471    0.280    0.504    8.206
  350.282   -0.000   88.069    0.285    0.485    9.749
  350.532   -0.000   87.066    0.288    0.476   10.651
  350.782    0.000   87.896    0.304    0.487   11.594
  351.032    0.000   87.904    0.325    0.493   11.833
  351.282   -0.000   91.306    0.306    0.504   10.852
  351.532   -0.000   94.031    0.306    0.497    7.547
  351.782   -0.000   97.281    0.293    0.489    5.510
  352.032    0.000  100.919    0.274    0.486    3.940
  352.282    0.000  103.758    0.259    0.500    3.404
  352.532    0.000  104.051    0.235    0.534    3.487
  352.782   -0.000  102.538    0.231    0.571    3.952
  353.032   -0.000  101.831    0.253    0.522    4.462
  353.282   -0.000  101.953    0.260    0.495    5.144
  353.532    0.000  102.386    0.251    0.489    5.714
  353.782    0.000  104.664    0.242    0.492    6.091
  354.032    0.000  106.873    0.237    0.496    6.153
  354.282   -0.000  106.359    0.225    0.507    6.079
  354.532   -0.000  107.093    0.255    0.492    6.048
  354.782    0.000  108.656    0.228    0.508    6.054
  355.032    0.000  111.071    0.235    0.494    5.955
  355.282    0.000  112.099    0.242    0.494    5.696
  355.532   -0.000  113.629    0.235    0.519    5.543
  355.782   -0.000  114.481    0.225    0.495    5.377
  356.032   -0.000  112.944    0.225    0.493    5.210
  356.282    0.000  111.433    0.241    0.513    5.049
  356.532    0.000  111.660    0.263    0.536    4.911
  356.782    0.000  112.039    0.233    0.558    4.871
  357.032   -0.000  113.150    0.233    0.547    4.779
  357.282   -0.000  113.322    0.255    0.535    4.756
  357.532    0.000  112.724    0.264    0.539    4.793
  357.782    0.000  111.696    0.256    0.560    4.784
  358.032    0.000  111.454    0.251    0.563    4.892
  358.282   -0.000  110.438    0.256    0.541    4.976
  358.532   -0.000  109.825    0.271    0.537    4.989
  358.782   -0.000  109.218    0.270    0.524    4.865
  359.032    0.000  110.888    0.270    0.516    4.596
  359.282    0.000  113.571    0.287    0.513    3.988
  359.532    0.000  118.643    0.294    0.545    3.706
  359.782   -0.000  119.748    0.279    0.595    3.536
  360.032   -0.000  119.025    0.274    0.606    3.418
  360.282   -0.000  119.110    0.269    0.573    3.215
  360.532    0.000  119.084    0.259    0.548    3.093
  360.782    0.000  119.912    0.257    0.547    2.846
  361.032   -0.000  122.141    0.263    0.537    2.685
  361.282   -0.000  124.987    0.259    0.533    2.633
  361.532   -0.000  124.443    0.253    0.544    2.646
  361.782    0.000  122.482    0.249    0.559    2.680
  362.032    0.000  120.638    0.245    0.592    2.800
  362.282    0.000  117.249    0.259    0.608    2.797
  362.532   -0.000  117.897    0.257    0.587    2.841
  362.782   -0.000  120.423    0.264    0.564    2.904
  363.032   -0.000  123.107    0.265    0.561    2.900
  363.282    0.000  122.760    0.275    0.589    2.906
  363.532    0.000  121.147    0.291    0.599    2.830
  363.782    0.000  121.947    0.288    0.621    2.749
  364.032   -0.000  121.001    0.255    0.624    2.696
  364.282   -0.000  119.077    0.266    0.619    2.695
  364.532    0.000  120.032    0.272    0.588    2.801
  364.782    0.000  122.645    0.251    0.545    2.861
  365.032    0.000  121.286    0.245    0.531    2.983
  365.282   -0.000  120.830    0.243    0.550    3.225
