~VERSION INFORMATION
 VERS.                 2.0:   CWLS LOG ASCII STANDARD -VERSION 2.0
 WRAP.                  NO:   ONE LINE PER DEPTH STEP
~WELL INFORMATION BLOCK
#MNEM.UNIT           DATA                    DESCRIPTION OF MNEMONIC
#---------    -------------------            -------------------------------
# Generated from Intellog Unique Number	CN_91_93/WELL/2819
WELL.         PARAMOUNT RESOURCES LTD.       : Well_name    - WELL
LOC .         00/06-01-093-21W4/0            : Location     - LOCATION
UWI .         00/06-01-093-21W4/0            : Uwi          - UNIQUE WELL ID
ENTR.         JOETTE                         : Entered      - ENTERED BY
SRVC.         COMPUTALOG                     : Scn          - SERVICE COMPANY
DATE.         03/24/92                       : Date         - LOG DATE
STRT.M        100                            : top_depth    - START DEPTH
STOP.M        235                            : bot_depth    - STOP DEPTH
STEP.M        0.25                           : increment    - STEP LENGTH
 NULL. -999.2500:NULL Value
~CURVE INFORMATION BLOCK
#MNEM UNIT       ERCB CURVE CODE    CURVE DESCRIPTION
#-----------   ------------------   ----------------------------------
DEPT.M        00 001 00 00         : DEPTH        - DEPTH
CALI.MM       00 280 01 00         : CAL          - CALIPER
GR  .API      00 310 00 00         : GR           - GAMMA RAY
NPHI.V/V      00 330 00 00         : PHIN         - NEUTRON POROSITY (SANDSTONE)
DPHI.V/V      00 890 00 00         : PHID         - DENSITY POROSITY (SANDSTONE)
ILD .OHMM     00 120 00 00         : RESD         - DEEP RESISTIVITY (DIL)
~PARAMETER INFORMATION
#MNEM.UNIT           DATA             DESCRIPTION OF MNEMONIC
#---------         -----------     ------------------------------
GL  .M        443.43               : gl           - GROUND LEVEL ELEVATION
EREF.M        547.23               : kb           - ELEVATION OF DEPTH REFERENCE
DATM.M        547.23               : datum        - DATUM ELEVATION
TDD .M        234.4                : tdd          - TOTAL DEPTH DRILLER
RUN .         ONE                  : Run          - RUN NUMBER
ENG .         JO                   : Engineer     - RECORDING ENGINEER
WIT .         TIM                  : Witness      - WITNESSED BY
MUD .         GEL                  : Mud_type     - MUD TYPE
MATR.         SANDSTONE            : Logunit      - NEUTRON MATRIX
TMAX.C        23                   : BHT          - MAXIMUM RECORDED TEMPERATURE
BHTD.M        234.4                : BHTDEP       - MAXIMUM RECORDED TEMPERATURE
RMT .C        10.5                 : MDTP         - TEMPERATURE OF MUD
MUDD.KG/M     1100                 : MWT          - MUD DENSITY
NEUT.         1                    : NEUTRON      - NEUTRON TYPE
RESI.         0                    : RESIST       - RESISTIVITY TYPE
RM  .OHMM     5.2                  : RM           - RESISTIVITY OF MUD
RMC .OHMM     5.2                  : RMC          - RESISTIVITY OF MUD CAKE
RMF .OHMM     5.2                  : RMF          - RESISTIVITY OF MUD FILTRATE
SUFT.C        4                    : SUFT         - SURFACE TEMPERATURE
~A  DEPTH      CAL       GR     PHIN     PHID     RESD
# ...
  173.000  229.140   95.830    0.336    0.216    7.190
  173.250  228.237   83.158    0.332    0.190   10.345
  173.500  223.296   79.588    0.328    0.220   13.788
  173.750  221.384   83.892    0.339    0.269   15.794
  174.000  221.490   82.745    0.403    0.277   15.838
  174.250  221.650   78.569    0.409    0.233   14.986
  174.500  221.704   74.392    0.391    0.224   14.187
  174.750  222.846   73.851    0.366    0.258   14.492
  175.000  223.962   76.338    0.361    0.225   14.803
  175.250  225.052   75.812    0.366    0.190   13.758
  175.500  226.168   75.254    0.365    0.178   12.765
  175.750  228.347   73.517    0.377    0.214   11.415
  176.000  228.400   74.792    0.418    0.235   10.016
  176.250  227.524   79.686    0.484    0.242    5.567
  176.500  226.621   91.275    0.491    0.211    4.529
  176.750  226.755  101.636    0.477    0.206    4.285
  177.000  226.835  104.122    0.459    0.194    4.816
  177.250  226.941  102.385    0.460    0.197    5.511
  177.500  228.057   99.437    0.451    0.197    7.490
  177.750  225.162   97.683    0.441    0.196    8.749
  178.000  221.230   97.748    0.438    0.193    9.273
  178.250  223.330   97.779    0.422    0.183   10.232
  178.500  231.539   97.876    0.399    0.172   10.652
  178.750  234.674   97.318    0.404    0.179   11.747
  179.000  234.754   96.760    0.374    0.192   12.457
  179.250  234.914   95.039    0.355    0.197   12.961
  179.500  233.958   95.087    0.353    0.182   14.301
  179.750  233.082   95.167    0.366    0.168   14.600
  180.000  232.179   95.805    0.405    0.167   14.914
  180.250  232.285   95.263    0.421    0.174   14.127
  180.500  232.419   89.875    0.382    0.181   13.615
  180.750  233.481   94.195    0.355    0.150   13.908
  181.000  232.605   93.638    0.347    0.128   15.040
  181.250  229.683   84.616    0.404    0.126   15.371
  181.500  227.771   78.033    0.438    0.181   14.286
  181.750  227.904   80.504    0.428    0.237   13.769
  182.000  228.967   86.625    0.384    0.257   13.050
  182.250  230.083   89.717    0.341    0.268   12.818
  182.500  230.216   82.513    0.322    0.266   13.360
  182.750  230.323   71.674    0.316    0.205   13.901
  183.000  229.393   64.453    0.322    0.139   14.749
  183.250  229.527   63.911    0.389    0.135   15.075
  183.500  228.624   79.740    0.434    0.185   14.545
  183.750  228.730   88.300    0.434    0.213   13.249
  184.000  228.837   92.620    0.418    0.236   11.618
  184.250  228.917   89.655    0.401    0.229   10.008
  184.500  229.104   87.902    0.388    0.233    8.949
  184.750  229.157   89.178    0.391    0.215    8.156
  185.000  229.290   90.453    0.427    0.203    7.865
  185.250  229.397   92.334    0.443    0.210    6.771
  185.500  229.504   96.622    0.543    0.221    5.609
  185.750  230.620  102.759    0.598    0.230    4.738
  186.000  230.700  101.612    0.546    0.235    4.488
  186.250  230.860  104.099    0.510    0.236    4.759
  186.500  230.913  102.346    0.504    0.205    5.879
  186.750  231.046   86.645    0.451    0.246    9.662
  187.000  229.134   80.046    0.393    0.297   11.274
  187.250  227.221   80.110    0.396    0.294   13.422
  187.500  226.292   78.963    0.402    0.275   13.710
  187.750  224.433   76.604    0.436    0.264   13.733
  188.000  224.486   77.879    0.402    0.255   12.530
  188.250  224.593   81.593    0.387    0.237   11.849
  188.500  223.690   79.234    0.367    0.235   11.876
  188.750  221.777   75.648    0.338    0.216   12.601
  189.000  220.874   73.289    0.328    0.170   12.629
  189.250  227.065   77.593    0.359    0.141   11.956
  189.500  229.217   81.897    0.370    0.146   10.704
  189.750  229.270   86.201    0.400    0.181   10.722
  190.000  230.440   86.887    0.402    0.230   11.376
  190.250  230.520   85.755    0.382    0.229   12.064
  190.500  230.600   84.576    0.373    0.188   13.819
  190.750  230.760   82.233    0.365    0.128   15.222
  191.000  229.804   79.858    0.418    0.083   18.470
  191.250  229.963   76.894    0.480    0.126   19.218
  191.500  230.043   77.563    0.461    0.212   20.018
  191.750  230.123   79.444    0.305    0.213   18.952
  192.000  230.257   80.130    0.258    0.140   17.594
  192.250  230.417   78.377    0.209    0.047   16.666
  192.500  230.497   72.973    0.172   -0.006   18.012
  192.750  229.620   63.346    0.178   -0.013   19.500
  193.000  228.691   63.410    0.240    0.090   19.522
  193.250  227.761   81.661    0.381    0.141   18.492
  193.500  225.875   89.600    0.409    0.177   16.854
  193.750  225.982   94.509    0.389    0.177   15.063
  194.000  228.081   99.435    0.377    0.221   13.729
  194.250  230.207   98.893    0.388    0.234   12.284
  194.500  227.285   98.957    0.381    0.201   12.066
  194.750  225.426  100.838    0.371    0.174   11.872
  195.000  224.496  101.508    0.364    0.142   11.668
  195.250  223.593   98.528    0.371    0.137   10.851
  195.500  224.709   93.746    0.371    0.115   10.664
  195.750  227.818   84.724    0.353    0.063   10.899
  196.000  231.989   79.942    0.347    0.143   12.006
  196.250  234.088   78.189    0.408    0.200   12.739
  196.500  233.185   83.704    0.427    0.205   12.775
  196.750  230.317   95.293    0.363    0.185   12.326
  197.000  228.351   99.613    0.350    0.158   11.893
  197.250  226.465   97.844    0.343    0.138   12.619
  197.500  226.545   93.668    0.319    0.183   13.130
  197.750  226.652   92.504    0.364    0.210   14.206
  198.000  233.852   97.430    0.381    0.210   14.503
  198.250  233.985  105.368    0.377    0.194   14.536
  198.500  234.038  101.798    0.392    0.187   14.302
  198.750  239.246   97.638    0.402    0.195   13.800
  199.000  237.334   98.308    0.410    0.206   14.104
  199.250  235.368   98.356    0.377    0.205   14.675
  199.500  232.446   98.420    0.368    0.141   15.571
  199.750  232.552   97.288    0.354    0.088   15.914
  200.000  238.743   95.535    0.358    0.111   15.049
  200.250  235.821   93.160    0.399    0.159   13.979
  200.500  229.924   93.224    0.386    0.163   12.992
  200.750  226.949  100.557    0.383    0.130   12.769
  201.000  226.019  106.694    0.386    0.116   12.328
  201.250  226.126  104.319    0.384    0.113   12.116
  201.500  227.295  103.171    0.384    0.140   12.150
  201.750  228.385  104.447    0.380    0.177   11.941
  202.000  229.554  104.527    0.381    0.197   11.756
  202.250  230.617  104.607    0.373    0.171   11.554
  202.500  230.723  104.081    0.375    0.161   11.356
  202.750  230.830  103.507    0.420    0.174   11.180
  203.000  230.963  104.799    0.433    0.183   11.192
  203.250  231.043  107.891    0.377    0.189   11.432
  203.500  231.203  110.984    0.345    0.178   12.842
  203.750  231.257  106.808    0.312    0.126   15.289
  204.000  230.380   98.981    0.322    0.166   15.908
  204.250  229.451   93.578    0.327    0.222   15.643
  204.500  226.582   88.812    0.298    0.191   14.810
  204.750  224.616   93.100    0.303    0.115   15.427
  205.000  222.704   96.830    0.298    0.092   16.993
  205.250  219.835   95.683    0.357    0.155   17.041
  205.500  218.906   98.154    0.368    0.209   16.123
  205.750  218.986  104.275    0.357    0.191   14.703
  206.000  219.146  101.310    0.342    0.191   13.665
  206.250  219.199   98.951    0.344    0.191   13.178
  206.500  220.315  103.861    0.344    0.181   12.951
  206.750  225.469  108.165    0.364    0.188   12.736
  207.000  230.650  110.046    0.358    0.183   12.531
  207.250  232.749  108.293    0.368    0.161   12.560
  207.500  233.892  106.572    0.386    0.131   12.581
  207.750  233.972  106.620    0.390    0.126   12.858
  208.000  234.105  106.062    0.385    0.165   12.887
  208.250  233.256  106.748    0.393    0.184   12.909
  208.500  233.309  106.190    0.381    0.178   12.945
  208.750  232.459  105.059    0.381    0.175   12.723
  209.000  232.513  105.712    0.404    0.174   12.276
  209.250  232.619  113.667    0.382    0.171   11.628
