~VERSION INFORMATION
 VERS.                 2.0:   CWLS LOG ASCII STANDARD -VERSION 2.0
 WRAP.                  NO:   ONE LINE PER DEPTH STEP
~WELL INFORMATION BLOCK
#MNEM.UNIT           DATA                    DESCRIPTION OF MNEMONIC
#---------    -------------------            -------------------------------
# Generated from Intellog Unique Number	CS_77_79/WELL/875
WELL.         HOME OIL COMPANY               : Well_name    - WELL
LOC .         00/06-16-077-06W4/0            : Location     - LOCATION
UWI .         00/06-16-077-06W4/0            : Uwi          - UNIQUE WELL ID
ENTR.         SP                             : Entered      - ENTERED BY
SRVC.         SCHLUMBERGER                   : Scn          - SERVICE COMPANY
STRT.M        143.256                        : top_depth    - START DEPTH
STOP.M        362.506                        : bot_depth    - STOP DEPTH
STEP.M        0.25                           : increment    - STEP LENGTH
 NULL. -999.2500:NULL Value
~CURVE INFORMATION BLOCK
#MNEM UNIT       ERCB CURVE CODE    CURVE DESCRIPTION
#-----------   ------------------   ----------------------------------
DEPT.M        00 001 00 00         : DEPTH        - DEPTH
GR  .API      00 310 00 00         : GR           - GAMMA RAY
DPHI.V/V      00 890 00 00         : PHID         - DENSITY POROSITY (SANDSTONE)
NPHI.V/V      00 330 00 00         : PHIN         - NEUTRON POROSITY (SANDSTONE)
ILD .OHMM     00 120 00 00         : RESD         - DEEP RESISTIVITY (DIL)
~PARAMETER INFORMATION
#MNEM.UNIT           DATA             DESCRIPTION OF MNEMONIC
#---------         -----------     ------------------------------
GL  .M        566.105              : gl           - GROUND LEVEL ELEVATION
EREF.M        569.641              : kb           - ELEVATION OF DEPTH REFERENCE
DATM.M        566.105              : datum        - DATUM ELEVATION
TDD .M        368.808              : tdd          - TOTAL DEPTH DRILLER
RUN .         ONE                  : Run          - RUN NUMBER
ENG .         BILL                 : Engineer     - RECORDING ENGINEER
WIT .         JIM                  : Witness      - WITNESSED BY
MUD .         GEL                  : Mud_type     - MUD TYPE
MATR.         SANDSTONE            : Logunit      - NEUTRON MATRIX
TMAX.C        23.3333              : BHT          - MAXIMUM RECORDED TEMPERATURE
BHTD.M        389.534              : BHTDEP       - MAXIMUM RECORDED TEMPERATURE
MATR.         1                    : LOGUNIT      - NEUTRON MATRIX
RMT .C        25                   : MDTP         - TEMPERATURE OF MUD
NEUT.         1                    : NEUTRON      - NEUTRON TYPE
RESI.         0                    : RESIST       - RESISTIVITY TYPE
RMC .OHMM     0.25                 : RMC          - RESISTIVITY OF MUD CAKE
RMF .OHMM     0.25                 : RMF          - RESISTIVITY OF MUD FILTRATE
SUFT.C        15                   : SUFT         - SURFACE TEMPERATURE
~A  DEPTH       GR     PHID     PHIN     RESD
# ...
  230.256  111.652    0.240    0.436    5.271
  230.506  112.527    0.235    0.463    4.858
  230.756  114.203    0.224    0.486    4.281
  231.006  114.687    0.224    0.487    3.834
  231.256  114.650    0.227    0.482    3.699
  231.506  115.330    0.222    0.481    3.660
  231.756  113.286    0.228    0.473    3.699
  232.006  110.028    0.233    0.470    3.794
  232.256  109.945    0.249    0.490    3.862
  232.506  110.650    0.246    0.499    3.860
  232.756  111.936    0.236    0.511    3.860
  233.006  111.835    0.238    0.516    3.860
  233.256  110.514    0.241    0.518    3.866
  233.506  110.102    0.244    0.521    3.786
  233.756  110.567    0.256    0.522    3.669
  234.006  111.272    0.265    0.525    3.627
  234.256  111.227    0.263    0.533    3.509
  234.506  112.760    0.251    0.548    3.397
  234.756  112.992    0.247    0.563    3.366
  235.006  112.401    0.255    0.547    3.324
  235.256  107.691    0.251    0.521    3.459
  235.506  102.665    0.248    0.497    3.647
  235.756  101.089    0.243    0.489    4.045
  236.006  101.573    0.237    0.500    4.225
  236.256   98.912    0.231    0.506    4.416
  236.506   97.081    0.224    0.504    4.693
  236.756   96.910    0.239    0.485    4.802
  237.006   98.325    0.261    0.474    4.685
  237.256   99.936    0.267    0.477    4.556
  237.506  100.001    0.269    0.474    4.352
  237.756  100.023    0.270    0.484    4.276
  238.006   98.839    0.258    0.490    4.198
  238.256   97.001    0.271    0.495    4.192
  238.506   96.476    0.292    0.499    4.353
  238.756   93.835    0.307    0.494    4.663
  239.006   90.755    0.325    0.494    5.075
  239.256   76.368    0.346    0.469    7.264
  239.506   63.640    0.364    0.444   10.232
  239.756   58.602    0.346    0.429   13.905
  240.006   59.401    0.354    0.437   16.705
  240.256   60.393    0.355    0.450   18.076
  240.506   62.058    0.354    0.458   18.565
  240.756   61.768    0.354    0.467   18.568
  241.006   57.388    0.359    0.471   18.104
  241.256   54.887    0.360    0.459   18.146
  241.506   56.552    0.351    0.447   15.732
  241.756   57.569    0.339    0.451   16.041
  242.006   60.165    0.339    0.458   16.285
  242.256   63.148    0.338    0.439   16.466
  242.506   65.286    0.329    0.433   16.621
  242.756   66.911    0.315    0.449   16.878
  243.006   63.019    0.305    0.450   16.837
  243.256   61.283    0.310    0.441   17.196
  243.506   59.605    0.315    0.437   17.155
  243.756   60.767    0.333    0.448   17.023
  244.006   62.766    0.340    0.449   16.831
  244.256   63.347    0.343    0.459   16.573
  244.506   63.512    0.352    0.462   15.884
  244.756   63.920    0.320    0.451   15.637
  245.006   63.766    0.314    0.448   15.610
  245.256   60.493    0.335    0.455   15.981
  245.506   59.203    0.334    0.451   16.759
  245.756   58.849    0.337    0.443   17.282
  246.006   58.523    0.323    0.426   17.813
  246.256   57.994    0.331    0.423   18.345
  246.506   58.034    0.342    0.432   18.775
  246.756   58.080    0.343    0.438   18.752
  247.006   58.664    0.344    0.430   18.227
  247.256   58.639    0.334    0.420   17.636
  247.506   58.640    0.321    0.407   16.753
  247.756   59.830    0.315    0.404   16.744
  248.006   62.194    0.336    0.423   17.189
  248.256   64.016    0.356    0.453   17.378
  248.506   65.415    0.371    0.461   17.405
  248.756   65.833    0.370    0.451   17.009
  249.006   65.314    0.369    0.462   15.679
  249.256   63.748    0.354    0.455   14.674
  249.506   62.270    0.328    0.448   14.446
  249.756   62.336    0.327    0.447   14.415
  250.006   61.426    0.328    0.458   14.924
  250.256   60.468    0.337    0.462   15.875
  250.506   59.956    0.341    0.437   16.944
  250.756   59.126    0.344    0.397   17.348
  251.006   58.166    0.345    0.403   17.313
  251.256   58.264    0.375    0.428   17.513
  251.506   57.680    0.397    0.454   17.573
  251.756   58.180    0.434    0.465   16.460
  252.006   59.141    0.442    0.475   14.832
  252.256   60.109    0.424    0.471   14.368
  252.506   61.119    0.353    0.468   14.361
  252.756   60.942    0.344    0.462   14.719
  253.006   59.928    0.351    0.450   15.819
  253.256   59.403    0.362    0.434   16.288
  253.506   59.438    0.365    0.442   15.716
  253.756   59.452    0.364    0.451   15.706
  254.006   60.903    0.361    0.455   14.053
  254.256   62.196    0.363    0.455   14.004
  254.506   63.611    0.363    0.452   13.822
  254.756   63.903    0.365    0.454   13.815
  255.006   63.642    0.378    0.462   13.801
  255.256   64.171    0.380    0.482   14.037
  255.506   65.210    0.376    0.492   13.911
  255.756   65.436    0.368    0.467   13.772
  256.006   65.890    0.357    0.444   13.525
  256.256   67.891    0.358    0.457   13.405
  256.506   68.451    0.349    0.467   13.545
  256.756   68.121    0.358    0.473   13.687
  257.006   66.356    0.355    0.475   14.037
  257.256   66.096    0.346    0.466   14.289
  257.506   65.792    0.341    0.449   14.563
  257.756   66.688    0.343    0.430   14.000
  258.006   67.825    0.341    0.435   13.037
  258.256   68.540    0.335    0.443   12.389
  258.506   68.530    0.343    0.451   12.034
  258.756   68.485    0.345    0.454   11.864
  259.006   69.209    0.350    0.459   11.957
  259.256   69.201    0.352    0.461   12.355
  259.506   69.769    0.335    0.453   12.953
  259.756   71.343    0.323    0.443   13.353
  260.006   77.780    0.319    0.434   13.475
  260.256   86.805    0.292    0.450   13.053
  260.506   94.198    0.262    0.472   10.906
  260.756   98.272    0.255    0.488    8.381
  261.006  103.697    0.250    0.494    6.769
  261.256  104.269    0.244    0.501    5.763
  261.506  104.375    0.244    0.506    5.218
  261.756  104.028    0.247    0.515    4.554
  262.006  104.435    0.269    0.526    4.360
  262.256  107.071    0.286    0.538    4.175
  262.506  108.172    0.294    0.556    3.894
  262.756  109.185    0.284    0.579    3.621
  263.006  110.218    0.265    0.596    3.288
  263.256  110.318    0.269    0.578    3.001
  263.506  110.340    0.273    0.567    2.709
  263.756  108.612    0.259    0.561    2.505
  264.006  106.659    0.241    0.541    2.304
  264.256  107.891    0.244    0.534    2.291
  264.506  108.697    0.250    0.540    2.401
  264.756  105.778    0.251    0.541    2.581
  265.006  103.961    0.257    0.533    2.647
  265.256  101.099    0.270    0.516    2.807
  265.506   98.082    0.275    0.505    2.977
  265.756   92.960    0.289    0.481    3.254
  266.006   89.797    0.288    0.473    3.680
  266.256   86.533    0.301    0.475    4.067
  266.506   85.091    0.320    0.469    4.637
  266.756   82.430    0.328    0.456    5.013
  267.006   79.537    0.340    0.442    5.523
  267.256   78.524    0.348    0.446    6.062
  267.506   80.316    0.297    0.465    6.285
  267.756   80.831    0.289    0.480    6.279
  268.006   77.464    0.296    0.482    6.279
  268.256   77.170    0.310    0.480    6.288
  268.506   77.200    0.305    0.474    6.492
  268.756   76.114    0.292    0.463    6.787
  269.006   73.430    0.283    0.450    7.285
  269.256   70.098    0.150    0.431    7.827
  269.506   66.238    0.054    0.403    8.794
  269.756   61.678    0.000    0.174   10.118
  270.006   62.121    0.005    0.200   11.406
  270.256   66.704    0.014    0.234   12.890
  270.506   70.579    0.041    0.259   15.087
  270.756   73.865    0.091    0.290   13.496
  271.006   76.960    0.160    0.330   12.161
  271.256   78.865    0.256    0.429   10.603
  271.506   80.319    0.298    0.456    9.173
  271.756   81.092    0.289    0.461    8.144
  272.006   83.119    0.287    0.460    7.695
  272.256   84.998    0.306    0.450    7.401
  272.506   86.241    0.312    0.441    6.953
  272.756   86.158    0.309    0.453    6.740
  273.006   86.819    0.304    0.466    6.713
  273.256   88.026    0.305    0.471    6.708
  273.506   88.764    0.312    0.468    6.705
