~VERSION INFORMATION
 VERS.                 2.0:   CWLS LOG ASCII STANDARD -VERSION 2.0
 WRAP.                  NO:   ONE LINE PER DEPTH STEP
~WELL INFORMATION BLOCK
#MNEM.UNIT           DATA                    DESCRIPTION OF MNEMONIC
#---------    -------------------            -------------------------------
# Generated from Intellog Unique Number	CW_73_75/WELL/3522
WELL.         ALLIED ROXANA MINERALS LTD.    : Well_name    - WELL
LOC .         00/08-14-073-26W4/0            : Location     - LOCATION
UWI .         00/08-14-073-26W4/0            : Uwi          - UNIQUE WELL ID
ENTR.         JOETTE                         : Entered      - ENTERED BY
SRVC.         SCHLUMBERGER                   : Scn          - SERVICE COMPANY
DATE.         08-27-92                       : Date         - LOG DATE
STRT.M        381                            : top_depth    - START DEPTH
STOP.M        640                            : bot_depth    - STOP DEPTH
STEP.M        0.25                           : increment    - STEP LENGTH
 NULL. -999.2500:NULL Value
~CURVE INFORMATION BLOCK
#MNEM UNIT       ERCB CURVE CODE    CURVE DESCRIPTION
#-----------   ------------------   ----------------------------------
DEPT.M        00 001 00 00         : DEPTH        - DEPTH
GR  .API      00 310 00 00         : GR           - GAMMA RAY
DELT.US/F     00 520 00 00         : DELT         - SONIC TRAVEL TIME
ILD .OHMM     00 120 00 00         : RESD         - DEEP RESISTIVITY (DIL)
~PARAMETER INFORMATION
#MNEM.UNIT           DATA             DESCRIPTION OF MNEMONIC
#---------         -----------     ------------------------------
GL  .M        624.84               : gl           - GROUND LEVEL ELEVATION
EREF.M        628.498              : kb           - ELEVATION OF DEPTH REFERENCE
DATM.M        628.498              : datum        - DATUM ELEVATION
TDD .M        655.625              : tdd          - TOTAL DEPTH DRILLER
RUN .         ONE                  : Run          - RUN NUMBER
ENG .         BILL                 : Engineer     - RECORDING ENGINEER
WIT .         JIM                  : Witness      - WITNESSED BY
MUD .         GEL                  : Mud_type     - MUD TYPE
MATR.         SANDSTONE            : Logunit      - NEUTRON MATRIX
TMAX.C        26.6667              : BHT          - MAXIMUM RECORDED TEMPERATURE
BHTD.M        655.625              : BHTDEP       - MAXIMUM RECORDED TEMPERATURE
RMT .C        15.5556              : MDTP         - TEMPERATURE OF MUD
MUDD.KG/M     10300                : MWT          - MUD DENSITY
NEUT.         1                    : NEUTRON      - NEUTRON TYPE
RESI.         0                    : RESIST       - RESISTIVITY TYPE
RM  .OHMM     2.96                 : RM           - RESISTIVITY OF MUD
RMC .OHMM     2.96                 : RMC          - RESISTIVITY OF MUD CAKE
RMF .OHMM     2.96                 : RMF          - RESISTIVITY OF MUD FILTRATE
SUFT.C        15                   : SUFT         - SURFACE TEMPERATURE
~A  DEPTH       GR     DELT     RESD
  381.000   76.859  398.168    3.467
  381.250   80.391  399.491    3.266
  381.500   84.517  401.477    3.065
  381.750   85.702  406.119    2.867
  382.000   90.408  411.429    2.665
  382.250   93.351  419.396    2.465
  382.500   90.430  428.024    2.469
  382.750   87.509  425.357    2.270
  383.000   85.767  424.021    2.273
  383.250   86.953  423.348    2.278
  383.500   89.309  422.011    2.281
  383.750   93.428  420.673    2.285
  384.000   96.961  425.979    2.290
  384.250   96.976  429.957    2.292
  384.500   95.815  430.613    2.295
  384.750   94.067  428.610    2.302
  385.000   92.906  415.974    2.303
  385.250   91.745  415.301    2.307
  385.500   90.584  414.628    2.311
  385.750   89.426  418.608    2.315
  386.000   88.849  425.245    2.319
  386.250   88.281  431.881    2.323
  386.500   90.640  435.196    2.327
  386.750   94.175  439.177    2.330
  387.000   95.942  449.138    2.336
  387.250   98.887  452.448    2.338
  387.500  100.660  453.771    2.341
  387.750   97.742  457.082    2.346
  388.000   97.757  458.405    2.350
  388.250  101.876  459.063    2.352
  388.500  103.062  458.390    2.357
  388.750  101.317  454.392    2.158
  389.000   98.396  451.060    2.160
  389.250   96.059  449.058    2.165
  389.500   91.965  447.716    2.168
  389.750   91.390  445.718    2.172
  390.000   94.339  442.384    2.175
  390.250   97.288  439.051    2.179
  390.500   99.057  437.715    2.185
  390.750  100.243  435.713    2.187
  391.000  101.429  433.711    2.193
  391.250  100.271  431.708    2.195
  391.500   96.176  427.710    2.199
  391.750   92.079  425.710    2.204
  392.000   88.574  430.350    2.206
  392.250   90.936  433.000    2.413
  392.500   94.466  431.000    2.419
  392.750   97.411  427.666    2.626
  393.000   99.190  426.331    2.630
  393.250   98.612  425.658    2.837
  393.500   97.451  426.976    2.841
  393.750   98.637  429.626    3.048
  394.000   95.719  433.603    3.052
  394.250   94.555  435.589    3.057
  394.500   92.811  434.251    3.060
  394.750   93.993  432.249    3.064
  395.000   98.699  429.578    3.068
  395.250  101.058  428.907    3.070
  395.500   97.553  428.232    3.074
  395.750   94.052  428.225    3.080
  396.000   93.474  428.215    3.082
  396.250   94.073  429.538    3.088
  396.500   93.496  434.180    3.093
  396.750   88.815  437.494    3.095
  397.000   83.547  440.811    3.097
  397.250   78.279  435.486    3.102
  397.500   76.541  393.606    3.308
  397.750   77.720  380.304    3.313
  398.000   80.669  374.311    3.520
  398.250   82.439  386.931    3.932
  398.500   85.974  404.205    4.139
  398.750   87.743  411.507    4.551
  399.000   92.455  383.585    4.962
  399.250   95.401  366.959    5.375
  399.500   99.517  365.621    5.377
  399.750  101.879  368.269    4.973
  400.000   97.782  381.555    3.756
  400.250   91.930  396.168    3.555
  400.500   85.489  412.111    3.152
  400.750   81.398  418.084    3.155
  401.000   80.824  423.392    3.158
  401.250   81.423  399.453    3.366
  401.500   80.262  394.128    3.778
  401.750   79.684  395.449    3.782
  402.000   80.870  400.095    3.785
  402.250   86.172  413.377    3.383
  402.500   86.765  418.023    3.182
  402.750   85.017  430.640    3.185
  403.000   81.509  447.247    3.189
  403.250   78.588  465.183    3.193
  403.500   75.080  467.833    3.400
  403.750   71.576  421.966    4.015
  404.000   66.894  396.702    4.427
  404.250   61.627  376.089    5.247
  404.500   57.532  370.099    5.863
  404.750   54.611  354.804    6.068
  405.000   52.280  328.211    6.277
  405.250   49.945  324.877    6.483
  405.500   47.021  351.454    6.283
  405.750   45.860  366.731    6.084
  406.000   47.049  393.308    5.476
  406.250   51.758  395.293    4.868
  406.500   60.571  389.966    4.465
  406.750   62.340  396.606    4.265
  407.000   67.632  396.597    4.064
  407.250   78.208  375.317    4.068
  407.500   75.287  380.627    4.073
  407.750   69.433  387.265    4.280
  408.000   68.861  380.611    4.488
  408.250   72.978  373.291    4.492
  408.500   87.073  367.966    4.701
  408.750   90.606  367.953    4.499
  409.000   90.035  379.246    4.503
  409.250   90.630  409.143    4.303
  409.500   92.990  407.803    4.307
  409.750   93.589  407.134    4.515
  410.000   90.087  406.461    4.723
  410.250   86.582  384.520    4.929
  410.500   84.829  368.559    5.139
  410.750   80.147  373.868    5.142
  411.000   79.573  395.127    5.144
  411.250   79.585  391.793    5.148
  411.500   75.491  393.114    4.949
  411.750   70.223  398.425    4.749
  412.000   64.958  369.171    4.752
  412.250   66.144  364.510    4.758
  412.500   73.197  352.539    4.964
  412.750   75.556  348.543    5.171
  413.000   72.635  367.808    5.174
  413.250   66.783  380.428    5.180
  413.500   62.686  389.724    4.777
  413.750   59.768  385.061    4.779
  414.000   72.100  369.102    4.580
  414.250   75.049  339.185    4.582
  414.500   76.819  331.866    4.791
  414.750   76.831  346.479    4.794
  415.000   73.326  372.389    5.003
  415.250   69.232  379.025    5.211
  415.500   66.901  377.022    5.418
  415.750   65.737  374.355    5.422
  416.000   65.165  371.689    5.424
  416.250   66.351  370.351    5.225
  416.500   66.950  367.019    5.228
  416.750   66.962  367.011    4.824
  417.000   68.151  368.996    4.624
  417.250   73.441  372.311    4.018
  417.500   86.360  376.955    3.818
  417.750   98.106  360.996    3.415
  418.000   95.188  363.646    3.418
  418.250   86.987  392.881    3.420
  418.500   79.372  426.103    4.036
  418.750   72.931  392.197    4.243
  419.000   67.077  376.902    4.453
  419.250   62.982  356.291    4.251
  419.500   50.674  361.599    4.052
  419.750   46.580  376.875    3.852
  420.000   44.832  387.499    3.855
  420.250   38.981  381.511    3.654
  420.500   36.646  376.185    3.660
  420.750   55.436  377.506    3.662
  421.000   66.595  378.162    3.666
  421.250   67.778  374.831    3.672
  421.500   70.730  380.137    3.675
  421.750   74.846  385.446    3.679
  422.000   81.898  386.102    3.886
  422.250   88.364  379.447    4.094
  422.500   85.443  374.784    4.301
  422.750   84.872  376.107    4.508
  423.000   86.058  378.753    4.513
  423.250   88.423  377.416    4.720
  423.500   89.019  374.751    4.927
  423.750   89.031  364.109    4.933
  424.000   86.110  362.106    4.935
  424.250   83.186  381.372    4.938
  424.500   76.748  396.647    4.536
  424.750   90.257  370.719    4.133
  425.000  102.590  368.050    3.728
  425.250  109.052  368.044    3.323
  425.500  114.932  457.759    2.919
  425.750  105.560  467.055    2.719
  426.000  104.402  437.803    2.519
  426.250  105.001  386.617    2.524
  426.500  106.774  385.280    2.528
  426.750  107.370  438.441    2.531
  427.000  106.212  443.747    2.535
  427.250  101.527  430.448    2.743
  427.500   95.676  417.145    2.950
  427.750   92.168  405.174    3.159
  428.000   88.664  391.873    3.365
  428.250   84.566  391.198    3.574
  428.500   74.605  403.151    3.782
  428.750   65.817  412.451    3.989
  429.000   62.899  412.441    3.993
  429.250   62.911  394.490    4.201
  429.500   59.990  376.532    4.203
  429.750   55.309  390.483    4.208
  430.000   52.388  389.810    4.212
  430.250   66.481  377.174    4.010
  430.500   71.186  377.165    4.015
  430.750   72.378  377.819    4.018
  431.000   69.457  374.488    4.023
  431.250   65.947  375.807    4.028
  431.500   60.092  379.121    4.234
  431.750   56.584  379.775    4.238
  432.000   56.600  377.777    4.445
  432.250   56.022  374.444    4.653
  432.500   56.035  374.435    4.861
  432.750   56.637  379.744    4.866
  433.000   55.476  376.410    4.868
  433.250   50.208  373.745    4.871
  433.500   46.703  371.741    4.672
  433.750   46.126  373.722    4.472
  434.000   46.144  374.383    4.475
  434.250   46.154  379.025    4.479
  434.500   47.346  382.337    4.280
  434.750   47.941  382.997    4.285
  435.000   48.537  380.995    4.288
