~VERSION INFORMATION
 VERS.                 2.0:   CWLS LOG ASCII STANDARD -VERSION 2.0
 WRAP.                  NO:   ONE LINE PER DEPTH STEP
~WELL INFORMATION BLOCK
#MNEM.UNIT           DATA                    DESCRIPTION OF MNEMONIC
#---------    -------------------            -------------------------------
# Generated from Intellog Unique Number	CN_94_101/WELL/2864
WELL.         NORTHSTAR ENERGY CORP.         : Well_name    - WELL
LOC .         00/03-12-095-16W4/0            : Location     - LOCATION
UWI .         00/03-12-095-16W400            : Uwi          - UNIQUE WELL ID
ENTR.         JOETTE                         : Entered      - ENTERED BY
SRVC.         SCHLUMBERGER                   : Scn          - SERVICE COMPANY
DATE.         07/09/92                       : Date         - LOG DATE
STRT.M        170                            : top_depth    - START DEPTH
STOP.M        305                            : bot_depth    - STOP DEPTH
STEP.M        0.25                           : increment    - STEP LENGTH
 NULL. -999.2500:NULL Value
~CURVE INFORMATION BLOCK
#MNEM UNIT       ERCB CURVE CODE    CURVE DESCRIPTION
#-----------   ------------------   ----------------------------------
DEPT.M        00 001 00 00         : DEPTH        - DEPTH
CALI.MM       00 280 01 00         : CAL          - CALIPER
GR  .API      00 310 00 00         : GR           - GAMMA RAY
NPHI.V/V      00 330 00 00         : PHIN         - NEUTRON POROSITY (SANDSTONE)
DPHI.V/V      00 890 00 00         : PHID         - DENSITY POROSITY (SANDSTONE)
ILD .OHMM     00 120 00 00         : RESD         - DEEP RESISTIVITY (DIL)
~PARAMETER INFORMATION
#MNEM.UNIT           DATA             DESCRIPTION OF MNEMONIC
#---------         -----------     ------------------------------
GL  .M        559.3                : gl           - GROUND LEVEL ELEVATION
EREF.M        562.9                : kb           - ELEVATION OF DEPTH REFERENCE
DATM.M        562.9                : datum        - DATUM ELEVATION
TDD .M        320                  : tdd          - TOTAL DEPTH DRILLER
RUN .         ONE                  : Run          - RUN NUMBER
ENG .         JO                   : Engineer     - RECORDING ENGINEER
WIT .         TIM                  : Witness      - WITNESSED BY
MUD .         GEL                  : Mud_type     - MUD TYPE
MATR.         SANDSTONE            : Logunit      - NEUTRON MATRIX
TMAX.C        21                   : BHT          - MAXIMUM RECORDED TEMPERATURE
BHTD.M        320                  : BHTDEP       - MAXIMUM RECORDED TEMPERATURE
RMT .C        15                   : MDTP         - TEMPERATURE OF MUD
MUDD.KG/M     1030                 : MWT          - MUD DENSITY
NEUT.         1                    : NEUTRON      - NEUTRON TYPE
RESI.         0                    : RESIST       - RESISTIVITY TYPE
RM  .OHMM     0.33                 : RM           - RESISTIVITY OF MUD
RMC .OHMM     0.58                 : RMC          - RESISTIVITY OF MUD CAKE
RMF .OHMM     0.32                 : RMF          - RESISTIVITY OF MUD FILTRATE
SUFT.C        4                    : SUFT         - SURFACE TEMPERATURE
~A  DEPTH      CAL       GR     PHIN     PHID     RESD
# ...
  279.500  161.955   57.810    0.414    0.265   20.453
  279.750  162.010   56.091    0.407    0.275   24.089
  280.000  162.066   55.541    0.401    0.280   24.994
  280.250  162.121   54.406    0.403    0.271   24.555
  280.500  162.177   56.775    0.408    0.265   23.696
  280.750  162.233   59.729    0.410    0.265   23.285
  281.000  162.302   58.594    0.411    0.269   23.294
  281.250  162.344   56.291    0.410    0.262   23.729
  281.500  162.399   53.988    0.409    0.250   24.179
  281.750  162.469   51.685    0.405    0.254   25.543
  282.000  162.538   49.382    0.406    0.271   26.503
  282.250  161.607   47.672    0.412    0.283   27.488
  282.500  161.648   47.121    0.411    0.290   29.573
  282.750  161.732   46.562    0.398    0.296   31.813
  283.000  161.759   44.843    0.384    0.295   34.218
  283.250  161.843   36.107    0.393    0.292   40.300
  283.500  161.870   29.724    0.397    0.296   47.464
  283.750  161.954   32.669    0.397    0.302   56.923
  284.000  161.022   37.375    0.392    0.298   56.952
  284.250  161.092   44.434    0.394    0.292   51.111
  284.500  161.133   42.715    0.395    0.286   45.045
  284.750  161.175   38.643    0.385    0.283   41.164
  285.000  161.244   34.004    0.380    0.285   39.006
  285.250  161.286   31.709    0.381    0.293   47.635
  285.500  161.369   33.503    0.387    0.302   54.112
  285.750  161.411   34.688    0.393    0.309   56.131
  286.000  161.453   35.306    0.399    0.315   57.194
  286.250  161.508   33.587    0.398    0.320   55.194
  286.500  161.564   31.868    0.393    0.322   54.231
  286.750  161.619   33.078    0.393    0.324   52.321
  287.000  161.717   34.271    0.397    0.325   49.584
  287.250  161.745   35.481    0.403    0.322   47.837
  287.500  161.800   34.922    0.412    0.323   44.515
  287.750  162.829   33.795    0.409    0.325   41.424
  288.000  162.885   33.820    0.402    0.313   40.701
  288.250  162.926   36.774    0.404    0.311   43.003
  288.500  163.010   36.807    0.410    0.312   45.417
  288.750  163.051   33.336    0.416    0.304   49.756
  289.000  163.121   33.953    0.413    0.291   52.556
  289.250  163.163   35.155    0.410    0.290   55.529
  289.500  163.204   36.941    0.407    0.296   56.573
  289.750  162.300   37.566    0.410    0.305   53.607
  290.000  162.342   37.600    0.417    0.313   48.989
  290.250  162.398   35.297    0.415    0.314   43.964
  290.500  162.481   32.410    0.402    0.306   40.171
  290.750  162.523   29.523    0.393    0.297   37.377
  291.000  162.564   28.388    0.382    0.290   35.422
  291.250  161.646   29.005    0.388    0.288   39.511
  291.500  161.702   27.862    0.384    0.285   44.066
  291.750  162.731   26.727    0.381    0.302   56.828
  292.000  162.787   26.761    0.380    0.328   75.992
  292.250  162.856   29.130    0.392    0.336   66.964
  292.500  162.925   33.844    0.390    0.316   55.887
  292.750  162.953   37.958    0.385    0.261   39.628
  293.000  163.023   50.257    0.386    0.210   30.764
  293.250  163.064   62.573    0.391    0.194   25.678
  293.500  163.134   64.942    0.392    0.164   21.825
  293.750  163.176   67.304    0.386    0.167   19.235
  294.000  163.245   73.178    0.377    0.186   16.952
  294.250  164.260   81.973    0.373    0.198   14.674
  294.500  164.330   88.431    0.380    0.211   14.157
  294.750  164.385   99.570    0.431    0.206   12.937
  295.000  165.414   99.603    0.445    0.236   11.612
  295.250  166.443   93.788    0.452    0.263   10.419
  295.500  166.485   84.476    0.428    0.262    9.872
  295.750  166.554   69.907    0.423    0.293   11.011
  296.000  165.650   59.427    0.415    0.315   12.737
  296.250  165.692   51.859    0.411    0.326   14.208
  296.500  165.734   47.219    0.402    0.311   15.284
  296.750  164.830   53.678    0.401    0.294   17.362
  297.000  163.898   61.312    0.401    0.272   19.720
  297.250  162.994   67.187    0.393    0.250   21.599
  297.500  163.050   74.813    0.386    0.221   25.442
  297.750  163.091   73.094    0.390    0.221   24.108
  298.000  163.161   69.623    0.394    0.217   22.025
  298.250  163.230   62.063    0.384    0.212   19.062
  298.500  163.258   56.840    0.371    0.207   17.420
  298.750  163.327   54.529    0.353    0.204   16.215
  299.000  163.369   52.234    0.379    0.207   15.928
  299.250  163.452   50.515    0.394    0.282   16.227
  299.500  163.494   48.796    0.381    0.279   17.456
  299.750  163.536   47.086    0.348    0.208   19.124
  300.000  162.632   45.934    0.299    0.139   20.200
  300.250  162.687   44.807    0.265    0.072   21.340
  300.500  162.729   46.593    0.200    0.028   22.546
  300.750  161.825   48.955    0.206   -0.013   24.254
  301.000  160.907   49.572    0.213   -0.021   26.564
  301.250  159.989   49.021    0.216   -0.017   30.724
  301.500  160.031   49.054    0.211   -0.013   32.462
  301.750  160.087   52.592    0.208   -0.009   33.073
  302.000  160.142   53.802    0.205   -0.004   33.085
  302.250  160.212   53.251    0.203   -0.000   33.102
  302.500  161.227   50.356    0.202    0.002   34.342
  302.750  161.282   47.477    0.200    0.002   36.947
  303.000  162.297   48.679    0.193    0.002   40.472
  303.250  162.381   46.952    0.179   -0.002   42.766
  303.500  162.409   37.056    0.168   -0.004   43.560
  303.750  162.464   38.257    0.179   -0.009   44.385
  304.000  162.534   42.387    0.198   -0.013   45.208
  304.250  162.575   44.757    0.202   -0.015   46.058
  304.500  162.645   44.206    0.193   -0.018   46.088
  304.750  162.700   43.647    0.186   -0.019   46.106
  305.000  162.770   40.184    0.181   -0.015   43.694
