~VERSION INFORMATION
 VERS.                 2.0:   CWLS LOG ASCII STANDARD -VERSION 2.0
 WRAP.                  NO:   ONE LINE PER DEPTH STEP
~WELL INFORMATION BLOCK
#MNEM.UNIT           DATA                    DESCRIPTION OF MNEMONIC
#---------    -------------------            -------------------------------
# Generated from Intellog Unique Number	CS_69_70/WELL/699
NULL.         -999.25                        : NULL_VALUE
WELL.         HUSKY AEC FISHER               : Well_name    - WELL              
LOC .         00/05-09-070-05W4/0            : Location     - LOCATION          
UWI .         00/05-09-070-05W4/0            : Uwi          - UNIQUE WELL ID    
ENTR.         SP                             : Entered      - ENTERED BY        
SRVC.         SCHLUMBERGER                   : Scn          - SERVICE COMPANY   
STRT.M        315                            : top_depth    - START DEPTH       
STOP.M        545                            : bot_depth    - STOP DEPTH        
STEP.M        0.25                           : increment    - STEP LENGTH       
~CURVE INFORMATION BLOCK
#MNEM UNIT       ERCB CURVE CODE    CURVE DESCRIPTION
#-----------   ------------------   ----------------------------------
DEPT.M        00 001 00 00         : DEPTH        - DEPTH                       
ILD .OHMM     00 120 00 00         : RESD         - DEEP RESISTIVITY (DIL)      
DPHI.V/V      00 890 00 00         : PHID         - DENSITY POROSITY (SANDSTONE)
NPHI.V/V      00 330 00 00         : PHIN         - NEUTRON POROSITY (SANDSTONE)
GR  .API      00 310 00 00         : GR           - GAMMA RAY                   
~PARAMETER INFORMATION       
#MNEM.UNIT           DATA             DESCRIPTION OF MNEMONIC
#---------         -----------     ------------------------------
GL  .M        678.3                : gl           - GROUND LEVEL ELEVATION      
EREF.M        682                  : kb           - ELEVATION OF DEPTH REFERENCE
DATM.M        678.3                : datum        - DATUM ELEVATION             
TDD .M        551.5                : tdd          - TOTAL DEPTH DRILLER         
RUN .         ONE                  : Run          - RUN NUMBER                  
ENG .         BILL                 : Engineer     - RECORDING ENGINEER          
WIT .         JIM                  : Witness      - WITNESSED BY                
MUD .         GEL                  : Mud_type     - MUD TYPE                    
MATR.         SANDSTONE            : Logunit      - NEUTRON MATRIX              
TMAX.C        25                   : BHT          - MAXIMUM RECORDED TEMPERATURE
BHTD.M        551.5                : BHTDEP       - MAXIMUM RECORDED TEMPERATURE
MATR.         1                    : LOGUNIT      - NEUTRON MATRIX              
RMT .C        25                   : MDTP         - TEMPERATURE OF MUD          
NEUT.         1                    : NEUTRON      - NEUTRON TYPE                
RESI.         0                    : RESIST       - RESISTIVITY TYPE            
RMC .OHMM     0.25                 : RMC          - RESISTIVITY OF MUD CAKE     
RMF .OHMM     0.25                 : RMF          - RESISTIVITY OF MUD FILTRATE 
SUFT.C        15                   : SUFT         - SURFACE TEMPERATURE         
~A  DEPTH     RESD     PHID     PHIN       GR
# ...
  402.000    7.211    0.255    0.415   75.779
  402.250    5.874    0.274    0.428   74.588
  402.500    4.876    0.284    0.431   74.594
  402.750    3.899    0.284    0.440   78.822
  403.000    3.687    0.267    0.484   89.678
  403.250    3.421    0.262    0.513   92.094
  403.500    3.358    0.264    0.552   93.315
  403.750    3.295    0.267    0.556   92.115
  404.000    3.174    0.263    0.535   97.550
  404.250    3.174    0.267    0.517  101.173
  404.500    3.057    0.267    0.522  102.989
  404.750    2.785    0.272    0.524  103.601
  405.000    2.683    0.279    0.526   96.983
  405.250    2.733    0.267    0.530   96.994
  405.500    2.836    0.261    0.555   99.416
  405.750    3.112    0.265    0.584  100.026
  406.000    3.545    0.268    0.568   99.434
  406.250    4.270    0.264    0.519   97.035
  406.500    5.048    0.260    0.487   91.624
  406.750    5.644    0.260    0.469   85.006
  407.000    6.310    0.275    0.462   77.787
  407.250    6.672    0.281    0.457   72.979
  407.500    7.054    0.288    0.456   72.988
  407.750    7.185    0.293    0.450   76.614
  408.000    6.921    0.298    0.430   74.815
  408.250    6.074    0.286    0.425   73.621
  408.500    5.431    0.277    0.422   75.441
  408.750    5.743    0.269    0.420   77.259
  409.000    7.047    0.284    0.429   77.868
  409.250    9.316    0.288    0.438   77.882
  409.500   11.646    0.266    0.453   77.285
  409.750   15.113    0.066    0.228   59.826
  410.000   16.896    0.013    0.182   50.801
  410.250   15.976   -0.032    0.159   47.195
  410.500   14.827   -0.003    0.180   55.038
  410.750   10.216    0.236    0.311   66.493
  411.000    8.169    0.258    0.381   76.142
  411.250    5.734    0.268    0.406   80.367
  411.500    4.500    0.265    0.412   83.993
  411.750    4.024    0.256    0.412   84.003
  412.000    3.949    0.248    0.446   84.013
  412.250    4.757    0.240    0.466   86.432
  412.500    5.029    0.238    0.449   88.249
  412.750    5.418    0.228    0.458   87.659
  413.000    5.727    0.224    0.474   86.466
  413.250    5.834    0.221    0.468   85.874
  413.500    5.415    0.221    0.466   85.879
  413.750    5.216    0.229    0.464   86.493
  414.000    4.932    0.250    0.487   87.104
  414.250    4.663    0.258    0.501   88.321
  414.500    4.577    0.246    0.499   86.522
  414.750    4.327    0.237    0.495   84.122
  415.000    4.169    0.222    0.493   87.144
  415.250    3.797    0.251    0.480   90.771
  415.500    3.459    0.253    0.462   90.781
  415.750    3.271    0.238    0.454   89.589
  416.000    3.093    0.230    0.468   88.993
  416.250    2.924    0.217    0.475   91.413
  416.500    2.924    0.222    0.496   95.040
  416.750    2.978    0.226    0.533   96.854
  417.000    3.034    0.220    0.528   98.671
  417.250    3.268    0.225    0.518   97.480
  417.500    3.329    0.231    0.496   96.883
  417.750    3.455    0.226    0.473   98.097
  418.000    3.390    0.220    0.496   99.916
  418.250    3.327    0.213    0.516  100.529
  418.500    3.265    0.226    0.537   99.334
  418.750    3.205    0.239    0.553   98.142
  419.000    3.204    0.242    0.538   96.341
  419.250    3.325    0.250    0.529   94.544
  419.500    3.582    0.271    0.521   94.555
  419.750    4.004    0.295    0.500   91.551
  420.000    4.313    0.281    0.477   87.346
  420.250    4.646    0.271    0.460   85.551
  420.500    4.733    0.266    0.441   84.956
  420.750    4.821    0.263    0.465   84.362
  421.000    4.731    0.255    0.482   84.375
  421.250    4.473    0.250    0.478   85.588
  421.500    4.390    0.248    0.465   87.407
  421.750    4.390    0.254    0.488   88.019
  422.000    4.472    0.264    0.485   86.824
  422.250    4.727    0.283    0.468   83.220
  422.500    4.816    0.293    0.462   78.410
  422.750    5.285    0.285    0.468   76.616
  423.000    6.248    0.284    0.472   75.417
  423.250    7.525    0.310    0.457   66.993
  423.500    8.571    0.284    0.305   55.560
  423.750   10.324    0.033    0.164   50.150
  424.000   10.915   -0.033    0.140   47.748
  424.250   10.515    0.006    0.193   55.592
  424.500    7.952    0.035    0.289   62.831
  424.750    6.478    0.136    0.379   68.262
  425.000    5.377    0.312    0.421   72.485
  425.250    4.898    0.317    0.428   71.894
  425.500    4.631    0.314    0.426   70.700
  425.750    4.630    0.313    0.429   71.310
  426.000    4.716    0.313    0.434   71.322
  426.250    4.804    0.309    0.438   70.730
  426.500    4.894    0.305    0.442   68.932
  426.750    4.985    0.299    0.445   67.736
  427.000    5.173    0.292    0.446   66.542
  427.250    5.173    0.276    0.450   74.986
  427.500    5.269    0.270    0.463   79.212
  427.750    5.268    0.264    0.474   83.440
  428.000    5.268    0.280    0.462   85.260
  428.250    5.267    0.284    0.446   85.267
  428.500    5.266    0.264    0.421   86.484
  428.750    5.265    0.256    0.414   88.300
  429.000    5.363    0.248    0.437   88.911
  429.250    5.463    0.242    0.438   85.310
  429.500    5.565    0.238    0.398   81.102
  429.750    5.668    0.257    0.393   78.097
  430.000    5.668    0.275    0.408   73.288
  430.250    5.667    0.283    0.414   72.094
  430.500    5.358    0.279    0.401   73.915
  430.750    4.881    0.279    0.392   75.730
  431.000    4.447    0.293    0.406   78.148
  431.250    3.760    0.299    0.445   81.170
  431.500    3.362    0.291    0.495   82.989
  431.750    2.951    0.282    0.528   82.394
  432.000    2.790    0.271    0.493   82.407
  432.250    2.542    0.259    0.471   86.032
  432.500    2.403    0.271    0.522   89.054
  432.750    2.315    0.279    0.550   90.871
  433.000    2.230    0.286    0.541   92.085
  433.250    2.271    0.283    0.537   92.094
  433.500    2.271    0.271    0.553   89.697
  433.750    2.271    0.267    0.538   87.900
  434.000    2.313    0.275    0.536   87.304
  434.250    2.356    0.290    0.572   90.328
  434.500    2.400    0.298    0.594   89.134
  434.750    2.445    0.295    0.590   88.543
  435.000    2.491    0.287    0.563   89.756
  435.250    2.584    0.274    0.545   90.970
  435.500    2.584    0.266    0.555   92.184
  435.750    2.584    0.263    0.535   92.796
  436.000    2.583    0.259    0.529   93.410
  436.250    2.835    0.255    0.534   92.214
  436.500    3.054    0.260    0.519   89.814
  436.750    3.289    0.274    0.510   86.209
  437.000    3.610    0.282    0.492   83.811
  437.250    3.961    0.288    0.469   82.014
  437.500    4.512    0.291    0.439   74.193
  437.750    4.860    0.293    0.430   66.371
  438.000    5.234    0.289    0.423   61.561
  438.250    5.535    0.284    0.402   59.163
  438.500    5.744    0.244    0.378   55.557
  438.750    6.187    0.225    0.365   51.957
  439.000    6.917    0.215    0.404   51.966
  439.250    7.046    0.252    0.425   53.181
  439.500    7.590    0.318    0.444   53.791
  439.750    7.877    0.342    0.415   55.007
  440.000    8.484    0.341    0.411   56.825
  440.250    8.805    0.329    0.412   58.642
  440.500    9.484    0.322    0.433   58.649
  440.750    9.843    0.322    0.442   56.250
  441.000   10.601    0.324    0.445   57.465
  441.250   11.002    0.324    0.444   59.283
  441.500   11.418    0.330    0.440   57.487
  441.750   11.850    0.337    0.434   54.484
  442.000   13.003    0.335    0.428   55.702
  442.250   13.495    0.334    0.429   57.516
  442.500   14.268    0.334    0.433   57.525
  442.750   14.534    0.334    0.438   56.933
  443.000   15.082    0.325    0.436   55.739
  443.250   15.079    0.310    0.426   55.749
  443.500   15.361    0.307    0.424   56.360
  443.750   14.798    0.313    0.437   58.178
  444.000   13.733    0.321    0.459   58.791
  444.250   13.731    0.323    0.481   56.391
  444.500   14.516    0.329    0.454   57.605
  444.750   15.065    0.330    0.441   58.824
  445.000   15.634    0.322    0.462   59.432
  445.250   15.926    0.318    0.478   59.446
