~VERSION INFORMATION
 VERS.                 2.0:   CWLS LOG ASCII STANDARD -VERSION 2.0
 WRAP.                  NO:   ONE LINE PER DEPTH STEP
~WELL INFORMATION BLOCK
#MNEM.UNIT           DATA                    DESCRIPTION OF MNEMONIC
#---------    -------------------            -------------------------------
# Generated from Intellog Unique Number	CS_71_72/WELL/819
WELL.         AMOCO AEC IPIATIK              : Well_name    - WELL
LOC .         00/07-28-072-04W4/0            : Location     - LOCATION
UWI .         00/07-28-072-04W4/0            : Uwi          - UNIQUE WELL ID
ENTR.         SP                             : Entered      - ENTERED BY
SRVC.         SCHLUMBERGER                   : Scn          - SERVICE COMPANY
STRT.M        315                            : top_depth    - START DEPTH
STOP.M        510                            : bot_depth    - STOP DEPTH
STEP.M        0.25                           : increment    - STEP LENGTH
 NULL. -999.2500:NULL Value
~CURVE INFORMATION BLOCK
#MNEM UNIT       ERCB CURVE CODE    CURVE DESCRIPTION
#-----------   ------------------   ----------------------------------
DEPT.M        00 001 00 00         : DEPTH        - DEPTH
ILD .OHMM     00 120 00 00         : RESD         - DEEP RESISTIVITY (DIL)
DPHI.V/V      00 890 00 00         : PHID         - DENSITY POROSITY (LIMESTONE)
NPHI.V/V      00 330 00 00         : PHIN         - NEUTRON POROSITY (LIMESTONE)
GR  .API      00 310 00 00         : GR           - GAMMA RAY
~PARAMETER INFORMATION
#MNEM.UNIT           DATA             DESCRIPTION OF MNEMONIC
#---------         -----------     ------------------------------
GL  .M        697.26               : gl           - GROUND LEVEL ELEVATION
EREF.M        701.51               : kb           - ELEVATION OF DEPTH REFERENCE
DATM.M        697.26               : datum        - DATUM ELEVATION
TDD .M        529.8                : tdd          - TOTAL DEPTH DRILLER
RUN .         ONE                  : Run          - RUN NUMBER
ENG .         BILL                 : Engineer     - RECORDING ENGINEER
WIT .         JIM                  : Witness      - WITNESSED BY
MUD .         GEL                  : Mud_type     - MUD TYPE
MATR.         LIMESTONE            : Logunit      - NEUTRON MATRIX
TMAX.C        21                   : BHT          - MAXIMUM RECORDED TEMPERATURE
BHTD.M        529.8                : BHTDEP       - MAXIMUM RECORDED TEMPERATURE
MATR.         1                    : LOGUNIT      - NEUTRON MATRIX
RMT .C        25                   : MDTP         - TEMPERATURE OF MUD
NEUT.         1                    : NEUTRON      - NEUTRON TYPE
RESI.         0                    : RESIST       - RESISTIVITY TYPE
RMC .OHMM     0.25                 : RMC          - RESISTIVITY OF MUD CAKE
RMF .OHMM     0.25                 : RMF          - RESISTIVITY OF MUD FILTRATE
SUFT.C        15                   : SUFT         - SURFACE TEMPERATURE
~A  DEPTH     RESD     PHID     PHIN       GR
# ...
  445.500    4.803    0.294    0.498   65.801
  445.750    4.805    0.292    0.505   67.025
  446.000    4.810    0.275    0.509   69.463
  446.250    4.813    0.256    0.486   70.689
  446.500    4.816    0.249    0.470   70.693
  446.750    4.819    0.244    0.466   70.701
  447.000    4.824    0.239    0.464   73.749
  447.250    4.827    0.240    0.454   74.970
  447.500    4.920    0.223    0.481   75.588
  447.750    5.017    0.211    0.499   74.987
  448.000    5.209    0.226    0.510   73.782
  448.250    6.045    0.230    0.511   71.361
  448.500    6.886    0.222    0.513   68.332
  448.750    7.845    0.198    0.471   62.269
  449.000    7.567    0.183    0.423   55.599
  449.250    6.775    0.134    0.303   54.391
  449.500    5.847    0.067    0.280   59.865
  449.750    5.433    0.066    0.373   65.340
  450.000    5.051    0.196    0.434   69.602
  450.250    4.870    0.236    0.467   70.822
  450.500    4.784    0.253    0.496   72.655
  450.750    4.788    0.250    0.484   74.485
  451.000    4.703    0.244    0.472   76.922
  451.250    4.705    0.248    0.464   78.754
  451.500    4.623    0.231    0.471   77.544
  451.750    4.459    0.216    0.472   72.087
  452.000    4.381    0.256    0.466   65.415
  452.250    4.304    0.274    0.461   67.854
  452.500    4.228    0.268    0.458   69.683
  452.750    4.231    0.271    0.455   69.692
  453.000    4.156    0.276    0.453   73.348
  453.250    4.082    0.258    0.472   74.570
  453.500    4.010    0.234    0.478   73.969
  453.750    3.797    0.217    0.496   72.762
  454.000    3.660    0.212    0.505   69.737
  454.250    3.278    0.252    0.499   67.921
  454.500    3.046    0.274    0.488   67.323
  454.750    2.778    0.270    0.482   69.158
  455.000    2.489    0.263    0.474   70.987
  455.250    2.356    0.269    0.469   73.425
  455.500    2.272    0.269    0.496   75.253
  455.750    2.232    0.257    0.518   76.476
  456.000    2.192    0.248    0.531   75.269
  456.250    2.194    0.266    0.547   74.063
  456.500    2.278    0.261    0.561   77.718
  456.750    2.501    0.254    0.549   80.156
  457.000    2.746    0.243    0.547   81.377
  457.250    3.071    0.232    0.549   80.173
  457.500    3.372    0.244    0.553   82.002
  457.750    3.771    0.258    0.541   82.616
  458.000    4.064    0.255    0.502   81.412
  458.250    4.142    0.232    0.487   80.811
  458.500    4.301    0.213    0.468   79.000
  458.750    4.551    0.222    0.481   75.974
  459.000    4.814    0.239    0.480   74.764
  459.250    5.188    0.224    0.478   71.736
  459.500    5.804    0.213    0.492   67.495
  459.750    6.253    0.259    0.481   60.823
  460.000    6.865    0.285    0.459   56.580
  460.250    7.677    0.305    0.436   55.981
  460.500    8.430    0.308    0.420   55.994
  460.750    8.752    0.288    0.444   56.000
  461.000    9.432    0.280    0.449   56.012
  461.250   10.168    0.282    0.439   56.018
  461.500   10.174    0.288    0.442   56.024
  461.750   10.373    0.283    0.439   56.038
  462.000   10.189    0.263    0.438   56.653
  462.250   10.008    0.261    0.442   57.266
  462.500    9.303    0.268    0.446   59.096
  462.750    8.969    0.271    0.454   60.924
  463.000    8.337    0.291    0.469   64.577
  463.250    8.188    0.283    0.476   65.196
  463.500    8.044    0.267    0.466   64.594
  463.750    8.669    0.257    0.458   63.394
  464.000    9.693    0.250    0.452   62.793
  464.250   12.118    0.245    0.458   62.192
  464.500   13.303    0.239    0.460   60.379
  464.750   13.309    0.210    0.407   57.351
  465.000   11.486    0.101    0.263   55.537
  465.250    7.507    0.049    0.241   54.940
  465.500    5.284    0.034    0.238   54.945
  465.750    3.584    0.016    0.258   60.422
  466.000    2.058    0.125    0.285   66.504
  466.250    1.272    0.158    0.372   72.587
  466.500    0.772    0.182    0.412   75.021
  466.750    0.575    0.195    0.438   78.066
  467.000    0.505    0.211    0.471   79.896
  467.250    0.444    0.223    0.482   84.160
  467.500    0.390    0.225    0.496   85.379
  467.750    0.369    0.223    0.511   85.998
  468.000    0.337    0.219    0.507   86.004
  468.250    0.319    0.216    0.501   87.835
  468.500    0.377    0.210    0.516   89.061
  468.750    0.611    0.207    0.504   89.065
  469.000    0.750    0.204    0.513   86.040
  469.250    0.990    0.217    0.518   85.443
  469.500    1.409    0.227    0.525   86.057
  469.750    1.666    0.217    0.528   87.281
  470.000    2.083    0.212    0.527   88.504
  470.250    2.286    0.201    0.525   89.117
  470.500    2.557    0.191    0.522   89.734
  470.750    2.704    0.199    0.517   89.135
  471.000    2.915    0.223    0.522   87.928
  471.250    3.083    0.223    0.540   86.118
  471.500    3.202    0.216    0.545   84.908
  471.750    3.451    0.209    0.524   84.310
  472.000    3.860    0.220    0.518   85.536
  472.250    4.083    0.219    0.502   86.153
  472.500    4.567    0.201    0.503   85.550
  472.750    5.012    0.194    0.502   83.131
  473.000    6.382    0.201    0.482   80.709
  473.250    7.138    0.182    0.467   78.288
  473.500    7.691    0.201    0.449   76.475
  473.750    8.444    0.207    0.411   73.447
  474.000    8.768    0.224    0.376   72.241
  474.250    9.107    0.232    0.369   74.685
  474.500    9.457    0.233    0.385   76.516
  474.750    9.642    0.225    0.393   78.345
  475.000    9.828    0.218    0.404   78.958
  475.250   10.020    0.209    0.411   79.573
  475.500    9.846    0.204    0.415   80.187
  475.750    9.854    0.235    0.402   80.197
  476.000    9.858    0.226    0.386   78.989
  476.250   10.050    0.199    0.371   72.926
  476.500   10.247    0.180    0.364   69.897
  476.750   10.253    0.196    0.375   72.944
  477.000   10.451    0.199    0.382   75.384
  477.250   10.854    0.199    0.388   75.996
  477.500   11.271    0.199    0.393   76.612
  477.750   12.148    0.191    0.403   76.013
  478.000   12.850    0.184    0.421   72.985
  478.250   14.373    0.170    0.429   68.742
  478.500   15.491    0.211    0.418   62.681
  478.750   16.385    0.236    0.400   59.650
  479.000   17.016    0.228    0.407   56.621
  479.250   17.672    0.222    0.411   45.699
  479.500   18.014    0.255    0.392   41.456
  479.750   18.028    0.266    0.393   39.035
  480.000   17.714    0.250    0.401   40.259
  480.250   17.398    0.136    0.382   41.485
  480.500   16.471    0.116    0.344   40.276
  480.750   15.592    0.123    0.347   34.211
  481.000   15.037    0.179    0.375   39.689
  481.250   15.048    0.246    0.392   42.731
  481.500   14.781    0.263    0.404   45.169
  481.750   14.519    0.252    0.433   43.355
  482.000   12.767    0.270    0.450   39.723
  482.250   11.430    0.267    0.412   42.765
  482.500    9.864    0.227    0.397   51.276
  482.750    8.671    0.204    0.394   61.002
  483.000    7.623    0.177    0.397   68.297
  483.250    6.826    0.168    0.408   87.740
  483.500    6.226    0.177    0.424   92.607
  483.750    5.786    0.176    0.434   96.264
  484.000    5.477    0.182    0.436   98.093
  484.250    5.184    0.192    0.442  100.528
  484.500    5.189    0.197    0.471  103.577
  484.750    5.193    0.193    0.490  104.188
  485.000    5.294    0.182    0.474  105.411
  485.250    5.297    0.169    0.476  106.029
  485.500    5.204    0.165    0.486  106.036
  485.750    5.112    0.160    0.489  106.047
  486.000    5.509    0.158    0.473  105.449
  486.250    6.161    0.154    0.458  104.239
  486.500    7.700    0.158    0.461   94.531
  486.750    9.624    0.175    0.465   80.572
  487.000   11.378    0.183    0.444   75.114
  487.250   12.724    0.207    0.414   72.087
  487.500   13.216    0.229    0.400   70.881
  487.750   13.473    0.234    0.387   72.106
  488.000   13.481    0.234    0.403   72.113
  488.250   13.492    0.234    0.404   71.517
  488.500   13.253    0.247    0.398   70.311
  488.750   13.262    0.253    0.408   69.710
