~VERSION INFORMATION
 VERS.                 2.0:   CWLS LOG ASCII STANDARD -VERSION 2.0
 WRAP.                  NO:   ONE LINE PER DEPTH STEP
~WELL INFORMATION BLOCK
#MNEM.UNIT           DATA                    DESCRIPTION OF MNEMONIC
#---------    -------------------            -------------------------------
# Generated from Intellog Unique Number	CC_80_83/WELL/2321
NULL.         -999.25                        : NULL_VALUE
WELL.         NOVALTA GARSON                 : Well_name    - WELL
LOC .         09-13-083-02W4                 : Location     - LOCATION          
UWI .         00/09-13-083-02W400            : Uwi          - UNIQUE WELL ID    
ENTR.         DW                             : Entered      - ENTERED BY        
SRVC.         COMPUTALOG                     : Scn          - SERVICE COMPANY   
DATE.         01 FEB 83                      : Date         - LOG DATE
STRT.M        90                             : top_depth    - START DEPTH       
STOP.M        335.098                        : bot_depth    - STOP DEPTH        
STEP.M        0.3                            : increment    - STEP LENGTH       
~CURVE INFORMATION BLOCK
#MNEM UNIT       ERCB CURVE CODE    CURVE DESCRIPTION
#-----------   ------------------   ----------------------------------
DEPT.M        00 001 00 00         : DEPTH        - DEPTH                       
DPHI.V/V      00 890 00 00         : PHID         - DENSITY POROSITY (LIMESTONE)
NPHI.V/V      00 330 00 00         : PHIN         - NEUTRON POROSITY (LIMESTONE)
GR  .API      00 310 00 00         : GR           - GAMMA RAY                   
ILD .OHMM     00 120 00 00         : RESD         - DEEP RESISTIVITY (DIL)      
~PARAMETER INFORMATION       
#MNEM.UNIT           DATA             DESCRIPTION OF MNEMONIC
#---------         -----------     ------------------------------
GL  .M        477.66               : gl           - GROUND LEVEL ELEVATION      
EREF.M        480.66               : kb           - ELEVATION OF DEPTH REFERENCE
DATM.M        480.66               : datum        - DATUM ELEVATION             
TDD .M        340                  : tdd          - TOTAL DEPTH DRILLER         
RUN .         ONE                  : Run          - RUN NUMBER                  
ENG .         BILL                 : Engineer     - RECORDING ENGINEER          
WIT .         JIM                  : Witness      - WITNESSED BY                
MUD .         GEL                  : Mud_type     - MUD TYPE                    
MATR.         LIMESTONE            : Logunit      - NEUTRON MATRIX              
TMAX.C        22                   : BHT          - MAXIMUM RECORDED TEMPERATURE
BHTD.M        340                  : BHTDEP       - MAXIMUM RECORDED TEMPERATURE
MATR.         1                    : LOGUNIT      - NEUTRON MATRIX              
RMT .C        25                   : MDTP         - TEMPERATURE OF MUD          
NEUT.         1                    : NEUTRON      - NEUTRON TYPE                
RESI.         0                    : RESIST       - RESISTIVITY TYPE            
RMC .OHMM     0.25                 : RMC          - RESISTIVITY OF MUD CAKE     
RMF .OHMM     0.25                 : RMF          - RESISTIVITY OF MUD FILTRATE 
SUFT.C        15                   : SUFT         - SURFACE TEMPERATURE         
~A  DEPTH     PHID     PHIN       GR     RESD
   90.000    0.336    0.365   49.995   42.229
   90.300    0.343    0.356   38.267   43.058
   90.600    0.341    0.361   34.562   43.077
   90.900    0.332    0.354   43.820   42.311
   91.200    0.303    0.351   57.398   41.554
   91.500    0.297    0.355   66.038   40.058
   91.800    0.329    0.375   68.506   37.201
   92.100    0.360    0.403   61.098   35.863
   92.400    0.376    0.411   60.480   35.215
   92.700    0.377    0.416   64.799   33.947
   93.000    0.386    0.445   69.736   32.723
   93.300    0.572    0.499   67.266   29.821
   93.600    0.528    0.429   61.711   25.694
   93.900    0.339    0.371   66.030   22.558
   94.200    0.323    0.381   67.881   22.572
   94.500    0.324    0.383   68.497   26.239
   94.800    0.333    0.393   66.027   28.300
   95.100    0.319    0.395   55.533   28.852
   95.400    0.312    0.407   48.126   27.816
   95.700    0.312    0.400   77.134   27.839
   96.000    0.328    0.366   70.344   27.852
   96.300    0.346    0.367   65.405   27.872
   96.600    0.328    0.360   62.935   28.426
   96.900    0.372    0.377   69.724   28.992
   97.200    0.395    0.404   66.637   29.005
   97.500    0.386    0.523   61.698   28.495
   97.800    0.345    0.600   65.400   28.506
   98.100    0.312    0.403   74.658   28.000
   98.400    0.309    0.404   74.656   27.501
   98.700    0.315    0.414   71.569   26.510
   99.000    0.322    0.236   72.186   26.529
   99.300    0.325    0.239   74.653   27.052
   99.600    0.291    0.323   72.801   26.569
   99.900    0.277    0.377   69.097   25.135
  100.200    0.298    0.408   71.564   24.230
  100.500    0.276    0.380   72.181   23.802
  100.800    0.301    0.355   68.476   24.268
  101.100    0.351    0.365   68.475   25.211
  101.400    0.404    0.401   72.178   26.681
  101.700    0.408    0.387   68.474   27.726
  102.000    0.429    0.348   64.152   26.229
  102.300    0.465    0.369   61.682   25.281
  102.600    0.468    0.398   57.361   27.265
  102.900    0.423    0.404   54.274   31.109
  103.200    0.315    0.386   57.976   32.322
  103.500    0.312    0.359   59.827   33.578
  103.800    0.315    0.369   55.505   36.888
  104.100    0.340    0.377   53.652   39.785
  104.400    0.346    0.380   52.417   42.117
  104.700    0.334    0.382   51.181   42.956
  105.000    0.317    0.376   51.180   43.786
  105.300    0.320    0.350   53.648   44.643
  105.600    0.333    0.375   52.413   45.529
  105.900    0.343    0.396   46.240   44.716
  106.200    0.357    0.362   40.684   43.104
  106.500    0.365    0.371   40.683   38.553
  106.800    0.357    0.380   61.050   32.598
  107.100    0.265    0.382   77.714   25.578
  107.400    0.241    0.385   82.651   21.228
  107.700    0.250    0.381   85.736   17.294
  108.000    0.262    0.381   83.884   16.057
  108.300    0.252    0.370   78.328   15.478
  108.600    0.237    0.380   83.264   14.921
  108.900    0.240    0.398   85.732   14.659
  109.200    0.244    0.408   85.114   14.942
  109.500    0.262    0.414   80.793   15.819
  109.800    0.300    0.417   72.768   17.381
  110.100    0.292    0.340   65.977   19.462
  110.400    0.292    0.330   57.335   20.601
  110.700    0.294    0.336   62.889   21.400
  111.000    0.293    0.341   72.147   21.822
  111.300    0.287    0.346   75.232   22.669
  111.600    0.317    0.391   73.996   23.994
  111.900    0.360    0.425   54.244   28.955
  112.200    0.331    0.344   36.961   34.939
  112.500    0.313    0.346   35.726   39.856
  112.800    0.335    0.373   36.959   44.623
  113.100    0.344    0.362   36.958   46.367
  113.400    0.340    0.349   38.809   45.552
  113.700    0.351    0.344   42.511   45.570
  114.000    0.362    0.357   44.979   45.599
  114.300    0.366    0.368   46.830   47.378
  114.600    0.362    0.361   46.212   46.539
  114.900    0.360    0.359   39.421   45.717
  115.200    0.351    0.347   36.952   44.888
  115.500    0.333    0.347   38.185   43.272
  115.800    0.324    0.373   45.591   41.711
  116.100    0.326    0.387   53.614   41.748
  116.400    0.334    0.388   56.699   42.566
  116.700    0.338    0.368   46.205   43.400
  117.000    0.335    0.349   38.797   43.432
  117.300    0.342    0.345   55.461   41.864
  117.600    0.397    0.378   65.336   39.604
  117.900    0.417    0.414   69.038   34.128
  118.200    0.339    0.414   88.171   31.684
  118.500    0.300    0.403   94.960   25.810
  118.800    0.297    0.402   94.959   23.085
  119.100    0.325    0.401   83.848   23.540
  119.400    0.329    0.392   58.541   27.363
  119.700    0.324    0.412   54.219   30.066
  120.000    0.316    0.398   54.835   32.432
  120.300    0.310    0.386   56.686   32.460
  120.600    0.308    0.378   57.919   31.872
  120.900    0.325    0.412   57.918   29.598
  121.200    0.339    0.428   57.300   27.481
  121.500    0.328    0.420   57.916   25.521
  121.800    0.309    0.413   61.001   24.611
  122.100    0.309    0.418   61.618   24.625
  122.400    0.314    0.386   61.617   25.101
  122.700    0.319    0.386   60.999   26.577
  123.000    0.323    0.381   60.381   26.589
  123.300    0.331    0.375   60.379   27.628
  123.600    0.340    0.378   62.847   27.653
  123.900    0.339    0.389   75.191   27.155
  124.200    0.286    0.413   78.893   26.673
  124.500    0.272    0.439   73.954   25.703
  124.800    0.308    0.401   70.868   23.869
  125.100    0.315    0.399   80.125   22.584
  125.400    0.290    0.423   78.272   21.365
  125.700    0.282    0.420   75.802   20.594
  126.000    0.313    0.417   75.184   20.230
  126.300    0.321    0.414   71.480   21.413
  126.600    0.308    0.413   69.627   24.427
  126.900    0.279    0.410   68.392   26.845
  127.200    0.281    0.408   73.328   26.369
  127.500    0.278    0.408   75.796   24.027
  127.800    0.295    0.422   72.092   22.732
  128.100    0.295    0.418   61.598   25.456
  128.400    0.274    0.406   59.129   26.445
  128.700    0.256    0.418   67.769   25.491
  129.000    0.255    0.412   72.088   21.962
  129.300    0.261    0.409   77.025   19.642
  129.600    0.252    0.409   80.110   17.570
  129.900    0.235    0.415   80.726   15.715
  130.200    0.247    0.428   78.256   14.592
  130.500    0.300    0.427   74.552   14.603
  130.800    0.319    0.410   68.996   15.171
  131.100    0.321    0.399   64.058   17.306
  131.400    0.292    0.378   58.501   22.510
  131.700    0.309    0.397   57.266   26.158
  132.000    0.336    0.389   58.500   33.395
  132.300    0.335    0.391   64.054   36.021
  132.600    0.321    0.386   64.052   36.718
  132.900    0.325    0.384   61.583   36.077
  133.200    0.335    0.397   62.199   35.424
  133.500    0.345    0.399   64.049   32.291
  133.800    0.345    0.405   64.049   31.120
  134.100    0.341    0.410   63.431   28.907
  134.400    0.357    0.399   62.812   27.857
  134.700    0.358    0.410   60.343   27.882
  135.000    0.341    0.429   59.724   28.423
  135.300    0.350    0.436   61.575   30.089
  135.600    0.360    0.433   63.426   30.105
  135.900    0.351    0.393   64.659   29.572
  136.200    0.330    0.392   64.658   27.980
  136.500    0.325    0.397   68.360   26.968
  136.800    0.325    0.422   68.977   26.493
  137.100    0.325    0.446   67.124   26.507
  137.400    0.231    0.179   63.420   29.678
  137.700    0.000    0.146   54.160   39.323
  138.000    0.000    0.151   45.519   56.150
  138.300    0.000    0.164   46.135   64.070
  138.600    0.031    0.184   52.923   61.751
  138.900    0.164    0.250   58.477   51.252
  139.201    0.278    0.335   60.945   35.939
  139.501    0.334    0.418   64.647   27.683
  139.801    0.353    0.405   66.498   25.699
  140.101    0.393    0.420   67.732   24.779
  140.401    0.399    0.440   64.027   25.745
  140.701    0.372    0.434   64.026   26.744
  141.001    0.352    0.407   65.877   27.264
  141.301    0.336    0.396   67.111   27.801
  141.601    0.327    0.387   66.492   26.805
  141.901    0.334    0.398   62.171   25.833
