~VERSION INFORMATION
 VERS.                 2.0:   CWLS LOG ASCII STANDARD -VERSION 2.0
 WRAP.                  NO:   ONE LINE PER DEPTH STEP
~WELL INFORMATION BLOCK
#MNEM.UNIT           DATA                    DESCRIPTION OF MNEMONIC
#---------    -------------------            -------------------------------
# Generated from Intellog Unique Number	CS_69_70/WELL/905
NULL.         -999.25                        : NULL_VALUE
WELL.         HUSKY OIL OPERATIONS LTD.      : Well_name    - WELL              
LOC .         00/09-35-070-06W4/0            : Location     - LOCATION          
UWI .         00/09-35-070-06W4/0            : Uwi          - UNIQUE WELL ID    
ENTR.         SP                             : Entered      - ENTERED BY        
SRVC.         SCHLUMBERGER                   : Scn          - SERVICE COMPANY   
STRT.M        310                            : top_depth    - START DEPTH       
STOP.M        560                            : bot_depth    - STOP DEPTH        
STEP.M        0.25                           : increment    - STEP LENGTH       
~CURVE INFORMATION BLOCK
#MNEM UNIT       ERCB CURVE CODE    CURVE DESCRIPTION
#-----------   ------------------   ----------------------------------
DEPT.M        00 001 00 00         : DEPTH        - DEPTH                       
ILD .OHMM     00 120 00 00         : RESD         - DEEP RESISTIVITY (DIL)      
DPHI.V/V      00 890 00 00         : PHID         - DENSITY POROSITY (LIMESTONE)
NPHI.V/V      00 330 00 00         : PHIN         - NEUTRON POROSITY (LIMESTONE)
GR  .API      00 310 00 00         : GR           - GAMMA RAY                   
~PARAMETER INFORMATION       
#MNEM.UNIT           DATA             DESCRIPTION OF MNEMONIC
#---------         -----------     ------------------------------
GL  .M        664.6                : gl           - GROUND LEVEL ELEVATION      
EREF.M        668.7                : kb           - ELEVATION OF DEPTH REFERENCE
DATM.M        664.6                : datum        - DATUM ELEVATION             
TDD .M        566                  : tdd          - TOTAL DEPTH DRILLER         
RUN .         ONE                  : Run          - RUN NUMBER                  
ENG .         BILL                 : Engineer     - RECORDING ENGINEER          
WIT .         JIM                  : Witness      - WITNESSED BY                
MUD .         GEL                  : Mud_type     - MUD TYPE                    
MATR.         LIMESTONE            : Logunit      - NEUTRON MATRIX              
TMAX.C        25                   : BHT          - MAXIMUM RECORDED TEMPERATURE
BHTD.M        566                  : BHTDEP       - MAXIMUM RECORDED TEMPERATURE
MATR.         1                    : LOGUNIT      - NEUTRON MATRIX              
RMT .C        25                   : MDTP         - TEMPERATURE OF MUD          
NEUT.         1                    : NEUTRON      - NEUTRON TYPE                
RESI.         0                    : RESIST       - RESISTIVITY TYPE            
RMC .OHMM     0.25                 : RMC          - RESISTIVITY OF MUD CAKE     
RMF .OHMM     0.25                 : RMF          - RESISTIVITY OF MUD FILTRATE 
SUFT.C        15                   : SUFT         - SURFACE TEMPERATURE         
~A  DEPTH     RESD     PHID     PHIN       GR
# ...
  527.500    3.955    0.229    0.426   72.019
  527.750    3.773    0.265    0.387   61.293
  528.000    3.547    0.291    0.372   57.691
  528.250    3.384    0.303    0.367   64.898
  528.500    3.283    0.309    0.369   89.620
  528.750    3.246    0.312    0.378   95.258
  529.000    3.227    0.294    0.396   87.308
  529.250    3.220    0.281    0.370   65.288
  529.500    3.219    0.283    0.358   63.378
  529.750    3.260    0.274    0.370   65.573
  530.000    3.352    0.290    0.369   67.950
  530.250    3.446    0.298    0.355   73.710
  530.500    3.590    0.273    0.359   78.742
  530.750    3.677    0.241    0.368   68.558
  531.000    3.588    0.266    0.380   55.175
  531.250    3.436    0.285    0.402   46.682
  531.500    3.291    0.304    0.388   38.613
  531.750    3.140    0.323    0.374   34.892
  532.000    3.046    0.327    0.365   38.414
  532.250    2.972    0.312    0.369   43.146
  532.500    2.955    0.304    0.383   48.905
  532.750    2.954    0.313    0.393   45.001
  533.000    2.975    0.328    0.388   37.178
  533.250    2.963    0.339    0.378   35.805
  533.500    2.979    0.337    0.384   39.336
  533.750    3.001    0.327    0.391   39.653
  534.000    3.068    0.326    0.366   45.232
  534.250    3.226    0.302    0.358   68.200
  534.500    3.443    0.258    0.411   91.954
  534.750    3.997    0.228    0.411   96.324
  535.000    4.684    0.195    0.374   95.562
  535.250    5.220    0.187    0.359   80.606
  535.500    5.729    0.117    0.312   68.672
  535.750    5.946    0.069    0.283   60.240
  536.000    5.748    0.040    0.320   59.900
  536.250    5.433    0.160    0.352   62.034
  536.500    5.040    0.206    0.347   59.702
  536.750    4.529    0.247    0.340   55.377
  537.000    4.170    0.265    0.336   51.776
  537.250    3.876    0.290    0.348   48.534
  537.500    3.576    0.302    0.360   43.002
  537.750    3.292    0.315    0.372   34.931
  538.000    3.060    0.329    0.385   25.896
  538.250    2.914    0.346    0.374   21.448
  538.500    2.838    0.354    0.343   59.453
  538.750    2.956    0.333    0.334   68.110
  539.000    3.203    0.206    0.366   66.926
  539.250    3.387    0.239    0.398   44.059
  539.500    3.424    0.307    0.395   28.442
  539.750    3.273    0.342    0.379   22.062
  540.000    3.070    0.353    0.371   26.130
  540.250    2.891    0.351    0.371   29.655
  540.500    2.800    0.350    0.377   35.895
  540.750    2.773    0.341    0.374   43.889
  541.000    2.857    0.314    0.363   54.055
  541.250    3.077    0.293    0.355   70.865
  541.500    3.346    0.269    0.365   77.589
  541.750    3.447    0.252    0.377   68.010
  542.000    3.632    0.266    0.376   58.250
  542.250    3.776    0.276    0.355   58.875
  542.500    3.940    0.254    0.345   61.493
  542.750    3.896    0.235    0.386   54.753
  543.000    3.801    0.282    0.415   42.033
  543.250    3.606    0.339    0.382   34.930
  543.500    3.434    0.351    0.375   40.265
  543.750    3.295    0.330    0.441   46.928
  544.000    3.144    0.325    0.410   42.843
  544.250    3.005    0.341    0.371   36.223
  544.500    2.959    0.318    0.355   44.399
  544.750    2.975    0.298    0.362   54.564
  545.000    3.064    0.268    0.363   70.105
  545.250    3.193    0.248    0.369   82.144
  545.500    3.389    0.238    0.386   86.394
  545.750    3.658    0.235    0.410   84.664
  546.000    4.000    0.240    0.391   77.501
  546.250    4.237    0.227    0.370   80.907
  546.500    4.660    0.207    0.350   81.589
  546.750    5.048    0.185    0.334   72.371
  547.000    5.279    0.169    0.363   64.543
  547.250    5.488    0.212    0.406   61.485
  547.500    5.063    0.256    0.406   38.018
  547.750    4.262    0.297    0.345   28.498
  548.000    3.745    0.264    0.327   66.382
  548.250    3.455    0.234    0.367   83.433
  548.500    3.539    0.217    0.392   89.614
  548.750    3.693    0.203    0.410   89.938
  549.000    3.797    0.220    0.424   66.831
  549.250    3.616    0.264    0.390   46.140
  549.500    3.348    0.296    0.358   31.791
  549.750    3.077    0.309    0.364   36.945
  550.000    2.958    0.296    0.375   54.721
  550.250    3.030    0.299    0.367   79.199
  550.500    3.092    0.214    0.388   94.559
  550.750    3.282    0.182    0.410   88.119
  551.000    3.483    0.197    0.435   71.173
  551.250    3.561    0.253    0.438   53.442
  551.500    3.580    0.295    0.408   38.729
  551.750    3.500    0.325    0.383   40.320
  552.000    3.352    0.296    0.418   50.185
  552.250    3.210    0.286    0.408   44.411
  552.500    3.062    0.321    0.363   39.963
  552.750    2.999    0.320    0.362   49.288
  553.000    3.124    0.277    0.373   56.977
  553.250    3.236    0.276    0.388   53.496
  553.500    3.181    0.293    0.402   40.293
  553.750    2.940    0.315    0.415   30.170
  554.000    2.682    0.332    0.390   22.160
  554.250    2.516    0.357    0.371   16.988
  554.500    2.401    0.350    0.368   17.251
  554.750    2.321    0.343    0.368   21.380
  555.000    2.311    0.341    0.361   27.984
  555.250    2.453    0.329    0.366   46.001
  555.500    2.633    0.303    0.375   51.579
  555.750    2.743    0.289    0.384   48.822
  556.000    2.863    0.313    0.385   39.483
  556.250    3.016    0.298    0.320   29.482
  556.500    3.601    0.004    0.209   31.436
  556.750    4.983   -0.012    0.192   36.414
  557.000    8.520   -0.018    0.185   40.299
  557.250   12.448   -0.017    0.184   43.458
  557.500   16.381   -0.014    0.186   43.360
  557.750   19.269   -0.009    0.188   42.535
  558.000   21.230   -0.002    0.193   44.007
  558.250   22.449    0.004    0.195   45.175
  558.500   23.297    0.011    0.197   44.110
  558.750   24.133    0.015    0.201   42.565
  559.000   25.091    0.016    0.208   42.043
  559.250   25.944    0.015    0.211   42.245
  559.500   27.327    0.012    0.207   42.509
  559.750   27.785    0.008    0.202   43.206
  560.000   28.145    0.008    0.200   43.457
