~VERSION INFORMATION
 VERS.                 2.0:   CWLS LOG ASCII STANDARD -VERSION 2.0
 WRAP.                  NO:   ONE LINE PER DEPTH STEP
~WELL INFORMATION BLOCK
#MNEM.UNIT           DATA                    DESCRIPTION OF MNEMONIC
#---------    -------------------            -------------------------------
# Generated from Intellog Unique Number	CW_76_78/WELL/3097
WELL.         04-30-078-23W4                 : Well_name    - WELL
LOC .         00/04-30-078-23W4/0            : Location     - LOCATION
UWI .         00/04-30-078-23W4/0            : Uwi          - UNIQUE WELL ID
ENTR.         MAX                            : Entered      - ENTERED BY
SRVC.         SCHLUMBERGER                   : Scn          - SERVICE COMPANY
DATE.         4 MAR 84                       : Date         - LOG DATE
STRT.M        270                            : top_depth    - START DEPTH
STOP.M        520                            : bot_depth    - STOP DEPTH
STEP.M        0.25                           : increment    - STEP LENGTH
 NULL. -999.2500:NULL Value
~CURVE INFORMATION BLOCK
#MNEM UNIT       ERCB CURVE CODE    CURVE DESCRIPTION
#-----------   ------------------   ----------------------------------
DEPT.M        00 001 00 00         : DEPTH        - DEPTH
GR  .API      00 310 00 00         : GR           - GAMMA RAY
ILD .OHMM     00 120 00 00         : RESD         - DEEP RESISTIVITY (DIL)
NPHI.V/V      00 330 00 00         : PHIN         - NEUTRON POROSITY (SANDSTONE)
DPHI.V/V      00 890 00 00         : PHID         - DENSITY POROSITY (SANDSTONE)
~PARAMETER INFORMATION
#MNEM.UNIT           DATA             DESCRIPTION OF MNEMONIC
#---------         -----------     ------------------------------
GL  .M        587.9                : gl           - GROUND LEVEL ELEVATION
EREF.M        591.6                : kb           - ELEVATION OF DEPTH REFERENCE
DATM.M        587.9                : datum        - DATUM ELEVATION
TDD .M        525                  : tdd          - TOTAL DEPTH DRILLER
RUN .         ONE                  : Run          - RUN NUMBER
MUD .         GEL CHEM             : Mud_type     - MUD TYPE
MATR.         SANDSTONE            : Logunit      - NEUTRON MATRIX
TMAX.C        11                   : BHT          - MAXIMUM RECORDED TEMPERATURE
BHTD.M        524                  : BHTDEP       - MAXIMUM RECORDED TEMPERATURE
RMT .C        11                   : MDTP         - TEMPERATURE OF MUD
MUDD.KG/M     1130                 : MWT          - MUD DENSITY
NEUT.         1                    : NEUTRON      - NEUTRON TYPE
RESI.         0                    : RESIST       - RESISTIVITY TYPE
RM  .OHMM     9                    : RM           - RESISTIVITY OF MUD
RMC .OHMM     13.8                 : RMC          - RESISTIVITY OF MUD CAKE
RMF .OHMM     13.8                 : RMF          - RESISTIVITY OF MUD FILTRATE
SUFT.C        4                    : SUFT         - SURFACE TEMPERATURE
~A  DEPTH       GR     RESD     PHIN     PHID
  270.000  102.437    4.577    0.393    0.179
  270.250  104.288    4.418    0.426    0.196
  270.500  104.919    4.185    0.466    0.218
  270.750  103.117    3.966    0.486    0.247
  271.000  101.909    3.625    0.487    0.265
  271.250   98.882    3.434    0.486    0.266
  271.500   96.465    3.197    0.485    0.258
  271.750   95.883    2.975    0.489    0.248
  272.000   96.514    2.768    0.496    0.245
  272.250   96.530    2.623    0.506    0.239
  272.500   96.563    2.398    0.518    0.237
  272.750   95.365    2.313    0.529    0.240
  273.000   94.167    2.359    0.540    0.247
  273.250   92.360    3.224    0.554    0.254
  273.500   90.553    3.737    0.555    0.265
  273.750   88.141    4.415    0.544    0.267
  274.000   86.328    4.933    0.528    0.264
  274.250   83.307    5.931    0.444    0.270
  274.500   80.275    6.753    0.427    0.269
  274.750   77.243    7.829    0.431    0.261
  275.000   73.612   11.727    0.437    0.250
  275.250   70.580   13.850    0.433    0.242
  275.500   65.725   15.478    0.420    0.251
  275.750   62.698   16.978    0.424    0.271
  276.000   60.891   18.297    0.440    0.283
  276.250   62.132   19.719    0.448    0.292
  276.500   63.982   20.474    0.443    0.297
  276.750   64.619   22.071    0.439    0.308
  277.000   62.202   22.493    0.443    0.314
  277.250   59.175   23.793    0.448    0.312
  277.500   56.149   25.649    0.433    0.310
  277.750   54.342   27.123    0.420    0.306
  278.000   53.753   28.161    0.424    0.309
  278.250   54.989   29.798    0.431    0.312
  278.500   56.840   30.387    0.440    0.318
  278.750   55.647   29.864    0.442    0.321
  279.000   55.059   28.311    0.453    0.316
  279.250   58.135   27.336    0.477    0.307
  279.500   58.766   26.873    0.476    0.306
  279.750   57.568   30.023    0.448    0.308
  280.000   56.370   33.562    0.440    0.309
  280.250   58.216   34.236    0.438    0.311
  280.500   57.628   34.890    0.441    0.311
  280.750   56.430   35.579    0.443    0.310
  281.000   57.671   34.977    0.433    0.306
  281.250   58.308   32.547    0.443    0.302
  281.500   58.944   28.667    0.465    0.293
  281.750   58.966   28.712    0.467    0.281
  282.000   59.586   32.670    0.437    0.257
  282.250   59.608   37.883    0.376    0.217
  282.500   59.630   37.242    0.349    0.221
  282.750   57.213   36.612    0.332    0.244
  283.000   55.405   35.329    0.354    0.283
  283.250   55.432   32.278    0.380    0.310
  283.500   56.064   27.407    0.430    0.319
  283.750   57.305   18.347    0.435    0.321
  284.000   60.990   15.862    0.435    0.316
  284.250   62.225   12.984    0.436    0.309
  284.500   64.685   10.628    0.442    0.301
  284.750   64.707    9.024    0.445    0.292
  285.000   61.691   14.282    0.447    0.292
  285.250   61.092   17.815    0.447    0.295
  285.500   59.900   23.483    0.446    0.297
  285.750   59.307   26.729    0.431    0.302
  286.000   58.719   30.441    0.420    0.303
  286.250   58.131   31.023    0.451    0.307
  286.500   57.548   31.646    0.427    0.315
  286.750   57.570   30.546    0.421    0.317
  287.000   58.201   28.424    0.420    0.310
  287.250   58.838   26.449    0.427    0.308
  287.500   58.859   24.604    0.429    0.308
  287.750   58.876   22.479    0.434    0.309
  288.000   60.122   20.538    0.440    0.310
  288.250   61.363   18.424    0.440    0.311
  288.500   61.994   15.081    0.438    0.309
  288.750   60.791   11.901    0.437    0.309
  289.000   57.770   10.292    0.439    0.315
  289.250   60.840    8.900    0.441    0.320
  289.500   63.904    8.132    0.446    0.305
  289.750   63.931    7.430    0.429    0.296
  290.000   64.562    7.302    0.431    0.284
  290.250   66.413    6.920    0.439    0.270
  290.500   70.098    6.443    0.450    0.261
  290.750   73.783    6.104    0.456    0.253
  291.000   75.623    5.577    0.457    0.247
  291.250   76.864    5.094    0.457    0.249
  291.500   76.885    4.828    0.456    0.252
  291.750   76.297    4.748    0.456    0.253
  292.000   75.105    5.022    0.456    0.254
  292.250   73.298    5.612    0.457    0.255
  292.500   70.271    6.388    0.466    0.263
  292.750   67.849    6.757    0.471    0.269
  293.000   64.218    7.152    0.464    0.267
  293.250   61.801    7.423    0.460    0.260
  293.500   58.774    8.764    0.460    0.253
  293.750   58.796   10.936    0.455    0.243
  294.000   63.689   11.785    0.428    0.239
  294.250   78.353   12.018    0.348    0.239
  294.500   79.589   11.815    0.336    0.238
  294.750   80.220   11.829    0.344    0.233
  295.000   80.857   11.418    0.358    0.224
  295.250   83.317   10.622    0.371    0.213
  295.500   83.339   11.239    0.382    0.224
  295.750   80.922   11.458    0.390    0.240
  296.000   82.772   11.904    0.395    0.244
  296.250   86.446   11.702    0.392    0.240
  296.500   90.741   11.501    0.385    0.231
  296.750   91.987   10.899    0.388    0.226
  297.000   92.608   10.330    0.393    0.225
  297.250   91.410    9.612    0.402    0.225
  297.500   86.555    7.725    0.413    0.224
  297.750   82.918    6.560    0.420    0.222
  298.000   78.068    5.995    0.427    0.228
  298.250   75.651    6.698    0.426    0.246
  298.500   75.673    8.202    0.425    0.261
  298.750   80.572    7.774    0.426    0.268
  299.000   89.128    5.599    0.426    0.240
  299.250  100.733    5.403    0.418    0.234
  299.500  107.461    4.588    0.405    0.204
  299.750  112.970    3.687    0.412    0.203
  300.000  116.050    4.197    0.493    0.216
  300.250  116.676    4.051    0.513    0.208
  300.500  116.698    3.702    0.500    0.196
  300.750  116.725    3.444    0.484    0.186
  301.000  116.747    3.089    0.494    0.195
  301.250  114.330    3.328    0.508    0.209
  301.500  110.078    3.930    0.517    0.230
  301.750  104.003    6.455    0.517    0.236
  302.000   97.934    6.581    0.419    0.235
  302.250   99.784    7.090    0.420    0.234
  302.500  102.239    7.364    0.417    0.232
  302.750  104.090    7.380    0.413    0.232
  303.000  104.112    7.248    0.408    0.237
  303.250  104.133    6.996    0.408    0.244
  303.500   98.064    6.878    0.411    0.253
  303.750   94.427    7.275    0.418    0.263
  304.000   92.005    8.130    0.426    0.276
  304.250   85.930    9.428    0.431    0.276
  304.500   80.465   10.536    0.411    0.275
  304.750   76.219   12.214    0.411    0.275
  305.000   71.978   15.803    0.422    0.282
  305.250   68.947   22.836    0.436    0.288
  305.500   65.310   20.857    0.442    0.291
  305.750   62.899   16.160    0.432    0.294
  306.000   62.920   10.615    0.431    0.302
  306.250   64.771    9.699    0.437    0.291
  306.500   67.841   17.777    0.439    0.277
  306.750   67.247   23.000    0.449    0.279
  307.000   64.830   28.169    0.470    0.293
  307.250   61.194   27.701    0.441    0.300
  307.500   59.996   26.730    0.413    0.307
  307.750   60.029   24.429    0.413    0.315
  308.000   60.050   24.008    0.412    0.323
  308.250   59.462   24.046    0.407    0.326
  308.500   58.874   24.068    0.401    0.324
  308.750   58.901   24.098    0.407    0.318
  309.000   60.137   23.691    0.415    0.308
  309.250   61.988   23.297    0.427    0.299
  309.500   62.619   22.494    0.440    0.300
  309.750   63.256   22.515    0.451    0.307
  310.000   63.882   21.739    0.449    0.312
  310.250   64.507   20.984    0.448    0.320
  310.500   65.139   21.017    0.447    0.325
  310.750   63.946   20.648    0.446    0.319
  311.000   62.139   20.674    0.445    0.313
  311.250   60.947   20.700    0.447    0.313
  311.500   62.182   20.726    0.448    0.314
  311.750   62.814   20.752    0.444    0.318
  312.000   62.226   20.784    0.429    0.320
  312.250   61.638   20.803    0.426    0.322
  312.500   62.884   20.458    0.427    0.320
  312.750   64.120   20.483    0.430    0.317
  313.000   64.756   20.515    0.433    0.319
  313.250   64.778   20.908    0.434    0.322
