~VERSION INFORMATION
 VERS.                 2.0:   CWLS LOG ASCII STANDARD -VERSION 2.0
 WRAP.                  NO:   ONE LINE PER DEPTH STEP
~WELL INFORMATION BLOCK
#MNEM.UNIT           DATA                    DESCRIPTION OF MNEMONIC
#---------    -------------------            -------------------------------
# Generated from Intellog Unique Number	CW_82_90/WELL/3067
WELL.         PARAMOUNT ET AL LIVOCK         : Well_name    - WELL
LOC .         00/07-29-086-21W4/0            : Location     - LOCATION
UWI .         00/07-29-086-21W4/0            : Uwi          - UNIQUE WELL ID
ENTR.         MAX                            : Entered      - ENTERED BY
SRVC.         COMPUTALOG                     : Scn          - SERVICE COMPANY
STRT.M        188.976                        : top_depth    - START DEPTH
STOP.M        368.726                        : bot_depth    - STOP DEPTH
STEP.M        0.25                           : increment    - STEP LENGTH
 NULL. -999.2500:NULL Value
~CURVE INFORMATION BLOCK
#MNEM UNIT       ERCB CURVE CODE    CURVE DESCRIPTION
#-----------   ------------------   ----------------------------------
DEPT.M        00 001 00 00         : DEPTH        - DEPTH
ILD .OHMM     00 120 00 00         : RESD         - DEEP RESISTIVITY (DIL)
NPHI.V/V      00 330 00 00         : PHIN         - NEUTRON POROSITY (SANDSTONE)
DPHI.V/V      00 890 00 00         : PHID         - DENSITY POROSITY (SANDSTONE)
CALI.MM       00 280 01 00         : CAL          - CALIPER
GR  .API      00 310 00 00         : GR           - GAMMA RAY
~PARAMETER INFORMATION
#MNEM.UNIT           DATA             DESCRIPTION OF MNEMONIC
#---------         -----------     ------------------------------
GL  .M        575.158              : gl           - GROUND LEVEL ELEVATION
EREF.M        578.206              : kb           - ELEVATION OF DEPTH REFERENCE
DATM.M        575.158              : datum        - DATUM ELEVATION
TDD .M        370.637              : tdd          - TOTAL DEPTH DRILLER
RUN .         ONE                  : Run          - RUN NUMBER
ENG .         BILL                 : Engineer     - RECORDING ENGINEER
WIT .         JIM                  : Witness      - WITNESSED BY
MUD .         GEL                  : Mud_type     - MUD TYPE
MATR.         SANDSTONE            : Logunit      - NEUTRON MATRIX
TMAX.C        16.6667              : BHT          - MAXIMUM RECORDED TEMPERATURE
BHTD.M        370.637              : BHTDEP       - MAXIMUM RECORDED TEMPERATURE
MATR.         1                    : LOGUNIT      - NEUTRON MATRIX
RMT .C        11.1111              : MDTP         - TEMPERATURE OF MUD
NEUT.         1                    : NEUTRON      - NEUTRON TYPE
RESI.         0                    : RESIST       - RESISTIVITY TYPE
RMC .OHMM     1.9                  : RMC          - RESISTIVITY OF MUD CAKE
RMF .OHMM     1.6                  : RMF          - RESISTIVITY OF MUD FILTRATE
SUFT.C        -26.1111             : SUFT         - SURFACE TEMPERATURE
~A  DEPTH     RESD     PHIN     PHID      CAL       GR
# ...
  298.476   13.385    0.358    0.191  157.726   91.218
  298.726   13.429    0.352    0.202  157.290   96.197
  298.976   13.552    0.339    0.207  156.847  103.503
  299.226   13.638    0.333    0.191  156.417  102.085
  299.476   13.680    0.326    0.175  156.476  101.248
  299.726   13.725    0.331    0.184  156.522  103.603
  299.976   13.653    0.366    0.201  156.580  108.578
  300.226   13.540    0.371    0.204  156.626  108.905
  300.476   13.390    0.359    0.201  156.196  104.570
  300.726   13.356    0.352    0.208  156.235   99.953
  300.976   13.321    0.349    0.212  156.301   98.240
  301.226   13.289    0.345    0.207  156.346  102.056
  301.476   13.294    0.344    0.202  156.900   98.013
  301.726   13.298    0.342    0.193  156.946   89.902
  301.976   13.265    0.336    0.194  157.011   91.395
  302.226   13.231    0.330    0.194  157.064   91.431
  302.476   13.080    0.356    0.191  157.617   91.168
  302.726   12.930    0.368    0.173  158.165   90.618
  302.976   12.896    0.365    0.144  158.217   91.231
  303.226   12.861    0.350    0.104  158.263   97.370
  303.476   12.907    0.341    0.175  158.335  104.385
  303.726   13.069    0.342    0.207  158.380  104.126
  303.976   13.309    0.331    0.201  158.928   96.019
  304.226   13.431    0.333    0.193  158.993   96.633
  304.476   13.320    0.337    0.183  159.032   98.700
  304.726   13.207    0.342    0.187  159.084   99.314
  304.976   12.981    0.331    0.192  159.027   96.642
  305.226   13.341    0.327    0.188  159.125  101.717
  305.476   13.699    0.306    0.173  158.719  100.879
  305.726   14.176    0.302    0.170  158.807   93.842
  305.976   14.652    0.303    0.208  158.905   90.339
  306.226   15.168    0.302    0.217  159.003   88.035
  306.476   15.644    0.289    0.210  159.090   91.031
  306.726   15.572    0.277    0.206  160.173   95.220
  306.976   15.658    0.274    0.185  160.249   89.950
  307.226   15.897    0.271    0.172  160.358   95.321
  307.476   16.649    0.262    0.167  160.927  102.465
  307.726   16.969    0.238    0.154  161.036   97.195
  307.976   16.662    0.272    0.145  160.138   89.863
  308.226   16.235    0.279    0.115  159.733   93.751
  308.476   15.810    0.314    0.141  159.820  101.781
  308.726   15.188    0.329    0.183  161.406  109.220
  308.976   14.567    0.288    0.211  160.005  110.153
  309.226   14.495    0.268    0.206  159.107  103.111
  309.476   14.580    0.275    0.201  159.227   98.728
  309.726   14.781    0.303    0.196  159.293  103.212
  309.976   15.062    0.309    0.196  159.391   94.988
  310.226   15.421    0.293    0.183  158.985   94.451
  310.476   15.152    0.283    0.170  159.587   94.209
  310.726   14.021    0.289    0.138  159.674   92.189
  310.976   12.340    0.304    0.112  159.772   90.753
  311.226   10.856    0.327    0.199  160.341   95.533
  311.476    9.921    0.347    0.200  162.890  109.471
  311.726    9.025    0.395    0.195  168.426  116.910
  311.976    8.248    0.404    0.196  168.994  114.600
  312.226    8.174    0.406    0.192  170.066  116.716
  312.476    8.495    0.413    0.189  171.652  116.480
  312.726    8.971    0.415    0.194  172.724  117.112
  312.976    9.801    0.368    0.203  171.323  114.501
  313.226   10.787    0.347    0.195  169.955  108.050
  313.476   12.087    0.319    0.180  164.615   98.349
  313.726   14.132    0.292    0.163  160.271   89.238
  313.976   15.981    0.266    0.144  158.400   76.879
  314.226   16.145    0.260    0.165  157.994   79.886
  314.476   15.209    0.280    0.213  157.600   82.888
  314.726   14.666    0.292    0.226  157.206   87.077
  314.976   14.594    0.308    0.210  158.278   92.147
  315.226   14.560    0.316    0.188  158.868   94.865
  315.476   14.488    0.325    0.178  159.940   93.731
  315.726   14.219    0.328    0.170  162.489   93.790
  315.976   13.717    0.336    0.189  163.069   95.303
  316.226   13.408    0.344    0.183  162.182  100.674
  316.476   12.982    0.346    0.177  162.280  103.688
  316.726   12.674    0.344    0.169  162.378  103.741
  316.976   12.485    0.344    0.168  161.469  104.084
  317.226   12.334    0.340    0.152  160.079  103.831
  317.476   12.183    0.332    0.126  159.696   98.561
  317.726   12.189    0.344    0.139  160.276   93.586
  317.976   12.195    0.353    0.188  161.851   97.480
  318.226   12.358    0.367    0.189  160.953  108.759
  318.476   12.442    0.353    0.184  158.578  109.995
  318.726   12.252    0.347    0.188  158.676  102.367
  318.976   12.101    0.352    0.181  160.241  104.181
  319.226   12.068    0.371    0.179  160.339  104.235
  319.476   11.956    0.358    0.190  160.415  113.446
  319.726   11.492    0.355    0.182  161.005  114.971
  319.976   11.107    0.362    0.177  160.130  115.024
  320.226   10.877    0.371    0.177  160.206  118.918
  320.476   10.647    0.367    0.181  160.293  125.170
  320.726   10.575    0.347    0.169  160.894  128.479
  320.976   10.895    0.328    0.162  161.474  134.730
  321.226   11.449    0.286    0.150  161.550  127.392
  321.476   12.318    0.256    0.135  160.674  125.667
  321.726   13.422    0.220    0.107  159.766  119.511
  321.976   14.565    0.200    0.057  158.879   95.920
  322.226   15.630    0.220    0.091  158.977  107.199
  322.476   16.617    0.253    0.157  159.064  119.075
  322.726   16.230    0.303    0.168  159.152  124.741
  322.976   15.021    0.298    0.172  159.742  121.244
  323.226   14.125    0.288    0.174  159.829  119.224
  323.476   14.288    0.271    0.172  159.424  117.203
  323.726   15.352    0.254    0.167  158.537  116.678
  323.976   17.397    0.212    0.160  158.143  116.714
  324.226   18.188    0.152    0.152  158.252  112.035
  324.476   19.723    0.037    0.140  157.332  101.447
  324.726   21.023    0.002    0.096  158.404   85.838
  324.976   21.971    0.002    0.056  158.513   78.494
  325.226   22.918    0.002    0.011  158.590   80.911
  325.476   22.688    0.004    0.029  158.688   91.008
  325.726   20.655    0.100    0.128  158.775   97.266
  325.976   18.387    0.208    0.150  158.873   99.387
  326.226   17.216    0.259    0.161  158.960  102.684
  326.476   17.261    0.253    0.170  158.587  108.652
  326.726   17.934    0.233    0.162  158.675  100.422
  326.976   18.606    0.216    0.154  158.751   98.697
  327.226   19.201    0.214    0.152  158.838   98.757
  327.476   19.404    0.193    0.147  158.936   96.730
  327.726   19.252    0.196    0.135  159.023   89.983
  327.976   18.513    0.226    0.129  157.644   87.963
  328.226   17.343    0.246    0.133  157.731   93.334
  328.476   16.408    0.264    0.143  157.818  100.182
  328.726   16.453    0.248    0.162  158.420  106.735
  328.976   17.635    0.223    0.158  159.010  104.124
  329.226   18.465    0.196    0.153  159.076   96.786
  329.476   18.824    0.162    0.145  159.184   90.925
  329.726   18.555    0.120    0.102  158.768   85.655
  329.976   17.227    0.147    0.077  158.385   84.226
  330.226   16.175    0.203    0.164  158.964   98.760
  330.476   14.926    0.287    0.160  160.529  100.285
  330.726   13.559    0.279    0.169  162.093  105.952
  330.976   12.507    0.308    0.181  164.161  112.800
  331.226   11.728    0.324    0.175  163.755  111.370
  331.476   10.754    0.342    0.174  163.853  110.248
  331.726    9.622    0.345    0.179  163.952  117.976
  331.976    8.413    0.344    0.193  164.028  123.052
  332.226    7.634    0.330    0.195  164.148  121.031
  332.476    7.327    0.336    0.195  163.732  120.494
  332.726    7.255    0.349    0.190  163.348  121.133
  332.976    7.458    0.362    0.191  161.947  117.346
  333.226    7.738    0.380    0.200  157.603  122.126
  333.476    8.096    0.351    0.194  162.122  123.650
  333.726    8.730    0.333    0.194  165.688  125.476
  333.976    9.402    0.307    0.189  165.261  126.700
  334.226   10.506    0.292    0.176  164.363  127.344
  334.476   11.375    0.285    0.182  166.934  105.525
  334.726   11.185    0.265    0.190  162.087   87.848
