~VERSION INFORMATION
 VERS.                 2.0:   CWLS LOG ASCII STANDARD -VERSION 2.0
 WRAP.                  NO:   ONE LINE PER DEPTH STEP
~WELL INFORMATION BLOCK
#MNEM.UNIT           DATA                    DESCRIPTION OF MNEMONIC
#---------    -------------------            -------------------------------
# Generated from Intellog Unique Number	CS_71_72/WELL/637
WELL.         AMOCO AEC IPIATIK              : Well_name    - WELL
LOC .         00/03-18-072-06W4/0            : Location     - LOCATION
UWI .         00/03-18-072-06W4/0            : Uwi          - UNIQUE WELL ID
ENTR.         SP                             : Entered      - ENTERED BY
SRVC.         SCHLUMBERGER                   : Scn          - SERVICE COMPANY
STRT.M        310                            : top_depth    - START DEPTH
STOP.M        535                            : bot_depth    - STOP DEPTH
STEP.M        0.25                           : increment    - STEP LENGTH
 NULL. -999.2500:NULL Value
~CURVE INFORMATION BLOCK
#MNEM UNIT       ERCB CURVE CODE    CURVE DESCRIPTION
#-----------   ------------------   ----------------------------------
DEPT.M        00 001 00 00         : DEPTH        - DEPTH
ILD .OHMM     00 120 00 00         : RESD         - DEEP RESISTIVITY (DIL)
DPHI.V/V      00 890 00 00         : PHID         - DENSITY POROSITY (LIMESTONE)
NPHI.V/V      00 330 00 00         : PHIN         - NEUTRON POROSITY (LIMESTONE)
GR  .API      00 310 00 00         : GR           - GAMMA RAY
~PARAMETER INFORMATION
#MNEM.UNIT           DATA             DESCRIPTION OF MNEMONIC
#---------         -----------     ------------------------------
GL  .M        684.4                : gl           - GROUND LEVEL ELEVATION
EREF.M        688.5                : kb           - ELEVATION OF DEPTH REFERENCE
DATM.M        684.4                : datum        - DATUM ELEVATION
TDD .M        550                  : tdd          - TOTAL DEPTH DRILLER
RUN .         ONE                  : Run          - RUN NUMBER
ENG .         BILL                 : Engineer     - RECORDING ENGINEER
WIT .         JIM                  : Witness      - WITNESSED BY
MUD .         GEL                  : Mud_type     - MUD TYPE
MATR.         LIMESTONE            : Logunit      - NEUTRON MATRIX
TMAX.C        19                   : BHT          - MAXIMUM RECORDED TEMPERATURE
BHTD.M        550                  : BHTDEP       - MAXIMUM RECORDED TEMPERATURE
MATR.         1                    : LOGUNIT      - NEUTRON MATRIX
RMT .C        25                   : MDTP         - TEMPERATURE OF MUD
NEUT.         1                    : NEUTRON      - NEUTRON TYPE
RESI.         0                    : RESIST       - RESISTIVITY TYPE
RMC .OHMM     0.25                 : RMC          - RESISTIVITY OF MUD CAKE
RMF .OHMM     0.25                 : RMF          - RESISTIVITY OF MUD FILTRATE
SUFT.C        15                   : SUFT         - SURFACE TEMPERATURE
~A  DEPTH     RESD     PHID     PHIN       GR
# ...
  484.000    8.847    0.213    0.384   76.212
  484.250    8.684    0.206    0.388   79.271
  484.500    8.684    0.226    0.405   82.946
  484.750    8.523    0.212    0.423   83.564
  485.000    8.366    0.205    0.431   83.590
  485.250    8.366    0.204    0.422   79.362
  485.500    8.366    0.219    0.417   78.773
  485.750    9.015    0.208    0.411   82.448
  486.000    9.897    0.185    0.406   83.677
  486.250   11.492    0.163    0.403   81.271
  486.500   16.082    0.147    0.402   69.146
  486.750   20.887    0.250    0.389   60.664
  487.000   24.709    0.265    0.381   54.008
  487.250   26.625    0.280    0.376   60.110
  487.500   23.364    0.285    0.381   62.557
  487.750   24.253    0.284    0.394   61.361
  488.000   25.177    0.267    0.385   60.778
  488.250   26.135    0.263    0.386   62.012
  488.500   28.163    0.286    0.408   63.864
  488.750   29.234    0.297    0.419   65.101
  489.000   29.786    0.298    0.426   66.336
  489.250   30.348    0.284    0.411   66.960
  489.500   30.920    0.274    0.398   66.381
  489.750   30.349    0.270    0.403   64.577
  490.000   28.696    0.263    0.395   59.748
  490.250   26.139    0.269    0.392   57.332
  490.500   23.370    0.288    0.404   61.609
  490.750   20.507    0.280    0.404   67.704
  491.000   19.391    0.260    0.398   71.978
  491.250   17.996    0.247    0.396   75.040
  491.500   18.335    0.237    0.414   73.843
  491.750   18.336    0.253    0.416   68.397
  492.000   18.681    0.273    0.408   62.962
  492.250   18.682    0.279    0.419   60.549
  492.500   18.337    0.283    0.430   63.006
  492.750   17.665    0.276    0.422   65.459
  493.000   16.394    0.272    0.418   66.079
  493.250   15.215    0.268    0.421   67.317
  493.500   14.386    0.261    0.417   70.385
  493.750   13.351    0.268    0.412   72.221
  494.000   12.391    0.263    0.403   76.502
  494.250   11.078    0.259    0.395   78.341
  494.500   10.281    0.248    0.403   81.405
  494.750    9.542    0.243    0.413   85.074
  495.000    8.531    0.234    0.419   86.906
  495.250    7.917    0.228    0.422   91.788
  495.500    7.627    0.213    0.410   97.885
  495.750    7.486    0.202    0.393  105.196
  496.000    7.348    0.193    0.387  108.860
  496.250    7.348    0.182    0.392  109.492
  496.500    7.486    0.177    0.388  106.472
  496.750    7.487    0.172    0.380  100.426
  497.000    7.772    0.185    0.371   97.411
  497.250    7.918    0.185    0.359   96.216
  497.500    8.068    0.179    0.370   98.060
  497.750    8.693    0.167    0.361   98.689
  498.000    9.194    0.166    0.344   88.391
  498.250    9.544    0.174    0.338   82.337
  498.500   10.478    0.178    0.331   75.684
  498.750   10.877    0.181    0.346   69.632
  499.000   11.083    0.215    0.366   64.185
  499.250   10.878    0.236    0.363   62.993
  499.500   10.479    0.226    0.357   73.344
  499.750    9.725    0.203    0.357   82.478
  500.000    9.196    0.171    0.362   88.570
  500.250    8.859    0.154    0.356   92.841
  500.500    9.026    0.143    0.361   91.650
  500.750    9.196    0.127    0.368   84.380
  501.000    9.546    0.148    0.364   72.264
  501.250    9.910    0.187    0.364   66.815
  501.500   10.481    0.218    0.384   62.585
  501.750   11.085    0.237    0.387   61.393
  502.000   11.294    0.237    0.385   62.022
  502.250   11.507    0.232    0.380   65.087
  502.500   11.724    0.227    0.380   68.152
  502.750   11.508    0.219    0.396   69.379
  503.000   11.508    0.219    0.403   71.834
  503.250   11.086    0.225    0.388   73.681
  503.500   10.882    0.217    0.381   75.526
  503.750   10.680    0.186    0.378   76.151
  504.000   10.882    0.184    0.389   74.355
  504.250   11.726    0.198    0.404   72.546
  504.500   13.116    0.218    0.411   65.286
  504.750   14.133    0.228    0.410   57.411
  505.000   15.809    0.227    0.401   52.578
  505.250   16.411    0.241    0.390   53.815
  505.500   17.684    0.250    0.379   55.655
  505.750   18.017    0.259    0.397   56.282
  506.000   18.018    0.259    0.400   55.092
  506.250   18.018    0.243    0.403   58.152
  506.500   17.685    0.250    0.397   60.600
  506.750   17.358    0.247    0.379   64.278
  507.000   16.723    0.238    0.369   64.902
  507.250   15.812    0.216    0.359   65.525
  507.500   15.233    0.209    0.374   64.336
  507.750   14.951    0.202    0.387   59.505
  508.000   15.233    0.216    0.389   57.102
  508.250   16.415    0.218    0.382   56.510
  508.500   17.040    0.199    0.392   55.929
  508.750   17.688    0.200    0.393   55.945
  509.000   19.786    0.224    0.387   55.356
  509.250   21.320    0.226    0.386   50.525
  509.500   22.549    0.226    0.386   46.292
  509.750   26.182    0.250    0.398   41.463
  510.000   29.286    0.266    0.406   36.630
  510.250   35.963    0.275    0.416   34.820
  510.500   41.757    0.271    0.416   32.413
  510.750   47.587    0.280    0.412   30.620
  511.000   48.485    0.293    0.420   30.639
  511.250   45.845    0.304    0.417   33.705
  511.500   38.755    0.303    0.412   35.540
  511.750   30.977    0.293    0.411   39.213
  512.000   27.183    0.276    0.410   40.445
  512.250   23.853    0.263    0.408   41.078
  512.500   22.554    0.271    0.411   39.885
  512.750   20.932    0.282    0.411   39.299
  513.000   20.545    0.277    0.403   38.109
  513.250   20.546    0.272    0.394   37.516
  513.500   20.546    0.266    0.390   36.340
  513.750   20.166    0.275    0.384   35.751
  514.000   19.068    0.268    0.395   35.170
  514.250   17.048    0.265    0.398   35.189
  514.500   15.529    0.268    0.404   35.204
  514.750   12.183    0.282    0.410   35.842
  515.000    9.037    0.288    0.392   35.853
  515.250    6.703    0.285    0.370   35.882
  515.500    5.459    0.279    0.356   35.897
  515.750    4.446    0.283    0.365   35.328
  516.000    3.758    0.294    0.376   35.346
  516.250    3.423    0.309    0.387   34.752
  516.500    3.118    0.315    0.392   35.382
  516.750    2.894    0.319    0.396   37.229
  517.000    2.788    0.312    0.398   38.457
  517.250    2.736    0.303    0.395   40.911
  517.500    2.736    0.297    0.388   40.935
  517.750    2.737    0.302    0.383   41.568
  518.000    2.737    0.290    0.375   42.193
  518.250    2.686    0.277    0.371   42.213
  518.500    2.686    0.302    0.388   42.247
  518.750    2.636    0.309    0.390   42.267
  519.000    2.588    0.303    0.384   42.281
  519.250    2.588    0.303    0.382   41.696
  519.500    2.588    0.305    0.379   41.719
  519.750    2.588    0.315    0.390   42.354
  520.000    2.588    0.309    0.390   42.977
  520.250    2.540    0.288    0.386   44.828
  520.500    2.540    0.282    0.381   45.449
  520.750    2.447    0.295    0.380   45.471
  521.000    2.357    0.295    0.389   41.248
  521.250    2.314    0.294    0.390   35.800
  521.500    2.229    0.294    0.384   29.752
  521.750    2.229    0.295    0.386   29.770
  522.000    2.188    0.302    0.393   30.399
  522.250    2.188    0.307    0.396   33.460
  522.500    2.148    0.300    0.391   35.911
  522.750    2.108    0.299    0.380   36.541
  523.000    2.069    0.314    0.376   36.565
  523.250    2.108    0.323    0.373   35.370
  523.500    2.188    0.330    0.379   32.962
  523.750    2.230    0.335    0.380   31.167
  524.000    2.314    0.337    0.383   31.805
  524.250    2.358    0.323    0.386   31.822
  524.500    2.448    0.307    0.387   33.663
  524.750    2.448    0.301    0.395   35.507
  525.000    2.494    0.307    0.401   36.744
  525.250    2.494    0.316    0.404   34.941
  525.500    2.541    0.311    0.390   33.752
  525.750    2.541    0.309    0.406   34.986
  526.000    2.494    0.315    0.411   35.620
  526.250    2.448    0.322    0.398   33.818
  526.500    2.448    0.329    0.387   32.625
  526.750    2.448    0.337    0.397   33.859
  527.000    2.403    0.349    0.419   35.709
  527.250    2.403    0.357    0.444   33.303
