~VERSION INFORMATION
 VERS.                 2.0:   CWLS LOG ASCII STANDARD -VERSION 2.0
 WRAP.                  NO:   ONE LINE PER DEPTH STEP
~WELL INFORMATION BLOCK
#MNEM.UNIT           DATA                    DESCRIPTION OF MNEMONIC
#---------    -------------------            -------------------------------
# Generated from Intellog Unique Number	CW_70_72/WELL/3011
NULL.         -999.25                        : NULL_VALUE
WELL.         PEX CANAL 06-31                : Well_name    - WELL              
LOC .         06-31-070-23W4                 : Location     - LOCATION          
UWI .         00/06-31-070-23W4/0            : Uwi          - UNIQUE WELL ID    
ENTR.         jj                             : Entered      - ENTERED BY        
SRVC.         SCHLUMBERGER                   : Scn          - SERVICE COMPANY   
DATE.         13 MAR 83                      : Date         - LOG DATE          
STRT.M        405                            : top_depth    - START DEPTH       
STOP.M        610                            : bot_depth    - STOP DEPTH        
STEP.M        0.25                           : increment    - STEP LENGTH       
~CURVE INFORMATION BLOCK
#MNEM UNIT       ERCB CURVE CODE    CURVE DESCRIPTION
#-----------   ------------------   ----------------------------------
DEPT.M        00 001 00 00         : DEPTH        - DEPTH                       
ILD .OHMM     00 120 00 00         : RESD         - DEEP RESISTIVITY (DIL)      
CALI.MM       00 280 01 00         : CAL          - CALIPER                     
GR  .API      00 310 00 00         : GR           - GAMMA RAY                   
NPHI.V/V      00 330 00 00         : PHIN         - NEUTRON POROSITY (SANDSTONE)
DPHI.V/V      00 890 00 00         : PHID         - DENSITY POROSITY (SANDSTONE)
~PARAMETER INFORMATION       
#MNEM.UNIT           DATA             DESCRIPTION OF MNEMONIC
#---------         -----------     ------------------------------
GL  .M        627.8                : gl           - GROUND LEVEL ELEVATION      
EREF.M        631                  : kb           - ELEVATION OF DEPTH REFERENCE
DATM.M        627.8                : datum        - DATUM ELEVATION             
TDD .M        611                  : tdd          - TOTAL DEPTH DRILLER         
RUN .         ONE                  : Run          - RUN NUMBER                  
ENG .         BRADSHAW             : Engineer     - RECORDING ENGINEER          
WIT .         DENYAR               : Witness      - WITNESSED BY                
BASE.         EDM                  : Branch       - HOME BASE OF LOGGING UNIT   
MUD .         GEL CHEM             : Mud_type     - MUD TYPE                    
MATR.         SANDSTONE            : Logunit      - NEUTRON MATRIX              
TMAX.C        28.9                 : BHT          - MAXIMUM RECORDED TEMPERATURE
BHTD.M        612.1                : BHTDEP       - MAXIMUM RECORDED TEMPERATURE
RMT .C        26.1                 : MDTP         - TEMPERATURE OF MUD          
MUDD.KG/M     1130                 : MWT          - MUD DENSITY                 
NEUT.         1                    : NEUTRON      - NEUTRON TYPE                
RESI.         0                    : RESIST       - RESISTIVITY TYPE            
RM  .OHMM     4.08                 : RM           - RESISTIVITY OF MUD          
RMC .OHMM     0.25                 : RMC          - RESISTIVITY OF MUD CAKE     
RMF .OHMM     3.17                 : RMF          - RESISTIVITY OF MUD FILTRATE 
SUFT.C        0                    : SUFT         - SURFACE TEMPERATURE         
~A  DEPTH     RESD      CAL       GR     PHIN     PHID
# ...
  478.000    3.682  182.651   70.800    0.440    0.246
  478.250    3.389  183.897   65.640    0.407    0.266
  478.500    3.200  183.783   60.793    0.402    0.294
  478.750    2.973  181.783   58.587    0.400    0.319
  479.000    2.767  179.573   58.204    0.403    0.312
  479.250    2.657  178.096   59.078    0.407    0.308
  479.500    2.596  180.809   61.210    0.414    0.310
  479.750    2.608  182.792   63.089    0.420    0.316
  480.000    2.715  184.456   65.410    0.428    0.304
  480.250    2.885  184.762   68.169    0.439    0.284
  480.500    3.030  184.541   69.296    0.467    0.296
  480.750    3.178  184.112   70.547    0.467    0.297
  481.000    3.327  182.739   75.759    0.452    0.294
  481.250    3.430  182.940   78.896    0.433    0.292
  481.500    3.545  184.922   71.786    0.458    0.294
  481.750    3.615  183.340   65.871    0.449    0.302
  482.000    3.577  179.557   60.646    0.427    0.301
  482.250    3.373  178.501   57.370    0.434    0.278
  482.500    3.150  178.489   56.297    0.452    0.263
  482.750    2.975  178.793   55.349    0.456    0.281
  483.000    2.832  178.470   55.216    0.434    0.294
  483.250    2.745  178.147   56.782    0.449    0.292
  483.500    2.643  177.506   58.411    0.457    0.283
  483.750    2.596  176.973   58.405    0.416    0.286
  484.000    2.569  175.809   55.885    0.403    0.283
  484.250    2.543  175.066   54.746    0.420    0.280
  484.500    2.540  174.008   55.307    0.446    0.292
  484.750    2.528  174.419   59.135    0.470    0.289
  485.000    2.530  176.191   60.072    0.447    0.284
  485.250    2.552  179.534   57.615    0.431    0.289
  485.500    2.583  182.876   56.038    0.446    0.291
  485.750    2.619  184.751   53.768    0.429    0.279
  486.000    2.671  184.743   51.184    0.408    0.243
  486.250    2.795  184.419   50.109    0.424    0.209
  486.500    2.883  183.990   51.172    0.445    0.272
  486.750    2.780  183.980   53.367    0.446    0.296
  487.000    2.660  183.548   55.876    0.424    0.296
  487.250    2.580  183.433   57.944    0.408    0.290
  487.500    2.543  183.216   58.818    0.395    0.289
  487.750    2.584  183.099   58.561    0.400    0.293
  488.000    2.670  183.197   59.120    0.420    0.292
  488.250    2.758  183.395   59.994    0.421    0.279
  488.500    2.834  183.278   57.160    0.428    0.245
  488.750    2.847  183.479   55.142    0.438    0.263
  489.000    2.786  183.469   54.885    0.446    0.296
  489.250    2.732  183.251   56.388    0.443    0.295
  489.500    2.634  183.136   60.656    0.426    0.288
  489.750    2.564  183.334   67.817    0.456    0.266
  490.000    2.504  183.850   74.601    0.477    0.256
  490.250    2.483  183.838   65.919    0.448    0.270
  490.500    2.528  183.621   60.633    0.426    0.287
  490.750    2.587  182.876   66.410    0.429    0.287
  491.000    2.703  182.343   67.158    0.434    0.284
  491.250    2.840  182.332   67.090    0.426    0.271
  491.500    2.858  182.741   70.919    0.430    0.256
  491.750    2.777  184.826   79.463    0.444    0.233
  492.000    2.570  186.285   87.126    0.459    0.229
  492.250    2.382  187.741   92.024    0.475    0.236
  492.500    2.147  188.883   95.098    0.492    0.234
  492.750    2.063  188.665   95.343    0.508    0.227
  493.000    2.167  188.129   94.645    0.522    0.214
  493.250    2.391  187.281   90.238    0.537    0.210
  493.500    2.676  186.746   84.512    0.467    0.206
  493.750    3.008  186.214   79.729    0.447    0.200
  494.000    2.933  185.995   86.135    0.451    0.208
  494.250    2.870  186.613   93.861    0.472    0.214
  494.500    2.889  187.547   99.010    0.486    0.212
  494.750    3.035  190.053  102.336    0.461    0.206
  495.000    3.311  193.814  102.644    0.473    0.200
  495.250    3.597  194.852   93.398    0.515    0.214
  495.500    3.968  192.433   84.527    0.537    0.198
  495.750    4.192  188.125   79.807    0.434    0.171
  496.000    4.447  185.078   85.270    0.437    0.169
  496.250    4.543  181.819   87.967    0.430    0.184
  496.500    4.555  179.818   85.447    0.401    0.190
  496.750    4.500  179.494   80.726    0.395    0.189
  497.000    4.446  180.950   82.290    0.409    0.188
  497.250    4.425  185.341   83.856    0.443    0.186
  497.500    4.420  191.828   85.674    0.452    0.182
  497.750    4.407  192.864   88.057    0.426    0.178
  498.000    4.436  193.169   88.239    0.447    0.176
  498.250    4.440  193.998   85.090    0.456    0.175
  498.500    4.420  194.509   84.267    0.449    0.170
  498.750    4.390  195.027   86.965    0.427    0.164
  499.000    4.370  195.435   84.004    0.419    0.172
  499.250    4.317  195.740   83.117    0.421    0.180
  499.500    4.257  195.834   83.992    0.431    0.180
  499.750    4.253  195.928   86.941    0.445    0.187
  500.000    4.272  195.396   82.534    0.457    0.205
  500.250    4.348  190.147   75.425    0.472    0.264
  500.500    4.526  190.031   73.218    0.416    0.312
  500.750    4.667  191.384   78.430    0.435    0.237
  501.000    4.786  192.736   83.139    0.445    0.199
  501.250    4.773  192.937   80.744    0.424    0.192
  501.500    4.714  191.877   75.332    0.414    0.196
  501.750    4.623  190.087   74.005    0.420    0.186
  502.000    4.559  187.773   73.496    0.435    0.193
  502.250    4.479  185.352   73.930    0.446    0.210
  502.500    4.448  182.828   74.302    0.440    0.228
  502.750    4.428  180.092   76.811    0.422    0.240
  503.000    4.358  179.558   85.480    0.411    0.230
  503.250    4.305  181.436   87.297    0.410    0.212
  503.500    4.213  185.930   80.062    0.427    0.188
  503.750    4.154  185.398   71.946    0.443    0.196
  504.000    4.096  176.901   74.391    0.454    0.216
  504.250    4.062  176.786   78.724    0.436    0.229
  504.500    4.035  182.851   82.552    0.398    0.207
  504.750    4.008  187.348   84.621    0.384    0.195
  505.000    4.065  190.585   85.243    0.397    0.201
  505.250    4.115  192.148   83.917    0.411    0.194
  505.500    4.095  191.089   81.837    0.449    0.204
  505.750    3.733  188.356   78.625    0.426    0.216
  506.000    3.435  185.098   75.664    0.419    0.230
  506.250    3.131  183.725   72.326    0.458    0.242
  506.500    2.952  182.774   67.857    0.447    0.254
  506.750    2.927  182.658   65.651    0.428    0.258
  507.000    3.053  182.858   65.959    0.426    0.255
  507.250    3.220  183.476   68.342    0.444    0.256
  507.500    3.358  183.991   71.416    0.460    0.261
  507.750    3.444  184.505   74.490    0.454    0.248
  508.000    3.408  185.333   76.182    0.445    0.236
  508.250    3.317  186.476   81.708    0.449    0.230
  508.500    3.198  186.047   78.621    0.461    0.246
  508.750    3.095  183.415   70.758    0.467    0.264
  509.000    3.023  182.149   60.002    0.445    0.280
  509.250    3.083  180.567   64.459    0.443    0.269
  509.500    3.357  179.196   71.116    0.434    0.231
  509.750    3.668  178.453   73.437    0.417    0.222
  510.000    3.911  179.281   74.688    0.409    0.225
  510.250    4.282  182.833   74.808    0.411    0.231
  510.500    4.483  186.491   73.922    0.438    0.175
  510.750    5.000  187.842   71.590    0.354    0.132
  511.000    5.619  187.834   68.881    0.294    0.120
  511.250    5.388  187.404   68.372    0.315    0.163
  511.500    4.875  186.869   64.531    0.375    0.215
  511.750    4.545  186.649   67.983    0.377    0.223
  512.000    4.398  186.640   72.126    0.371    0.222
  512.250    4.337  186.631   74.508    0.383    0.219
  512.500    4.284  187.561   75.194    0.396    0.209
  512.750    4.248  188.180   77.389    0.403    0.200
  513.000    4.228  188.382   82.098    0.407    0.191
  513.250    4.240  189.209   79.892    0.413    0.202
  513.500    4.300  190.037   74.479    0.419    0.200
  513.750    4.312  190.969   70.890    0.428    0.191
  514.000    4.339  191.381   73.649    0.407    0.185
  514.250    4.368  192.209   74.586    0.398    0.179
