~VERSION INFORMATION
 VERS.                 2.0:   CWLS LOG ASCII STANDARD -VERSION 2.0
 WRAP.                  NO:   ONE LINE PER DEPTH STEP
~WELL INFORMATION BLOCK
#MNEM.UNIT           DATA                    DESCRIPTION OF MNEMONIC
#---------    -------------------            -------------------------------
# Generated from Intellog Unique Number	CW_70_72/WELL/694
NULL.         -999.25                        : NULL_VALUE
WELL.         MAXUS CALLING LAKE 06-23       : Well_name    - WELL              
LOC .         06-23-072-19W4                 : Location     - LOCATION          
UWI .         00/06-23-072-19W4/0            : Uwi          - UNIQUE WELL ID    
ENTR.         JAYE                           : Entered      - ENTERED BY        
SRVC.         WESTERN ATLAS                  : Scn          - SERVICE COMPANY   
DATE.         7 MAR 88                       : Date         - LOG DATE          
STRT.M        335                            : top_depth    - START DEPTH       
STOP.M        565                            : bot_depth    - STOP DEPTH        
STEP.M        0.25                           : increment    - STEP LENGTH       
~CURVE INFORMATION BLOCK
#MNEM UNIT       ERCB CURVE CODE    CURVE DESCRIPTION
#-----------   ------------------   ----------------------------------
DEPT.M        00 001 00 00         : DEPTH        - DEPTH                       
DPHI.V/V      00 890 00 00         : PHID         - DENSITY POROSITY (SANDSTONE)
NPHI.V/V      00 330 00 00         : PHIN         - NEUTRON POROSITY (SANDSTONE)
GR  .API      00 310 00 00         : GR           - GAMMA RAY                   
CALI.MM       00 280 01 00         : CAL          - CALIPER                     
ILD .OHMM     00 120 00 00         : RESD         - DEEP RESISTIVITY (DIL)      
~PARAMETER INFORMATION       
#MNEM.UNIT           DATA             DESCRIPTION OF MNEMONIC
#---------         -----------     ------------------------------
GL  .M        628.2                : gl           - GROUND LEVEL ELEVATION      
EREF.M        631.8                : kb           - ELEVATION OF DEPTH REFERENCE
DATM.M        628.2                : datum        - DATUM ELEVATION             
TDD .M        620                  : tdd          - TOTAL DEPTH DRILLER         
RUN .         ONE                  : Run          - RUN NUMBER                  
ENG .         RORMOWSKI            : Engineer     - RECORDING ENGINEER          
WIT .         HERRON               : Witness      - WITNESSED BY                
BASE.         SLAVE LAKE           : Branch       - HOME BASE OF LOGGING UNIT   
MUD .         GEL CHEM MUDD        : Mud_type     - MUD TYPE                    
MATR.         SANDSTONE            : Logunit      - NEUTRON MATRIX              
TMAX.C        25                   : BHT          - MAXIMUM RECORDED TEMPERATURE
BHTD.M        618.8                : BHTDEP       - MAXIMUM RECORDED TEMPERATURE
RMT .C        16                   : MDTP         - TEMPERATURE OF MUD          
MUDD.KG/M     1140                 : MWT          - MUD DENSITY                 
NEUT.         1                    : NEUTRON      - NEUTRON TYPE                
RESI.         0                    : RESIST       - RESISTIVITY TYPE            
RM  .OHMM     4.1                  : RM           - RESISTIVITY OF MUD          
RMC .OHMM     4.8                  : RMC          - RESISTIVITY OF MUD CAKE     
RMF .OHMM     3.5                  : RMF          - RESISTIVITY OF MUD FILTRATE 
SUFT.C        32                   : SUFT         - SURFACE TEMPERATURE         
~A  DEPTH     PHID     PHIN       GR      CAL     RESD
# ...
  481.000    0.201    0.405   97.241  184.454    4.171
  481.250    0.201    0.401   98.152  185.163    4.277
  481.500    0.193    0.403   99.793  185.467    4.494
  481.750    0.202    0.415   98.213  183.744    4.678
  482.000    0.208    0.424   96.025  180.705    4.745
  482.250    0.196    0.420  101.008  177.058    4.708
  482.500    0.178    0.396   98.455  176.754    4.379
  482.750    0.192    0.384   97.969  177.260    4.156
  483.000    0.189    0.384  101.372  177.969    4.178
  483.250    0.210    0.377  102.952  177.969    4.597
  483.500    0.206    0.356  106.052  174.322    5.394
  483.750    0.132    0.321  102.283  163.685    6.630
  484.000    0.079    0.290   83.868  160.646    8.177
  484.250    0.051    0.285   66.606  162.267    9.492
  484.500    0.065    0.267   56.821  165.001    9.542
  484.750    0.067    0.261   58.219  167.837    8.890
  485.000    0.134    0.273   63.871  170.370    8.424
  485.250    0.175    0.289   65.816  171.585    9.014
  485.500    0.141    0.274   62.169  172.496   11.059
  485.750    0.066    0.238   60.224  172.597   12.600
  486.000    0.044    0.250   60.710  171.078    9.963
  486.250    0.097    0.274   66.970  169.355    7.806
  486.500    0.141    0.313   72.926  168.545    6.719
  486.750    0.232    0.328   74.627  168.848    5.827
  487.000    0.205    0.336   78.395  170.469    5.118
  487.250    0.154    0.367   81.860  171.279    4.840
  487.500    0.135    0.381   85.992  171.278    4.786
  487.750    0.199    0.377   92.131  171.076    4.846
  488.000    0.193    0.374   90.368  171.075    4.888
  488.250    0.171    0.370   89.091  170.974    4.922
  488.500    0.185    0.371   89.638  170.973    5.002
  488.750    0.197    0.378   92.616  170.973    5.168
  489.000    0.193    0.389   95.108  171.581    5.321
  489.250    0.181    0.374   96.445  171.884    5.347
  489.500    0.177    0.385   90.853  172.087    5.367
  489.750    0.167    0.399   89.394  172.289    5.412
  490.000    0.153    0.393   92.129  172.390    5.450
  490.250    0.169    0.379   96.262  172.491    5.477
  490.500    0.174    0.374   96.201  172.896    5.537
  490.750    0.174    0.387   93.040  173.098    5.606
  491.000    0.168    0.393   90.791  173.098    5.644
  491.250    0.159    0.391   90.791  172.794    5.652
  491.500    0.157    0.394   92.736  171.375    5.536
  491.750    0.179    0.391   97.416  169.653    5.333
  492.000    0.174    0.382  103.676  167.120    5.194
  492.250    0.177    0.366  106.654  165.195    5.107
  492.500    0.183    0.369  105.316  163.574    5.142
  492.750    0.196    0.383  103.554  162.561    5.293
  493.000    0.208    0.414  101.062  162.459    5.551
  493.250    0.209    0.415   97.293  162.662    5.758
  493.500    0.206    0.388   92.005  162.965    5.808
  493.750    0.189    0.379   89.027  163.066    5.785
  494.000    0.174    0.377   89.513  163.269    5.697
  494.250    0.173    0.382   94.497  163.370    5.559
  494.500    0.179    0.370   92.187  163.471    5.346
  494.750    0.170    0.368   87.446  163.673    5.121
  495.000    0.150    0.379   90.303  163.673    4.702
  495.250    0.180    0.375   94.800  163.875    3.843
  495.500    0.205    0.379   91.579  164.077    3.136
  495.750    0.250    0.396   93.645  164.178    2.573
  496.000    0.282    0.488   99.115  164.178    2.248
  496.250    0.239    0.480  102.761  163.975    2.030
  496.500    0.253    0.467  104.767  163.975    1.874
  496.750    0.259    0.470  105.557  164.177    1.802
  497.000    0.260    0.474  103.855  164.683    1.815
  497.250    0.250    0.469  101.363  165.797    2.106
  497.500    0.229    0.448   97.898  167.621    2.593
  497.750    0.197    0.394   91.152  169.646    3.252
  498.000    0.173    0.369   84.587  171.064    3.917
  498.250    0.066    0.359   78.327  172.887    4.623
  498.500    0.056    0.341   73.890  174.508    5.316
  498.750    0.186    0.341   92.974  175.925    5.494
  499.000    0.199    0.388   98.262  176.938    5.129
  499.250    0.197    0.391   93.217  177.546    4.382
  499.500    0.192    0.396   92.123  177.950    4.106
  499.750    0.189    0.395   98.808  178.254    4.119
  500.000    0.200    0.382  104.035  178.558    4.449
  500.250    0.194    0.353  102.211  178.659    5.088
  500.500    0.176    0.333   89.691  178.962    5.486
  500.750    0.036    0.313   71.640  179.266    5.565
  501.000    0.017    0.337   71.579  179.367    5.321
  501.250    0.195    0.366   80.574  179.063    4.940
  501.500    0.217    0.376   86.105  178.961    4.612
  501.750    0.199    0.392   96.862  178.961    4.267
  502.000    0.188    0.394   98.381  178.961    4.125
  502.250    0.185    0.382   94.674  178.859    4.124
  502.500    0.182    0.375   89.690  178.656    4.261
  502.750    0.159    0.376   83.429  178.453    4.696
  503.000    0.180    0.392   87.258  177.845    4.979
  503.250    0.189    0.387   91.452  177.237    4.932
  503.500    0.139    0.369   86.407  176.832    4.715
  503.750    0.078    0.367   81.423  176.730    4.435
  504.000    0.151    0.381   90.904  176.831    4.242
  504.250    0.181    0.400   99.474  176.831    4.123
  504.500    0.192    0.403  105.248  176.932    4.083
  504.750    0.171    0.385  100.567  176.932    4.089
  505.000    0.130    0.379   94.125  176.830    4.072
  505.250    0.120    0.387   94.672  176.931    4.034
  505.500    0.179    0.395   96.252  177.133    3.995
  505.750    0.151    0.411   91.329  177.336    3.971
  506.000    0.116    0.395   90.356  177.538    3.940
  506.250    0.148    0.414   94.671  177.639    3.902
  506.500    0.179    0.428   96.676  177.740    3.856
  506.750    0.188    0.420   98.013  177.841    3.784
  507.000    0.178    0.406   99.472  178.043    3.707
  507.250    0.148    0.405  100.870  178.347    3.671
  507.500    0.178    0.428  105.002  178.651    3.642
  507.750    0.198    0.419  108.406  179.258    3.648
  508.000    0.204    0.410  103.118  179.764    3.653
  508.250    0.196    0.408   95.824  179.967    3.651
  508.500    0.184    0.411   96.675  180.169    3.655
  508.750    0.193    0.425  105.609  180.270    3.668
  509.000    0.201    0.425  108.891  180.472    3.673
  509.250    0.204    0.416  106.156  180.472    3.678
  509.500    0.198    0.402  105.548  180.472    3.703
  509.750    0.176    0.391   99.288  179.053    3.736
  510.000    0.110    0.404   97.343  177.128    3.762
  510.250    0.141    0.409  103.967  176.723    3.837
  510.500    0.184    0.405  112.294  177.229    4.009
  510.750    0.202    0.407  112.233  178.951    4.220
  511.000    0.185    0.398  104.878  180.976    4.524
  511.250    0.181    0.387  101.353  183.509    4.806
  511.500    0.186    0.387  103.055  184.015    5.152
  511.750    0.186    0.379  101.535  184.217    5.606
  512.000    0.175    0.363   96.126  184.014    5.967
  512.250    0.155    0.351   90.109  183.913    6.315
  512.500    0.143    0.337   84.031  183.811    6.562
  512.750    0.144    0.322   82.997  184.216    6.619
  513.000    0.150    0.319   91.567  184.520    6.496
  513.250    0.139    0.333   98.981  184.823    6.199
  513.500    0.139    0.340   99.042  185.026    5.820
  513.750    0.133    0.344   99.771  185.532    5.637
  514.000    0.139    0.349  102.081  185.531    5.513
  514.250    0.144    0.361  104.512  184.417    5.459
  514.500    0.140    0.363  107.854  182.695    5.426
  514.750    0.142    0.361  105.605  180.668    5.404
  515.000    0.136    0.357  100.014  180.364    5.372
  515.250    0.138    0.356   98.615  180.060    5.349
  515.500    0.145    0.359  104.085  179.756    5.347
  515.750    0.149    0.368  106.699  179.553    5.335
  516.000    0.151    0.369  108.461  179.451    5.323
  516.250    0.158    0.363  111.013  179.350    5.320
  516.500    0.160    0.350  113.809  179.350    5.317
  516.750    0.151    0.340  113.687  179.349    5.295
  517.000    0.146    0.339  114.660  179.450    5.303
  517.250    0.153    0.349  120.676  179.653    5.340
