~VERSION INFORMATION
 VERS.                 2.0:   CWLS LOG ASCII STANDARD -VERSION 2.0
 WRAP.                  NO:   ONE LINE PER DEPTH STEP
~WELL INFORMATION BLOCK
#MNEM.UNIT           DATA                    DESCRIPTION OF MNEMONIC
#---------    -------------------            -------------------------------
# Generated from Intellog Unique Number	CW_73_75/WELL/879
WELL.         CHEVRON ET AL DROWNED 07-36    : Well_name    - WELL
LOC .         00/07-36-075-23W4/0            : Location     - LOCATION
UWI .         00/07-36-075-23W4/0            : Uwi          - UNIQUE WELL ID
ENTR.         JAYE                           : Entered      - ENTERED BY
SRVC.         SCHLUMBERGER                   : Scn          - SERVICE COMPANY
DATE.         22 JAN 85                      : Date         - LOG DATE
STRT.M        411.48                         : top_depth    - START DEPTH
STOP.M        618.73                         : bot_depth    - STOP DEPTH
STEP.M        0.25                           : increment    - STEP LENGTH
 NULL. -999.2500:NULL Value
~CURVE INFORMATION BLOCK
#MNEM UNIT       ERCB CURVE CODE    CURVE DESCRIPTION
#-----------   ------------------   ----------------------------------
DEPT.M        00 001 00 00         : DEPTH        - DEPTH
ILD .OHMM     00 120 00 00         : RESD         - DEEP RESISTIVITY (DIL)
DPHI.V/V      00 890 00 00         : PHID         - DENSITY POROSITY (SANDSTONE)
NPHI.V/V      00 330 00 00         : PHIN         - NEUTRON POROSITY (SANDSTONE)
GR  .API      00 310 00 00         : GR           - GAMMA RAY
CALI.MM       00 280 01 00         : CAL          - CALIPER
~PARAMETER INFORMATION
#MNEM.UNIT           DATA             DESCRIPTION OF MNEMONIC
#---------         -----------     ------------------------------
GL  .M        678.058              : gl           - GROUND LEVEL ELEVATION
EREF.M        681.106              : kb           - ELEVATION OF DEPTH REFERENCE
DATM.M        678.058              : datum        - DATUM ELEVATION
TDD .M        626.974              : tdd          - TOTAL DEPTH DRILLER
RUN .         ONE                  : Run          - RUN NUMBER
MATR.         SANDSTONE            : Logunit      - NEUTRON MATRIX
TMAX.C        60                   : BHT          - MAXIMUM RECORDED TEMPERATURE
BHTD.M        627.583              : BHTDEP       - MAXIMUM RECORDED TEMPERATURE
RMT .C        11.1111              : MDTP         - TEMPERATURE OF MUD
MUDD.KG/M     0                    : MWT          - MUD DENSITY
NEUT.         1                    : NEUTRON      - NEUTRON TYPE
RESI.         0                    : RESIST       - RESISTIVITY TYPE
RM  .OHMM     0                    : RM           - RESISTIVITY OF MUD
RMC .OHMM     0                    : RMC          - RESISTIVITY OF MUD CAKE
RMF .OHMM     9.02                 : RMF          - RESISTIVITY OF MUD FILTRATE
SUFT.C        -17.7778             : SUFT         - SURFACE TEMPERATURE
~A  DEPTH     RESD     PHID     PHIN       GR      CAL
# ...
  557.480    7.362    0.132    0.352  106.130  220.286
  557.730    6.504    0.144    0.337  104.111  221.645
  557.980    5.430    0.157    0.325  101.269  222.516
  558.230    4.198    0.167    0.318   98.483  222.093
  558.480    3.258    0.167    0.330   99.408  220.769
  558.730    2.505    0.197    0.358  101.276  219.238
  558.980    2.039    0.233    0.433  103.495  217.714
  559.230    1.743    0.273    0.535  104.953  219.186
  559.480    1.669    0.271    0.581  101.578  224.734
  559.730    2.124    0.270    0.553  100.446  230.198
  559.980    2.625    0.251    0.504  102.549  224.782
  560.230    3.128    0.193    0.468  103.649  216.580
  560.480    3.762    0.169    0.420  102.335  208.770
  560.730    4.668    0.147    0.371   95.667  209.340
  560.980    6.875    0.111    0.317   88.175  211.802
  561.230    8.238    0.098    0.300   85.977  213.472
  561.480    7.872    0.092    0.302   87.786  214.244
  561.730    7.332    0.080    0.313   90.889  214.915
  561.980    6.867    0.090    0.334   95.466  215.078
  562.230    6.562    0.155    0.333   96.036  214.759
  562.480    6.504    0.157    0.325   94.902  214.631
  562.730    6.747    0.159    0.333   95.297  213.904
  562.980    7.696    0.163    0.362   95.751  212.881
  563.230    9.105    0.171    0.368   94.909  211.450
  563.480   12.696    0.205    0.271   88.593  209.425
  563.730   16.396    0.230    0.247   68.971  206.514
  563.980   19.434    0.261    0.226   60.125  205.485
  564.230   21.846    0.290    0.175   52.983  204.861
  564.480   25.057    0.283    0.172   53.615  204.438
  564.730   29.001    0.269    0.185   53.951  204.307
  564.980   36.309    0.300    0.162   49.930  203.888
  565.230   55.063    0.340    0.142   43.790  203.650
  565.480   63.733    0.355    0.132   43.781  203.432
  565.730   60.239    0.345    0.153   44.464  203.395
  565.980   55.905    0.342    0.163   45.330  203.369
  566.230   51.039    0.339    0.170   45.317  203.443
  566.480   45.089    0.338    0.175   45.063  203.501
  566.730   40.566    0.340    0.180   45.636  203.577
  566.980   35.641    0.336    0.188   46.852  203.253
  567.230   28.898    0.328    0.193   49.250  202.823
  567.480   24.435    0.321    0.198   51.179  202.799
  567.730   20.250    0.315    0.205   52.164  203.062
  567.980   14.878    0.307    0.223   52.386  202.934
  568.230   11.609    0.292    0.251   52.659  202.908
  568.480    9.762    0.276    0.273   53.287  202.692
  568.730    8.210    0.269    0.313   52.918  202.856
  568.980    7.759    0.247    0.331   49.726  202.923
  569.230    7.861    0.231    0.344   49.883  203.315
  569.480    8.260    0.244    0.349   50.396  203.382
  569.730    8.936    0.261    0.337   51.616  203.445
  569.980    9.809    0.259    0.325   54.663  203.503
  570.230   10.808    0.250    0.320   55.053  203.589
  570.480   11.951    0.247    0.321   55.390  203.746
  570.730   12.789    0.250    0.320   58.201  203.747
  570.980   13.195    0.248    0.317   59.424  203.791
  571.230   13.197    0.243    0.314   61.994  203.501
  571.480   13.297    0.234    0.315   64.686  203.553
  571.730   13.895    0.219    0.315   62.784  204.017
  571.980   14.896    0.203    0.301   60.943  204.077
  572.230   16.472    0.202    0.277   59.982  204.147
  572.480   17.594    0.119    0.233   58.964  204.817
  572.730   17.922    0.091    0.194   56.654  205.487
  572.980   17.251    0.115    0.223   56.755  206.053
  573.230   15.806    0.158    0.265   59.801  206.437
  573.480   14.404    0.197    0.298   63.554  206.608
  573.730   12.381    0.205    0.319   67.890  206.467
  573.980   11.058    0.194    0.306   68.584  205.939
  574.230   10.801    0.197    0.294   67.974  205.418
  574.480   10.962    0.205    0.299   69.311  204.789
  574.730   11.645    0.193    0.289   71.357  204.462
  574.980   12.416    0.168    0.276   72.223  204.237
  575.230   12.857    0.142    0.261   72.379  204.106
  575.480   12.882    0.113    0.248   72.371  204.395
  575.730   12.698    0.157    0.283   73.466  204.750
  575.980   12.471    0.161    0.295   79.806  205.224
  576.230   12.004    0.147    0.293   84.558  205.690
  576.480   11.875    0.153    0.292   84.721  206.179
  576.730   11.770    0.170    0.298   88.118  206.444
  576.980   11.837    0.174    0.300   86.628  206.715
  577.230   11.947    0.159    0.300   87.203  206.990
  577.480   12.126    0.163    0.297   87.775  207.139
  577.730   12.374    0.162    0.293   86.403  207.422
  577.980   12.421    0.167    0.294   84.678  207.489
  578.230   12.334    0.158    0.292   86.073  207.354
  578.480   12.113    0.146    0.292   88.063  207.633
  578.730   11.874    0.139    0.295   90.109  207.701
  578.980   11.619    0.142    0.294   92.204  207.773
  579.230   11.328    0.138    0.303   93.250  207.845
  579.480   11.044    0.130    0.295   94.998  207.513
  579.730   11.006    0.131    0.285   92.684  207.393
  579.980   11.211    0.142    0.285   91.018  207.360
  580.230   12.040    0.156    0.296   89.237  207.330
  580.480   13.412    0.159    0.286   86.510  207.301
  580.730   15.439    0.148    0.255   79.078  207.271
  580.980   20.718    0.141    0.225   69.286  207.359
  581.230   25.516    0.129    0.171   46.190  207.226
  581.480   33.438    0.089    0.135   29.572  206.893
  581.730   52.114    0.043    0.075   24.845  206.860
  581.980  119.393    0.036    0.056   21.770  206.933
  582.230  146.237    0.069    0.050   21.634  207.005
  582.480  157.347    0.166    0.051   27.385  207.376
  582.730  162.928    0.238    0.066   30.729  207.142
  582.980  159.720    0.337    0.086   33.062  207.212
  583.230   57.895    0.316    0.108   36.519  207.293
  583.480   21.727    0.294    0.132   44.394  207.358
  583.730   14.202    0.276    0.218   51.677  207.426
  583.980    8.918    0.299    0.403   63.200  207.518
  584.230    7.204    0.327    0.492   79.370  207.481
  584.480    7.037    0.329    0.397  100.137  207.649
  584.730    7.313    0.275    0.395  106.537  207.720
  584.980    8.990    0.256    0.391  106.169  208.087
  585.230   10.069    0.257    0.381  105.385  208.164
  585.480   10.145    0.251    0.358  103.249  208.224
  585.730    9.677    0.212    0.359  104.352  208.493
  585.980    8.866    0.149    0.387  106.924  209.167
  586.230    8.395    0.095    0.386  110.095  211.926
  586.480    8.646    0.120    0.392  111.430  214.892
  586.730   10.248    0.159    0.404  111.701  217.053
  586.980   14.526    0.223    0.396  107.977  206.456
  587.230   23.141    0.282    0.356   95.595  209.025
  587.480   35.286    0.337    0.273   81.627  210.586
  587.730   35.877    0.335    0.197   71.247  206.371
  587.980   31.466    0.326    0.204   66.817  204.354
  588.230   24.373    0.320    0.222   66.330  203.733
  588.480   17.679    0.336    0.259   66.017  203.595
  588.730   13.546    0.383    0.300   64.762  203.870
  588.980   11.707    0.436    0.358   63.568  204.139
  589.230   10.708    0.469    0.552   62.319  204.213
  589.480   10.176    0.387    0.433   60.714  204.095
  589.730    9.795    0.354    0.258   56.806  204.065
  589.980    9.743    0.344    0.230   51.551  204.228
  590.230    9.745    0.356    0.240   46.768  204.101
  590.480    9.694    0.338    0.263   46.221  203.977
  590.730    9.555    0.317    0.290   49.680  203.945
  590.980    9.522    0.306    0.348   53.429  203.930
  591.230    9.542    0.294    0.328   58.589  203.780
  591.480    9.719    0.280    0.328   63.695  203.754
  591.730   10.249    0.259    0.336   74.690  204.527
  591.980   12.148    0.236    0.354   86.035  206.891
  592.230   15.890    0.210    0.379   93.907  208.260
  592.480   29.029    0.270    0.424   85.234  208.025
  592.730   40.626    0.309    0.246   70.031  206.311
  592.980   58.859    0.274    0.227   54.118  205.476
  593.230   66.774    0.269    0.233   41.146  205.460
  593.480   60.077    0.264    0.263   41.957  205.522
  593.730   55.856    0.262    0.286   41.057  205.996
