~VERSION INFORMATION
 VERS.                 2.0:   CWLS LOG ASCII STANDARD -VERSION 2.0
 WRAP.                  NO:   ONE LINE PER DEPTH STEP
~WELL INFORMATION BLOCK
#MNEM.UNIT           DATA                    DESCRIPTION OF MNEMONIC
#---------    -------------------            -------------------------------
# Generated from Intellog Unique Number	CW_79_81/WELL/2457
WELL.         SHELL MISTEHAE                 : Well_name    - WELL
LOC .         00/07-09-081-02W5/0            : Location     - LOCATION
UWI .         00/07-09-081-02W5/0            : Uwi          - UNIQUE WELL ID
ENTR.         MAX                            : Entered      - ENTERED BY
SRVC.         SCHLUMBERGER                   : Scn          - SERVICE COMPANY
STRT.M        243.84                         : top_depth    - START DEPTH
STOP.M        490.59                         : bot_depth    - STOP DEPTH
STEP.M        0.25                           : increment    - STEP LENGTH
 NULL. -999.2500:NULL Value
~CURVE INFORMATION BLOCK
#MNEM UNIT       ERCB CURVE CODE    CURVE DESCRIPTION
#-----------   ------------------   ----------------------------------
DEPT.M        00 001 00 00         : DEPTH        - DEPTH
ILD .OHMM     00 120 00 00         : RESD         - DEEP RESISTIVITY (DIL)
NPHI.V/V      00 330 00 00         : PHIN         - NEUTRON POROSITY (SANDSTONE)
DPHI.V/V      00 890 00 00         : PHID         - DENSITY POROSITY (SANDSTONE)
GR  .API      00 310 00 00         : GR           - GAMMA RAY
CALI.MM       00 280 01 00         : CAL          - CALIPER
~PARAMETER INFORMATION
#MNEM.UNIT           DATA             DESCRIPTION OF MNEMONIC
#---------         -----------     ------------------------------
GL  .M        607.771              : gl           - GROUND LEVEL ELEVATION
EREF.M        612.023              : kb           - ELEVATION OF DEPTH REFERENCE
DATM.M        607.771              : datum        - DATUM ELEVATION
TDD .M        492.557              : tdd          - TOTAL DEPTH DRILLER
RUN .         ONE                  : Run          - RUN NUMBER
ENG .         BILL                 : Engineer     - RECORDING ENGINEER
WIT .         JIM                  : Witness      - WITNESSED BY
MUD .         GEL                  : Mud_type     - MUD TYPE
MATR.         SANDSTONE            : Logunit      - NEUTRON MATRIX
TMAX.C        25.5556              : BHT          - MAXIMUM RECORDED TEMPERATURE
BHTD.M        492.557              : BHTDEP       - MAXIMUM RECORDED TEMPERATURE
MATR.         1                    : LOGUNIT      - NEUTRON MATRIX
RMT .C        21.1111              : MDTP         - TEMPERATURE OF MUD
NEUT.         1                    : NEUTRON      - NEUTRON TYPE
RESI.         0                    : RESIST       - RESISTIVITY TYPE
RMC .OHMM     3.28                 : RMC          - RESISTIVITY OF MUD CAKE
RMF .OHMM     4.9                  : RMF          - RESISTIVITY OF MUD FILTRATE
SUFT.C        -18.3333             : SUFT         - SURFACE TEMPERATURE
~A  DEPTH     RESD     PHIN     PHID       GR      CAL
# ...
  353.340    7.064    0.505    0.243   74.487  245.599
  353.590    7.437    0.513    0.242   72.363  246.023
  353.840    7.957    0.524    0.241   69.531  246.447
  354.090    8.625    0.531    0.245   67.055  247.073
  354.340    9.564    0.531    0.253   65.291  248.305
  354.590   11.542    0.525    0.260   63.489  250.666
  354.840   13.694    0.530    0.271   61.526  250.271
  355.090   14.521    0.525    0.271   57.981  251.501
  355.340   15.156    0.527    0.274   57.465  252.727
  355.590   15.675    0.527    0.275   58.548  251.948
  355.840   16.095    0.523    0.274   59.569  250.066
  356.090   16.116    0.527    0.271   58.487  251.234
  356.340   15.063    0.547    0.270   57.761  252.928
  356.590   13.385    0.546    0.270   58.014  250.543
  356.840   11.975    0.538    0.262   59.690  246.651
  357.090   11.033    0.533    0.246   61.127  243.062
  357.340   10.705    0.529    0.227   61.141  240.276
  357.590   11.478    0.510    0.213   57.886  236.987
  357.840   12.595    0.458    0.226   52.221  234.502
  358.090   13.942    0.445    0.234   51.994  235.734
  358.340   15.605    0.465    0.275   52.482  238.472
  358.590   17.378    0.489    0.299   53.803  239.298
  358.840   18.426    0.501    0.291   55.480  237.914
  359.090   16.745    0.498    0.277   56.444  237.142
  359.340   14.109    0.493    0.285   56.461  237.166
  359.590   11.893    0.499    0.230   56.948  237.191
  359.840   11.074    0.503    0.199   57.614  238.722
  360.090   11.236    0.495    0.177   58.103  239.951
  360.340   12.339    0.468    0.147   57.882  236.963
  360.590   14.944    0.387    0.070   55.447  222.985
  360.840   17.318    0.231    0.004   51.510  219.245
  361.090   24.523    0.197    0.010   51.999  220.477
  361.340   24.016    0.206    0.025   54.266  222.606
  361.590   20.057    0.237    0.047   57.483  227.247
  361.840   16.483    0.278    0.081   60.700  232.695
  362.090   13.143    0.340    0.148   63.049  233.430
  362.340   12.284    0.418    0.155   64.051  230.950
  362.590   11.332    0.393    0.132   65.252  230.970
  362.840   10.281    0.361    0.142   66.454  232.199
  363.090    9.286    0.353    0.161   68.012  233.629
  363.340    8.427    0.378    0.179   69.628  235.259
  363.590    7.623    0.426    0.204   70.653  238.522
  363.840    7.126    0.459    0.240   72.150  240.641
  364.090    6.924    0.505    0.264   73.115  242.270
  364.340    6.803    0.507    0.266   73.721  243.598
  364.590    6.758    0.496    0.263   74.565  244.425
  364.840    6.763    0.485    0.259   75.649  244.952
  365.090    6.757    0.483    0.246   76.379  246.118
  365.340    6.711    0.510    0.239   76.390  247.821
  365.590    6.716    0.518    0.238   76.879  249.051
  365.840    6.719    0.519    0.235   76.657  249.680
  366.090    6.723    0.514    0.232   76.554  250.308
  366.340    6.727    0.509    0.231   76.630  251.133
  366.590    6.732    0.512    0.231   76.119  252.132
  366.840    6.736    0.516    0.237   75.887  252.995
  367.090    6.740    0.509    0.239   76.378  253.823
  367.340    6.781    0.508    0.242   76.334  255.254
  367.590    6.811    0.507    0.242   76.231  256.684
  367.840    6.815    0.504    0.240   76.246  258.013
  368.090    6.841    0.505    0.237   76.310  259.903
  368.340    6.951    0.519    0.235   76.571  261.182
  368.590    7.005    0.511    0.237   76.113  261.606
  368.840    7.061    0.497    0.226   76.008  262.639
  369.090    7.118    0.485    0.219   76.378  263.268
  369.340    7.174    0.477    0.220   77.461  263.391
  369.590    7.244    0.463    0.222   80.206  263.904
  369.840    7.304    0.456    0.232   83.187  264.348
  370.090    7.362    0.455    0.227   82.014  264.772
  370.340    7.420    0.461    0.222   80.485  265.200
  370.590    7.452    0.475    0.215   80.618  265.425
  370.840    7.484    0.488    0.207   82.353  265.647
  371.090    7.613    0.480    0.209   83.163  266.230
  371.340    7.675    0.490    0.204   81.202  265.000
  371.590    7.849    0.498    0.204   75.757  264.224
  371.840    8.159    0.505    0.211   70.315  263.744
  372.090    8.621    0.518    0.226   65.942  263.165
  372.340    9.247    0.530    0.242   62.932  262.388
  372.590   10.310    0.518    0.254   60.467  261.532
  372.840   11.947    0.513    0.267   58.753  261.139
  373.090   13.321    0.513    0.279   57.580  260.760
  373.340   13.123    0.509    0.301   56.764  260.684
  373.590   11.380    0.499    0.333   56.423  261.912
  373.840    9.535    0.487    0.391   56.734  265.350
  374.090    8.503    0.492    0.504   58.284  281.680
  374.340    7.949    0.512    0.489   60.027  331.081
  374.590    7.782    0.534    0.451   62.177  331.516
  374.840    7.745    0.536    0.445   63.615  313.562
  375.090    7.862    0.537    0.443   64.816  289.284
  375.340    8.115    0.538    0.429   65.957  273.038
  375.590    8.512    0.527    0.405   67.269  280.249
  375.840    8.987    0.527    0.444   69.016  273.993
  376.090    9.326    0.530    0.417   67.607  252.327
  376.340   10.361    0.526    0.338   64.064  240.599
  376.590   11.866    0.512    0.246   61.468  244.235
  376.840   13.153    0.453    0.156   60.651  251.796
  377.090   12.613    0.292    0.074   60.194  235.792
  377.340   11.442    0.383    0.133   60.210  240.002
  377.590   10.016    0.432    0.194   61.173  244.845
  377.840    8.931    0.472    0.207   62.492  248.786
  378.090    8.260    0.488    0.205   63.574  250.618
  378.340    7.943    0.486    0.204   64.181  250.641
  378.590    7.892    0.499    0.198   64.534  250.756
  378.840    7.897    0.497    0.205   65.045  251.203
  379.090    7.844    0.493    0.212   65.770  251.228
  379.340    7.835    0.488    0.215   67.031  250.948
  379.590    7.840    0.486    0.221   68.468  250.769
  379.840    7.845    0.485    0.228   69.904  250.795
  380.090    7.851    0.487    0.224   71.347  250.743
  380.340    7.855    0.498    0.212   71.363  250.348
  380.590    7.860    0.493    0.217   72.088  249.969
  380.840    7.865    0.490    0.213   73.168  249.292
  381.090    7.832    0.505    0.205   74.149  250.954
  381.340    7.794    0.525    0.199   74.780  254.531
  381.590    7.867    0.514    0.202   74.967  256.873
  381.840    7.931    0.528    0.213   74.719  258.545
  382.090    8.051    0.533    0.222   73.532  260.954
  382.340    8.173    0.534    0.239   72.523  262.760
  382.590    8.297    0.529    0.250   71.337  263.964
  382.840    8.453    0.520    0.256   69.617  263.763
  383.090    8.762    0.516    0.268   66.512  260.464
  383.340    9.037    0.503    0.269   64.040  260.044
  383.590    9.444    0.496    0.263   61.904  262.854
  383.840   10.082    0.490    0.253   59.769  265.966
  384.090   10.812    0.491    0.242   57.752  270.383
  384.340   11.671    0.500    0.234   55.736  275.704
  384.590   13.239    0.506    0.230   53.312  280.957
  384.840   14.298    0.524    0.224   53.065  285.140
  385.090   15.267    0.515    0.205   55.199  289.156
  385.340   15.366    0.502    0.245   57.866  292.569
  385.590   14.871    0.499    0.267   60.001  295.781
  385.840   14.194    0.507    0.256   61.068  298.692
  386.090   13.654    0.526    0.255   60.869  300.783
  386.340   13.454    0.543    0.262   59.880  301.200
  386.590   13.659    0.536    0.265   59.405  301.199
  386.840   14.549    0.531    0.268   59.108  300.897
  387.090   15.554    0.524    0.263   58.395  300.493
  387.340   16.057    0.514    0.251   57.980  300.191
  387.590   15.286    0.501    0.236   60.568  300.273
  387.840   13.869    0.499    0.239   64.026  300.690
  388.090   12.607    0.499    0.239   68.770  301.091
  388.340   11.729    0.490    0.237   69.955  301.491
  388.590   10.905    0.487    0.234   68.887  301.892
  388.840   10.191    0.499    0.235   66.989  301.589
  389.090    9.772    0.522    0.244   66.197  299.178
  389.340    9.485    0.529    0.265   68.173  299.176
  389.590    9.215    0.501    0.256   69.121  300.380
