~VERSION INFORMATION
 VERS.                 2.0:   CWLS LOG ASCII STANDARD -VERSION 2.0
 WRAP.                  NO:   ONE LINE PER DEPTH STEP
~WELL INFORMATION BLOCK
#MNEM.UNIT           DATA                    DESCRIPTION OF MNEMONIC
#---------    -------------------            -------------------------------
# Generated from Intellog Unique Number	CW_82_90/WELL/3068
WELL.         07-36-086-22W4                 : Well_name    - WELL
LOC .         00/07-36-086-22W4/0            : Location     - LOCATION
UWI .         00/07-36-086-22W4/0            : Uwi          - UNIQUE WELL ID
ENTR.         MAX                            : Entered      - ENTERED BY
SRVC.         SCHLUMBERGER                   : Scn          - SERVICE COMPANY
STRT.M        152.4                          : top_depth    - START DEPTH
STOP.M        350.4                          : bot_depth    - STOP DEPTH
STEP.M        0.25                           : increment    - STEP LENGTH
 NULL. -999.2500:NULL Value
~CURVE INFORMATION BLOCK
#MNEM UNIT       ERCB CURVE CODE    CURVE DESCRIPTION
#-----------   ------------------   ----------------------------------
DEPT.M        00 001 00 00         : DEPTH        - DEPTH
ILD .OHMM     00 120 00 00         : RESD         - DEEP RESISTIVITY (DIL)
NPHI.V/V      00 330 00 00         : PHIN         - NEUTRON POROSITY (SANDSTONE)
DPHI.V/V      00 890 00 00         : PHID         - DENSITY POROSITY (SANDSTONE)
CALI.MM       00 280 01 00         : CAL          - CALIPER
GR  .API      00 310 00 00         : GR           - GAMMA RAY
~PARAMETER INFORMATION
#MNEM.UNIT           DATA             DESCRIPTION OF MNEMONIC
#---------         -----------     ------------------------------
GL  .M        567.842              : gl           - GROUND LEVEL ELEVATION
EREF.M        571.195              : kb           - ELEVATION OF DEPTH REFERENCE
DATM.M        567.842              : datum        - DATUM ELEVATION
TDD .M        350.215              : tdd          - TOTAL DEPTH DRILLER
RUN .         ONE                  : Run          - RUN NUMBER
ENG .         BILL                 : Engineer     - RECORDING ENGINEER
WIT .         JIM                  : Witness      - WITNESSED BY
MUD .         GEL                  : Mud_type     - MUD TYPE
MATR.         SANDSTONE            : Logunit      - NEUTRON MATRIX
TMAX.C        15.5556              : BHT          - MAXIMUM RECORDED TEMPERATURE
BHTD.M        350.215              : BHTDEP       - MAXIMUM RECORDED TEMPERATURE
MATR.         1                    : LOGUNIT      - NEUTRON MATRIX
RMT .C        9.44444              : MDTP         - TEMPERATURE OF MUD
NEUT.         1                    : NEUTRON      - NEUTRON TYPE
RESI.         0                    : RESIST       - RESISTIVITY TYPE
RMC .OHMM     7.05                 : RMC          - RESISTIVITY OF MUD CAKE
RMF .OHMM     7.05                 : RMF          - RESISTIVITY OF MUD FILTRATE
SUFT.C        -23.3333             : SUFT         - SURFACE TEMPERATURE
~A  DEPTH     RESD     PHIN     PHID      CAL       GR
# ...
  298.400   15.840    0.428    0.177  227.812  104.374
  298.650   16.119    0.417    0.183  227.816  100.327
  298.900   17.000    0.414    0.178  226.840   97.436
  299.150   18.416    0.429    0.172  227.333   96.860
  299.400   19.774    0.440    0.165  227.828   93.680
  299.650   19.245    0.414    0.149  227.832   90.211
  299.900   17.285    0.404    0.122  227.346   89.056
  300.150   14.846    0.422    0.130  229.310   91.952
  300.400   13.454    0.452    0.177  230.782   98.897
  300.650   11.868    0.469    0.197  231.276  104.106
  300.900   10.949    0.472    0.201  232.260  107.002
  301.150   10.101    0.486    0.194  234.224  108.740
  301.400    9.571    0.499    0.192  232.269  110.767
  301.650    9.567    0.512    0.185  233.252  107.588
  301.900   10.272    0.510    0.178  233.256  106.144
  302.150   11.030    0.503    0.195  232.770  103.542
  302.400   12.605    0.487    0.202  233.754   97.180
  302.650   15.064    0.462    0.181  232.778   90.240
  302.900   18.658    0.403    0.145  228.864   83.588
  303.150   22.902    0.352    0.081  228.868   80.409
  303.400   23.099    0.376    0.085  228.871   82.436
  303.650   23.299    0.413    0.186  228.876   84.753
  303.900   23.292    0.434    0.206  228.390   87.069
  304.150   22.669    0.436    0.182  228.395   87.940
  304.400   21.099    0.421    0.157  227.908   85.917
  304.650   19.120    0.398    0.129  224.483   87.076
  304.900   17.019    0.427    0.096  226.447   93.443
  305.150   15.983    0.439    0.167  227.431   93.446
  305.400   14.744    0.424    0.205  226.945   94.605
  305.650   14.222    0.424    0.208  226.950   97.501
  305.900   13.842    0.445    0.205  227.442  100.107
  306.150   13.715    0.460    0.183  228.426  101.845
  306.400   13.957    0.469    0.158  229.410  100.112
  306.650   14.330    0.478    0.143  229.904   98.378
  306.900   14.715    0.473    0.111  230.398   96.066
  307.150   14.711    0.455    0.087  228.932   92.887
  307.400   14.575    0.456    0.106  229.427   93.757
  307.650   14.312    0.462    0.158  229.920   95.784
  307.900   14.180    0.461    0.171  229.924   98.968
  308.150   13.925    0.454    0.171  229.928   96.657
  308.400   13.552    0.455    0.148  229.932   96.948
  308.650   12.956    0.461    0.115  229.446  100.422
  308.900   12.498    0.493    0.134  232.390  105.343
  309.150   11.842    0.481    0.150  232.883  105.634
  309.400   11.527    0.467    0.141  230.929  107.372
  309.650   11.420    0.455    0.130  229.952  109.689
  309.900   11.726    0.444    0.141  229.468  112.295
  310.150   12.478    0.439    0.173  230.450  117.215
  310.400   13.761    0.459    0.181  232.414  113.747
  310.650   15.588    0.464    0.178  234.377  114.038
  310.900   18.136    0.448    0.182  230.953  111.147
  311.150   18.622    0.405    0.139  228.997  104.207
  311.400   17.803    0.342    0.053  228.512   97.556
  311.650   16.277    0.371    0.139  228.515  100.740
  311.900   15.702    0.391    0.182  229.009  106.239
  312.150   16.560    0.396    0.177  229.503  105.084
  312.400   18.262    0.404    0.173  230.487  101.326
  312.650   19.783    0.418    0.180  230.491   99.882
  312.900   21.053    0.428    0.169  230.495  101.620
  313.150   23.012    0.421    0.165  231.479  100.755
  313.400   26.299    0.384    0.175  230.503   97.864
  313.650   29.526    0.358    0.106  228.547   92.659
  313.900   30.316    0.297    0.030  228.061   88.901
  314.150   29.507    0.269    0.004  227.576   91.217
  314.400   26.979    0.363    0.144  227.580   94.980
  314.650   23.380    0.381    0.161  227.584   98.744
  314.900   20.812    0.398    0.174  227.588  101.639
  315.150   19.371    0.406    0.186  227.592   99.617
  315.400   19.713    0.400    0.188  227.596   99.040
  315.650   20.241    0.384    0.169  227.601   98.464
  315.900   21.348    0.377    0.166  227.114   97.888
  316.150   22.513    0.387    0.151  227.609   95.865
  316.400   22.913    0.375    0.144  228.102   93.264
  316.650   22.905    0.357    0.125  228.596   90.663
  316.900   22.094    0.346    0.112  228.600   92.401
  317.150   20.936    0.382    0.153  228.604   96.164
  317.400   19.313    0.402    0.181  230.567   94.431
  317.650   18.630    0.402    0.180  230.572   94.722
  317.900   18.624    0.394    0.171  229.596   97.039
  318.150   18.617    0.405    0.163  230.090   97.909
  318.400   18.778    0.396    0.152  230.584   93.861
  318.650   19.805    0.375    0.124  230.588   90.104
  318.900   20.519    0.343    0.086  230.592   90.106
  319.150   20.510    0.325    0.039  229.616   92.711
  319.400   18.587    0.412    0.130  230.111   99.079
  319.650   15.268    0.435    0.187  230.604  100.527
  319.900   13.232    0.448    0.189  230.608  101.108
  320.150   10.966    0.460    0.181  230.612  101.111
  320.400    9.849    0.468    0.185  231.596  104.295
  320.650    8.845    0.458    0.204  233.069  104.298
  320.900    8.533    0.453    0.198  234.544  101.985
  321.150    8.305    0.469    0.194  234.547  100.252
  321.400    8.228    0.478    0.177  234.061   99.676
  321.650    8.299    0.469    0.168  232.595  100.835
  321.900    8.598    0.500    0.153  230.150  104.599
  322.150    8.908    0.492    0.150  233.094  108.072
  322.400    9.564    0.460    0.132  234.078  103.736
  322.650   10.547    0.434    0.089  233.102  101.134
  322.900   11.632    0.380    0.000  233.106   98.244
  323.150   12.942    0.418    0.133  234.089   93.907
  323.400   12.938    0.440    0.191  231.645   78.866
  323.650   10.347    0.408    0.210  229.199   80.025
  323.900    7.843    0.412    0.207  228.713   92.468
  324.150    7.566    0.492    0.212  233.126  105.777
  324.400    8.051    0.514    0.205  236.560  117.352
  324.650    8.721    0.526    0.191  237.053  113.593
  324.900    9.618    0.512    0.176  236.077  104.049
  325.150   10.513    0.489    0.192  228.734   99.422
  325.400   10.989    0.466    0.189  227.758   93.060
  325.650   11.083    0.455    0.195  227.272  101.742
  325.900   13.364    0.448    0.202  227.766  113.315
  326.150   16.552    0.487    0.214  227.770  118.236
  326.400   19.605    0.486    0.239  227.774  103.195
  326.650   27.270    0.482    0.275  227.778   91.915
  326.900   45.750    0.487    0.285  227.783   84.396
  327.150  107.740    0.469    0.291  227.296   79.770
  327.400   76.724    0.454    0.286  226.811   78.615
  327.650   60.816    0.441    0.271  226.815   79.485
  327.900   42.922    0.430    0.264  226.819   80.355
  328.150   31.394    0.428    0.247  226.822   82.672
  328.400   26.965    0.451    0.227  226.827   92.510
  328.650   28.186    0.467    0.229  226.342  100.902
  328.900   35.855    0.500    0.215  225.855   99.747
  329.150   44.409    0.497    0.258  225.859   88.757
  329.400   89.067    0.472    0.291  225.863   78.923
  329.650  146.783    0.449    0.286  225.867   76.322
  329.900  156.192    0.437    0.282  225.871   77.192
  330.150  100.825    0.429    0.275  225.875   76.616
  330.400   69.278    0.424    0.265  225.879   75.751
  330.650   47.177    0.417    0.260  225.883   75.463
  330.900   37.394    0.423    0.240  225.887   80.095
  331.150   29.116    0.425    0.236  225.891   81.254
  331.400   22.468    0.412    0.229  225.895   82.703
  331.650   19.298    0.417    0.215  225.899   74.316
  331.900   22.453    0.448    0.275  225.904   55.804
  332.150   28.564    0.427    0.291  225.907   51.467
  332.400   43.825    0.419    0.285  225.911   55.809
  332.650   45.810    0.428    0.269  226.895   58.704
  332.900   41.888    0.414    0.261  226.900   61.889
  333.150   31.469    0.411    0.241  226.414   65.362
  333.400   28.012    0.416    0.224  227.398   69.126
  333.650   27.753    0.429    0.236  228.381   69.128
  333.900   28.754    0.439    0.261  228.385   64.502
  334.150   29.524    0.426    0.272  228.879   59.586
  334.400   29.515    0.417    0.272  228.883   61.324
  334.650   28.724    0.409    0.263  228.887   69.137
