~VERSION INFORMATION
 VERS.                 2.0:   CWLS LOG ASCII STANDARD -VERSION 2.0
 WRAP.                  NO:   ONE LINE PER DEPTH STEP
~WELL INFORMATION BLOCK
#MNEM.UNIT           DATA                    DESCRIPTION OF MNEMONIC
#---------    -------------------            -------------------------------
# Generated from Intellog Unique Number	nealta/WELL/2348
WELL.         CDN-SUP MARTEN 07-01           : Well_name    - WELL
LOC .         07-01-077-03W5                 : Location     - LOCATION
UWI .         00/07-01-077-03W5/0            : Uwi          - UNIQUE WELL ID
ENTR.         JAYE                           : Entered      - ENTERED BY
SRVC.         SCHLUMBERGER                   : Scn          - SERVICE COMPANY
DATE.         10 JAN 78                      : Date         - LOG DATE
STRT.M        480.06                         : top_depth    - START DEPTH
STOP.M        707.06                         : bot_depth    - STOP DEPTH
STEP.M        0.25                           : increment    - STEP LENGTH
 NULL. -999.2500:NULL Value
~CURVE INFORMATION BLOCK
#MNEM UNIT       ERCB CURVE CODE    CURVE DESCRIPTION
#-----------   ------------------   ----------------------------------
DEPT.M        00 001 00 00         : DEPTH        - DEPTH
NPHI.V/V      00 330 00 00         : PHIN         - NEUTRON POROSITY (SANDSTONE)
DPHI.V/V      00 890 00 00         : PHID         - DENSITY POROSITY (SANDSTONE)
ILD .OHMM     00 120 00 00         : RESD         - DEEP RESISTIVITY (DIL)
GR  .API      00 310 00 00         : GR           - GAMMA RAY
CALI.MM       00 280 01 00         : CAL          - CALIPER
~PARAMETER INFORMATION
#MNEM.UNIT           DATA             DESCRIPTION OF MNEMONIC
#---------         -----------     ------------------------------
GL  .M        769.925              : gl           - GROUND LEVEL ELEVATION
EREF.M        774.192              : kb           - ELEVATION OF DEPTH REFERENCE
DATM.M        769.925              : datum        - DATUM ELEVATION
TDD .M        736.092              : tdd          - TOTAL DEPTH DRILLER
RUN .         ONE                  : Run          - RUN NUMBER
ENG .         ACKERMAN/VAN STEENBE : Engineer     - RECORDING ENGINEER
WIT .         CRAIMAIN/SMAILES     : Witness      - WITNESSED BY
BASE.         EDMONTON             : Branch       - HOME BASE OF LOGGING UNIT
MUD .         GEL                  : Mud_type     - MUD TYPE
MATR.         SANDSTONE            : Logunit      - NEUTRON MATRIX
TMAX.C        27.7778              : BHT          - MAXIMUM RECORDED TEMPERATURE
BHTD.M        736.092              : BHTDEP       - MAXIMUM RECORDED TEMPERATURE
RMT .C        10                   : MDTP         - TEMPERATURE OF MUD
MUDD.KG/M     1140                 : MWT          - MUD DENSITY
NEUT.         1                    : NEUTRON      - NEUTRON TYPE
RESI.         0                    : RESIST       - RESISTIVITY TYPE
RM  .OHMM     2.95                 : RM           - RESISTIVITY OF MUD
RMC .OHMM     0                    : RMC          - RESISTIVITY OF MUD CAKE
RMF .OHMM     3.82                 : RMF          - RESISTIVITY OF MUD FILTRATE
SUFT.C        4.5                  : SUFT         - SURFACE TEMPERATURE
~A  DEPTH     PHIN     PHID     RESD       GR      CAL
# ...
  553.060    0.486    0.169    4.807   79.596  190.241
  553.310    0.448    0.216    4.770   83.009  190.201
  553.560    0.483    0.237    4.699   86.975  189.632
  553.810    0.508    0.255    4.680   89.948  189.167
  554.060    0.532    0.260    4.662   87.366  188.284
  554.310    0.555    0.263    4.670   84.723  187.082
  554.560    0.568    0.267    4.677   84.385  186.725
  554.810    0.545    0.250    4.676   87.171  187.533
  555.060    0.518    0.250    4.658   91.518  189.711
  555.310    0.521    0.241    4.640   95.674  191.468
  555.560    0.531    0.225    4.630   97.397  192.595
  555.810    0.529    0.225    4.655   91.071  192.869
  556.060    0.523    0.233    4.680   87.181  192.832
  556.310    0.515    0.234    4.679   86.595  192.895
  556.560    0.512    0.224    4.678   87.383  192.962
  556.810    0.508    0.217    4.651   89.361  192.188
  557.060    0.494    0.195    4.624   91.830  191.406
  557.310    0.478    0.207    4.580   93.367  190.520
  557.560    0.485    0.221    4.511   89.225  189.217
  557.810    0.495    0.236    4.469   89.267  188.756
  558.060    0.503    0.242    4.434   91.117  188.820
  558.310    0.512    0.235    4.442   92.089  189.623
  558.560    0.522    0.242    4.516   88.758  189.691
  558.810    0.532    0.254    4.635   85.613  189.017
  559.060    0.526    0.268    4.937   80.166  187.295
  559.310    0.511    0.296    5.389   76.269  186.401
  559.560    0.498    0.331    5.870   68.008  186.053
  559.810    0.489    0.350    6.383   61.746  186.113
  560.060    0.498    0.346    6.864   58.231  186.181
  560.310    0.492    0.343    7.203   57.079  186.248
  560.560    0.483    0.341    7.324   57.179  186.520
  560.810    0.487    0.331    7.377   57.594  186.490
  561.060    0.503    0.320    7.362   57.824  186.554
  561.310    0.511    0.320    7.347   57.992  186.509
  561.560    0.502    0.326    7.277   58.028  186.476
  561.810    0.492    0.323    7.194   57.441  186.335
  562.060    0.482    0.321    7.179   56.917  186.082
  562.310    0.477    0.330    7.178   56.710  186.049
  562.560    0.497    0.337    7.190   56.060  186.103
  562.810    0.500    0.333    7.202   54.915  185.965
  563.060    0.499    0.322    7.160   54.397  185.815
  563.310    0.499    0.319    7.119   54.621  185.356
  563.560    0.498    0.324    7.012   55.594  185.314
  563.810    0.495    0.328    6.932   56.567  185.378
  564.060    0.492    0.329    6.841   58.167  185.548
  564.310    0.495    0.327    6.776   59.640  185.719
  564.560    0.518    0.318    6.662   61.618  185.785
  564.810    0.520    0.324    6.599   63.528  186.169
  565.060    0.515    0.334    6.524   65.126  186.245
  565.310    0.511    0.338    6.474   64.727  186.200
  565.560    0.514    0.340    6.424   64.391  186.269
  565.810    0.519    0.348    6.387   65.435  186.122
  566.060    0.521    0.352    6.386   66.217  185.979
  566.310    0.521    0.350    6.373   65.446  185.938
  566.560    0.515    0.343    6.371   65.172  185.789
  566.810    0.508    0.346    6.322   66.148  185.653
  567.060    0.503    0.352    6.298   67.876  185.605
  567.310    0.505    0.349    6.296   69.034  185.776
  567.560    0.522    0.344    6.295   67.889  186.058
  567.810    0.543    0.344    6.317   66.869  186.332
  568.060    0.544    0.339    6.328   65.846  186.399
  568.310    0.530    0.340    6.362   64.576  186.257
  568.560    0.529    0.344    6.384   63.989  185.583
  568.810    0.521    0.343    6.503   65.529  184.911
  569.060    0.522    0.339    6.674   68.187  184.346
  569.310    0.525    0.311    7.083   70.473  183.880
  569.560    0.524    0.285    7.731   69.580  184.472
  569.810    0.471    0.239    8.485   67.308  185.704
  570.060    0.432    0.157    8.157   65.660  186.299
  570.310    0.401    0.126    7.471   65.136  186.784
  570.560    0.372    0.153    6.555   69.544  187.061
  570.810    0.389    0.193    5.827   74.141  186.922
  571.060    0.477    0.239    5.336   78.546  186.565
  571.310    0.500    0.250    5.276   81.082  186.207
  571.560    0.492    0.262    5.364   78.381  185.637
  571.810    0.479    0.257    5.403   77.362  184.968
  572.060    0.463    0.244    5.382   78.142  185.347
  572.310    0.456    0.245    5.330   81.239  187.316
  572.560    0.470    0.237    5.310   84.589  189.609
  572.810    0.484    0.228    5.201   87.811  191.046
  573.060    0.494    0.219    5.132   89.344  190.581
  573.310    0.493    0.225    5.027   88.201  188.215
  573.560    0.504    0.232    4.961   87.365  187.125
  573.810    0.498    0.248    4.832   87.842  186.977
  574.060    0.491    0.266    4.759   88.943  187.779
  574.310    0.484    0.261    4.679   90.789  188.807
  574.560    0.506    0.245    4.609   93.013  189.926
  574.810    0.517    0.224    4.539   95.051  191.578
  575.060    0.535    0.235    4.421   96.093  192.597
  575.310    0.530    0.236    4.307   96.313  192.981
  575.560    0.532    0.240    4.250   94.421  193.255
  575.810    0.526    0.248    4.217   91.586  193.850
  576.060    0.536    0.224    4.193   92.750  194.547
  576.310    0.548    0.209    4.169   94.661  194.828
  576.560    0.534    0.234    4.152   95.761  194.576
  576.810    0.522    0.231    4.136   95.927  194.542
  577.060    0.509    0.218    4.150   95.340  194.705
  577.310    0.547    0.225    4.157   93.008  194.033
  577.560    0.554    0.240    4.195   90.052  193.146
  577.810    0.536    0.245    4.266   88.034  191.946
  578.060    0.515    0.254    4.353   86.011  191.493
  578.310    0.502    0.248    4.442   85.865  192.087
  578.560    0.497    0.238    4.542   88.026  192.889
  578.810    0.496    0.229    4.653   90.621  193.161
  579.060    0.499    0.217    4.775   89.479  192.489
  579.310    0.519    0.218    4.891   85.396  191.498
  579.560    0.525    0.267    5.048   82.253  190.723
  579.810    0.516    0.255    5.268   78.922  190.472
  580.060    0.503    0.249    5.622   74.529  190.749
  580.310    0.478    0.236    6.346   70.948  190.921
  580.560    0.424    0.216    6.913   67.930  190.039
  580.810    0.389    0.177    7.081   68.842  188.844
  581.060    0.422    0.193    6.808   73.687  188.161
  581.310    0.482    0.244    6.376   79.905  188.225
  581.560    0.497    0.257    5.883   86.248  190.518
  581.810    0.511    0.252    5.541   91.716  191.321
  582.060    0.523    0.242    5.297   88.385  190.964
  582.310    0.516    0.244    5.169   82.059  189.764
  582.560    0.511    0.249    5.140   79.979  189.087
  582.810    0.504    0.252    5.177   80.826  189.053
  583.060    0.497    0.249    5.264   83.425  189.535
  583.310    0.498    0.249    5.422   86.584  189.602
  583.560    0.506    0.253    5.596   89.494  189.153
  583.810    0.515    0.297    5.818   83.356  188.677
  584.060    0.527    0.310    6.083   79.777  188.008
  584.310    0.508    0.315    6.266   77.132  187.438
  584.560    0.486    0.315    6.491   74.424  187.082
  584.810    0.488    0.312    6.761   71.217  187.046
  585.060    0.504    0.320    6.965   69.447  186.906
  585.310    0.520    0.314    7.108   71.607  186.755
  585.560    0.525    0.301    7.227   75.331  186.818
  585.810    0.519    0.289    7.266   78.801  186.784
  586.060    0.512    0.295    7.251   76.093  186.637
  586.310    0.507    0.297    7.236   71.328  186.383
  586.560    0.502    0.302    7.154   69.682  186.135
  586.810    0.516    0.319    7.072   71.219  185.779
  587.060    0.531    0.320    6.979   72.505  185.528
  587.310    0.522    0.315    6.952   71.861  185.275
  587.560    0.511    0.313    6.899   70.961  185.563
  587.810    0.495    0.308    6.846   71.687  185.940
  588.060    0.475    0.298    6.794   70.607  186.114
  588.310    0.470    0.293    6.742   70.206  186.180
  588.560    0.480    0.297    6.665   71.368  185.935
  588.810    0.486    0.301    6.565   73.092  185.882
  589.060    0.495    0.294    6.479   78.561  185.530
  589.310    0.513    0.284    6.357   85.967  184.538
