~VERSION INFORMATION
 VERS.                 2.0:   CWLS LOG ASCII STANDARD -VERSION 2.0
 WRAP.                  NO:   ONE LINE PER DEPTH STEP
~WELL INFORMATION BLOCK
#MNEM.UNIT           DATA                    DESCRIPTION OF MNEMONIC
#---------    -------------------            -------------------------------
# Generated from Intellog Unique Number	CS_69_70/WELL/771
NULL.         -999.25                        : NULL_VALUE
WELL.         SULPETRO LIMITED               : Well_name    - WELL              
LOC .         00/06-16-070-09W4/0            : Location     - LOCATION          
UWI .         00/06-16-070-09W4/0            : Uwi          - UNIQUE WELL ID    
ENTR.         SP                             : Entered      - ENTERED BY        
SRVC.         SCHLUMBERGER                   : Scn          - SERVICE COMPANY   
STRT.M        260                            : top_depth    - START DEPTH       
STOP.M        480                            : bot_depth    - STOP DEPTH        
STEP.M        0.25                           : increment    - STEP LENGTH       
~CURVE INFORMATION BLOCK
#MNEM UNIT       ERCB CURVE CODE    CURVE DESCRIPTION
#-----------   ------------------   ----------------------------------
DEPT.M        00 001 00 00         : DEPTH        - DEPTH                       
ILD .OHMM     00 120 00 00         : RESD         - DEEP RESISTIVITY (DIL)      
DPHI.V/V      00 890 00 00         : PHID         - DENSITY POROSITY (LIMESTONE)
NPHI.V/V      00 330 00 00         : PHIN         - NEUTRON POROSITY (LIMESTONE)
GR  .API      00 310 00 00         : GR           - GAMMA RAY                   
~PARAMETER INFORMATION       
#MNEM.UNIT           DATA             DESCRIPTION OF MNEMONIC
#---------         -----------     ------------------------------
GL  .M        600.87               : gl           - GROUND LEVEL ELEVATION      
EREF.M        603.87               : kb           - ELEVATION OF DEPTH REFERENCE
DATM.M        600.87               : datum        - DATUM ELEVATION             
TDD .M        489                  : tdd          - TOTAL DEPTH DRILLER         
RUN .         ONE                  : Run          - RUN NUMBER                  
ENG .         BILL                 : Engineer     - RECORDING ENGINEER          
WIT .         JIM                  : Witness      - WITNESSED BY                
MUD .         GEL                  : Mud_type     - MUD TYPE                    
MATR.         LIMESTONE            : Logunit      - NEUTRON MATRIX              
TMAX.C        22                   : BHT          - MAXIMUM RECORDED TEMPERATURE
BHTD.M        489                  : BHTDEP       - MAXIMUM RECORDED TEMPERATURE
MATR.         1                    : LOGUNIT      - NEUTRON MATRIX              
RMT .C        25                   : MDTP         - TEMPERATURE OF MUD          
NEUT.         1                    : NEUTRON      - NEUTRON TYPE                
RESI.         0                    : RESIST       - RESISTIVITY TYPE            
RMC .OHMM     0.25                 : RMC          - RESISTIVITY OF MUD CAKE     
RMF .OHMM     0.25                 : RMF          - RESISTIVITY OF MUD FILTRATE 
SUFT.C        15                   : SUFT         - SURFACE TEMPERATURE         
~A  DEPTH     RESD     PHID     PHIN       GR
# ...
  390.500    2.970    0.219    0.416  105.252
  390.750    2.502    0.215    0.413  103.658
  391.000    2.286    0.220    0.422  102.992
  391.250    2.136    0.242    0.473  103.932
  391.500    2.117    0.279    0.548  105.426
  391.750    2.138    0.296    0.508  107.170
  392.000    2.175    0.287    0.482  107.613
  392.250    2.221    0.267    0.486  105.217
  392.500    2.273    0.250    0.492  103.440
  392.750    2.304    0.236    0.467  103.450
  393.000    2.348    0.228    0.461  105.441
  393.250    2.403    0.226    0.451  106.996
  393.500    2.562    0.236    0.428  107.813
  393.750    2.817    0.243    0.452  107.763
  394.000    3.198    0.237    0.489  106.726
  394.250    3.515    0.246    0.494   99.326
  394.500    3.756    0.260    0.394   93.469
  394.750    4.068    0.260    0.380   88.599
  395.000    4.289    0.249    0.378   93.678
  395.250    4.541    0.238    0.400   97.460
  395.500    4.761    0.232    0.395   99.820
  395.750    5.147    0.226    0.379   98.349
  396.000    5.285    0.224    0.372   96.139
  396.250    5.637    0.218    0.365   93.248
  396.500    5.979    0.207    0.353   90.418
  396.750    6.071    0.184    0.331   86.354
  397.000    5.859    0.150    0.333   83.955
  397.250    5.773    0.155    0.346   85.390
  397.500    5.807    0.183    0.385   87.873
  397.750    6.194    0.210    0.439   90.543
  398.000    7.019    0.221    0.464   92.038
  398.250    7.528    0.210    0.476   92.483
  398.500    8.029    0.170    0.364   84.279
  398.750    8.108    0.081    0.164   68.659
  399.000    7.093    0.045    0.140   60.640
  399.250    6.504    0.015    0.136   62.817
  399.500    6.056    0.095    0.294   73.518
  399.750    5.670    0.161    0.342   85.330
  400.000    5.421    0.179    0.388   94.548
  400.250    5.291    0.186    0.384   95.241
  400.500    5.155    0.188    0.391   93.770
  400.750    5.108    0.189    0.400   96.997
  401.000    5.032    0.190    0.368   99.297
  401.250    5.024    0.200    0.359  100.853
  401.500    5.035    0.210    0.365  100.803
  401.750    5.036    0.213    0.380  100.012
  402.000    5.057    0.209    0.391  101.940
  402.250    5.068    0.206    0.414  103.685
  402.500    5.098    0.204    0.431  104.745
  402.750    5.148    0.203    0.421  105.747
  403.000    5.169    0.207    0.402  106.377
  403.250    5.200    0.213    0.391  106.637
  403.500    5.251    0.222    0.384  106.155
  403.750    5.252    0.223    0.374  104.561
  404.000    5.204    0.219    0.362  105.994
  404.250    5.196    0.209    0.373  113.916
  404.500    5.043    0.204    0.398  123.258
  404.750    4.903    0.192    0.427  129.695
  405.000    4.740    0.179    0.450  128.967
  405.250    4.575    0.170    0.378  115.634
  405.500    4.373    0.190    0.385  103.907
  405.750    4.228    0.226    0.394   95.086
  406.000    4.073    0.253    0.423   91.021
  406.250    4.005    0.258    0.390   93.939
  406.500    4.006    0.250    0.407   97.103
  406.750    4.092    0.239    0.426  100.702
  407.000    4.147    0.232    0.386  101.636
  407.250    4.180    0.227    0.355   98.807
  407.500    4.173    0.232    0.343   96.224
  407.750    4.104    0.228    0.332   96.299
  408.000    3.872    0.218    0.331   98.228
  408.250    3.406    0.209    0.344   99.352
  408.500    3.042    0.209    0.336   98.684
  408.750    2.707    0.214    0.343   94.559
  409.000    2.409    0.234    0.393   92.531
  409.250    2.201    0.252    0.444   93.100
  409.500    2.128    0.265    0.461   93.484
  409.750    2.132    0.263    0.428   93.804
  410.000    2.331    0.263    0.416   92.890
  410.250    2.597    0.262    0.450   93.521
  410.500    2.801    0.258    0.481   96.499
  410.750    3.114    0.261    0.469   97.995
  411.000    3.469    0.260    0.450   97.822
  411.250    3.785    0.248    0.450   98.453
  411.500    4.184    0.234    0.463   99.700
  411.750    4.463    0.218    0.435   96.068
  412.000    4.724    0.154    0.375   90.829
  412.250    4.889    0.110    0.341   86.331
  412.500    4.586    0.145    0.322   88.817
  412.750    4.254    0.190    0.371   92.104
  413.000    3.975    0.210    0.389   93.536
  413.250    3.800    0.226    0.380   93.487
  413.500    3.730    0.254    0.417   93.005
  413.750    3.882    0.269    0.435   93.205
  414.000    4.149    0.271    0.444   94.145
  414.250    4.442    0.260    0.451   94.402
  414.500    4.623    0.242    0.460   88.486
  414.750    4.748    0.158    0.333   84.111
  415.000    4.758    0.083    0.310   82.578
  415.250    4.635    0.069    0.293   88.769
  415.500    4.356    0.119    0.312   93.353
  415.750    3.906    0.162    0.356   96.640
  416.000    3.475    0.182    0.373   98.445
  416.250    3.217    0.192    0.355   98.643
  416.500    3.070    0.198    0.339  102.671
  416.750    2.935    0.204    0.402  107.009
  417.000    2.875    0.209    0.425  110.172
  417.250    2.822    0.213    0.443  108.950
  417.500    2.786    0.217    0.440  106.984
  417.750    2.745    0.218    0.418  108.047
  418.000    2.730    0.218    0.430  110.223
  418.250    2.705    0.217    0.455  113.018
  418.500    2.701    0.214    0.474  115.623
  418.750    2.712    0.211    0.490  118.417
  419.000    2.713    0.207    0.456  118.861
  419.250    2.724    0.205    0.407  117.390
  419.500    2.740    0.203    0.380  113.017
  419.750    2.710    0.199    0.354  113.153
  420.000    2.610    0.197    0.370  116.752
  420.250    2.548    0.195    0.392  119.422
  420.500    2.520    0.194    0.402  121.595
  420.750    2.698    0.196    0.424  123.955
  421.000    3.074    0.198    0.457  126.067
  421.250    3.509    0.199    0.490  127.438
  421.500    4.029    0.190    0.516  112.870
  421.750    4.731    0.131    0.362   95.214
  422.000    5.300    0.100    0.328   87.318
  422.250    5.859    0.104    0.325   84.118
  422.500    6.238    0.134    0.338   83.760
  422.750    6.542    0.170    0.348   79.819
  423.000    6.769    0.206    0.340   73.220
  423.250    7.302    0.235    0.331   71.751
  423.500    7.878    0.248    0.322   72.814
  423.750    8.121    0.245    0.316   73.505
  424.000    8.404    0.237    0.317   74.259
  424.250    8.681    0.231    0.326   75.138
  424.500    8.883    0.229    0.339   75.336
  424.750    9.088    0.225    0.346   74.977
  425.000    9.639    0.221    0.334   74.311
  425.250   10.242    0.215    0.327   74.260
  425.500   11.111    0.208    0.318   73.655
  425.750   11.651    0.130    0.225   72.433
  426.000   11.876    0.072    0.193   66.328
  426.250   11.768    0.038    0.168   56.949
  426.500   11.229    0.005    0.153   54.553
  426.750   10.259    0.025    0.207   61.608
  427.000    9.660    0.049    0.227   66.441
  427.250    9.340    0.067    0.230   66.947
  427.500    9.593    0.056    0.242   67.578
  427.750    9.927    0.100    0.263   73.582
  428.000   10.157    0.136    0.352   80.269
  428.250   10.160    0.178    0.406   82.999
  428.500    9.353    0.230    0.436   85.421
  428.750    8.807    0.254    0.415   91.983
  429.000    8.532    0.223    0.381  103.796
  429.250    8.664    0.198    0.364  111.285
  429.500    8.865    0.194    0.389  112.842
  429.750    9.071    0.219    0.358  104.575
  430.000    9.090    0.235    0.336   97.236
  430.250    8.990    0.247    0.309   92.431
  430.500    8.791    0.235    0.291   92.443
  430.750    8.565    0.226    0.337   92.764
  431.000    8.424    0.225    0.363   93.464
  431.250    8.332    0.232    0.383   93.719
  431.500    8.301    0.237    0.357   89.290
  431.750    8.196    0.246    0.337   91.579
  432.000    8.167    0.256    0.328   90.417
  432.250    8.107    0.253    0.322   88.888
  432.500    8.063    0.246    0.352   88.589
  432.750    8.005    0.241    0.379   90.084
  433.000    7.932    0.244    0.404   90.900
  433.250    7.830    0.250    0.389   91.962
  433.500    7.628    0.258    0.369   97.907
  433.750    7.403    0.261    0.355  103.480
