~VERSION INFORMATION
 VERS.                 2.0:   CWLS LOG ASCII STANDARD -VERSION 2.0
 WRAP.                  NO:   ONE LINE PER DEPTH STEP
~WELL INFORMATION BLOCK
#MNEM.UNIT           DATA                    DESCRIPTION OF MNEMONIC
#---------    -------------------            -------------------------------
# Generated from Intellog Unique Number	CW_82_90/WELL/642
WELL.         08-09-082-21W4                 : Well_name    - WELL
LOC .         00/08-09-082-21W4/0            : Location     - LOCATION
UWI .         00/08-09-082-21W4/0            : Uwi          - UNIQUE WELL ID
ENTR.         JAYE                           : Entered      - ENTERED BY
SRVC.         SCHLUMBERGER                   : Scn          - SERVICE COMPANY
DATE.         01 FEB 1974                    : Date         - LOG DATE
STRT.M        234.696                        : top_depth    - START DEPTH
STOP.M        444.946                        : bot_depth    - STOP DEPTH
STEP.M        0.25                           : increment    - STEP LENGTH
 NULL. -999.2500:NULL Value
~CURVE INFORMATION BLOCK
#MNEM UNIT       ERCB CURVE CODE    CURVE DESCRIPTION
#-----------   ------------------   ----------------------------------
DEPT.M        00 001 00 00         : DEPTH        - DEPTH
CALI.MM       00 280 01 00         : CAL          - CALIPER
GR  .API      00 310 00 00         : GR           - GAMMA RAY
DPHI.V/V      00 890 00 00         : PHID         - DENSITY POROSITY (SANDSTONE)
NPHI.V/V      00 330 00 00         : PHIN         - NEUTRON POROSITY (SANDSTONE)
ILD .OHMM     00 120 00 00         : RESD         - DEEP RESISTIVITY (DLL)
~PARAMETER INFORMATION
#MNEM.UNIT           DATA             DESCRIPTION OF MNEMONIC
#---------         -----------     ------------------------------
GL  .M        631.241              : gl           - GROUND LEVEL ELEVATION
EREF.M        627.583              : kb           - ELEVATION OF DEPTH REFERENCE
DATM.M        631.241              : datum        - DATUM ELEVATION
TDD .M        458.724              : tdd          - TOTAL DEPTH DRILLER
RUN .         ONE                  : Run          - RUN NUMBER
ENG .         STRUYK               : Engineer     - RECORDING ENGINEER
BASE.         EDMONTON             : Branch       - HOME BASE OF LOGGING UNIT
MUD .         GEL CHEM             : Mud_type     - MUD TYPE
MATR.         SANDSTONE            : Logunit      - NEUTRON MATRIX
TMAX.C        11.6667              : BHT          - MAXIMUM RECORDED TEMPERATURE
BHTD.M        458.724              : BHTDEP       - MAXIMUM RECORDED TEMPERATURE
RMT .C        11.6667              : MDTP         - TEMPERATURE OF MUD
MUDD.KG/M     8900                 : MWT          - MUD DENSITY
NEUT.         0                    : NEUTRON      - NEUTRON TYPE
RESI.         1                    : RESIST       - RESISTIVITY TYPE
RM  .OHMM     4.2                  : RM           - RESISTIVITY OF MUD
RMC .OHMM     3.9                  : RMC          - RESISTIVITY OF MUD CAKE
RMF .OHMM     0.25                 : RMF          - RESISTIVITY OF MUD FILTRATE
SUFT.C        4                    : SUFT         - SURFACE TEMPERATURE
~A  DEPTH      CAL       GR     PHID     PHIN     RESD
# ...
  307.696  163.942   47.606    0.336    0.569   10.962
  307.946  163.718   47.167    0.330    0.549   11.079
  308.196  163.494   48.010    0.326    0.556   11.035
  308.446  163.166   48.302    0.323    0.561   11.072
  308.696  162.422   45.426    0.319    0.566   11.108
  308.946  161.993   45.840    0.318    0.560   11.146
  309.196  162.378   46.255    0.323    0.549   11.182
  309.446  162.879   47.767    0.327    0.540   11.281
  309.696  163.683   49.094    0.321    0.543   11.299
  309.946  164.279   49.144    0.318    0.543   11.357
  310.196  164.775   49.496    0.326    0.558   11.354
  310.446  164.649   51.433    0.328    0.567   11.267
  310.696  164.631   51.665    0.336    0.566   11.162
  310.946  164.712   49.461    0.336    0.548   10.935
  311.196  164.485   49.449    0.335    0.538   10.912
  311.446  164.262   50.168    0.326    0.543   10.868
  311.696  164.035   49.607    0.335    0.543   10.904
  311.946  163.808   50.266    0.341    0.506   10.901
  312.196  163.172   51.471    0.334    0.495   10.857
  312.446  162.841   52.313    0.330    0.491   10.815
  312.696  162.408   53.761    0.333    0.501   10.810
  312.946  162.081   53.080    0.331    0.536   10.728
  313.196  161.749   53.492    0.334    0.556   10.588
  313.446  161.629   56.285    0.334    0.557   10.450
  313.696  161.504   58.952    0.329    0.569   10.313
  313.946  161.892   57.052    0.321    0.586   10.235
  314.196  162.185   56.493    0.326    0.601   10.138
  314.446  162.160   58.247    0.332    0.585   10.099
  314.696  162.352   59.148    0.343    0.548   10.058
  314.946  163.051   59.257    0.335    0.522   10.055
  315.196  163.959   59.246    0.337    0.515   10.032
  315.446  164.864   57.468    0.337    0.522    9.956
  315.696  164.226   56.235    0.337    0.554    9.862
  315.946  163.486   56.834    0.346    0.570    9.788
  316.196  162.745   59.015    0.347    0.575    9.677
  316.446  162.725   58.455    0.339    0.564    9.604
  316.696  163.218   56.859    0.331    0.573    9.427
  316.946  163.095   55.508    0.336    0.563    9.236
  317.196  163.075   54.156    0.342    0.547    8.983
  317.446  164.085   54.509    0.336    0.547    8.946
  317.696  163.448   55.957    0.325    0.564    9.059
  317.946  162.291   57.285    0.318    0.585    9.157
  318.196  161.656   58.067    0.318    0.605    9.154
  318.446  161.533   58.968    0.332    0.608    9.101
  318.696  161.512   59.321    0.325    0.595    9.015
  318.946  161.802   59.858    0.315    0.603    8.897
  319.196  161.573   60.577    0.316    0.593    8.861
  319.446  162.378   61.053    0.322    0.571    8.842
  319.696  163.389   60.309    0.318    0.555    8.840
  319.946  164.398   59.811    0.316    0.577    8.820
  320.196  164.889   58.885    0.323    0.589    8.786
  320.446  164.049   57.472    0.324    0.603    8.735
  320.696  163.100   56.666    0.322    0.609    8.526
  320.946  162.773   59.093    0.323    0.583    8.369
  321.196  163.573   60.724    0.323    0.570    8.412
  321.446  164.483   60.714    0.322    0.546    8.441
  321.696  164.566   61.553    0.319    0.541    8.484
  321.946  163.516   62.639    0.327    0.556    8.544
  322.196  161.127   62.991    0.324    0.547    8.604
  322.446  161.519   62.856    0.315    0.539    8.648
  322.696  161.703   60.103    0.315    0.521    8.709
  322.946  161.476   59.058    0.319    0.547    8.256
  323.196  161.871   63.675    0.317    0.564    7.091
  323.446  162.876   67.926    0.310    0.574    5.796
  323.696  164.818   75.100    0.298    0.574    4.720
  323.946  169.535   75.694    0.273    0.634    4.076
  324.196  173.219   73.919    0.250    0.636    3.598
  324.446  168.774   70.862    0.257    0.624    3.107
  324.696  164.940   71.277    0.271    0.650    2.743
  324.946  166.158   74.431    0.258    0.650    3.409
  325.196  166.961   75.272    0.198    0.567    3.981
  325.446  166.525   76.295    0.171    0.475    4.282
  325.696  167.225   79.573    0.156    0.470    4.734
  325.946  168.344   78.644    0.191    0.537    5.148
  326.196  168.116   77.113    0.219    0.572    5.670
  326.446  165.624   73.383    0.229    0.596    6.269
  326.696  163.646   73.982    0.238    0.557    8.554
  326.946  163.215   73.300    0.244    0.504   10.458
  327.196  163.503   69.451    0.256    0.487   11.268
  327.446  163.893   66.639    0.273    0.487   11.389
  327.696  163.873   68.087    0.282    0.506   10.640
  327.946  163.233   73.679    0.278    0.507    9.977
  328.196  163.012   78.418    0.252    0.498    9.085
  328.446  163.297   78.893    0.245    0.489    8.410
  328.696  164.104   80.158    0.245    0.517    7.987
  328.946  165.423   80.939    0.239    0.527    7.726
  329.196  166.324   81.354    0.234    0.523    7.377
  329.446  166.821   83.594    0.231    0.512    7.268
  329.696  167.317   83.949    0.238    0.501    7.279
  329.946  167.707   82.718    0.237    0.507    7.371
  330.196  167.484   82.340    0.228    0.502    7.615
  330.446  166.535   81.840    0.229    0.503    7.853
  330.696  165.587   81.890    0.234    0.544    7.952
  330.946  166.391   82.671    0.237    0.540    8.022
  331.196  167.094   84.059    0.237    0.529    8.108
  331.446  166.764   85.566    0.231    0.553    8.120
  331.696  165.919   85.374    0.225    0.569    8.148
  331.946  165.488   83.476    0.225    0.575    8.175
  332.196  165.776   80.663    0.220    0.532    8.187
  332.446  166.067   80.833    0.215    0.530    8.154
  332.696  165.942   82.099    0.213    0.536    8.136
  332.946  163.652   83.854    0.235    0.547    8.105
  333.196  163.638   85.910    0.249    0.563    7.868
  333.446  166.191   87.241    0.255    0.569    7.486
  333.696  167.201   83.636    0.254    0.563    7.335
  333.946  168.309   79.239    0.244    0.539    7.413
  334.196  168.191   73.623    0.237    0.540    7.974
  334.446  166.833   70.141    0.237    0.536    8.314
  334.696  164.748   67.875    0.237    0.485    8.780
  334.946  164.526   68.107    0.242    0.480    9.005
  335.196  164.504   69.495    0.260    0.492    9.101
  335.446  166.332   70.824    0.269    0.514    9.115
  335.696  167.449   75.927    0.261    0.509    8.721
  335.946  168.251   79.996    0.253    0.523    8.607
  336.196  167.822   75.600    0.244    0.547    8.651
  336.446  164.919   71.324    0.234    0.500    8.776
  336.696  163.971   72.650    0.271    0.500    8.952
  336.946  163.228   71.666    0.261    0.491    9.047
  337.196  163.726   69.644    0.266    0.472    8.864
  337.446  164.525   69.449    0.257    0.470    8.829
  337.696  164.815   69.559    0.265    0.493    8.682
  337.946  164.898   70.643    0.272    0.519    8.475
  338.196  164.261   72.763    0.262    0.517    8.303
  338.446  164.138   75.613    0.248    0.497    8.254
  338.696  164.324   78.340    0.229    0.500    8.207
  338.946  164.612   79.486    0.200    0.470    8.026
  339.196  164.595   81.849    0.173    0.463    7.721
  339.446  164.159   80.681    0.219    0.487    7.387
  339.696  164.137   78.536    0.250    0.552    6.776
  339.946  164.017   78.707    0.240    0.536    6.047
  340.196  164.513   79.122    0.228    0.543    5.527
  340.446  164.904   80.754    0.258    0.532    4.712
  340.696  164.985   82.689    0.247    0.550    4.121
  340.946  164.347   82.315    0.239    0.581    4.023
  341.196  162.885   74.689    0.252    0.589    4.742
  341.446  162.353   69.380    0.268    0.578    5.651
  341.696  162.843   66.260    0.274    0.569    6.636
  341.946  163.027   67.526    0.268    0.573    7.638
  342.196  162.907   69.096    0.272    0.585    8.276
  342.446  162.366   69.209    0.255    0.559    8.273
  342.696  162.454   68.771    0.266    0.559    7.973
  342.946  162.538   69.428    0.257    0.589    7.642
  343.196  162.927   71.366    0.268    0.591    7.271
  343.446  163.321   72.694    0.261    0.609    7.242
  343.696  165.257   72.925    0.262    0.627    7.414
  343.946  164.827   74.435    0.263    0.617    7.758
