~VERSION INFORMATION
 VERS.                 2.0:   CWLS LOG ASCII STANDARD -VERSION 2.0
 WRAP.                  NO:   ONE LINE PER DEPTH STEP
~WELL INFORMATION BLOCK
#MNEM.UNIT           DATA                    DESCRIPTION OF MNEMONIC
#---------    -------------------            -------------------------------
# Generated from Intellog Unique Number	CS_67_68/WELL/2188
WELL.         DOME AEC MEDLEY                : Well_name    - WELL
LOC .         00/09-11-067-02W4/0            : Location     - LOCATION
UWI .         00/09-11-067-02W4/0            : Uwi          - UNIQUE WELL ID
ENTR.         SP                             : Entered      - ENTERED BY
SRVC.         SCHLUMBERGER                   : Scn          - SERVICE COMPANY
STRT.M        310                            : top_depth    - START DEPTH
STOP.M        565                            : bot_depth    - STOP DEPTH
STEP.M        0.25                           : increment    - STEP LENGTH
 NULL. -999.2500:NULL Value
~CURVE INFORMATION BLOCK
#MNEM UNIT       ERCB CURVE CODE    CURVE DESCRIPTION
#-----------   ------------------   ----------------------------------
DEPT.M        00 001 00 00         : DEPTH        - DEPTH
ILD .OHMM     00 120 00 00         : RESD         - DEEP RESISTIVITY (DIL)
DPHI.V/V      00 890 00 00         : PHID         - DENSITY POROSITY (LIMESTONE)
GR  .API      00 310 00 00         : GR           - GAMMA RAY
CALI.MM       00 280 01 00         : CAL          - CALIPER
NPHI.V/V      00 330 00 00         : PHIN         - NEUTRON POROSITY (LIMESTONE)
~PARAMETER INFORMATION
#MNEM.UNIT           DATA             DESCRIPTION OF MNEMONIC
#---------         -----------     ------------------------------
GL  .M        619.09               : gl           - GROUND LEVEL ELEVATION
EREF.M        623                  : kb           - ELEVATION OF DEPTH REFERENCE
DATM.M        623                  : datum        - DATUM ELEVATION
TDD .M        571                  : tdd          - TOTAL DEPTH DRILLER
RUN .         ONE                  : Run          - RUN NUMBER
ENG .         BILL                 : Engineer     - RECORDING ENGINEER
WIT .         JIM                  : Witness      - WITNESSED BY
MUD .         GEL                  : Mud_type     - MUD TYPE
MATR.         LIMESTONE            : Logunit      - NEUTRON MATRIX
TMAX.C        25.5                 : BHT          - MAXIMUM RECORDED TEMPERATURE
BHTD.M        573                  : BHTDEP       - MAXIMUM RECORDED TEMPERATURE
MATR.         1                    : LOGUNIT      - NEUTRON MATRIX
RMT .C        25                   : MDTP         - TEMPERATURE OF MUD
NEUT.         1                    : NEUTRON      - NEUTRON TYPE
RESI.         0                    : RESIST       - RESISTIVITY TYPE
RMC .OHMM     0.25                 : RMC          - RESISTIVITY OF MUD CAKE
RMF .OHMM     0.25                 : RMF          - RESISTIVITY OF MUD FILTRATE
SUFT.C        15                   : SUFT         - SURFACE TEMPERATURE
~A  DEPTH     RESD     PHID       GR      CAL     PHIN
# ...
  456.000    6.234    0.272   71.859  160.045    0.445
  456.250    5.284    0.254   74.526  159.740    0.427
  456.500    4.783    0.259   77.981  159.433    0.414
  456.750    4.511    0.259   81.376  160.039    0.421
  457.000    4.393    0.240   85.618  160.744    0.432
  457.250    4.309    0.232   87.438  161.045    0.447
  457.500    4.301    0.232   87.319  161.043    0.453
  457.750    4.164    0.231   86.775  161.142    0.446
  458.000    3.692    0.229   87.201  161.241    0.441
  458.250    3.342    0.226   89.020  161.542    0.437
  458.500    3.003    0.223   91.385  161.539    0.432
  458.750    2.733    0.228   88.176  161.638    0.455
  459.000    2.554    0.249   85.028  162.041    0.475
  459.250    2.391    0.264   83.697  162.039    0.492
  459.500    2.293    0.276   83.033  162.137    0.514
  459.750    2.246    0.289   82.610  162.134    0.531
  460.000    2.228    0.284   82.430  161.525    0.520
  460.250    2.215    0.278   82.675  161.321    0.513
  460.500    2.173    0.282   82.979  161.015    0.512
  460.750    2.116    0.289   79.770  161.114    0.513
  461.000    2.073    0.288   76.803  161.313    0.510
  461.250    2.111    0.295   77.532  161.210    0.530
  461.500    2.166    0.303   79.654  161.713    0.551
  461.750    2.223    0.309   82.080  162.116    0.549
  462.000    2.273    0.311   83.475  162.215    0.535
  462.250    2.350    0.315   84.810  162.314    0.545
  462.500    2.448    0.322   85.296  162.412    0.554
  462.750    2.560    0.329   84.995  162.511    0.545
  463.000    2.733    0.320   82.937  162.610    0.537
  463.250    2.918    0.307   80.758  162.709    0.534
  463.500    3.307    0.293   86.091  162.807    0.543
  463.750    3.870    0.283   89.728  162.906    0.547
  464.000    4.745    0.278   88.579  163.107    0.529
  464.250    5.918    0.286   85.309  163.205    0.505
  464.500    6.695    0.299   80.647  163.304    0.482
  464.750    7.255    0.306   72.591  163.201    0.451
  465.000    7.686    0.310   67.746  162.794    0.432
  465.250    7.785    0.315   66.779  162.488    0.442
  465.500    7.524    0.320   65.387  162.182    0.456
  465.750    7.327    0.309   65.813  162.078    0.452
  466.000    7.135    0.298   68.662  161.975    0.443
  466.250    7.000    0.286   72.057  161.466    0.444
  466.500    6.920    0.289   75.149  161.464    0.457
  466.750    6.918    0.302   77.210  161.057    0.454
  467.000    6.993    0.302   71.578  160.751    0.441
  467.250    7.084    0.294   67.036  160.648    0.447
  467.500    7.175    0.291   63.948  160.645    0.458
  467.750    7.322    0.291   68.130  160.642    0.455
  468.000    7.700    0.287   71.161  160.641    0.455
  468.250    8.826    0.280   68.013  160.537    0.456
  468.500   10.844    0.273   65.168  160.332    0.449
  468.750   12.476    0.283   66.321  160.229    0.443
  469.000   13.368    0.293   69.231  159.721    0.448
  469.250   14.216    0.284   68.323  159.718    0.457
  469.500   14.865    0.046   62.146  160.222    0.410
  469.750   14.667    0.011   53.666  161.332    0.332
  470.000    9.176    0.000   45.792  162.342    0.168
  470.250    7.136    0.015   47.915  162.542    0.184
  470.500    6.643    0.046   56.338  162.640    0.298
  470.750    6.420    0.205   64.518  161.727    0.387
  471.000    6.287    0.268   71.911  161.118    0.418
  471.250    6.226    0.294   77.668  161.015    0.434
  471.500    6.201    0.287   76.277  160.709    0.445
  471.750    6.211    0.285   73.552  161.818    0.455
  472.000    6.326    0.281   73.009  162.423    0.449
  472.250    6.480    0.271   74.041  162.826    0.444
  472.500    6.576    0.275   75.375  163.026    0.450
  472.750    6.686    0.281   76.104  162.923    0.460
  473.000    6.709    0.285   77.136  162.920    0.456
  473.250    6.744    0.281   75.018  162.716    0.442
  473.500    6.717    0.282   72.839  162.106    0.434
  473.750    6.492    0.294   70.902  161.395    0.446
  474.000    6.228    0.298   73.993  160.685    0.462
  474.250    6.202    0.294   77.630  160.582    0.469
  474.500    6.270    0.288   80.237  160.478    0.475
  474.750    6.532    0.282   81.996  160.577    0.477
  475.000    6.921    0.277   82.846  160.473    0.467
  475.250    7.374    0.268   82.000  160.572    0.470
  475.500    7.842    0.256   78.548  160.671    0.423
  475.750    8.277    0.243   75.400  160.871    0.398
  476.000    8.704    0.240   72.373  161.071    0.413
  476.250    9.034    0.251   69.103  157.628    0.428
  476.500    9.393    0.263   66.742  157.322    0.424
  476.750    9.676    0.283   64.381  157.118    0.411
  477.000    9.707    0.303   62.506  157.217    0.398
  477.250    9.688    0.294   61.659  157.215    0.396
  477.500    9.666    0.269   61.297  157.617    0.413
  477.750    9.682    0.279   61.360  157.817    0.423
  478.000    9.679    0.261   59.665  157.916    0.424
  478.250    9.267    0.244   60.031  158.622    0.422
  478.500    8.325    0.267   62.275  159.833    0.428
  478.750    6.926    0.326   65.245  161.146    0.438
  479.000    5.761    0.325   68.942  163.066    0.432
  479.250    5.414    0.301   73.064  163.873    0.420
  479.500    6.431    0.277   74.580  165.287    0.431
  479.750    7.512    0.280   66.949  165.993    0.468
  480.000    8.403    0.298   62.043  162.955    0.490
  480.250    9.347    0.312   57.925  162.043    0.432
  480.500   10.072    0.325   62.047  160.928    0.394
  480.750   10.832    0.326   65.502  160.520    0.385
  481.000   11.221    0.328   66.049  160.215    0.407
  481.250   11.473    0.335   63.325  160.111    0.416
  481.500   11.556    0.340   62.054  160.412    0.404
  481.750   11.617    0.331   63.268  160.612    0.397
  482.000   11.548    0.325   67.208  161.318    0.399
  482.250   11.565    0.323   70.784  161.822    0.396
  482.500   11.627    0.322   73.997  162.123    0.403
  482.750   11.711    0.321   76.785  162.829    0.435
  483.000   12.018    0.319   77.999  162.927    0.447
  483.250   12.265    0.319   78.728  162.622    0.424
  483.500   12.587    0.320   80.426  162.214    0.390
  483.750   12.419    0.320   82.245  162.414    0.382
  484.000   12.071    0.315   81.338  162.918    0.383
  484.250   11.798    0.293   81.159  163.624    0.375
  484.500   11.573    0.272   74.133  164.127    0.358
  484.750   11.572    0.241   70.015  164.833    0.343
  485.000   11.742    0.231   66.322  165.337    0.344
  485.250   11.894    0.234   66.142  165.942    0.339
  485.500   12.138    0.216   65.538  165.534    0.334
  485.750   12.456    0.202   63.177  165.431    0.348
  486.000   12.523    0.227   56.212  165.327    0.364
  486.250   12.286    0.261   38.282  164.819    0.359
  486.500   11.986    0.289   29.863  164.412    0.337
  486.750   11.848    0.290   30.470  163.803    0.316
  487.000   11.473    0.279   39.135  163.597    0.302
  487.250   11.172    0.254   50.224  163.798    0.307
  487.500   10.797    0.220   58.768  164.099    0.326
  487.750   10.574    0.242   50.834  164.804    0.335
  488.000   10.433    0.268   67.798  165.005    0.330
  488.250   10.449    0.258   78.341  165.306    0.349
  488.500   10.663    0.231   78.101  165.607    0.360
  488.750   11.026    0.243   76.346  166.313    0.364
  489.000   11.336    0.243   76.711  166.311    0.350
  489.250   11.525    0.235   78.470  166.207    0.338
  489.500   11.630    0.226   79.441  166.205    0.334
  489.750   11.736    0.219   79.625  166.304    0.328
  490.000   11.909    0.221   78.112  166.200    0.335
  490.250   12.130    0.224   75.691  165.995    0.343
  490.500   12.309    0.225   71.028  165.993    0.336
  490.750   12.469    0.235   66.425  165.889    0.333
  491.000   12.325    0.241   63.944  166.191    0.336
  491.250   12.024    0.250   61.280  166.492    0.339
  491.500   11.490    0.253   60.979  166.692    0.346
  491.750   11.359    0.247   62.071  165.475    0.338
  492.000   11.186    0.240   63.224  163.146    0.329
  492.250   11.120    0.232   63.953  162.233    0.338
