~VERSION INFORMATION
 VERS.                 2.0:   CWLS LOG ASCII STANDARD -VERSION 2.0
 WRAP.                  NO:   ONE LINE PER DEPTH STEP
~WELL INFORMATION BLOCK
#MNEM.UNIT           DATA                    DESCRIPTION OF MNEMONIC
#---------    -------------------            -------------------------------
# Generated from Intellog Unique Number	CS_67_68/WELL/2163
WELL.         ESSO AEC 85 FISHCK             : Well_name    - WELL
LOC .         00/03-25-067-07W4/0            : Location     - LOCATION
UWI .         00/03-25-067-07W4/0            : Uwi          - UNIQUE WELL ID
ENTR.         SP                             : Entered      - ENTERED BY
SRVC.         SCHLUMBERGER                   : Scn          - SERVICE COMPANY
STRT.M        325                            : top_depth    - START DEPTH
STOP.M        545                            : bot_depth    - STOP DEPTH
STEP.M        0.25                           : increment    - STEP LENGTH
 NULL. -999.2500:NULL Value
~CURVE INFORMATION BLOCK
#MNEM UNIT       ERCB CURVE CODE    CURVE DESCRIPTION
#-----------   ------------------   ----------------------------------
DEPT.M        00 001 00 00         : DEPTH        - DEPTH
ILD .OHMM     00 120 00 00         : RESD         - DEEP RESISTIVITY (DIL)
DPHI.V/V      00 890 00 00         : PHID         - DENSITY POROSITY (LIMESTONE)
NPHI.V/V      00 330 00 00         : PHIN         - NEUTRON POROSITY (LIMESTONE)
GR  .API      00 310 00 00         : GR           - GAMMA RAY
CALI.MM       00 280 01 00         : CAL          - CALIPER
~PARAMETER INFORMATION
#MNEM.UNIT           DATA             DESCRIPTION OF MNEMONIC
#---------         -----------     ------------------------------
GL  .M        649.9                : gl           - GROUND LEVEL ELEVATION
EREF.M        653.5                : kb           - ELEVATION OF DEPTH REFERENCE
DATM.M        653.5                : datum        - DATUM ELEVATION
TDD .M        549                  : tdd          - TOTAL DEPTH DRILLER
RUN .         ONE                  : Run          - RUN NUMBER
ENG .         BILL                 : Engineer     - RECORDING ENGINEER
WIT .         JIM                  : Witness      - WITNESSED BY
MUD .         GEL                  : Mud_type     - MUD TYPE
MATR.         LIMESTONE            : Logunit      - NEUTRON MATRIX
TMAX.C        19                   : BHT          - MAXIMUM RECORDED TEMPERATURE
BHTD.M        548                  : BHTDEP       - MAXIMUM RECORDED TEMPERATURE
MATR.         1                    : LOGUNIT      - NEUTRON MATRIX
RMT .C        25                   : MDTP         - TEMPERATURE OF MUD
NEUT.         1                    : NEUTRON      - NEUTRON TYPE
RESI.         0                    : RESIST       - RESISTIVITY TYPE
RMC .OHMM     0.25                 : RMC          - RESISTIVITY OF MUD CAKE
RMF .OHMM     0.25                 : RMF          - RESISTIVITY OF MUD FILTRATE
SUFT.C        15                   : SUFT         - SURFACE TEMPERATURE
~A  DEPTH     RESD     PHID     PHIN       GR      CAL
# ...
  398.000    4.465    0.292    0.421   80.740  160.801
  398.250    4.465    0.291    0.406   79.056  160.433
  398.500    4.448    0.287    0.417   75.664  160.072
  398.750    4.465    0.296    0.412   73.615  159.814
  399.000    4.507    0.292    0.411   73.943  159.647
  399.250    4.635    0.284    0.413   82.024  159.491
  399.500    4.776    0.273    0.405   89.616  159.425
  399.750    4.894    0.261    0.400   96.965  159.373
  400.000    5.025    0.253    0.415  101.079  159.507
  400.250    5.120    0.247    0.425   99.215  159.647
  400.500    5.246    0.242    0.418   95.152  159.804
  400.750    5.315    0.255    0.418   92.550  159.839
  401.000    5.375    0.265    0.416   90.379  160.285
  401.250    5.436    0.275    0.408   89.426  161.645
  401.500    5.436    0.273    0.398   89.330  163.316
  401.750    5.436    0.278    0.392   86.058  164.576
  402.000    5.487    0.297    0.406   78.272  165.431
  402.250    5.497    0.312    0.396   71.768  161.610
  402.500    5.415    0.302    0.385   74.417  157.785
  402.750    5.324    0.507    0.377   76.638  164.545
  403.000    5.156    0.564    0.534   74.166  177.401
  403.250    5.041    0.386    0.531   74.002  189.647
  403.500    4.957    0.346    0.497   75.799  207.895
  403.750    4.901    0.320    0.469   77.720  177.221
  404.000    4.882    0.304    0.444   78.716  158.852
  404.250    4.846    0.295    0.426   78.500  157.161
  404.500    4.791    0.285    0.416   77.790  158.627
  404.750    4.746    0.279    0.418   78.365  159.483
  405.000    4.693    0.272    0.426   77.598  160.038
  405.250    4.640    0.268    0.430   76.402  160.484
  405.500    4.579    0.280    0.427   77.710  161.042
  405.750    4.469    0.292    0.444   80.662  161.707
  406.000    4.353    0.302    0.459   84.475  162.474
  406.250    4.272    0.313    0.459   87.613  161.263
  406.500    4.263    0.307    0.465   89.895  161.403
  406.750    4.369    0.298    0.484   91.380  160.744
  407.000    4.476    0.288    0.479   81.153  160.372
  407.250    4.535    0.306    0.457   80.267  159.603
  407.500    4.570    0.304    0.438   83.094  159.031
  407.750    4.569    0.298    0.450   84.710  158.561
  408.000    4.518    0.291    0.463   83.879  158.907
  408.250    4.434    0.285    0.471   85.000  159.458
  408.500    4.327    0.280    0.477   87.103  160.418
  408.750    4.238    0.279    0.470   88.347  161.783
  409.000    4.167    0.296    0.463   89.226  163.957
  409.250    4.097    0.464    0.495   88.887  167.559
  409.500    4.036    0.536    0.537   88.422  170.655
  409.750    3.968    0.554    0.534   87.105  173.440
  410.000    3.916    0.568    0.516   85.181  173.994
  410.250    3.843    0.572    0.499   84.347  172.815
  410.500    3.708    0.651    0.529   81.443  173.056
  410.750    3.598    0.700    0.568   79.822  175.743
  411.000    3.511    0.646    0.620   84.361  177.211
  411.250    3.420    0.608    0.636   88.171  179.083
  411.500    3.331    0.600    0.620   87.707  181.158
  411.750    3.208    0.604    0.608   84.078  190.253
  412.000    3.160    0.727    0.596   82.209  186.026
  412.250    3.178    0.689    0.568   80.885  187.794
  412.500    3.178    0.664    0.544   82.377  203.397
  412.750    3.208    0.656    0.532   85.696  225.717
  413.000    3.208    0.643    0.553   85.905  199.514
  413.250    3.214    0.624    0.567   83.427  188.367
  413.500    3.232    0.607    0.592   81.198  187.393
  413.750    3.274    0.594    0.594   85.557  181.941
  414.000    3.355    0.553    0.561   88.629  175.580
  414.250    3.438    0.521    0.534   90.850  175.417
  414.500    3.510    0.351    0.509   91.248  173.729
  414.750    3.536    0.322    0.493   90.173  169.295
  415.000    3.496    0.323    0.484   88.793  165.062
  415.250    3.418    0.365    0.509   89.366  163.784
  415.500    3.405    0.419    0.521   90.122  163.524
  415.750    3.424    0.457    0.527   89.476  164.685
  416.000    3.323    0.489    0.531   89.197  166.248
  416.250    3.164    0.520    0.551   91.419  166.288
  416.500    2.935    0.636    0.581   93.703  166.737
  416.750    2.497    0.647    0.579   95.924  176.750
  417.000    2.219    0.602    0.572   98.513  199.471
  417.250    2.097    0.575    0.592   95.731  218.637
  417.500    1.997    0.549    0.611   92.214  224.680
  417.750    1.916    0.539    0.629   93.157  228.592
  418.000    1.888    0.575    0.615   93.423  227.720
  418.250    1.905    0.609    0.645   90.153  226.943
  418.500    1.945    0.626    0.616   90.550  229.933
  418.750    1.960    0.639    0.598   92.831  226.923
  419.000    1.993    0.657    0.594   93.464  223.814
  419.250    2.000    0.680    0.592   90.926  218.260
  419.500    1.993    0.699    0.591   87.902  212.806
  419.750    1.930    0.704    0.587   85.970  204.304
  420.000    1.695    0.708    0.597   87.278  191.326
  420.250    1.470    0.715    0.612   87.546  224.019
  420.500    1.216    0.721    0.623   86.229  227.011
  420.750    1.004    0.688    0.590   89.003  183.926
  421.000    0.818    0.627    0.513   91.589  169.014
  421.250    1.470    0.539    0.484   93.628  165.903
  421.500    2.124    0.241    0.472   94.996  163.605
  421.750    2.989    0.229    0.465   94.716  163.138
  422.000    4.311    0.230    0.460   93.033  163.281
  422.250    5.009    0.232    0.468   92.508  162.822
  422.500    6.078    0.236    0.481   91.433  162.652
  422.750    6.334    0.237    0.468   89.445  163.814
  423.000    6.089    0.232    0.461   92.160  165.892
  423.250    5.399    0.234    0.453   95.233  167.357
  423.500    4.943    0.239    0.447   98.983  168.721
  423.750    4.734    0.252    0.450  101.630  170.593
  424.000    4.559    0.295    0.475  100.008  173.279
  424.250    4.399    0.349    0.515   96.431  175.659
  424.500    4.449    0.400    0.526   94.198  175.600
  424.750    4.584    0.379    0.506   92.822  171.674
  425.000    4.559    0.366    0.490   92.965  169.078
  425.250    4.166    0.482    0.476   92.749  170.029
  425.500    3.908    0.521    0.570   92.283  174.749
  425.750    3.828    0.559    0.565   92.312  174.491
  426.000    3.806    0.421    0.531   93.190  169.239
  426.250    3.756    0.397    0.503   94.189  173.048
  426.500    3.604    0.474    0.487   95.070  179.699
  426.750    3.337    0.530    0.480   95.216  185.638
  427.000    3.178    0.564    0.478   92.987  192.902
  427.250    3.020    0.423    0.543   89.959  187.251
  427.500    3.078    0.393    0.587   86.628  183.535
  427.750    3.877    0.370    0.524   83.966  180.821
  428.000    4.332    0.367    0.482   84.356  168.968
  428.250    3.336    0.406    0.452   88.471  162.495
  428.500    3.106    0.455    0.440   90.633  171.589
  428.750    2.881    0.517    0.552   85.959  185.568
  429.000    3.043    0.570    0.549   82.503  198.224
  429.250    3.298    0.439    0.522   82.289  192.871
  429.500    3.418    0.381    0.499   85.608  172.169
  429.750    3.450    0.361    0.479   88.133  166.003
  430.000    3.483    0.352    0.465   86.328  163.907
  430.250    3.529    0.351    0.463   86.658  161.721
  430.500    3.575    0.351    0.465   86.926  161.144
  430.750    3.733    0.344    0.462   86.282  161.797
  431.000    3.747    0.336    0.453   84.291  162.344
  431.250    3.754    0.330    0.446   81.632  162.183
  431.500    3.711    0.336    0.458   77.261  162.225
  431.750    3.697    0.345    0.470   75.030  161.762
  432.000    3.725    0.355    0.478   72.495  162.007
  432.250    3.746    0.359    0.470   71.294  162.047
  432.500    3.796    0.359    0.462   70.099  162.085
  432.750    3.846    0.358    0.458   69.270  161.823
  433.000    3.882    0.357    0.458   68.563  161.259
  433.250    3.896    0.356    0.454   67.674  161.092
  433.500    3.948    0.355    0.449   66.725  160.831
  433.750    3.948    0.354    0.451   65.282  160.578
  434.000    3.573    0.352    0.455   63.659  160.610
  434.250    3.594    0.350    0.457   62.585  160.550
