~VERSION INFORMATION
 VERS.                 2.0:   CWLS LOG ASCII STANDARD -VERSION 2.0
 WRAP.                  NO:   ONE LINE PER DEPTH STEP
~WELL INFORMATION BLOCK
#MNEM.UNIT           DATA                    DESCRIPTION OF MNEMONIC
#---------    -------------------            -------------------------------
# Generated from Intellog Unique Number	CW_73_75/WELL/2730
WELL.         MANNVILLE ET AL MITSUE 07-21   : Well_name    - WELL
LOC .         00/07-21-073-02W5/0            : Location     - LOCATION
UWI .         00/07-21-073-02W5/0            : Uwi          - UNIQUE WELL ID
ENTR.         JAYE                           : Entered      - ENTERED BY
SRVC.         SCHLUMBERGER                   : Scn          - SERVICE COMPANY
DATE.         31 JULY 77                     : Date         - LOG DATE
STRT.M        381                            : top_depth    - START DEPTH
STOP.M        603.5                          : bot_depth    - STOP DEPTH
STEP.M        0.25                           : increment    - STEP LENGTH
 NULL. -999.2500:NULL Value
~CURVE INFORMATION BLOCK
#MNEM UNIT       ERCB CURVE CODE    CURVE DESCRIPTION
#-----------   ------------------   ----------------------------------
DEPT.M        00 001 00 00         : DEPTH        - DEPTH
DPHI.V/V      00 890 00 00         : PHID         - DENSITY POROSITY (SANDSTONE)
NPHI.V/V      00 330 00 00         : PHIN         - NEUTRON POROSITY (SANDSTONE)
GR  .API      00 310 00 00         : GR           - GAMMA RAY
CALI.MM       00 280 01 00         : CAL          - CALIPER
ILD .OHMM     00 120 00 00         : RESD         - DEEP RESISTIVITY (DLL)
~PARAMETER INFORMATION
#MNEM.UNIT           DATA             DESCRIPTION OF MNEMONIC
#---------         -----------     ------------------------------
GL  .M        615.086              : gl           - GROUND LEVEL ELEVATION
EREF.M        618.134              : kb           - ELEVATION OF DEPTH REFERENCE
DATM.M        615.086              : datum        - DATUM ELEVATION
TDD .M        612.648              : tdd          - TOTAL DEPTH DRILLER
RUN .         ONE                  : Run          - RUN NUMBER
ENG .         MACKAY               : Engineer     - RECORDING ENGINEER
WIT .         SPICER               : Witness      - WITNESSED BY
BASE.         EDM                  : Branch       - HOME BASE OF LOGGING UNIT
MUD .         GEL                  : Mud_type     - MUD TYPE
MATR.         SANDSTONE            : Logunit      - NEUTRON MATRIX
TMAX.C        27.2222              : BHT          - MAXIMUM RECORDED TEMPERATURE
BHTD.M        612.953              : BHTDEP       - MAXIMUM RECORDED TEMPERATURE
RMT .C        18.8889              : MDTP         - TEMPERATURE OF MUD
MUDD.KG/M     1128                 : MWT          - MUD DENSITY
NEUT.         1                    : NEUTRON      - NEUTRON TYPE
RESI.         1                    : RESIST       - RESISTIVITY TYPE
RM  .OHMM     5.1                  : RM           - RESISTIVITY OF MUD
RMC .OHMM     0                    : RMC          - RESISTIVITY OF MUD CAKE
RMF .OHMM     6.58                 : RMF          - RESISTIVITY OF MUD FILTRATE
SUFT.C        -17.7778             : SUFT         - SURFACE TEMPERATURE
~A  DEPTH     PHID     PHIN       GR      CAL     RESD
# ...
  563.500    0.106    0.325  114.501  173.761    9.765
  563.750    0.089    0.337  113.876  173.966    9.096
  564.000    0.092    0.353  114.060  173.962    8.328
  564.250    0.112    0.366  112.315  173.958    7.144
  564.500    0.128    0.382  107.831  174.059    6.416
  564.750    0.122    0.396  103.783  173.949    6.151
  565.000    0.118    0.417   99.361  174.051    6.488
  565.250    0.138    0.430   94.069  174.362    7.124
  565.500    0.147    0.399   87.780  174.463    7.704
  565.750    0.105    0.374   84.789  174.459    8.314
  566.000    0.049    0.345   87.837  174.138    8.803
  566.250    0.008    0.301   95.676  174.029    9.145
  566.500    0.025    0.303  100.964  173.918    9.409
  566.750    0.065    0.340  103.887  174.230    9.282
  567.000    0.098    0.346  105.378  174.332    8.745
  567.250    0.119    0.340  103.695  174.326    7.976
  567.500    0.140    0.360  105.186  174.428    7.330
  567.750    0.165    0.378  108.545  174.423    7.013
  568.000    0.150    0.397  107.546  174.420    6.892
  568.250    0.143    0.401  108.041  174.521    6.864
  568.500    0.146    0.385  111.835  174.411    6.942
  568.750    0.138    0.378  113.327  174.406    7.252
  569.000    0.130    0.375  108.905  174.402    7.519
  569.250    0.140    0.371  109.027  174.503    7.736
  569.500    0.146    0.366  109.771  174.077    7.930
  569.750    0.146    0.364  111.325  174.705    8.050
  570.000    0.137    0.363  113.313  175.648    8.033
  570.250    0.128    0.369  113.934  175.645    7.804
  570.500    0.120    0.378  112.935  175.956    7.698
  570.750    0.134    0.382  107.331  176.373    7.845
  571.000    0.159    0.374  101.976  176.581    8.103
  571.250    0.138    0.365  101.164  177.313    8.242
  571.500    0.109    0.354  108.008  177.942    8.271
  571.750    0.100    0.348  119.955  178.148    8.066
  572.000    0.087    0.343  125.865  177.722    7.427
  572.250    0.080    0.338  127.108  176.980    6.421
  572.500    0.141    0.362  127.852  176.976    4.727
  572.750    0.172    0.389  128.783  180.344    3.132
  573.000    0.176    0.431  125.233  188.666    2.479
  573.250    0.158    0.533  125.728  195.723    2.115
  573.500    0.192    0.578  125.414  198.458    1.929
  573.750    0.254    0.567  120.184  191.182    1.996
  574.000    0.237    0.521  117.318  182.219    2.162
  574.250    0.209    0.505  123.104  181.899    2.457
  574.500    0.175    0.496  123.288  183.264    2.924
  574.750    0.178    0.478  112.642  178.201    3.581
  575.000    0.186    0.421  103.739  174.930    4.609
  575.250    0.141    0.373  105.168  174.398    5.655
  575.500    0.112    0.339  111.078  173.866    5.953
  575.750    0.083    0.334  116.802  173.546    5.817
  576.000    0.111    0.356  121.467  173.330    5.629
  576.250    0.140    0.377  124.079  173.643    5.521
  576.500    0.131    0.395  124.761  173.638    5.457
  576.750    0.085    0.387  126.688  173.739    5.529
  577.000    0.120    0.394  126.498  174.051    5.624
  577.250    0.116    0.391  118.031  173.942    5.677
  577.500    0.109    0.377  115.601  173.620    5.697
  577.750    0.124    0.363  118.960  173.511    5.896
  578.000    0.081    0.352  118.584  173.506    5.917
  578.250    0.107    0.363  111.237  173.502    5.815
  578.500    0.127    0.370  115.902  173.498    5.649
  578.750    0.067    0.344  123.057  173.704    5.541
  579.000    0.075    0.324  127.473  173.806    5.393
  579.250    0.101    0.424  124.546  173.907    5.300
  579.500    0.119    0.424  116.078  174.113    5.248
  579.750    0.120    0.399  110.350  174.213    5.277
  580.000    0.092    0.388  112.277  174.210    5.388
  580.250    0.108    0.372  117.627  173.889    5.522
  580.500    0.122    0.360  123.661  173.674    5.638
  580.750    0.134    0.370  125.339  173.248    5.659
  581.000    0.117    0.383  125.461  172.505    5.604
  581.250    0.091    0.391  128.073  171.552    5.496
  581.500    0.104    0.392  126.078  170.600    5.360
  581.750    0.118    0.384  126.760  170.068    5.217
  582.000    0.140    0.371  127.691  169.853    5.059
  582.250    0.155    0.369  126.755  169.427    5.058
  582.500    0.124    0.386  114.305  168.791    5.244
  582.750    0.088    0.410   92.269  167.733    6.098
  583.000    0.112    0.400   82.993  165.515    7.160
  583.250    0.144    0.349   64.070  162.454    8.954
  583.500    0.156    0.305   55.416  160.975   10.614
  583.750    0.134    0.279   48.754  159.811   12.344
  584.000    0.161    0.256   37.423  159.279   13.658
  584.250    0.189    0.231   28.520  158.959   14.242
  584.500    0.194    0.197   31.568  158.532   14.542
  584.750    0.374    0.275   40.216  158.212   12.099
  585.000    0.296    0.272   48.243  158.313    9.781
  585.250    0.215    0.263   58.261  159.047    9.412
  585.500    0.194    0.253   70.519  159.991    9.852
  585.750    0.175    0.245   79.853  162.094   10.313
  586.000    0.146    0.276   72.194  164.408   10.920
  586.250    0.141    0.370   63.354  161.980   11.899
  586.500    0.180    0.344   53.518  159.235   13.191
  586.750    0.223    0.359   43.619  158.810   15.547
  587.000    0.213    0.262   45.047  159.016   19.003
  587.250    0.152    0.233   49.651  160.382   24.740
  587.500    0.123    0.213   56.619  161.958   31.178
  587.750    0.106    0.197   66.575  163.429   33.394
  588.000    0.086    0.183   74.041  163.846   24.394
  588.250    0.061    0.198   80.262  163.842   18.164
  588.500    0.074    0.262   85.674  163.943   13.218
  588.750    0.107    0.303   91.025  164.150   10.285
  589.000    0.176    0.373  102.723  164.462    8.427
  589.250    0.288    0.450  112.057  164.879    7.880
  589.500    0.317    0.520  106.390  165.612    7.984
  589.750    0.197    0.371  108.193  166.029    8.090
  590.000    0.171    0.344  114.850  166.552    8.042
  590.250    0.147    0.333  122.378  170.236    7.872
  590.500    0.158    0.364  126.359  176.450    7.417
  590.750    0.205    0.436  114.033  171.702    6.989
  591.000    0.317    0.487   94.798  167.167    6.776
  591.250    0.348    0.551   95.418  165.582    6.749
  591.500    0.393    0.548  114.025  166.209    6.812
  591.750    0.434    0.556  119.126  166.521    6.903
  592.000    0.239    0.459  109.352  166.411    7.115
  592.250    0.215    0.368  101.009  166.091    7.406
  592.500    0.148    0.342   93.973  165.348    7.947
  592.750    0.107    0.326   86.876  164.922    8.240
  593.000    0.087    0.313   90.794  164.285    8.445
  593.250    0.084    0.305   97.638  163.649    8.590
  593.500    0.101    0.342   99.440  163.223    8.704
  593.750    0.116    0.396   92.093  163.008    8.769
  594.000    0.156    0.438   81.386  162.265    8.919
  594.250    0.144    0.400   67.504  161.735    8.866
  594.500    0.060    0.328   73.289  160.887    8.830
  594.750    0.004    0.131  106.460  160.355    8.862
  595.000   -0.006    0.182  132.163  160.668    8.962
  595.250    0.094    0.244  151.641  163.087    9.081
  595.500    0.121    0.300  159.107  166.245    9.079
  595.750    0.152    0.366  154.624  169.086    6.334
  596.000    0.130    0.347  137.318  167.184    6.746
  596.250    0.122    0.376  117.710  165.494    7.536
  596.500    0.135    0.390   89.700  163.908   11.369
  596.750    0.116    0.379   66.420  163.377   19.017
  597.000    0.090    0.315   59.508  162.951   23.422
  597.250    0.000    0.215   61.684  162.631   18.864
  597.500   -0.008    0.132   69.213  162.626   14.483
  597.750   -0.008    0.184   70.579  162.727   11.776
  598.000    0.025    0.229   69.581  162.617    9.340
  598.250    0.166    0.341   69.392  162.613    8.121
  598.500    0.194    0.342   71.007  161.977    8.599
  598.750    0.171    0.325   77.976  160.602    9.280
  599.000    0.143    0.312   87.246  159.122    9.403
  599.250    0.109    0.302   92.846  158.802    9.083
  599.500    0.132    0.301  102.677  159.746    8.574
  599.750    0.136    0.316  115.745  162.060    7.314
