~VERSION INFORMATION
 VERS.                 2.0:   CWLS LOG ASCII STANDARD -VERSION 2.0
 WRAP.                  NO:   ONE LINE PER DEPTH STEP
~WELL INFORMATION BLOCK
#MNEM.UNIT           DATA                    DESCRIPTION OF MNEMONIC
#---------    -------------------            -------------------------------
# Generated from Intellog Unique Number	CW_70_72/WELL/3290
NULL.         -999.25                        : NULL_VALUE
WELL.         SULPETRO ET AL MITSUE 05-18    : Well_name    - WELL              
LOC .         05-18-071-05W5                 : Location     - LOCATION          
UWI .         00/05-18-071-05W5/0            : Uwi          - UNIQUE WELL ID    
ENTR.         JAYE                           : Entered      - ENTERED BY        
SRVC.         SCHLUMBERGER                   : Scn          - SERVICE COMPANY   
DATE.         1 MAR 81                       : Date         - LOG DATE          
STRT.M        650                            : top_depth    - START DEPTH       
STOP.M        895                            : bot_depth    - STOP DEPTH        
STEP.M        0.25                           : increment    - STEP LENGTH       
~CURVE INFORMATION BLOCK
#MNEM UNIT       ERCB CURVE CODE    CURVE DESCRIPTION
#-----------   ------------------   ----------------------------------
DEPT.M        00 001 00 00         : DEPTH        - DEPTH                       
DPHI.V/V      00 890 00 00         : PHID         - DENSITY POROSITY (SANDSTONE)
ILD .OHMM     00 120 00 00         : RESD         - DEEP RESISTIVITY (DIL)      
CALI.MM       00 280 01 00         : CAL          - CALIPER                     
GR  .API      00 310 00 00         : GR           - GAMMA RAY                   
NPHI.V/V      00 330 00 00         : PHIN         - NEUTRON POROSITY (SANDSTONE)
~PARAMETER INFORMATION       
#MNEM.UNIT           DATA             DESCRIPTION OF MNEMONIC
#---------         -----------     ------------------------------
GL  .M        795.4                : gl           - GROUND LEVEL ELEVATION      
EREF.M        798.4                : kb           - ELEVATION OF DEPTH REFERENCE
DATM.M        795.4                : datum        - DATUM ELEVATION             
TDD .M        895                  : tdd          - TOTAL DEPTH DRILLER         
RUN .         ONE                  : Run          - RUN NUMBER                  
ENG .         VALLANCOURT          : Engineer     - RECORDING ENGINEER          
WIT .         THACKER              : Witness      - WITNESSED BY                
BASE.         EDM                  : Branch       - HOME BASE OF LOGGING UNIT   
MUD .         GEL CHEM             : Mud_type     - MUD TYPE                    
MATR.         SANDSTONE            : Logunit      - NEUTRON MATRIX              
TMAX.C        32.8                 : BHT          - MAXIMUM RECORDED TEMPERATURE
BHTD.M        895                  : BHTDEP       - MAXIMUM RECORDED TEMPERATURE
RMT .C        20                   : MDTP         - TEMPERATURE OF MUD          
MUDD.KG/M     1130                 : MWT          - MUD DENSITY                 
NEUT.         1                    : NEUTRON      - NEUTRON TYPE                
RESI.         0                    : RESIST       - RESISTIVITY TYPE            
RM  .OHMM     4.57                 : RM           - RESISTIVITY OF MUD          
RMC .OHMM     0.25                 : RMC          - RESISTIVITY OF MUD CAKE     
RMF .OHMM     3.86                 : RMF          - RESISTIVITY OF MUD FILTRATE 
SUFT.C        5                    : SUFT         - SURFACE TEMPERATURE         
~A  DEPTH     PHID     RESD      CAL       GR     PHIN
  650.000    0.212    2.016  181.128   99.911    0.460
  650.250    0.214    2.030  182.228   99.765    0.472
  650.500    0.236    2.049  183.019  100.614    0.494
  650.750    0.249    2.075  183.710  101.524    0.513
  651.000    0.243    2.089  183.157   99.575    0.497
  651.250    0.230    2.096  185.400  101.295    0.491
  651.500    0.220    2.111  187.948  104.193    0.503
  651.750    0.237    2.141  185.741  102.929    0.492
  652.000    0.242    2.177  182.598  100.048    0.491
  652.250    0.224    2.213  178.005   98.287    0.510
  652.500    0.215    2.275  173.412   96.897    0.507
  652.750    0.220    2.313  172.754   96.194    0.468
  653.000    0.220    2.312  176.965   94.867    0.445
  653.250    0.233    2.289  174.544   94.409    0.458
  653.500    0.237    2.228  169.848   94.823    0.476
  653.750    0.231    2.156  166.499   96.044    0.469
  654.000    0.226    2.060  167.809   94.966    0.453
  654.250    0.221    2.016  171.601   94.819    0.460
  654.500    0.220    2.050  175.297   96.663    0.476
  654.750    0.257    2.135  179.920   92.229    0.483
  655.000    0.279    2.229  181.232   83.633    0.460
  655.250    0.275    2.244  169.390   79.261    0.422
  655.500    0.265    2.193  156.616   73.337    0.407
  655.750    0.277    2.103  151.606   66.232    0.433
  656.000    0.307    1.986  152.190   57.324    0.420
  656.250    0.323    1.890  152.466   52.456    0.405
  656.500    0.316    1.833  152.535   51.504    0.418
  656.750    0.314    1.835  153.014   52.165    0.421
  657.000    0.311    1.937  154.430   52.081    0.419
  657.250    0.304    2.057  156.776   50.754    0.428
  657.500    0.280    2.067  157.257   48.681    0.394
  657.750    0.190    2.024  156.288   46.547    0.340
  658.000    0.250    1.985  156.771   46.525    0.369
  658.250    0.306    1.943  153.006   51.473    0.386
  658.500    0.309    1.927  151.314   54.684    0.387
  658.750    0.301    1.944  149.614   56.465    0.402
  659.000    0.290    1.954  148.757   56.132    0.406
  659.250    0.286    1.979  149.443   55.428    0.400
  659.500    0.290    1.978  150.028   56.399    0.401
  659.750    0.286    1.992  151.130   58.241    0.408
  660.000    0.282    2.010  152.230   57.225    0.407
  660.250    0.284    2.028  152.714   56.458    0.403
  660.500    0.289    2.077  153.300   61.905    0.401
  660.750    0.293    2.205  153.680   66.233    0.428
  661.000    0.292    2.341  153.435   63.974    0.437
  661.250    0.280    2.475  153.190   59.043    0.413
  661.500    0.233    2.618  153.465   58.400    0.426
  661.750    0.175    2.743  154.259   64.406    0.424
  662.000    0.203    2.847  157.538   76.376    0.333
  662.250    0.260    2.808  163.923   84.680    0.383
  662.500    0.301    2.780  162.435   88.945    0.445
  662.750    0.258    2.768  157.739   84.947    0.455
  663.000    0.227    2.746  156.356   83.808    0.438
  663.250    0.220    2.781  157.356   88.384    0.446
  663.500    0.226    2.805  157.114   90.785    0.454
  663.750    0.258    2.762  156.974   89.645    0.462
  664.000    0.263    2.633  156.213   86.579    0.441
  664.250    0.228    2.368  159.799   87.612    0.413
  664.500    0.250    2.178  169.082   97.967    0.452
  664.750    0.276    2.109  177.432  106.273    0.481
  665.000    0.280    2.156  182.267  108.549    0.486
  665.250    0.266    2.254  182.955  110.328    0.481
  665.500    0.227    2.466  178.880  113.788    0.499
  665.750    0.251    2.714  174.392  107.925    0.441
  666.000    0.299    2.854  170.728   92.370    0.425
  666.250    0.297    2.783  166.450   76.006    0.416
  666.500    0.284    2.634  158.439   57.218    0.403
  666.750    0.297    2.464  153.328   51.358    0.394
  667.000    0.302    2.380  151.842   52.825    0.385
  667.250    0.296    2.375  151.594   57.029    0.376
  667.500    0.279    2.378  151.977   62.166    0.380
  667.750    0.255    2.422  152.663   68.669    0.393
  668.000    0.243    2.471  153.458   76.600    0.389
  668.250    0.233    2.555  154.970   86.955    0.380
  668.500    0.220    2.642  156.283   99.111    0.390
  668.750    0.230    2.747  158.319  107.478    0.438
  669.000    0.254    2.889  160.145  104.225    0.444
  669.250    0.252    3.137  162.283   97.493    0.413
  669.500    0.249    3.517  165.563   98.341    0.440
  669.750    0.269    3.685  168.739   95.151    0.471
  670.000    0.248    3.533  171.290   89.846    0.468
  670.250    0.229    3.101  165.972   78.516    0.371
  670.500    0.249    2.680  160.446   67.932    0.336
  670.750    0.267    2.248  156.995   56.912    0.353
  671.000    0.281    1.914  154.882   50.926    0.370
  671.250    0.315    1.734  153.606   47.857    0.362
  671.500    0.321    1.657  152.951   46.904    0.366
  671.750    0.317    1.719  154.881   48.438    0.361
  672.000    0.283    1.888  158.366   56.679    0.326
  672.250    0.226    2.203  160.504   78.592    0.328
  672.500    0.219    2.479  159.637   77.637    0.345
  672.750    0.234    2.702  158.984   72.707    0.347
  673.000    0.254    2.778  158.637   67.279    0.341
  673.250    0.254    2.782  159.219   68.688    0.348
  673.500    0.226    2.775  160.324   87.803    0.355
  673.750    0.207    2.686  164.118   99.525    0.387
  674.000    0.221    2.640  169.675  107.332    0.477
  674.250    0.286    2.579  176.163   97.803    0.528
  674.500    0.368    2.578  176.023   82.185    0.550
  674.750    0.334    2.731  165.009   73.030    0.411
  675.000    0.250    2.971  155.654   71.703    0.385
  675.250    0.225    3.376  152.507   75.845    0.374
  675.500    0.207    3.666  153.303   80.795    0.376
  675.750    0.195    3.870  155.544   87.793    0.389
  676.000    0.207    4.024  156.959   95.104    0.400
  676.250    0.215    4.067  157.438  101.418    0.404
  676.500    0.216    4.081  157.819  103.262    0.408
  676.750    0.209    4.078  157.984  102.619    0.414
  677.000    0.196    4.092  157.539  103.591    0.417
  677.250    0.188    4.105  156.053  105.620    0.409
  677.500    0.192    4.133  154.360  106.094    0.410
  677.750    0.195    4.147  153.389  104.954    0.407
  678.000    0.201    4.144  155.011  102.634    0.396
  678.250    0.203    4.309  159.015  101.308    0.392
  678.500    0.203    4.251  164.881  101.285    0.395
  678.750    0.212    4.248  161.943  100.890    0.402
  679.000    0.212    4.222  157.869   98.198    0.393
  679.250    0.203    4.149  154.930   98.611    0.400
  679.500    0.195    4.077  153.448  101.199    0.412
  679.750    0.187    4.160  152.478   98.816    0.412
  680.000    0.256    4.408  152.754   88.169    0.428
  680.250    0.447    4.644  154.063   80.940    0.603
  680.500    0.505    4.712  159.724   72.716    0.722
  680.750    0.513    4.527  158.653   71.826    0.621
  681.000    0.398    4.172  153.955   73.045    0.439
  681.250    0.274    3.633  152.781   67.120    0.383
  681.500    0.254    3.249  154.298   62.875    0.378
  681.750    0.282    2.972  153.844   57.883    0.398
  682.000    0.298    2.807  151.741   53.946    0.424
  682.250    0.294    2.697  149.734   53.987    0.439
  682.500    0.265    2.635  148.763   57.258    0.435
  682.750    0.248    2.594  148.418   64.195    0.417
  683.000    0.257    2.558  147.970   65.601    0.419
  683.250    0.262    2.538  148.244   64.958    0.426
  683.500    0.270    2.508  148.934   63.136    0.439
  683.750    0.286    2.432  149.932   60.691    0.420
  684.000    0.303    2.381  152.069   57.128    0.391
  684.250    0.312    2.411  154.418   56.234    0.405
  684.500    0.309    2.540  155.521   56.585    0.428
  684.750    0.296    2.702  156.415   57.808    0.420
  685.000    0.283    2.783  157.622   64.247    0.400
  685.250    0.259    2.709  158.620   67.893    0.378
  685.500    0.268    2.568  157.654   68.677    0.406
  685.750    0.291    2.430  154.302   67.349    0.424
  686.000    0.310    2.357  153.232   66.956    0.417
  686.250    0.296    2.307  152.366   70.538    0.408
