~VERSION INFORMATION
 VERS.                 2.0:   CWLS LOG ASCII STANDARD -VERSION 2.0
 WRAP.                  NO:   ONE LINE PER DEPTH STEP
~WELL INFORMATION BLOCK
#MNEM.UNIT           DATA                    DESCRIPTION OF MNEMONIC
#---------    -------------------            -------------------------------
# Generated from Intellog Unique Number	CW_76_78/WELL/2801
WELL.         07-25-077-24W4                 : Well_name    - WELL
LOC .         00/07-25-077-24W4/0            : Location     - LOCATION
UWI .         00/07-25-077-24W4/0            : Uwi          - UNIQUE WELL ID
ENTR.         JJ                             : Entered      - ENTERED BY
SRVC.         SCHLUMBERGER                   : Scn          - SERVICE COMPANY
DATE.         9 FEB 71                       : Date         - LOG DATE
STRT.M        487.68                         : top_depth    - START DEPTH
STOP.M        636.93                         : bot_depth    - STOP DEPTH
STEP.M        0.25                           : increment    - STEP LENGTH
 NULL. -999.2500:NULL Value
~CURVE INFORMATION BLOCK
#MNEM UNIT       ERCB CURVE CODE    CURVE DESCRIPTION
#-----------   ------------------   ----------------------------------
DEPT.M        00 001 00 00         : DEPTH        - DEPTH
ILD .OHMM     00 120 00 00         : RESD         - DEEP RESISTIVITY (DIL)
CALI.MM       00 280 01 00         : CAL          - CALIPER
GR  .API      00 310 00 00         : GR           - GAMMA RAY
NPHI.V/V      00 330 00 00         : PHIN         - NEUTRON POROSITY (SANDSTONE)
DELT.US/F     00 520 00 00         : DELT         - SONIC TRAVEL TIME
~PARAMETER INFORMATION
#MNEM.UNIT           DATA             DESCRIPTION OF MNEMONIC
#---------         -----------     ------------------------------
GL  .M        667.573              : gl           - GROUND LEVEL ELEVATION
EREF.M        670.865              : kb           - ELEVATION OF DEPTH REFERENCE
DATM.M        670.865              : datum        - DATUM ELEVATION
TDD .M        637.032              : tdd          - TOTAL DEPTH DRILLER
RUN .         ONE                  : Run          - RUN NUMBER
ENG .         KEOWN                : Engineer     - RECORDING ENGINEER
WIT .         KELLY                : Witness      - WITNESSED BY
BASE.         EDM                  : Branch       - HOME BASE OF LOGGING UNIT
MUD .         GEL                  : Mud_type     - MUD TYPE
MATR.         SANDSTONE            : Logunit      - NEUTRON MATRIX
TMAX.C        31.6667              : BHT          - MAXIMUM RECORDED TEMPERATURE
BHTD.M        637.946              : BHTDEP       - MAXIMUM RECORDED TEMPERATURE
RMT .C        21.1111              : MDTP         - TEMPERATURE OF MUD
MUDD.KG/M     1128                 : MWT          - MUD DENSITY
NEUT.         0                    : NEUTRON      - NEUTRON TYPE
RESI.         0                    : RESIST       - RESISTIVITY TYPE
RM  .OHMM     3.56                 : RM           - RESISTIVITY OF MUD
RMC .OHMM     0                    : RMC          - RESISTIVITY OF MUD CAKE
RMF .OHMM     3.51                 : RMF          - RESISTIVITY OF MUD FILTRATE
SUFT.C        5                    : SUFT         - SURFACE TEMPERATURE
~A  DEPTH     RESD      CAL       GR     PHIN     DELT
  487.680   12.523  231.549   60.196    0.243  309.991
  487.930   14.397  228.784   52.352    0.236  290.889
  488.180   15.837  226.942   52.351    0.225  285.787
  488.430   16.603  225.825   61.173    0.216  260.398
  488.680   15.983  225.734   67.446    0.206  266.492
  488.930   14.160  225.850   68.425    0.233  306.021
  489.180   12.716  226.382   69.601    0.285  344.302
  489.430   11.083  226.910   69.011    0.338  345.816
  489.680    9.941  227.132   66.853    0.321  356.941
  489.930    9.511  226.937   66.656    0.322  375.206
  490.180    9.382  226.538   66.655    0.346  393.726
  490.430    9.412  226.450   69.791    0.328  380.315
  490.680    9.521  225.846   71.162    0.319  359.441
  490.930    9.733  225.964   67.632    0.304  344.466
  491.180    9.937  225.153   69.003    0.330  367.375
  491.430    9.603  225.063   74.296    0.308  378.439
  491.680    9.109  225.284   76.452    0.324  390.285
  491.930    8.601  225.403   78.803    0.357  392.380
  492.180    8.203  225.724   81.155    0.341  388.325
  492.430    8.089  225.843   83.115    0.337  379.953
  492.680    8.618  225.959   81.349    0.304  372.559
  492.930    9.218  226.282   71.740    0.309  349.348
  493.180   10.088  228.148   68.013    0.309  315.129
  493.430   10.648  230.227   63.894    0.267  258.529
  493.680   11.129  230.751   60.363    0.225  269.922
  493.930   11.594  231.180   63.499    0.260  294.725
  494.180   11.956  231.191   71.341    0.316  345.440
  494.430   11.574  231.000   69.968    0.321  350.487
  494.680    9.877  230.189   71.731    0.318  360.365
  494.930    9.068  228.865   76.044    0.314  371.235
  495.180    8.520  227.747   79.572    0.309  382.762
  495.430    8.059  227.553   81.728    0.327  391.011
  495.680    7.739  227.465   80.157    0.315  389.360
  495.930    7.666  227.995   78.588    0.325  390.616
  496.180    7.632  228.935   75.842    0.327  393.707
  496.430    7.630  229.360   78.781    0.362  397.564
  496.680    7.605  230.919   78.192    0.340  396.923
  496.930    7.508  232.170   81.524    0.362  393.848
  497.180    7.276  232.389   80.347    0.346  394.435
  497.430    6.950  231.372   78.189    0.335  397.062
  497.680    6.449  229.226   80.540    0.345  398.901
  497.930    5.877  230.267   81.716    0.361  403.288
  498.180    5.296  237.184   83.871    0.351  410.551
  498.430    5.040  237.611   86.027    0.365  416.443
  498.680    5.514  235.150   88.379    0.349  422.018
  498.930    6.098  232.594   90.534    0.344  394.996
  499.180    7.221  232.192   88.376    0.333  365.163
  499.430    8.106  232.205   84.257    0.325  363.187
  499.680    8.920  232.221   83.472    0.349  367.660
  499.930    9.322  232.337   81.314    0.341  378.135
  500.180    9.415  232.557   79.940    0.318  371.975
  500.430    9.216  232.779   78.958    0.305  372.245
  500.680    9.000  233.305   73.467    0.319  375.255
  500.930    8.807  234.559   72.289    0.336  378.743
  501.180    8.560  235.602   76.602    0.343  384.371
  501.430    8.321  236.335   81.111    0.309  387.901
  501.680    8.262  235.320   82.874    0.305  390.854
  501.930    8.371  235.127   84.049    0.327  394.259
  502.180    8.758  234.008   85.421    0.335  390.865
  502.430    9.128  232.271   80.909    0.314  380.269
  502.680    9.482  229.914   81.300    0.293  358.552
  502.930    9.829  228.387   80.123    0.317  359.922
  503.180    9.716  228.707   76.396    0.337  373.087
  503.430    9.405  228.416   76.003    0.308  377.336
  503.680    9.174  228.736   79.727    0.302  373.933
  503.930    9.615  228.852   82.275    0.318  374.936
  504.180   10.493  228.868   81.685    0.321  377.421
  504.430   11.330  228.984   76.586    0.292  368.660
  504.680   13.205  229.408   69.134    0.282  354.850
  504.930   15.223  230.251   66.387    0.261  329.734
  505.180   17.050  230.672   60.308    0.234  284.392
  505.430   17.992  231.102   53.836    0.153  247.424
  505.680   18.369  231.114   55.796    0.130  223.805
  505.930   17.932  230.511   61.089    0.172  223.161
  506.180   16.472  229.493   65.009    0.218  244.101
  506.430   14.277  228.270   68.929    0.275  327.796
  506.680   12.936  227.256   73.830    0.278  318.840
  506.930   11.588  226.961   75.398    0.254  316.022
  507.180   10.818  227.696   79.318    0.305  345.679
  507.430   10.285  228.635   81.474    0.307  379.640
  507.680    9.958  230.091   82.257    0.308  379.311
  507.930    9.711  230.418   78.922    0.305  368.324
  508.180    9.630  230.223   75.195    0.287  360.801
  508.430    9.778  230.134   79.508    0.300  363.555
  508.680    9.887  229.636   80.487    0.313  379.404
  508.930    9.854  229.646   80.290    0.306  377.244
  509.180    9.788  229.660   78.328    0.304  371.687
  509.430    9.659  229.880   75.974    0.314  370.322
  509.680    9.492  230.617   79.698    0.316  373.452
  509.930    9.481  231.351   82.442    0.337  377.920
  510.180    9.377  231.570   83.813    0.321  382.572
  510.430    9.319  231.687   81.067    0.299  384.931
  510.680    9.396  231.391   82.635    0.292  387.091
  510.930    9.570  230.890   84.986    0.302  383.175
  511.180    9.654  229.774   85.769    0.318  372.245
  511.430    9.771  229.890   83.415    0.358  369.437
  511.680    9.753  231.449   80.865    0.355  372.654
  511.930    9.554  233.008   78.903    0.324  378.678
  512.180    9.416  232.715   81.647    0.330  379.916
  512.430    9.279  231.799   83.606    0.328  380.516
  512.680    9.160  231.092   82.625    0.317  381.691
  512.930    9.102  230.695   85.565    0.322  383.015
  513.180    9.075  230.606   88.309    0.315  383.670
  513.430    9.129  230.825   90.268    0.310  384.042
  513.680    9.207  231.148   88.502    0.307  383.540
  513.930    9.363  231.573   85.756    0.318  381.592
  514.180    9.583  231.897   84.186    0.310  375.970
  514.430    9.770  232.531   84.773    0.331  370.864
  514.680   10.126  232.646   83.988    0.313  371.196
  514.930   10.346  232.556   82.614    0.300  372.248
  515.180   10.510  232.880   84.966    0.292  371.475
  515.430   10.570  232.584   84.768    0.299  366.625
  515.680   10.443  231.365   83.787    0.279  362.705
  515.930    9.950  231.171   83.197    0.307  359.573
  516.180    9.393  230.775   82.019    0.304  359.709
  516.430    8.789  231.717   83.783    0.288  367.170
  516.680    7.995  233.272   85.939    0.319  374.705
  516.930    7.328  238.849   88.487    0.347  388.253
  517.180    7.524  240.615   90.838    0.371  397.157
  517.430    7.934  238.566   91.229    0.342  393.823
  517.680    8.280  236.830   87.111    0.317  377.408
  517.930    8.539  236.227   84.168    0.287  356.798
  518.180    8.752  236.241   87.500    0.265  353.987
  518.430    8.979  237.697   87.695    0.288  371.403
  518.680    9.183  237.813   84.949    0.306  384.616
  518.930    9.135  237.523   86.320    0.294  379.457
  519.180    9.053  237.329   86.711    0.286  373.896
  519.430    9.232  237.343   84.749    0.286  368.801
  519.680    9.912  237.354   82.199    0.288  368.740
  519.930   10.559  237.473   81.021    0.298  376.849
  520.180   11.112  238.413   79.451    0.294  385.565
  520.430   11.791  239.662   74.940    0.267  374.840
  520.680   12.304  240.706   70.233    0.243  341.605
  520.930   12.309  241.543   66.114    0.220  303.262
  521.180   11.881  241.558   68.466    0.258  318.838
  521.430   13.121  241.056   70.033    0.283  347.767
  521.680   16.525  238.908   68.856    0.296  370.934
  521.930   18.670  235.009   66.698    0.238  341.679
  522.180   22.491  231.212   60.030    0.212  300.599
  522.430   28.201  229.268   49.048    0.150  234.184
  522.680   30.817  228.354   47.674    0.129  219.470
  522.930   25.657  227.648   47.085    0.113  202.523
  523.180   22.235  227.969   52.182    0.102  238.325
  523.430   19.845  228.914   58.847    0.146  259.197
  523.680   18.166  229.443   65.121    0.207  276.024
  523.930   14.562  229.972   65.119    0.232  288.515
