~VERSION INFORMATION
 VERS.                 2.0:   CWLS LOG ASCII STANDARD -VERSION 2.0
 WRAP.                  NO:   ONE LINE PER DEPTH STEP
~WELL INFORMATION BLOCK
#MNEM.UNIT           DATA                    DESCRIPTION OF MNEMONIC
#---------    -------------------            -------------------------------
# Generated from Intellog Unique Number	CS_67_68/WELL/2166
WELL.         MURPHY ET AL ATMORE            : Well_name    - WELL
LOC .         00/06-11-067-17W4/0            : Location     - LOCATION
UWI .         00/06-11-067-17W4/0            : Uwi          - UNIQUE WELL ID
ENTR.         SP                             : Entered      - ENTERED BY
SRVC.         SCHLUMBERGER                   : Scn          - SERVICE COMPANY
STRT.M        381                            : top_depth    - START DEPTH
STOP.M        554.50                         : bot_depth    - STOP DEPTH
STEP.M        0.25                           : increment    - STEP LENGTH
 NULL. -999.2500:NULL Value
~CURVE INFORMATION BLOCK
#MNEM UNIT       ERCB CURVE CODE    CURVE DESCRIPTION
#-----------   ------------------   ----------------------------------
DEPT.M        00 001 00 00         : DEPTH        - DEPTH
CALI.MM       00 280 01 00         : CAL          - CALIPER
GR  .API      00 310 00 00         : GR           - GAMMA RAY
DPHI.V/V      00 890 00 00         : PHID         - DENSITY POROSITY (SANDSTONE)
NPHI.V/V      00 330 00 00         : PHIN         - NEUTRON POROSITY (SANDSTONE)
ILD .OHMM     00 120 00 00         : RESD         - DEEP RESISTIVITY (DIL)
~PARAMETER INFORMATION
#MNEM.UNIT           DATA             DESCRIPTION OF MNEMONIC
#---------         -----------     ------------------------------
GL  .M        608.076              : gl           - GROUND LEVEL ELEVATION
EREF.M        611.124              : kb           - ELEVATION OF DEPTH REFERENCE
DATM.M        611.124              : datum        - DATUM ELEVATION
TDD .M        566.928              : tdd          - TOTAL DEPTH DRILLER
RUN .         `                    : Run          - RUN NUMBER
ENG .         BILL                 : Engineer     - RECORDING ENGINEER
WIT .         JIM                  : Witness      - WITNESSED BY
MUD .         GEL                  : Mud_type     - MUD TYPE
MATR.         SANDSTONE            : Logunit      - NEUTRON MATRIX
TMAX.C        24.4444              : BHT          - MAXIMUM RECORDED TEMPERATURE
BHTD.M        567.538              : BHTDEP       - MAXIMUM RECORDED TEMPERATURE
MATR.         1                    : LOGUNIT      - NEUTRON MATRIX
RMT .C        25                   : MDTP         - TEMPERATURE OF MUD
NEUT.         1                    : NEUTRON      - NEUTRON TYPE
RESI.         0                    : RESIST       - RESISTIVITY TYPE
RMC .OHMM     0.25                 : RMC          - RESISTIVITY OF MUD CAKE
RMF .OHMM     0.25                 : RMF          - RESISTIVITY OF MUD FILTRATE
SUFT.C        15                   : SUFT         - SURFACE TEMPERATURE
~A  DEPTH      CAL       GR     PHID     PHIN     RESD
# ...
  490.500  166.841  104.944    0.161    0.412    3.720
  490.750  166.807  104.359    0.174    0.432    3.449
  491.000  165.962  105.747    0.183    0.442    3.152
  491.250  165.185  107.576    0.199    0.452    3.143
  491.500  164.436  108.422    0.198    0.455    3.305
  491.750  165.194  107.654    0.202    0.443    3.451
  492.000  166.953  106.057    0.207    0.437    3.575
  492.250  168.537  106.260    0.186    0.428    3.707
  492.500  169.856  108.966    0.173    0.422    3.804
  492.750  170.971  110.466    0.164    0.425    3.947
  493.000  172.091  109.108    0.150    0.421    4.085
  493.250  172.769  107.777    0.153    0.415    4.156
  493.500  173.548  105.805    0.165    0.425    4.201
  493.750  173.834  105.077    0.161    0.427    4.197
  494.000  174.080  106.057    0.157    0.428    4.138
  494.250  174.251  107.545    0.160    0.429    4.078
  494.500  174.225  108.870    0.162    0.440    3.986
  494.750  174.102  108.864    0.165    0.457    3.890
  495.000  173.725  108.620    0.174    0.469    3.750
  495.250  173.056  108.704    0.185    0.472    3.615
  495.500  172.776  109.859    0.187    0.457    3.504
  495.750  172.689  111.196    0.182    0.451    3.403
  496.000  173.039  111.267    0.184    0.454    3.395
  496.250  173.267  110.260    0.188    0.449    3.468
  496.500  173.231  110.011    0.182    0.440    3.531
  496.750  173.478  108.552    0.189    0.443    3.609
  497.000  173.231  107.674    0.181    0.453    3.627
  497.250  173.211  108.592    0.184    0.456    3.629
  497.500  172.715  111.972    0.188    0.462    3.608
  497.750  172.383  115.635    0.189    0.471    3.547
  498.000  171.837  117.369    0.199    0.479    3.433
  498.250  174.483  118.033    0.206    0.482    3.105
  498.500  177.100  119.552    0.212    0.480    2.845
  498.750  179.715  121.410    0.216    0.495    2.588
  499.000  184.125  123.162    0.214    0.513    2.381
  499.250  186.692  124.335    0.216    0.531    2.267
  499.500  185.450  125.012    0.230    0.554    2.227
  499.750  186.033  125.115    0.229    0.556    2.196
  500.000  188.769  124.953    0.225    0.561    2.172
  500.250  189.862  124.256    0.229    0.569    2.154
  500.500  188.751  124.354    0.235    0.556    2.152
  500.750  187.062  124.964    0.223    0.538    2.152
  501.000  187.206  125.645    0.209    0.527    2.161
  501.250  187.664  125.974    0.199    0.516    2.219
  501.500  187.672  124.344    0.189    0.507    2.311
  501.750  187.146  121.295    0.183    0.497    2.481
  502.000  183.226  119.066    0.185    0.483    2.701
  502.250  178.875  116.349    0.198    0.461    2.873
  502.500  175.372  111.490    0.198    0.451    3.044
  502.750  172.947  110.967    0.186    0.444    3.123
  503.000  171.524  111.022    0.178    0.437    3.128
  503.250  171.487  110.866    0.179    0.432    3.086
  503.500  173.281  111.716    0.183    0.426    2.994
  503.750  174.972  112.669    0.188    0.438    2.957
  504.000  175.607  113.375    0.186    0.454    3.023
  504.250  174.925  114.255    0.174    0.465    3.221
  504.500  173.577  101.188    0.167    0.466    3.468
  504.750  172.225   92.297    0.157    0.449    3.792
  505.000  171.141   84.567    0.167    0.426    4.095
  505.250  170.632   87.759    0.189    0.417    4.362
  505.500  170.368   93.360    0.167    0.415    4.834
  505.750  170.312   97.307    0.092    0.399    5.444
  506.000  170.126   93.717    0.076    0.374    6.393
  506.250  170.128   86.475    0.062    0.321    7.713
  506.500  170.338   80.213    0.045    0.272    8.434
  506.750  170.679   86.994    0.042    0.277    7.470
  507.000  170.574   96.831    0.080    0.321    5.813
  507.250  170.648  104.873    0.114    0.375    4.715
  507.500  170.570  108.942    0.139    0.403    4.073
  507.750  170.661  111.810    0.132    0.418    3.496
  508.000  170.730  113.010    0.142    0.431    3.398
  508.250  170.566  113.042    0.150    0.436    3.517
  508.500  170.517  111.970    0.145    0.432    3.597
  508.750  170.353  111.490    0.162    0.427    3.659
  509.000  169.983  111.722    0.168    0.432    3.871
  509.250  169.662  111.922    0.170    0.439    4.133
  509.500  169.085  111.162    0.167    0.430    4.437
  509.750  168.204  107.444    0.161    0.415    4.676
  510.000  167.764  103.725    0.147    0.401    4.753
  510.250  167.476  103.694    0.124    0.389    4.677
  510.500  167.039  106.059    0.143    0.396    4.503
  510.750  166.786  109.145    0.159    0.408    4.370
  511.000  166.863  110.898    0.155    0.415    4.226
  511.250  167.453  111.174    0.142    0.404    4.135
  511.500  168.778  113.388    0.123    0.394    4.062
  511.750  170.515  115.404    0.118    0.402    4.039
  512.000  171.758  116.721    0.143    0.415    3.997
  512.250  172.723  118.459    0.158    0.426    3.966
  512.500  173.212  118.009    0.173    0.421    3.923
  512.750  173.497  116.761    0.174    0.416    3.882
  513.000  173.094  114.176    0.156    0.413    3.880
  513.250  172.057  113.078    0.164    0.414    3.879
  513.500  172.733  112.458    0.162    0.415    3.887
  513.750  173.585  111.178    0.153    0.416    3.903
  514.000  174.149  109.314    0.146    0.418    3.940
  514.250  174.956  109.174    0.140    0.422    3.968
  514.500  175.437  110.091    0.144    0.419    3.998
  514.750  175.052  110.322    0.163    0.414    4.065
  515.000  174.790  109.532    0.152    0.422    4.133
  515.250  174.369  109.088    0.130    0.431    4.244
  515.500  173.018  109.531    0.120    0.434    4.314
  515.750  171.295  110.457    0.137    0.434    4.403
  516.000  169.492  112.440    0.152    0.432    4.505
  516.250  168.377  114.464    0.172    0.417    4.622
  516.500  167.342  112.799    0.186    0.405    4.819
  516.750  166.805  112.615    0.191    0.395    4.965
  517.000  167.578  115.288    0.181    0.389    5.093
  517.250  168.740  117.487    0.173    0.397    5.042
  517.500  169.434  118.967    0.163    0.406    4.949
  517.750  168.404  117.344    0.158    0.404    4.866
  518.000  167.580  114.660    0.162    0.398    4.827
  518.250  168.629  111.883    0.163    0.396    4.944
  518.500  170.861  109.027    0.159    0.407    4.569
  518.750  172.013  106.067    0.152    0.419    3.941
  519.000  173.205  109.004    0.156    0.429    3.372
  519.250  175.839  113.254    0.182    0.440    3.023
  519.500  180.344  116.125    0.199    0.479    2.629
  519.750  184.922  118.102    0.208    0.532    2.262
  520.000  183.034  119.156    0.199    0.542    2.077
  520.250  179.044  121.021    0.192    0.532    2.007
  520.500  182.078  123.656    0.202    0.523    1.954
  520.750  181.670  126.154    0.207    0.523    1.935
  521.000  179.679  127.496    0.194    0.528    1.984
  521.250  178.906  125.295    0.188    0.518    2.016
  521.500  180.010  123.055    0.191    0.502    2.063
  521.750  180.627  115.793    0.188    0.513    2.175
  522.000  180.820  108.070    0.178    0.521    2.408
  522.250  177.412  101.592    0.167    0.533    2.749
  522.500  173.806   97.108    0.158    0.491    3.176
  522.750  171.661   98.252    0.123    0.433    3.533
  523.000  170.142  102.980    0.102    0.409    3.941
  523.250  169.442  107.307    0.092    0.399    4.225
  523.500  169.169  111.254    0.117    0.408    4.450
  523.750  169.186  110.428    0.134    0.415    4.526
  524.000  169.053  105.953    0.133    0.411    4.496
  524.250  169.169  103.227    0.128    0.403    4.371
  524.500  169.171  107.176    0.094    0.443    4.190
  524.750  169.174  110.919    0.110    0.462    3.785
  525.000  169.310  115.278    0.137    0.474    3.533
  525.250  170.593  117.586    0.174    0.466    3.281
  525.500  171.131  119.562    0.176    0.455    3.135
  525.750  172.518  121.165    0.159    0.465    2.993
  526.000  172.915  121.696    0.148    0.482    2.933
  526.250  172.439  121.380    0.152    0.496    2.897
  526.500  171.377  117.058    0.125    0.507    2.888
  526.750  171.138  117.912    0.099    0.501    2.876
