~VERSION INFORMATION
 VERS.                 2.0:   CWLS LOG ASCII STANDARD -VERSION 2.0
 WRAP.                  NO:   ONE LINE PER DEPTH STEP
~WELL INFORMATION BLOCK
#MNEM.UNIT           DATA                    DESCRIPTION OF MNEMONIC
#---------    -------------------            -------------------------------
# Generated from Intellog Unique Number	CS_73_76/WELL/2181
WELL.         DOME PETROLEUM LIMITED         : Well_name    - WELL
LOC .         00/09-34-074-10W4/0            : Location     - LOCATION
UWI .         00/09-34-074-10W4/0            : Uwi          - UNIQUE WELL ID
ENTR.         SP                             : Entered      - ENTERED BY
SRVC.         SCHLUMBERGER                   : Scn          - SERVICE COMPANY
STRT.M        295                            : top_depth    - START DEPTH
STOP.M        495                            : bot_depth    - STOP DEPTH
STEP.M        0.25                           : increment    - STEP LENGTH
 NULL. -999.2500:NULL Value
~CURVE INFORMATION BLOCK
#MNEM UNIT       ERCB CURVE CODE    CURVE DESCRIPTION
#-----------   ------------------   ----------------------------------
DEPT.M        00 001 00 00         : DEPTH        - DEPTH
ILD .OHMM     00 120 00 00         : RESD         - DEEP RESISTIVITY (DIL)
DPHI.V/V      00 890 00 00         : PHID         - DENSITY POROSITY (LIMESTONE)
NPHI.V/V      00 330 00 00         : PHIN         - NEUTRON POROSITY (LIMESTONE)
GR  .API      00 310 00 00         : GR           - GAMMA RAY
~PARAMETER INFORMATION
#MNEM.UNIT           DATA             DESCRIPTION OF MNEMONIC
#---------         -----------     ------------------------------
GL  .M        675.02               : gl           - GROUND LEVEL ELEVATION
EREF.M        679                  : kb           - ELEVATION OF DEPTH REFERENCE
DATM.M        675.02               : datum        - DATUM ELEVATION
TDD .M        501                  : tdd          - TOTAL DEPTH DRILLER
RUN .         ONE                  : Run          - RUN NUMBER
ENG .         BILL                 : Engineer     - RECORDING ENGINEER
WIT .         JIM                  : Witness      - WITNESSED BY
MUD .         GEL                  : Mud_type     - MUD TYPE
MATR.         LIMESTONE            : Logunit      - NEUTRON MATRIX
TMAX.C        17                   : BHT          - MAXIMUM RECORDED TEMPERATURE
BHTD.M        501                  : BHTDEP       - MAXIMUM RECORDED TEMPERATURE
MATR.         1                    : LOGUNIT      - NEUTRON MATRIX
RMT .C        25                   : MDTP         - TEMPERATURE OF MUD
NEUT.         1                    : NEUTRON      - NEUTRON TYPE
RESI.         0                    : RESIST       - RESISTIVITY TYPE
RMC .OHMM     0.25                 : RMC          - RESISTIVITY OF MUD CAKE
RMF .OHMM     0.25                 : RMF          - RESISTIVITY OF MUD FILTRATE
SUFT.C        15                   : SUFT         - SURFACE TEMPERATURE
~A  DEPTH     RESD     PHID     PHIN       GR
# ...
  425.500    6.137    0.314    0.454   68.804
  425.750    6.255    0.318    0.452   67.004
  426.000    6.256    0.313    0.446   65.196
  426.250    6.139    0.316    0.441   64.001
  426.500    6.140    0.328    0.447   65.239
  426.750    6.140    0.328    0.451   67.079
  427.000    6.141    0.322    0.442   70.135
  427.250    6.141    0.317    0.437   71.365
  427.500    6.142    0.306    0.446   69.562
  427.750    6.143    0.296    0.464   66.547
  428.000    6.143    0.287    0.463   64.742
  428.250    6.144    0.284    0.447   63.549
  428.500    6.144    0.297    0.439   67.210
  428.750    6.145    0.312    0.446   70.876
  429.000    6.146    0.315    0.452   72.104
  429.250    6.146    0.315    0.449   70.908
  429.500    6.147    0.311    0.445   69.725
  429.750    6.147    0.306    0.440   70.350
  430.000    6.148    0.309    0.432   70.975
  430.250    6.149    0.308    0.426   72.204
  430.500    6.149    0.291    0.420   74.042
  430.750    6.149    0.278    0.415   79.523
  431.000    6.150    0.272    0.407   80.756
  431.250    6.151    0.288    0.409   77.741
  431.500    6.151    0.295    0.414   77.760
  431.750    6.270    0.281    0.418   77.784
  432.000    6.390    0.286    0.422   77.194
  432.250    6.765    0.286    0.437   76.601
  432.500    7.875    0.272    0.447   74.802
  432.750    8.497    0.269    0.459   72.388
  433.000    9.523    0.273    0.437   69.978
  433.250   10.472    0.251    0.384   69.390
  433.500    9.707    0.191    0.354   66.984
  433.750    8.500    0.125    0.332   65.177
  434.000    7.444    0.121    0.307   63.376
  434.250    7.167    0.120    0.304   67.043
  434.500    6.901    0.150    0.334   71.316
  434.750    6.772    0.215    0.397   73.756
  435.000    6.520    0.234    0.417   73.172
  435.250    6.398    0.238    0.429   71.362
  435.500    5.931    0.248    0.423   71.997
  435.750    5.711    0.258    0.428   74.439
  436.000    5.294    0.271    0.437   79.314
  436.250    5.195    0.255    0.442   84.193
  436.500    5.295    0.225    0.451   88.469
  436.750    5.397    0.234    0.457   90.916
  437.000    5.714    0.238    0.450   89.716
  437.250    5.935    0.234    0.437   89.734
  437.500    6.404    0.239    0.424   92.802
  437.750    6.652    0.248    0.429   94.036
  438.000    6.910    0.242    0.420   94.045
  438.250    6.781    0.224    0.414   92.847
  438.500    7.044    0.216    0.420   90.447
  438.750    7.180    0.203    0.436   89.854
  439.000    7.318    0.211    0.448   89.261
  439.250    7.601    0.211    0.454   88.677
  439.500    7.748    0.203    0.453   88.083
  439.750    7.748    0.197    0.425   86.889
  440.000    7.749    0.200    0.416   86.907
  440.250    7.604    0.200    0.416   87.533
  440.500    7.462    0.197    0.418   88.772
  440.750    7.323    0.218    0.421   89.998
  441.000    7.185    0.227    0.415   91.848
  441.250    6.919    0.224    0.405   93.073
  441.500    6.919    0.222    0.400   95.525
  441.750    6.920    0.233    0.419   97.978
  442.000    6.790    0.231    0.428   98.597
  442.250    6.791    0.232    0.438  100.445
  442.500    6.792    0.223    0.441  100.458
  442.750    6.665    0.216    0.444   99.259
  443.000    6.665    0.230    0.434   96.858
  443.250    6.666    0.229    0.423   95.049
  443.500    6.542    0.235    0.414   92.034
  443.750    6.542    0.248    0.413   88.407
  444.000    6.420    0.253    0.409   84.779
  444.250    6.181    0.227    0.406   86.623
  444.500    5.840    0.212    0.403   89.074
  444.750    5.517    0.205    0.420   88.484
  445.000    4.831    0.220    0.441   87.893
  445.250    4.394    0.216    0.450   89.736
  445.500    3.635    0.220    0.462   92.794
  445.750    3.244    0.237    0.469   93.418
  446.000    2.841    0.254    0.463   93.432
  446.250    2.584    0.260    0.470   93.451
  446.500    2.488    0.279    0.486   92.870
  446.750    2.441    0.291    0.508   92.886
  447.000    2.396    0.288    0.518   91.688
  447.250    2.396    0.264    0.522   89.276
  447.500    2.396    0.261    0.527   86.259
  447.750    2.396    0.249    0.533   89.319
  448.000    2.396    0.243    0.535   93.589
  448.250    2.489    0.254    0.543   95.426
  448.500    2.636    0.248    0.556   96.663
  448.750    2.898    0.252    0.559   96.070
  449.000    3.310    0.259    0.551   95.482
  449.250    3.853    0.244    0.520   92.465
  449.500    4.571    0.228    0.503   90.057
  449.750    5.123    0.212    0.496   88.254
  450.000    5.634    0.201    0.474   90.704
  450.250    5.964    0.203    0.444   93.152
  450.500    6.315    0.208    0.429   94.994
  450.750    6.436    0.204    0.424   95.008
  451.000    6.560    0.191    0.426   93.814
  451.250    5.855    0.171    0.423   90.797
  451.500    5.531    0.154    0.416   88.389
  451.750    4.936    0.156    0.400   90.832
  452.000    4.405    0.176    0.391   94.495
  452.250    4.084    0.193    0.392   96.942
  452.500    3.932    0.211    0.423   98.178
  452.750    3.645    0.229    0.429   96.383
  453.000    3.444    0.227    0.451   96.395
  453.250    3.444    0.228    0.467   95.212
  453.500    3.380    0.228    0.451   95.222
  453.750    3.445    0.222    0.437   93.415
  454.000    3.511    0.214    0.436   90.401
  454.250    3.578    0.214    0.435   91.630
  454.500    3.717    0.198    0.445   93.471
  454.750    3.861    0.185    0.450   93.495
  455.000    3.936    0.204    0.457   92.903
  455.250    3.936    0.213    0.462   92.314
  455.500    3.936    0.224    0.468   94.157
  455.750    3.863    0.229    0.478   95.994
  456.000    3.791    0.235    0.476   99.063
  456.250    3.791    0.228    0.478   99.677
  456.500    3.864    0.232    0.490   97.265
  456.750    4.169    0.221    0.485   97.289
  457.000    4.498    0.232    0.491   97.311
  457.250    4.946    0.233    0.493   96.722
  457.500    5.650    0.223    0.460   94.912
  457.750    5.869    0.212    0.425   90.683
  458.000    6.213    0.204    0.421   88.269
  458.250    6.454    0.202    0.429   90.111
  458.500    6.578    0.193    0.437   91.349
  458.750    7.234    0.181    0.418   88.938
  459.000    8.421    0.170    0.391   85.311
  459.250    9.437    0.172    0.383   80.470
  459.500   10.576    0.159    0.355   75.026
  459.750   11.197    0.141    0.327   70.797
  460.000   11.413    0.118    0.328   72.633
  460.250   11.855    0.172    0.343   74.473
  460.500   12.083    0.246    0.355   74.493
  460.750   12.552    0.258    0.344   73.304
  461.000   13.289    0.247    0.339   73.316
  461.250   12.795    0.245    0.340   73.948
  461.500   13.805    0.248    0.348   73.356
  461.750   15.181    0.233    0.358   70.343
  462.000   17.013    0.241    0.364   67.327
  462.250   18.708    0.260    0.361   66.127
  462.500   21.368    0.287    0.359   64.325
  462.750   23.948    0.303    0.354   63.735
  463.000   24.409    0.300    0.351   64.359
  463.250   25.356    0.296    0.367   66.201
  463.500   25.845    0.284    0.373   68.042
  463.750   25.846    0.282    0.370   69.893
  464.000   25.849    0.275    0.367   70.513
  464.250   25.851    0.270    0.366   70.525
  464.500   24.892    0.271    0.366   69.947
  464.750   24.894    0.276    0.366   69.955
  465.000   24.427    0.283    0.369   71.189
  465.250   23.520    0.282    0.373   74.245
  465.500   22.221    0.267    0.378   77.311
  465.750   20.993    0.255    0.387   79.144
  466.000   20.212    0.245    0.389   81.595
  466.250   18.385    0.241    0.395   82.824
  466.500   16.408    0.250    0.404   84.056
  466.750   15.209    0.254    0.405   90.155
  467.000   13.835    0.250    0.407   96.251
  467.250   13.576    0.226    0.401   98.690
  467.500   13.322    0.222    0.397  101.747
  467.750   13.578    0.231    0.392  100.547
  468.000   14.105    0.233    0.390   98.136
  468.250   14.932    0.228    0.394  100.588
  468.500   15.511    0.228    0.395  102.426
  468.750   18.057    0.236    0.385   95.765
