~VERSION INFORMATION
 VERS.                 2.0:   CWLS LOG ASCII STANDARD -VERSION 2.0
 WRAP.                  NO:   ONE LINE PER DEPTH STEP
~WELL INFORMATION BLOCK
#MNEM.UNIT           DATA                    DESCRIPTION OF MNEMONIC
#---------    -------------------            -------------------------------
# Generated from Intellog Unique Number	CX_WELLS/WELL/3007
WELL.         TRITON ATCOR THORNBURY         : Well_name    - WELL
LOC .         00/08-04-082-12W4/0            : Location     - LOCATION
UWI .         00/08-04-082-12W400            : Uwi          - UNIQUE WELL ID
ENTR.         T                              : Entered      - ENTERED BY
SRVC.         SCHLUMBERGER                   : Scn          - SERVICE COMPANY
STRT.M        300                            : top_depth    - START DEPTH
STOP.M        535                            : bot_depth    - STOP DEPTH
STEP.M        0.25                           : increment    - STEP LENGTH
 NULL. -999.2500:NULL Value
~CURVE INFORMATION BLOCK
#MNEM UNIT       ERCB CURVE CODE    CURVE DESCRIPTION
#-----------   ------------------   ----------------------------------
DEPT.M        00 001 00 00         : DEPTH        - DEPTH
GR  .API      00 310 00 00         : GR           - GAMMA RAY
NPHI.V/V      00 330 00 00         : PHIN         - NEUTRON POROSITY (SANDSTONE)
DPHI.V/V      00 890 00 00         : PHID         - DENSITY POROSITY (SANDSTONE)
ILD .OHMM     00 120 00 00         : RESD         - DEEP RESISTIVITY (OTHER)
~PARAMETER INFORMATION
#MNEM.UNIT           DATA             DESCRIPTION OF MNEMONIC
#---------         -----------     ------------------------------
GL  .M        746                  : gl           - GROUND LEVEL ELEVATION
EREF.M        748.6                : kb           - ELEVATION OF DEPTH REFERENCE
DATM.M        748.6                : datum        - DATUM ELEVATION
TDD .M        546                  : tdd          - TOTAL DEPTH DRILLER
RUN .         ONE                  : Run          - RUN NUMBER
ENG .         BILL                 : Engineer     - RECORDING ENGINEER
WIT .         JIM                  : Witness      - WITNESSED BY
MUD .         GEL                  : Mud_type     - MUD TYPE
MATR.         SANDSTONE            : Logunit      - NEUTRON MATRIX
TMAX.C        27                   : BHT          - MAXIMUM RECORDED TEMPERATURE
BHTD.M        546                  : BHTDEP       - MAXIMUM RECORDED TEMPERATURE
MATR.         1                    : LOGUNIT      - NEUTRON MATRIX
RMT .C        16                   : MDTP         - TEMPERATURE OF MUD
NEUT.         1                    : NEUTRON      - NEUTRON TYPE
RESI.         3.34                 : RESIST       - RESISTIVITY TYPE
RMC .OHMM     2                    : RMC          - RESISTIVITY OF MUD CAKE
RMF .OHMM     3.9                  : RMF          - RESISTIVITY OF MUD FILTRATE
SUFT.C        4                    : SUFT         - SURFACE TEMPERATURE
~A  DEPTH       GR     PHIN     PHID     RESD
# ...
  387.000   61.350    0.429    0.324   14.096
  387.250   61.373    0.433    0.335   14.366
  387.500   62.004    0.456    0.346   14.915
  387.750   62.622    0.467    0.347   15.200
  388.000   61.455    0.476    0.350   15.495
  388.250   61.473    0.475    0.344   15.498
  388.500   62.091    0.476    0.336   15.226
  388.750   62.121    0.476    0.335   14.953
  389.000   62.138    0.470    0.338   14.958
  389.250   60.983    0.464    0.343   14.693
  389.500   61.001    0.459    0.348   14.430
  389.750   61.030    0.453    0.349   14.174
  390.000   61.053    0.450    0.348   13.922
  390.250   61.666    0.452    0.347   13.675
  390.500   62.285    0.454    0.347   13.431
  390.750   62.915    0.465    0.347   12.951
  391.000   62.932    0.471    0.348   12.486
  391.250   63.551    0.474    0.347   11.820
  391.500   62.979    0.473    0.342   10.984
  391.750   64.193    0.466    0.335   10.020
  392.000   66.602    0.460    0.318    9.486
  392.250   68.411    0.456    0.315    8.980
  392.500   72.600    0.449    0.296    8.658
  392.750   75.593    0.447    0.296    8.349
  393.000   75.021    0.449    0.289    8.198
  393.250   75.639    0.455    0.277    8.052
  393.500   78.055    0.462    0.267    7.909
  393.750   79.262    0.470    0.268    7.489
  394.000   81.071    0.493    0.274    7.354
  394.250   79.904    0.497    0.289    7.356
  394.500   77.547    0.500    0.299    7.498
  394.750   74.001    0.497    0.288    7.785
  395.000   70.454    0.474    0.281    8.080
  395.250   69.882    0.466    0.285    8.388
  395.500   68.126    0.458    0.298    9.037
  395.750   66.364    0.448    0.313    9.555
  396.000   64.013    0.451    0.324   10.104
  396.250   63.442    0.452    0.325    9.217
  396.500   62.864    0.452    0.327    8.104
  396.750   62.304    0.452    0.328    7.671
  397.000   62.316    0.455    0.308    6.870
  397.250   62.339    0.481    0.305    6.154
  397.500   66.528    0.501    0.295    6.752
  397.750   76.668    0.514    0.287    7.272
  398.000   78.482    0.516    0.294    8.280
  398.250   74.340    0.510    0.319    9.084
  398.500   68.413    0.499    0.336   10.537
  398.750   63.093    0.481    0.367   11.777
  399.000   61.319    0.468    0.374   12.922
  399.250   59.563    0.456    0.376   13.169
  399.500   59.581    0.459    0.375   13.178
  399.750   60.800    0.463    0.373   13.181
  400.000   62.014    0.462    0.371   12.710
  400.250   62.043    0.461    0.365   12.483
  400.500   62.661    0.464    0.343   12.262
  400.750   62.685    0.468    0.340   12.043
  401.000   62.708    0.471    0.344   12.049
  401.250   62.726    0.475    0.346   11.836
  401.500   63.350    0.479    0.353   11.624
  401.750   63.368    0.481    0.358   11.418
  402.000   63.397    0.482    0.368   11.213
  402.250   64.010    0.481    0.375   10.814
  402.500   64.634    0.472    0.378   10.818
  402.750   64.657    0.464    0.375   10.432
  403.000   64.687    0.470    0.367   10.245
  403.250   64.704    0.477    0.357    9.880
  403.500   64.138    0.483    0.356    9.527
  403.750   64.168    0.488    0.360    9.355
  404.000   64.179    0.489    0.364    8.856
  404.250   64.203    0.491    0.359    8.540
  404.500   65.422    0.492    0.354    8.083
  404.750   66.636    0.498    0.336    7.512
  405.000   70.825    0.505    0.335    7.109
  405.250   79.774    0.514    0.329    6.024
  405.500   90.508    0.523    0.306    4.015
  405.750   98.874    0.533    0.279    3.219
  406.000   99.493    0.539    0.265    2.883
  406.250  100.111    0.541    0.260    2.630
  406.500  101.926    0.554    0.257    2.536
  406.750  103.127    0.566    0.248    2.445
  407.000  105.531    0.552    0.239    2.446
  407.250  106.745    0.543    0.225    2.493
  407.500  104.983    0.542    0.238    2.588
  407.750  101.448    0.546    0.263    2.840
  408.000  100.870    0.570    0.270    3.059
  408.250   99.709    0.570    0.282    3.235
  408.500   99.727    0.547    0.288    3.616
  408.750   97.965    0.516    0.287    3.895
  409.000   93.829    0.503    0.283    4.196
  409.250   91.466    0.492    0.281    4.604
  409.500   87.324    0.484    0.277    5.051
  409.750   84.373    0.475    0.274    5.440
  410.000   83.812    0.454    0.270    5.971
  410.250   85.609    0.444    0.271    6.314
  410.500   89.209    0.440    0.275    6.434
  410.750   91.023    0.483    0.277    6.320
  411.000   89.851    0.493    0.285    5.982
  411.250   79.758    0.497    0.299    5.357
  411.500   76.806    0.486    0.307    4.539
  411.750   76.235    0.460    0.299    2.862
  412.000   76.859    0.453    0.280    2.470
  412.250   77.472    0.482    0.279    2.055
  412.500   81.066    0.490    0.278    2.056
  412.750   92.401    0.524    0.275    2.298
  413.000   93.019    0.541    0.274    2.817
  413.250   91.263    0.545    0.273    3.267
  413.500   89.496    0.521    0.274    3.859
  413.750   86.544    0.516    0.275    4.559
  414.000   86.573    0.497    0.277    6.129
  414.250   86.591    0.489    0.282    6.362
  414.500   85.430    0.497    0.288    7.518
  414.750   84.257    0.504    0.292    7.949
  415.000   81.901    0.509    0.296    8.562
  415.250   78.360    0.507    0.301    9.055
  415.500   76.003    0.503    0.307    9.754
  415.750   74.241    0.493    0.313   10.314
  416.000   72.491    0.466    0.317   10.512
  416.250   71.908    0.452    0.318   10.714
  416.500   70.753    0.447    0.318   10.718
  416.750   70.764    0.444    0.311    9.777
  417.000   70.193    0.438    0.304    9.255
  417.250   68.431    0.445    0.292    9.787
  417.500   65.479    0.416    0.260   10.941
  417.750   61.337    0.366    0.144   11.568
  418.000   54.815    0.178    0.058   12.008
  418.250   48.888    0.201    0.094   11.578
  418.500   50.708    0.316    0.162    9.812
  418.750   55.486    0.423    0.246    8.626
  419.000   65.030    0.457    0.298    8.016
  419.250   68.029    0.470    0.309    7.449
  419.500   71.623    0.473    0.310    7.184
  419.750   76.418    0.463    0.310    7.055
  420.000   75.252    0.449    0.304    6.929
  420.250   74.680    0.456    0.301    6.933
  420.500   75.304    0.469    0.297    6.809
  420.750   75.316    0.478    0.298    6.812
  421.000   75.935    0.477    0.299    6.693
  421.250   76.553    0.478    0.299    6.694
  421.500   76.576    0.479    0.298    6.575
  421.750   76.600    0.482    0.295    6.578
  422.000   76.635    0.485    0.293    6.462
  422.250   77.248    0.476    0.292    6.346
  422.500   78.473    0.459    0.291    6.233
  422.750   78.490    0.453    0.292    6.236
  423.000   76.735    0.461    0.295    6.124
  423.250   74.967    0.468    0.295    6.016
  423.500   72.021    0.476    0.296    5.909
  423.750   71.438    0.477    0.296    5.804
  424.000   71.461    0.479    0.297    5.806
  424.250   71.496    0.479    0.297    5.810
  424.500   73.894    0.470    0.296    5.813
  424.750   76.298    0.472    0.294    5.815
  425.000   76.327    0.476    0.292    5.817
  425.250   76.951    0.479    0.286    6.041
  425.500   78.153    0.478    0.284    6.156
  425.750   81.158    0.474    0.284    6.390
  426.000   82.972    0.466    0.284    6.634
  426.250   82.996    0.450    0.277    7.016
  426.500   80.044    0.397    0.266    7.282
  426.750   65.786    0.361    0.245    7.844
  427.000   63.423    0.293    0.210    8.449
  427.250   57.502    0.270    0.161    9.103
  427.500   58.715    0.260    0.140    8.305
  427.750   71.824    0.285    0.200    7.437
  428.000   77.203    0.328    0.233    7.170
  428.250   87.943    0.379    0.248    6.664
  428.500   92.727    0.453    0.260    6.425
  428.750   93.941    0.469    0.261    6.195
  429.000   92.185    0.472    0.262    5.973
  429.250   91.607    0.472    0.267    5.655
  429.500   91.637    0.477    0.269    5.452
  429.750   92.249    0.504    0.269    4.974
  430.000   94.070    0.524    0.274    4.538
  430.250   95.283    0.533    0.276    4.217
