~VERSION INFORMATION
 VERS.                 2.0:   CWLS LOG ASCII STANDARD -VERSION 2.0
 WRAP.                  NO:   ONE LINE PER DEPTH STEP
~WELL INFORMATION BLOCK
#MNEM.UNIT           DATA                    DESCRIPTION OF MNEMONIC
#---------    -------------------            -------------------------------
# Generated from Intellog Unique Number	CS_73_76/WELL/644
WELL.         BOW VALLEY INDUSTRIES LTD      : Well_name    - WELL
LOC .         00/06-25-073-17W4/0            : Location     - LOCATION
UWI .         00/06-25-073-17W4/0            : Uwi          - UNIQUE WELL ID
ENTR.         SP                             : Entered      - ENTERED BY
SRVC.         SCHLUMBERGER                   : Scn          - SERVICE COMPANY
STRT.M        237.744                        : top_depth    - START DEPTH
STOP.M        444.744                        : bot_depth    - STOP DEPTH
STEP.M        0.25                           : increment    - STEP LENGTH
 NULL. -999.2500:NULL Value
~CURVE INFORMATION BLOCK
#MNEM UNIT       ERCB CURVE CODE    CURVE DESCRIPTION
#-----------   ------------------   ----------------------------------
DEPT.M        00 001 00 00         : DEPTH        - DEPTH
GR  .API      00 310 00 00         : GR           - GAMMA RAY
DPHI.V/V      00 890 00 00         : PHID         - DENSITY POROSITY (LIMESTONE)
NPHI.V/V      00 330 00 00         : PHIN         - NEUTRON POROSITY (LIMESTONE)
ILD .OHMM     00 120 00 00         : RESD         - DEEP RESISTIVITY (DIL)
~PARAMETER INFORMATION
#MNEM.UNIT           DATA             DESCRIPTION OF MNEMONIC
#---------         -----------     ------------------------------
GL  .M        574.853              : gl           - GROUND LEVEL ELEVATION
EREF.M        577.901              : kb           - ELEVATION OF DEPTH REFERENCE
DATM.M        574.853              : datum        - DATUM ELEVATION
TDD .M        448.361              : tdd          - TOTAL DEPTH DRILLER
RUN .         ONE                  : Run          - RUN NUMBER
ENG .         BILL                 : Engineer     - RECORDING ENGINEER
WIT .         JIM                  : Witness      - WITNESSED BY
MUD .         GEL                  : Mud_type     - MUD TYPE
MATR.         LIMESTONE            : Logunit      - NEUTRON MATRIX
TMAX.C        12.2222              : BHT          - MAXIMUM RECORDED TEMPERATURE
BHTD.M        448.361              : BHTDEP       - MAXIMUM RECORDED TEMPERATURE
MATR.         1                    : LOGUNIT      - NEUTRON MATRIX
RMT .C        25                   : MDTP         - TEMPERATURE OF MUD
NEUT.         1                    : NEUTRON      - NEUTRON TYPE
RESI.         0                    : RESIST       - RESISTIVITY TYPE
RMC .OHMM     0.25                 : RMC          - RESISTIVITY OF MUD CAKE
RMF .OHMM     0.25                 : RMF          - RESISTIVITY OF MUD FILTRATE
SUFT.C        15                   : SUFT         - SURFACE TEMPERATURE
~A  DEPTH       GR     PHID     PHIN     RESD
# ...
  324.744   97.182    0.233    0.490    3.709
  324.994   91.477    0.261    0.500    3.642
  325.244   86.495    0.254    0.508    3.933
  325.494   81.249    0.267    0.481    4.432
  325.744   75.890    0.285    0.452    5.054
  325.994   73.123    0.303    0.443    5.647
  326.244   72.664    0.325    0.448    6.117
  326.494   71.954    0.322    0.441    6.326
  326.744   72.073    0.326    0.435    6.400
  326.994   70.787    0.327    0.433    6.412
  327.244   70.861    0.326    0.431    6.272
  327.494   71.476    0.324    0.447    6.283
  327.744   71.846    0.320    0.461    6.283
  327.994   72.203    0.315    0.468    6.282
  328.244   72.707    0.316    0.478    6.285
  328.494   73.350    0.318    0.487    6.334
  328.744   73.972    0.325    0.462    6.397
  328.994   74.017    0.313    0.458    6.393
  329.244   73.450    0.310    0.436    6.618
  329.494   75.185    0.326    0.409    6.889
  329.744   77.898    0.337    0.371    8.124
  329.994   80.988    0.333    0.328    8.784
  330.244   84.025    0.329    0.328    9.884
  330.494   82.921    0.325    0.366   11.249
  330.744   80.505    0.327    0.416   12.714
  330.994   81.713    0.336    0.450   12.054
  331.244   79.755    0.340    0.469   10.602
  331.494   76.989    0.342    0.474    9.117
  331.744   75.952    0.340    0.469    8.101
  331.994   75.331    0.331    0.467    7.260
  332.244   72.275    0.328    0.463    7.005
  332.494   69.991    0.321    0.456    7.009
  332.744   71.495    0.339    0.457    7.008
  332.994   69.499    0.353    0.474    7.008
  333.244   69.818    0.358    0.482    7.022
  333.494   71.700    0.351    0.476    6.875
  333.744   74.687    0.347    0.470    6.765
  333.994   76.520    0.350    0.466    6.759
  334.244   75.141    0.350    0.476    6.755
  334.494   72.240    0.339    0.474    6.756
  334.744   71.004    0.333    0.466    6.767
  334.994   70.732    0.328    0.455    6.626
  335.244   70.865    0.331    0.447    6.635
  335.494   70.197    0.333    0.459    6.642
  335.744   69.627    0.334    0.470    6.510
  335.994   68.460    0.335    0.476    6.514
  336.244   70.706    0.333    0.461    6.512
  336.494   73.113    0.331    0.455    6.511
  336.744   76.722    0.328    0.445    6.441
  336.994   73.078    0.328    0.437    6.397
  337.244   72.427    0.325    0.438    6.391
  337.494   75.140    0.318    0.455    6.334
  337.744   76.266    0.312    0.452    6.279
  337.994   73.907    0.321    0.458    6.277
  338.244   69.152    0.320    0.463    6.277
  338.494   68.770    0.318    0.462    6.277
  338.744   71.466    0.323    0.465    6.277
  338.994   73.109    0.331    0.473    6.285
  339.244   73.391    0.324    0.473    6.164
  339.494   75.157    0.313    0.473    6.177
  339.744   76.499    0.303    0.477    6.040
  339.994   77.539    0.303    0.474    6.051
  340.244   77.317    0.310    0.466    6.062
  340.494   76.458    0.317    0.458    5.932
  340.744   77.519    0.318    0.458    5.942
  340.994   78.273    0.325    0.472    5.951
  341.244   77.434    0.330    0.472    5.827
  341.494   74.616    0.334    0.467    5.834
  341.744   76.269    0.334    0.462    5.832
  341.994   76.525    0.332    0.454    5.832
  342.244   77.090    0.313    0.465    5.911
  342.494   77.726    0.290    0.454    5.972
  342.744   75.442    0.264    0.420    6.610
  342.994   73.010    0.202    0.378    7.023
  343.244   69.742    0.161    0.335    7.472
  343.494   73.417    0.117    0.280    7.668
  343.744   76.794    0.165    0.432    7.854
  343.994   82.541    0.264    0.468    7.497
  344.244   86.455    0.282    0.454    7.295
  344.494   86.453    0.295    0.450    6.822
  344.744   86.222    0.303    0.452    6.493
  344.994   88.405    0.301    0.471    6.186
  345.244   89.255    0.298    0.485    6.037
  345.494   87.939    0.297    0.489    6.048
  345.744   86.199    0.295    0.476    6.047
  345.994   84.679    0.295    0.478    6.040
  346.244   81.074    0.284    0.466    6.153
  346.494   76.766    0.278    0.469    6.196
  346.744   74.044    0.284    0.464    6.521
  346.994   73.613    0.295    0.453    6.590
  347.244   76.153    0.306    0.451    6.885
  347.494   78.700    0.309    0.447    7.021
  347.744   81.760    0.307    0.445    7.120
  347.994   80.834    0.305    0.445    7.273
  348.244   75.578    0.295    0.441    7.259
  348.494   72.985    0.312    0.436    7.258
  348.744   73.554    0.325    0.432    7.259
  348.994   75.133    0.330    0.449    7.258
  349.244   74.936    0.340    0.486    7.187
  349.494   72.434    0.347    0.515    6.965
  349.744   71.595    0.355    0.560    6.768
  349.994   73.802    0.364    0.537    6.433
  350.244   76.888    0.336    0.484    6.266
  350.494   80.281    0.323    0.476    6.176
  350.744   83.284    0.320    0.492    6.157
  350.994   85.430    0.315    0.504    6.150
  351.244   85.983    0.319    0.484    6.035
  351.494   85.235    0.320    0.470    6.004
  351.744   85.960    0.314    0.458    5.935
  351.994   86.355    0.312    0.455    5.815
  352.244   86.579    0.310    0.463    5.799
  352.494   86.056    0.312    0.468    5.720
  352.744   85.756    0.320    0.475    5.732
  352.994   86.195    0.316    0.473    5.608
  353.244   87.760    0.309    0.497    5.619
  353.494   88.949    0.316    0.511    5.620
  353.744   90.925    0.320    0.510    5.628
  353.994   93.200    0.314    0.492    5.725
  354.244   90.369    0.296    0.479    5.713
  354.494   89.648    0.284    0.483    5.830
  354.744   91.422    0.277    0.486    5.768
  354.994   95.450    0.271    0.481    5.252
  355.244   99.088    0.269    0.473    4.688
  355.494  103.093    0.271    0.481    3.938
  355.744  107.889    0.233    0.505    3.555
  355.994  111.311    0.218    0.528    3.310
  356.244  114.739    0.210    0.533    3.243
  356.494  115.652    0.224    0.527    3.261
  356.744  114.671    0.234    0.520    3.416
  356.994  114.636    0.211    0.513    3.626
  357.244  114.662    0.220    0.520    3.773
  357.494  115.357    0.224    0.510    4.026
  357.744  113.617    0.228    0.488    4.271
  357.994  111.707    0.230    0.475    4.680
  358.244  111.993    0.227    0.476    4.893
  358.494  115.754    0.222    0.470    4.987
  358.744  116.623    0.209    0.478    5.123
  358.994  112.766    0.209    0.460    5.218
  359.244  109.936    0.219    0.454    5.324
  359.494  109.501    0.217    0.451    5.316
  359.744  108.977    0.213    0.451    5.364
  359.994  106.949    0.198    0.453    5.412
  360.244  105.401    0.195    0.459    5.404
  360.494  105.003    0.204    0.456    5.523
  360.744  102.996    0.202    0.452    5.512
  360.994  105.340    0.210    0.451    5.512
  361.244  107.731    0.217    0.448    5.517
  361.494  110.142    0.225    0.452    5.415
  361.744  111.614    0.235    0.465    5.316
  361.994  111.259    0.228    0.468    5.186
  362.244  111.886    0.220    0.475    5.122
  362.494  113.867    0.225    0.480    5.132
  362.744  113.113    0.221    0.474    5.022
  362.994  108.638    0.222    0.471    5.031
  363.244  106.544    0.227    0.468    5.032
  363.494  105.950    0.214    0.465    5.037
  363.744  102.342    0.216    0.478    5.127
  363.994   99.739    0.227    0.473    5.123
  364.244   93.086    0.254    0.469    5.122
  364.494   86.157    0.274    0.467    5.112
  364.744   81.756    0.290    0.470    5.226
  364.994   77.396    0.301    0.472    5.216
  365.244   74.117    0.298    0.472    5.263
  365.494   71.888    0.290    0.466    5.413
  365.744   70.395    0.297    0.461    5.493
  365.994   69.488    0.302    0.457    5.622
  366.244   70.791    0.311    0.459    5.627
  366.494   68.007    0.305    0.451    5.633
  366.744   68.790    0.310    0.453    5.612
  366.994   70.426    0.306    0.468    5.605
  367.244   72.019    0.304    0.477    5.513
  367.494   72.120    0.310    0.473    5.398
  367.744   72.148    0.319    0.472    5.409
  367.994   72.162    0.314    0.471    5.346
