~VERSION INFORMATION
 VERS.                 2.0:   CWLS LOG ASCII STANDARD -VERSION 2.0
 WRAP.                  NO:   ONE LINE PER DEPTH STEP
~WELL INFORMATION BLOCK
#MNEM.UNIT           DATA                    DESCRIPTION OF MNEMONIC
#---------    -------------------            -------------------------------
# Generated from Intellog Unique Number	CW_73_75/WELL/529
WELL.         CZAR ET AL CHERPETA 06-06      : Well_name    - WELL
LOC .         00/06-06-074-19W4/0            : Location     - LOCATION
UWI .         00/06-06-074-19W4/0            : Uwi          - UNIQUE WELL ID
ENTR.         JAYE                           : Entered      - ENTERED BY
SRVC.         SCHLUMBERGER                   : Scn          - SERVICE COMPANY
DATE.         32 JAN 80                      : Date         - LOG DATE
STRT.M        370                            : top_depth    - START DEPTH
STOP.M        570                            : bot_depth    - STOP DEPTH
STEP.M        0.25                           : increment    - STEP LENGTH
 NULL. -999.2500:NULL Value
~CURVE INFORMATION BLOCK
#MNEM UNIT       ERCB CURVE CODE    CURVE DESCRIPTION
#-----------   ------------------   ----------------------------------
DEPT.M        00 001 00 00         : DEPTH        - DEPTH
GR  .API      00 310 00 00         : GR           - GAMMA RAY
CALI.MM       00 280 01 00         : CAL          - CALIPER
DPHI.V/V      00 890 00 00         : PHID         - DENSITY POROSITY (SANDSTONE)
NPHI.V/V      00 330 00 00         : PHIN         - NEUTRON POROSITY (SANDSTONE)
ILD .OHMM     00 120 00 00         : RESD         - DEEP RESISTIVITY (DIL)
~PARAMETER INFORMATION
#MNEM.UNIT           DATA             DESCRIPTION OF MNEMONIC
#---------         -----------     ------------------------------
GL  .M        687.19               : gl           - GROUND LEVEL ELEVATION
EREF.M        690.09               : kb           - ELEVATION OF DEPTH REFERENCE
DATM.M        687.19               : datum        - DATUM ELEVATION
TDD .M        605                  : tdd          - TOTAL DEPTH DRILLER
RUN .         ONE                  : Run          - RUN NUMBER
ENG .         SARK                 : Engineer     - RECORDING ENGINEER
WIT .         EARLE                : Witness      - WITNESSED BY
BASE.         EDMONTON             : Branch       - HOME BASE OF LOGGING UNIT
MUD .         GEL CHEM             : Mud_type     - MUD TYPE
MATR.         SANDSTONE            : Logunit      - NEUTRON MATRIX
TMAX.C        25                   : BHT          - MAXIMUM RECORDED TEMPERATURE
BHTD.M        604.5                : BHTDEP       - MAXIMUM RECORDED TEMPERATURE
RMT .C        20                   : MDTP         - TEMPERATURE OF MUD
MUDD.KG/M     1110                 : MWT          - MUD DENSITY
NEUT.         1                    : NEUTRON      - NEUTRON TYPE
RESI.         0                    : RESIST       - RESISTIVITY TYPE
RM  .OHMM     2.68                 : RM           - RESISTIVITY OF MUD
RMC .OHMM     0                    : RMC          - RESISTIVITY OF MUD CAKE
RMF .OHMM     3.14                 : RMF          - RESISTIVITY OF MUD FILTRATE
SUFT.C        4.5                  : SUFT         - SURFACE TEMPERATURE
~A  DEPTH       GR      CAL     PHID     PHIN     RESD
# ...
  443.000   41.270  183.239    0.320    0.477    7.285
  443.250   40.587  181.281    0.328    0.447    7.065
  443.500   35.972  178.913    0.325    0.443    6.876
  443.750   35.166  180.845    0.336    0.455    6.744
  444.000   35.650  185.850    0.342    0.449    6.676
  444.250   35.765  186.964    0.349    0.434    6.633
  444.500   35.758  187.155    0.345    0.426    6.665
  444.750   35.689  187.142    0.340    0.437    6.772
  445.000   35.742  186.720    0.339    0.449    6.867
  445.250   35.674  186.196    0.343    0.463    6.939
  445.500   35.912  185.670    0.348    0.474    7.012
  445.750   38.422  184.840    0.352    0.472    7.098
  446.000   39.582  184.316    0.339    0.455    7.131
  446.250   40.618  170.381    0.335    0.441    7.165
  446.500   40.181  172.416    0.346    0.428    7.200
  446.750   38.761  177.521    0.345    0.426    7.287
  447.000   39.490  173.721    0.358    0.440    7.363
  447.250   39.851  173.913    0.342    0.452    7.454
  447.500   39.352  178.813    0.322    0.462    7.531
  447.750   37.993  179.723    0.326    0.470    7.596
  448.000   39.153  180.324    0.334    0.479    7.689
  448.250   40.312  180.517    0.330    0.477    7.813
  448.500   42.086  180.504    0.332    0.453    7.953
  448.750   42.938  180.081    0.343    0.453    8.081
  449.000   41.948  179.965    0.341    0.460    8.350
  449.250   41.142  179.646    0.349    0.464    8.758
  449.500   40.888  179.224    0.360    0.464    9.202
  449.750   41.372  178.494    0.363    0.450    9.597
  450.000   42.040  177.767    0.362    0.436    9.879
  450.250   42.892  177.957    0.357    0.430   10.057
  450.500   44.543  179.277    0.358    0.441   10.276
  450.750   46.071  180.492    0.365    0.455   10.559
  451.000   45.879  179.046    0.359    0.461   11.032
  451.250   44.705  179.852    0.352    0.446   11.723
  451.500   45.864  181.068    0.347    0.422   12.858
  451.750   46.532  181.261    0.330    0.394   14.858
  452.000   44.314  180.530    0.297    0.363   17.790
  452.250   42.340  179.802    0.262    0.324   20.946
  452.500   43.807  178.459    0.185    0.313   24.206
  452.750   45.458  175.783    0.209    0.348   28.077
  453.000   45.204  174.646    0.235    0.338   33.058
  453.250   44.521  179.752    0.068    0.234   31.466
  453.500   45.681  177.794    0.024    0.169   33.311
  453.750   47.454  176.758    0.040    0.171   34.484
  454.000   49.228  177.563    0.097    0.206   30.013
  454.250   51.247  179.699    0.157    0.319   15.409
  454.500   53.205  181.838    0.228    0.384   11.275
  454.750   55.163  184.179    0.278    0.418    9.074
  455.000   57.489  185.497    0.327    0.436    8.091
  455.250   60.184  182.517    0.356    0.437    7.545
  455.500   64.169  181.071    0.345    0.436    7.539
  455.750   67.171  185.972    0.333    0.460    7.731
  456.000   72.937  185.038    0.320    0.476    7.782
  456.250   76.185  182.875    0.302    0.475    7.777
  456.500   78.573  182.145    0.277    0.454    7.655
  456.750   76.906  182.236    0.296    0.452    7.178
  457.000   78.127  182.631    0.302    0.455    6.694
  457.250   78.120  182.516    0.281    0.460    6.516
  457.500   76.454  182.812    0.286    0.462    6.511
  457.750   74.788  183.926    0.299    0.459    6.627
  458.000   75.886  185.753    0.306    0.455    6.709
  458.250   81.099  186.665    0.281    0.450    6.641
  458.500   84.900  187.778    0.245    0.430    6.488
  458.750   91.095  189.710    0.171    0.417    6.199
  459.000   93.975  192.052    0.188    0.420    5.923
  459.250   91.879  194.599    0.193    0.436    5.776
  459.500   88.432  196.633    0.217    0.434    5.739
  459.750   88.608  197.848    0.226    0.430    5.734
  460.000   90.566  198.656    0.228    0.430    5.729
  460.250   92.709  199.564    0.219    0.440    5.735
  460.500   94.912  200.473    0.217    0.446    5.677
  460.750   96.870  200.972    0.226    0.459    5.567
  461.000   94.037  201.573    0.229    0.466    5.460
  461.250   92.249  202.379    0.235    0.458    5.324
  461.500   88.924  203.596    0.234    0.454    5.261
  461.750   88.241  206.040    0.214    0.473    5.246
  462.000   88.540  207.767    0.238    0.482    5.262
  462.250   88.778  206.627    0.246    0.485    5.287
  462.500   89.385  205.182    0.254    0.492    5.302
  462.750   90.238  203.738    0.213    0.478    5.278
  463.000   86.729  203.621    0.212    0.463    5.195
  463.250   85.984  203.610    0.202    0.452    5.067
  463.500   86.714  202.573    0.227    0.458    4.923
  463.750   89.899  201.844    0.210    0.467    4.642
  464.000   89.094  201.627    0.237    0.482    4.297
  464.250   86.015  205.504    0.259    0.499    3.839
  464.500   84.165  220.540    0.301    0.518    3.316
  464.750   81.209  221.551    0.333    0.539    3.228
  465.000   78.130  210.073    0.350    0.556    3.373
  465.250   76.833  202.381    0.343    0.515    3.598
  465.500   74.798  194.487    0.332    0.490    4.081
  465.750   71.167  185.773    0.320    0.502    4.760
  466.000   65.509  177.776    0.333    0.474    5.201
  466.250   59.789  173.976    0.341    0.453    5.294
  466.500   61.440  173.655    0.352    0.428    5.290
  466.750   63.827  174.154    0.349    0.415    5.246
  467.000   61.793  173.323    0.338    0.424    5.126
  467.250   61.724  173.310    0.330    0.427    4.925
  467.500   63.129  175.755    0.320    0.430    4.785
  467.750   62.691  176.868    0.323    0.438    4.817
  468.000   60.350  176.037    0.339    0.453    4.977
  468.250   57.271  174.794    0.337    0.442    5.104
  468.500   55.114  174.168    0.327    0.429    5.245
  468.750   54.615  174.974    0.330    0.415    5.201
  469.000   57.494  176.805    0.350    0.409    4.787
  469.250   63.690  177.713    0.368    0.416    4.523
  469.500   64.174  176.370    0.364    0.433    4.386
  469.750   59.376  175.231    0.371    0.433    4.432
  470.000   59.061  174.707    0.363    0.429    4.520
  470.250   61.817  176.128    0.375    0.426    4.714
  470.500   61.625  177.650    0.310    0.445    4.817
  470.750   59.529  176.000    0.324    0.450    4.867
  471.000   61.057  174.348    0.331    0.431    4.836
  471.250   62.769  174.541    0.326    0.409    4.814
  471.500   62.517  176.883    0.324    0.400    4.774
  471.750   58.639  177.893    0.320    0.414    4.743
  472.000   56.481  176.140    0.338    0.421    4.721
  472.250   57.027  175.104    0.353    0.427    4.656
  472.500   58.801  174.887    0.342    0.433    4.740
  472.750   61.004  175.385    0.328    0.441    4.834
  473.000   62.655  175.886    0.336    0.448    4.958
  473.250   63.507  176.487    0.333    0.455    5.258
  473.500   64.175  176.885    0.328    0.446    5.525
  473.750   64.537  177.689    0.326    0.431    5.720
  474.000   64.958  179.007    0.332    0.418    5.833
  474.250   65.381  180.225    0.333    0.406    5.796
  474.500   67.523  181.441    0.330    0.405    5.747
  474.750   68.376  182.348    0.328    0.423    5.743
  475.000   65.113  182.743    0.340    0.434    5.706
  475.250   64.184  182.528    0.336    0.434    5.691
  475.500   63.745  181.595    0.332    0.424    5.654
  475.750   63.984  181.070    0.329    0.433    5.660
  476.000   63.915  180.749    0.329    0.453    5.676
  476.250   64.091  180.430    0.337    0.458    5.661
  476.500   65.067  180.418    0.339    0.438    5.773
  476.750   66.165  180.507    0.347    0.437    6.044
  477.000   65.482  180.903    0.341    0.443    6.210
  477.250   62.895  181.096    0.330    0.449    6.240
  477.500   61.658  180.367    0.325    0.462    6.131
  477.750   62.388  179.228    0.330    0.478    5.968
  478.000   63.670  178.704    0.351    0.477    5.841
  478.250   64.215  178.076    0.350    0.456    5.718
  478.500   63.716  177.963    0.338    0.450    5.524
  478.750   62.971  177.743    0.334    0.441    5.489
  479.000   62.718  178.140    0.330    0.430    5.484
  479.250   63.878  178.435    0.330    0.430    5.480
