~VERSION INFORMATION
 VERS.                 2.0:   CWLS LOG ASCII STANDARD -VERSION 2.0
 WRAP.                  NO:   ONE LINE PER DEPTH STEP
~WELL INFORMATION BLOCK
#MNEM.UNIT           DATA                    DESCRIPTION OF MNEMONIC
#---------    -------------------            -------------------------------
# Generated from Intellog Unique Number	CS_71_72/WELL/829
WELL.         BRENDA ET AL NIXON             : Well_name    - WELL
LOC .         00/07-31-072-15W4/0            : Location     - LOCATION
UWI .         00/07-31-072-15W4/0            : Uwi          - UNIQUE WELL ID
ENTR.         SP                             : Entered      - ENTERED BY
SRVC.         SCHLUMBERGER                   : Scn          - SERVICE COMPANY
STRT.M        240                            : top_depth    - START DEPTH
STOP.M        445                            : bot_depth    - STOP DEPTH
STEP.M        0.25                           : increment    - STEP LENGTH
 NULL. -999.2500:NULL Value
~CURVE INFORMATION BLOCK
#MNEM UNIT       ERCB CURVE CODE    CURVE DESCRIPTION
#-----------   ------------------   ----------------------------------
DEPT.M        00 001 00 00         : DEPTH        - DEPTH
GR  .API      00 310 00 00         : GR           - GAMMA RAY
NPHI.V/V      00 330 00 00         : PHIN         - NEUTRON POROSITY (LIMESTONE)
DPHI.V/V      00 890 00 00         : PHID         - DENSITY POROSITY (LIMESTONE)
ILD .OHMM     00 120 00 00         : RESD         - DEEP RESISTIVITY (DIL)
~PARAMETER INFORMATION
#MNEM.UNIT           DATA             DESCRIPTION OF MNEMONIC
#---------         -----------     ------------------------------
GL  .M        575                  : gl           - GROUND LEVEL ELEVATION
EREF.M        577.75               : kb           - ELEVATION OF DEPTH REFERENCE
DATM.M        575                  : datum        - DATUM ELEVATION
TDD .M        470                  : tdd          - TOTAL DEPTH DRILLER
RUN .         ONE                  : Run          - RUN NUMBER
ENG .         BILL                 : Engineer     - RECORDING ENGINEER
WIT .         JIM                  : Witness      - WITNESSED BY
MUD .         GEL                  : Mud_type     - MUD TYPE
MATR.         LIMESTONE            : Logunit      - NEUTRON MATRIX
TMAX.C        23                   : BHT          - MAXIMUM RECORDED TEMPERATURE
BHTD.M        470                  : BHTDEP       - MAXIMUM RECORDED TEMPERATURE
MATR.         1                    : LOGUNIT      - NEUTRON MATRIX
RMT .C        25                   : MDTP         - TEMPERATURE OF MUD
NEUT.         1                    : NEUTRON      - NEUTRON TYPE
RESI.         0                    : RESIST       - RESISTIVITY TYPE
RMC .OHMM     0.25                 : RMC          - RESISTIVITY OF MUD CAKE
RMF .OHMM     0.25                 : RMF          - RESISTIVITY OF MUD FILTRATE
SUFT.C        15                   : SUFT         - SURFACE TEMPERATURE
~A  DEPTH       GR     PHIN     PHID     RESD
# ...
  414.000  114.212    0.377    0.223    5.096
  414.250  117.907    0.391    0.226    4.822
  414.500  121.601    0.397    0.231    4.734
  414.750  125.295    0.406    0.231    4.562
  415.000  128.375    0.407    0.225    4.739
  415.250  130.840    0.394    0.214    5.308
  415.500  130.231    0.386    0.192    6.409
  415.750  119.171    0.355    0.099    7.312
  416.000  108.112    0.328    0.081    9.166
  416.250   76.150    0.317    0.185   11.275
  416.500   71.238    0.337    0.240   13.870
  416.750   72.474    0.357    0.265   16.434
  417.000   73.709    0.374    0.282   17.724
  417.250   75.559    0.364    0.274   18.768
  417.500   79.871    0.357    0.270   18.775
  417.750   81.103    0.351    0.277   18.787
  418.000   80.496    0.358    0.235   18.450
  418.250   77.427    0.359    0.199   18.119
  418.500   73.130    0.358    0.208   18.130
  418.750   85.431    0.363    0.255   18.835
  419.000   94.658    0.378    0.284   20.705
  419.250   71.304    0.375    0.314   22.757
  419.500   63.933    0.368    0.335   25.012
  419.750   66.397    0.381    0.337   26.474
  420.000   76.856    0.384    0.327   28.562
  420.250   80.550    0.375    0.316   29.117
  420.500   81.784    0.369    0.313   26.525
  420.750   83.019    0.354    0.304   19.290
  421.000   87.944    0.348    0.263   15.702
  421.250  100.246    0.342    0.236   12.545
  421.500  110.087    0.340    0.237   10.602
  421.750  122.388    0.352    0.232    9.658
  422.000  129.157    0.366    0.225    8.635
  422.250  136.540    0.384    0.220    8.321
  422.500  142.078    0.390    0.217    8.647
  422.750  143.314    0.390    0.215    8.815
  423.000  137.787    0.387    0.219    9.331
  423.250  126.728    0.380    0.226   10.852
  423.500  115.668    0.374    0.233   12.384
  423.750  105.839    0.362    0.222   13.358
  424.000   97.237    0.351    0.192   14.140
  424.250   87.408    0.350    0.236   14.688
  424.500   98.481    0.359    0.267   14.977
  424.750  103.403    0.360    0.269   13.392
  425.000  108.941    0.355    0.260   12.665
  425.250  113.866    0.344    0.240   11.539
  425.500  107.110    0.333    0.236   10.711
  425.750  102.811    0.328    0.220    9.946
  426.000  106.509    0.343    0.207    9.584
  426.250  108.972    0.349    0.201    9.409
  426.500  112.668    0.358    0.210    9.241
  426.750  114.517    0.348    0.201    9.246
  427.000  113.295    0.331    0.156    9.606
  427.250  109.610    0.310    0.199   10.171
  427.500   93.632    0.300    0.246   10.565
  427.750   77.655    0.286    0.271   11.399
  428.000   75.817    0.271    0.243   11.839
  428.250   88.732    0.295    0.216   12.072
  428.500  104.722    0.314    0.210   12.080
  428.750  111.490    0.331    0.227   11.862
  429.000  102.275    0.345    0.239   11.650
  429.250  108.430    0.343    0.238   11.443
  429.500  116.427    0.331    0.222   11.448
  429.750  121.350    0.323    0.202   11.457
  430.000  118.897    0.344    0.205   11.680
  430.250  105.993    0.347    0.218   11.691
  430.500   96.165    0.331    0.227   11.697
  430.750  103.551    0.326    0.221   11.702
  431.000  106.628    0.337    0.208   11.931
  431.250  110.935    0.348    0.199   12.630
  431.500   96.187    0.354    0.191   13.371
  431.750   85.743    0.357    0.246   14.158
  432.000   85.135    0.361    0.276   14.705
  432.250   88.213    0.353    0.283   14.716
  432.500   91.293    0.339    0.261   14.723
  432.750   93.144    0.331    0.251   14.192
  433.000   93.765    0.331    0.236   13.936
  433.250   94.386    0.357    0.260   13.181
  433.500   95.005    0.361    0.274   12.235
  433.750  101.160    0.344    0.274   11.359
  434.000  108.542    0.337    0.253   10.745
  434.250  118.999    0.321    0.220   10.354
  434.500  123.924    0.337    0.198   10.166
  434.750  125.158    0.340    0.185    9.801
  435.000  126.395    0.334    0.181    9.444
  435.250  127.014    0.327    0.175    9.276
  435.500  128.251    0.321    0.181    9.282
  435.750  127.028    0.328    0.194    9.286
  436.000  122.731    0.334    0.200    9.470
  436.250  117.203    0.339    0.206    9.475
  436.500  112.905    0.336    0.214    9.663
  436.750  113.528    0.336    0.218    9.850
  437.000  114.147    0.341    0.222   10.044
  437.250  130.137    0.347    0.230   10.238
  437.500  137.519    0.351    0.231   10.841
  437.750  137.525    0.332    0.234   11.263
  438.000  131.384    0.319    0.226   11.921
  438.250  114.177    0.307    0.200   14.391
  438.500   88.363    0.267    0.096   19.446
  438.750   57.016    0.234    0.090   28.859
  439.000   37.352    0.215    0.099   38.267
  439.250   32.438    0.230    0.111   51.706
  439.500   29.986    0.247    0.132   66.037
  439.750   28.147    0.265    0.158   75.355
  440.000   28.769    0.272    0.177   84.395
  440.250   29.391    0.283    0.127   86.049
  440.500   30.010    0.284    0.076   87.737
  440.750   29.401    0.270    0.047   92.884
  441.000   27.563    0.262    0.034   98.332
  441.250   28.183    0.263    0.053  104.083
  441.500   29.419    0.265    0.051  110.184
  441.750   30.040    0.259    0.048  116.641
  442.000   28.204    0.257    0.062  116.719
  442.250   26.981    0.258    0.064  112.483
  442.500   26.373    0.264    0.060  104.417
  442.750   26.377    0.267    0.070   95.130
  443.000   29.456    0.267    0.075   88.311
  443.250   32.534    0.268    0.080   85.124
  443.500   34.999    0.270    0.075   83.570
  443.750   31.319    0.265    0.061   79.056
  444.000   32.553    0.258    0.054   74.773
  444.250   35.634    0.253    0.050   68.124
  444.500   37.484    0.257    0.054   64.426
  444.750   38.718    0.260    0.057   57.604
  445.000   38.728    0.253    0.065   53.475
