~VERSION INFORMATION
 VERS.                 2.0:   CWLS LOG ASCII STANDARD -VERSION 2.0
 WRAP.                  NO:   ONE LINE PER DEPTH STEP
~WELL INFORMATION BLOCK
#MNEM.UNIT           DATA                    DESCRIPTION OF MNEMONIC
#---------    -------------------            -------------------------------
# Generated from Intellog Unique Number	CW_76_78/WELL/554
WELL.         AMOCO ROCK 07-06               : Well_name    - WELL
LOC .         00/07-06-077-23W4/0            : Location     - LOCATION
UWI .         00/07-06-077-23W4/0            : Uwi          - UNIQUE WELL ID
ENTR.         jj                             : Entered      - ENTERED BY
SRVC.         WESTERN ATLAS                  : Scn          - SERVICE COMPANY
DATE.         12 MAR 78                      : Date         - LOG DATE
STRT.M        524.256                        : top_depth    - START DEPTH
STOP.M        765.006                        : bot_depth    - STOP DEPTH
STEP.M        0.25                           : increment    - STEP LENGTH
 NULL. -999.2500:NULL Value
~CURVE INFORMATION BLOCK
#MNEM UNIT       ERCB CURVE CODE    CURVE DESCRIPTION
#-----------   ------------------   ----------------------------------
DEPT.M        00 001 00 00         : DEPTH        - DEPTH
ILD .OHMM     00 120 00 00         : RESD         - DEEP RESISTIVITY (DIL)
DPHI.V/V      00 890 00 00         : PHID         - DENSITY POROSITY (SANDSTONE)
NPHI.V/V      00 330 00 00         : PHIN         - NEUTRON POROSITY (SANDSTONE)
GR  .API      00 310 00 00         : GR           - GAMMA RAY
CALI.MM       00 280 01 00         : CAL          - CALIPER
~PARAMETER INFORMATION
#MNEM.UNIT           DATA             DESCRIPTION OF MNEMONIC
#---------         -----------     ------------------------------
GL  .M        828.294              : gl           - GROUND LEVEL ELEVATION
EREF.M        832.104              : kb           - ELEVATION OF DEPTH REFERENCE
DATM.M        828.294              : datum        - DATUM ELEVATION
TDD .M        789.432              : tdd          - TOTAL DEPTH DRILLER
RUN .         ONE                  : Run          - RUN NUMBER
ENG .         BURLET               : Engineer     - RECORDING ENGINEER
WIT .         MCDONALD             : Witness      - WITNESSED BY
BASE.         EDMONTON             : Branch       - HOME BASE OF LOGGING UNIT
MUD .         GEL BENDEX           : Mud_type     - MUD TYPE
MATR.         SANDSTONE            : Logunit      - NEUTRON MATRIX
TMAX.C        32.7778              : BHT          - MAXIMUM RECORDED TEMPERATURE
BHTD.M        788.213              : BHTDEP       - MAXIMUM RECORDED TEMPERATURE
RMT .C        20.5556              : MDTP         - TEMPERATURE OF MUD
MUDD.KG/M     1080                 : MWT          - MUD DENSITY
NEUT.         1                    : NEUTRON      - NEUTRON TYPE
RESI.         0                    : RESIST       - RESISTIVITY TYPE
RM  .OHMM     2.43                 : RM           - RESISTIVITY OF MUD
RMC .OHMM     3.7                  : RMC          - RESISTIVITY OF MUD CAKE
RMF .OHMM     2.9                  : RMF          - RESISTIVITY OF MUD FILTRATE
SUFT.C        4.5                  : SUFT         - SURFACE TEMPERATURE
~A  DEPTH     RESD     PHID     PHIN       GR      CAL
# ...
  670.256    4.722    0.183    0.420   88.774  249.651
  670.506    4.436    0.190    0.418   90.205  250.062
  670.756    4.262    0.184    0.417   90.257  250.365
  671.006    4.165    0.181    0.410   89.559  250.455
  671.256    4.109    0.199    0.397   84.724  250.012
  671.506    4.039    0.191    0.387   81.956  246.387
  671.756    4.007    0.167    0.382   80.002  244.248
  672.006    4.215    0.125    0.385   80.683  243.488
  672.256    4.475    0.162    0.388   83.241  243.258
  672.506    4.770    0.177    0.392   83.734  243.346
  672.756    5.103    0.177    0.395   82.659  243.543
  673.006    5.357    0.190    0.395   81.897  243.949
  673.256    5.468    0.198    0.393   81.511  244.145
  673.506    5.274    0.209    0.392   81.312  244.237
  673.756    5.010    0.208    0.390   81.052  243.797
  674.006    4.933    0.203    0.387   79.226  243.355
  674.256    5.073    0.210    0.379   75.518  243.548
  674.506    5.366    0.205    0.364   72.813  243.536
  674.756    5.666    0.180    0.344   67.601  243.839
  675.006    5.849    0.031    0.308   59.882  244.138
  675.256    5.980    0.015    0.315   55.923  244.123
  675.506    6.495    0.068    0.330   65.127  244.002
  675.756    7.326    0.087    0.333   65.052  243.875
  676.006    8.876    0.027    0.327   65.921  243.648
  676.256    9.786    0.044    0.375   68.921  243.633
  676.506    9.315    0.155    0.391   74.490  243.722
  676.756    8.316    0.161    0.394   77.112  243.916
  677.006    7.299    0.169    0.387   77.540  243.582
  677.256    6.492    0.163    0.383   77.282  243.355
  677.506    6.018    0.157    0.380   75.517  243.126
  677.756    5.826    0.155    0.378   75.506  243.107
  678.006    5.525    0.155    0.378   76.374  243.092
  678.256    5.471    0.152    0.385   77.494  243.075
  678.506    5.490    0.159    0.386   78.422  242.849
  678.756    5.655    0.153    0.385   78.289  243.043
  679.006    5.750    0.144    0.376   76.899  243.026
  679.256    5.836    0.135    0.372   75.699  243.113
  679.506    5.956    0.125    0.372   74.434  243.207
  679.756    6.022    0.121    0.374   74.301  242.873
  680.006    6.020    0.116    0.376   74.667  242.218
  680.256    6.029    0.131    0.380   75.534  241.776
  680.506    6.027    0.136    0.382   76.278  241.016
  680.756    6.025    0.140    0.384   76.517  240.790
  681.006    6.011    0.128    0.387   76.697  240.348
  681.256    5.987    0.121    0.390   77.689  240.330
  681.506    5.928    0.122    0.392   78.871  240.526
  681.756    5.871    0.131    0.396   79.549  240.612
  682.006    5.792    0.148    0.399   79.728  240.807
  682.256    5.703    0.151    0.397   79.469  241.004
  682.506    5.626    0.159    0.393   78.017  241.202
  682.756    5.582    0.161    0.391   77.318  241.613
  683.006    5.538    0.144    0.392   77.120  242.231
  683.256    5.505    0.134    0.394   76.859  242.534
  683.506    5.514    0.125    0.401   77.288  242.838
  683.756    5.511    0.116    0.406   78.157  243.137
  684.006    5.510    0.118    0.408   78.774  243.440
  684.256    5.487    0.140    0.410   78.889  243.847
  684.506    5.444    0.146    0.414   81.387  244.045
  684.756    5.391    0.146    0.417   82.129  244.449
  685.006    5.349    0.138    0.418   81.994  244.540
  685.256    5.307    0.129    0.414   79.164  244.947
  685.506    5.265    0.128    0.413   79.405  244.932
  685.756    5.224    0.162    0.417   81.400  245.127
  686.006    5.163    0.171    0.415   83.084  245.218
  686.256    5.122    0.157    0.412   83.324  244.989
  686.506    5.121    0.145    0.409   82.876  244.762
  686.756    5.148    0.142    0.405   81.487  244.953
  687.006    5.146    0.134    0.400   80.725  245.151
  687.256    5.115    0.101    0.393   81.217  245.453
  687.506    5.094    0.083    0.373   81.834  245.652
  687.756    5.073    0.140    0.376   85.648  245.848
  688.006    5.024    0.152    0.386   87.330  246.042
  688.256    5.003    0.150    0.389   86.757  246.238
  688.506    4.964    0.134    0.389   81.732  246.434
  688.756    4.934    0.129    0.390   81.534  246.522
  689.006    4.905    0.119    0.390   81.399  246.401
  689.256    4.921    0.099    0.392   80.889  246.171
  689.506    4.957    0.138    0.396   79.123  245.838
  689.756    5.050    0.162    0.404   78.612  245.714
  690.006    5.173    0.162    0.404   77.224  245.698
  690.256    5.240    0.157    0.399   78.842  245.468
  690.506    5.278    0.153    0.393   80.903  245.555
  690.756    5.296    0.147    0.393   82.147  245.646
  691.006    5.284    0.143    0.400   79.943  245.630
  691.256    5.292    0.142    0.407   79.432  246.038
  691.506    5.260    0.142    0.409   81.239  246.025
  691.756    5.209    0.145    0.406   82.484  246.217
  692.006    5.149    0.148    0.406   81.659  246.095
  692.256    5.108    0.146    0.408   83.028  245.975
  692.506    5.078    0.141    0.405   83.018  245.534
  692.756    5.086    0.132    0.397   81.817  244.988
  693.006    5.103    0.138    0.390   81.871  244.225
  693.256    5.140    0.159    0.387   78.915  243.785
  693.506    5.236    0.165    0.385   76.147  243.664
  693.756    5.508    0.159    0.392   73.630  243.117
  694.006    5.859    0.144    0.393   71.051  242.460
  694.256    6.304    0.130    0.389   69.537  241.915
  694.506    6.951    0.113    0.389   50.159  241.260
  694.756    7.693    0.173    0.400   45.761  240.928
  695.006    7.986    0.220    0.401   47.319  240.379
  695.256    7.998    0.288    0.388   51.069  241.213
  695.506    7.980    0.264    0.376   49.806  243.107
  695.756    8.068    0.053    0.364   51.301  244.259
  696.006    8.141    0.079    0.374   56.055  244.773
  696.256    8.123    0.112    0.398   60.306  244.756
  696.506    7.984    0.135    0.410   66.065  245.270
  696.756    7.715    0.150    0.414   75.332  246.315
  697.006    7.261    0.146    0.412   80.273  247.144
  697.256    6.556    0.142    0.411   82.332  247.555
  697.506    5.986    0.145    0.409   84.391  246.053
  697.756    5.613    0.153    0.403   87.265  245.186
  698.006    5.342    0.161    0.395   91.329  245.168
  698.256    5.192    0.165    0.379   88.999  245.153
  698.506    5.074    0.170    0.373   78.147  245.563
  698.756    5.277    0.165    0.363   73.624  245.865
  699.006    5.742    0.152    0.346   67.095  245.954
  699.256    6.562    0.072    0.284   62.697  245.726
  699.506    7.685    0.004    0.246   59.366  244.648
  699.756    9.224   -0.004    0.236   56.723  243.782
  700.006   11.475    0.030    0.257   59.911  243.128
  700.256   13.040    0.072    0.295   67.234  243.113
  700.506   12.791    0.122    0.362   74.433  243.414
  700.756   12.176    0.122    0.366   80.002  243.607
  701.006   11.267    0.117    0.369   81.497  243.169
  701.256    9.926    0.120    0.370   82.490  242.198
  701.506    8.762    0.135    0.371   85.237  241.544
  701.756    7.956    0.137    0.382   88.111  241.420
  702.006    7.306    0.141    0.390   90.734  241.511
  702.256    6.837    0.142    0.390   91.477  241.810
  702.506    6.508    0.132    0.389   87.393  242.327
  702.756    6.360    0.117    0.388   81.491  243.159
  703.006    6.298    0.124    0.380   80.664  244.204
  703.256    6.320    0.132    0.375   80.339  244.931
  703.506    6.523    0.136    0.373   80.205  245.764
  703.756    6.823    0.143    0.372   80.136  246.597
  704.006    7.003    0.155    0.373   80.314  247.745
  704.256    7.040    0.160    0.377   80.054  248.368
  704.506    7.037    0.147    0.381   77.349  248.883
  704.756    6.996    0.121    0.382   75.145  248.230
  705.006    6.993    0.071    0.382   76.577  247.363
  705.256    6.938    0.087    0.379   78.760  247.346
  705.506    6.896    0.129    0.373   79.942  247.754
  705.756    6.868    0.136    0.369   79.305  248.161
  706.006    6.840    0.123    0.374   77.353  248.783
  706.256    6.786    0.108    0.368   75.086  249.933
  706.506    6.695    0.143    0.373   75.076  250.978
