~VERSION INFORMATION
 VERS.                 2.0:   CWLS LOG ASCII STANDARD -VERSION 2.0
 WRAP.                  NO:   ONE LINE PER DEPTH STEP
~WELL INFORMATION BLOCK
#MNEM.UNIT           DATA                    DESCRIPTION OF MNEMONIC
#---------    -------------------            -------------------------------
# Generated from Intellog Unique Number	CW_70_72/WELL/554
NULL.         -999.25                        : NULL_VALUE
WELL.         BOWRIO ET AL SMITH 06-06       : Well_name    - WELL              
LOC .         06-06-071-25W4                 : Location     - LOCATION          
UWI .         00/06-06-071-25W4/0            : Uwi          - UNIQUE WELL ID    
ENTR.         JAYE                           : Entered      - ENTERED BY        
SRVC.         SCHLUMBERGER                   : Scn          - SERVICE COMPANY   
DATE.         25 MAY 80                      : Date         - LOG DATE          
STRT.M        463                            : top_depth    - START DEPTH       
STOP.M        680                            : bot_depth    - STOP DEPTH        
STEP.M        0.25                           : increment    - STEP LENGTH       
~CURVE INFORMATION BLOCK
#MNEM UNIT       ERCB CURVE CODE    CURVE DESCRIPTION
#-----------   ------------------   ----------------------------------
DEPT.M        00 001 00 00         : DEPTH        - DEPTH                       
DPHI.V/V      00 890 00 00         : PHID         - DENSITY POROSITY (SANDSTONE)
NPHI.V/V      00 330 00 00         : PHIN         - NEUTRON POROSITY (SANDSTONE)
GR  .API      00 310 00 00         : GR           - GAMMA RAY                   
CALI.MM       00 280 01 00         : CAL          - CALIPER                     
ILD .OHMM     00 120 00 00         : RESD         - DEEP RESISTIVITY (DIL)      
~PARAMETER INFORMATION       
#MNEM.UNIT           DATA             DESCRIPTION OF MNEMONIC
#---------         -----------     ------------------------------
GL  .M        647.5                : gl           - GROUND LEVEL ELEVATION      
EREF.M        651                  : kb           - ELEVATION OF DEPTH REFERENCE
DATM.M        647.5                : datum        - DATUM ELEVATION             
TDD .M        690                  : tdd          - TOTAL DEPTH DRILLER         
RUN .         ONE                  : Run          - RUN NUMBER                  
ENG .         BRANDSTROM           : Engineer     - RECORDING ENGINEER          
WIT .         GRANT                : Witness      - WITNESSED BY                
BASE.         EDM                  : Branch       - HOME BASE OF LOGGING UNIT   
MUD .         GEL CHEM             : Mud_type     - MUD TYPE                    
MATR.         SANDSTONE            : Logunit      - NEUTRON MATRIX              
TMAX.C        25.4                 : BHT          - MAXIMUM RECORDED TEMPERATURE
BHTD.M        692                  : BHTDEP       - MAXIMUM RECORDED TEMPERATURE
RMT .C        15                   : MDTP         - TEMPERATURE OF MUD          
MUDD.KG/M     1160                 : MWT          - MUD DENSITY                 
NEUT.         1                    : NEUTRON      - NEUTRON TYPE                
RESI.         0                    : RESIST       - RESISTIVITY TYPE            
RM  .OHMM     3.13                 : RM           - RESISTIVITY OF MUD          
RMC .OHMM     0                    : RMC          - RESISTIVITY OF MUD CAKE     
RMF .OHMM     2.62                 : RMF          - RESISTIVITY OF MUD FILTRATE 
SUFT.C        32                   : SUFT         - SURFACE TEMPERATURE         
~A  DEPTH     PHID     PHIN       GR      CAL     RESD
# ...
  572.500    0.125    0.300   59.168  203.089    6.444
  572.750    0.126    0.343   59.556  203.218    5.142
  573.000    0.117    0.367   62.683  202.726    4.300
  573.250    0.141    0.382   67.553  201.816    3.484
  573.500    0.164    0.407   71.238  200.389    3.041
  573.750    0.187    0.429   75.983  199.276    2.543
  574.000    0.213    0.449   80.353  198.059    2.318
  574.250    0.230    0.444   73.525  197.460    2.325
  574.500    0.249    0.428   69.559  197.802    2.498
  574.750    0.253    0.421   72.377  198.655    2.704
  575.000    0.242    0.443   73.697  199.819    3.000
  575.250    0.221    0.454   70.913  200.678    3.322
  575.500    0.195    0.432   66.948  201.326    3.529
  575.750    0.177    0.395   64.038  201.765    3.435
  576.000    0.136    0.328   61.380  202.519    3.119
  576.250    0.119    0.301   67.306  203.065    2.907
  576.500    0.187    0.357   74.725  203.398    2.751
  576.750    0.189    0.421   80.340  203.325    2.637
  577.000    0.202    0.421   76.311  203.348    2.620
  577.250    0.220    0.400   75.146  203.378    2.616
  577.500    0.209    0.409   78.334  203.402    2.609
  577.750    0.205    0.418   87.122  203.227    2.606
  578.000    0.209    0.405   87.324  203.142    2.658
  578.250    0.232    0.396   85.100  202.856    2.720
  578.500    0.206    0.412   84.992  202.787    2.821
  578.750    0.220    0.432   81.650  203.120    2.915
  579.000    0.226    0.450   80.482  203.457    3.000
  579.250    0.212    0.448   82.239  203.791    3.117
  579.500    0.185    0.435   85.803  204.652    3.251
  579.750    0.198    0.421   88.244  204.986    3.384
  580.000    0.187    0.430   89.940  205.530    3.522
  580.250    0.200    0.439   89.830  206.905    3.715
  580.500    0.192    0.427   85.865  208.070    3.866
  580.750    0.176    0.412   81.464  206.748    3.987
  581.000    0.203    0.404   79.737  196.614    4.013
  581.250    0.198    0.420   78.944  195.707    3.861
  581.500    0.179    0.409   80.764  197.599    3.606
  581.750    0.162    0.415   87.811  201.465    3.444
  582.000    0.157    0.451   90.874  203.976    3.408
  582.250    0.183    0.433   86.722  204.006    3.348
  582.500    0.189    0.418   91.031  203.927    3.364
  582.750    0.182    0.423   89.304  203.228    3.424
  583.000    0.156    0.406   89.881  202.433    3.446
  583.250    0.182    0.395   93.691  202.348    3.481
  583.500    0.184    0.392   94.081  202.690    3.509
  583.750    0.181    0.403   93.100  203.441    3.566
  584.000    0.167    0.443   92.122  204.090    3.609
  584.250    0.182    0.454   89.460  204.319    3.625
  584.500    0.190    0.449   90.783  205.279    3.656
  584.750    0.181    0.422   96.212  205.514    3.673
  585.000    0.170    0.405   94.796  205.644    3.683
  585.250    0.171    0.395   89.838  206.086    3.706
  585.500    0.172    0.416   89.727  206.526    3.709
  585.750    0.171    0.399   90.924  207.591    3.712
  586.000    0.153    0.396   91.687  208.338    3.701
  586.250    0.183    0.393   94.129  208.988    3.690
  586.500    0.170    0.393   97.818  209.225    3.679
  586.750    0.168    0.410   92.854  209.352    3.683
  587.000    0.170    0.423   92.311  209.274    3.706
  587.250    0.157    0.436   95.996  209.612    3.737
  587.500    0.146    0.441   98.376  209.434    3.747
  587.750    0.154    0.437   96.029  209.148    3.765
  588.000    0.167    0.424   92.435  208.551    3.782
  588.250    0.184    0.402   88.284  207.540    3.792
  588.500    0.164    0.374   84.814  207.151    3.788
  588.750    0.176    0.394   87.631  208.318    3.756
  589.000    0.172    0.407   92.063  209.382    3.731
  589.250    0.156    0.423   95.811  210.444    3.762
  589.500    0.171    0.432   99.189  210.988    3.815
  589.750    0.162    0.420  101.318  211.226    3.919
  590.000    0.154    0.405   97.601  210.833    4.148
  590.250    0.174    0.417   85.548  209.925    4.391
  590.500    0.193    0.425   81.207  208.810    4.588
  590.750    0.226    0.416   79.667  207.697    4.618
  591.000    0.230    0.401   82.610  207.309    4.605
  591.250    0.212    0.434   85.237  206.818    4.591
  591.500    0.188    0.453   87.928  206.533    4.578
  591.750    0.157    0.464   90.556  206.253    4.573
  592.000    0.169    0.429   93.497  206.065    4.577
  592.250    0.182    0.413   95.940  205.995    4.589
  592.500    0.168    0.396   93.031  205.910    4.733
  592.750    0.157    0.422   87.508  205.527    5.029
  593.000    0.181    0.448   82.673  205.031    5.641
  593.250    0.170    0.364   76.652  204.540    6.508
  593.500    0.107    0.304   67.398  203.944    7.370
  593.750    0.045    0.250   56.588  203.245    8.221
  594.000    0.010    0.198   48.702  202.338    8.197
  594.250    0.086    0.256   55.313  201.640    7.037
  594.500    0.137    0.299   66.714  201.144    5.701
  594.750    0.175    0.371   72.579  200.859    4.714
  595.000    0.204    0.390   71.039  200.886    4.093
  595.250    0.196    0.411   68.817  200.395    3.924
  595.500    0.195    0.400   69.703  200.314    3.832
  595.750    0.207    0.403   72.392  200.033    3.716
  596.000    0.211    0.409   76.017  199.858    3.643
  596.250    0.209    0.410   79.454  199.776    3.646
  596.500    0.224    0.424   81.399  199.694    3.724
  596.750    0.222    0.418   77.497  199.929    3.884
  597.000    0.232    0.416   74.028  201.098    4.205
  597.250    0.224    0.407   71.429  202.368    4.622
  597.500    0.201    0.389   68.770  203.116    5.184
  597.750    0.168    0.339   66.735  203.147    5.698
  598.000    0.101    0.294   67.496  203.171    5.681
  598.250    0.104    0.337   69.005  202.574    5.498
  598.500    0.163    0.379   71.510  201.877    5.270
  598.750    0.197    0.390   74.012  201.282    4.986
  599.000    0.196    0.373   76.704  200.997    4.745
  599.250    0.191    0.359   79.706  201.545    4.558
  599.500    0.177    0.366   82.459  201.979    4.410
  599.750    0.144    0.404   85.525  202.629    4.251
  600.000    0.130    0.431   87.345  203.900    4.114
  600.250    0.183    0.416   87.608  205.792    3.973
  600.500    0.175    0.393   85.013  206.335    3.903
  600.750    0.174    0.406   81.791  206.676    3.862
  601.000    0.177    0.421   80.998  206.804    3.830
  601.250    0.172    0.419   85.370  206.523    3.797
  601.500    0.164    0.405   89.990  206.134    3.786
  601.750    0.158    0.414   93.862  206.057    3.810
  602.000    0.165    0.404   93.319  206.085    3.835
  602.250    0.177    0.394   92.898  206.317    3.846
  602.500    0.176    0.407   93.040  206.236    3.885
  602.750    0.161    0.424   90.816  206.367    3.895
  603.000    0.166    0.426   86.351  206.187    3.899
  603.250    0.168    0.413   86.429  206.211    3.909
  603.500    0.175    0.386   89.618  208.207    3.891
  603.750    0.169    0.373   94.051  210.203    3.894
  604.000    0.165    0.409   99.604  211.061    3.897
  604.250    0.156    0.410   99.622  211.503    3.900
  604.500    0.146    0.394   99.573  211.738    3.866
  604.750    0.135    0.392   98.531  211.761    3.863
  605.000    0.143    0.404   95.872  211.892    3.866
  605.250    0.153    0.408   95.265  211.816    3.847
  605.500    0.149    0.410   96.961  211.631    3.836
  605.750    0.151    0.413  101.082  211.554    3.790
  606.000    0.160    0.415  105.266  211.269    3.758
  606.250    0.164    0.416  107.896  211.304    3.746
  606.500    0.157    0.418  102.375  211.220    3.749
  606.750    0.151    0.419   99.902  211.352    3.781
  607.000    0.156    0.418   95.564  211.271    3.826
  607.250    0.153    0.413   90.850  211.092    3.880
  607.500    0.149    0.401   87.941  211.012    3.905
  607.750    0.158    0.402   87.833  211.148    3.915
  608.000    0.165    0.395   91.271  211.382    3.971
  608.250    0.171    0.384   93.712  211.405    3.974
  608.500    0.170    0.398   96.403  211.431    4.006
  608.750    0.166    0.418   92.250  210.834    4.032
