~VERSION INFORMATION
 VERS.                 2.0:   CWLS LOG ASCII STANDARD -VERSION 2.0
 WRAP.                  NO:   ONE LINE PER DEPTH STEP
~WELL INFORMATION BLOCK
#MNEM.UNIT           DATA                    DESCRIPTION OF MNEMONIC
#---------    -------------------            -------------------------------
# Generated from Intellog Unique Number	CX_WELLS/WELL/3100
WELL.         PARAMONT ALGAR                 : Well_name    - WELL
LOC .         00/06-06-082-17W4/0            : Location     - LOCATION
UWI .         00/06-06-082-17W400            : Uwi          - UNIQUE WELL ID
ENTR.         TIM                            : Entered      - ENTERED BY
SRVC.         SCHLUMBERGER                   : Scn          - SERVICE COMPANY
STRT.F        630                            : top_depth    - START DEPTH
STOP.F        1109.82                        : bot_depth    - STOP DEPTH
STEP.F        0.82                           : increment    - STEP LENGTH
 NULL. -999.2500:NULL Value
~CURVE INFORMATION BLOCK
#MNEM UNIT       ERCB CURVE CODE    CURVE DESCRIPTION
#-----------   ------------------   ----------------------------------
DEPT.F        00 001 00 00         : DEPTH        - DEPTH
GR  .API      00 310 00 00         : GR           - GAMMA RAY
NPHI.V/V      00 330 00 00         : PHIN         - NEUTRON POROSITY (SANDSTONE)
DPHI.V/V      00 890 00 00         : PHID         - DENSITY POROSITY (SANDSTONE)
ILD .OHMM     00 120 00 00         : RESD         - DEEP RESISTIVITY (OTHER)
~PARAMETER INFORMATION
#MNEM.UNIT           DATA             DESCRIPTION OF MNEMONIC
#---------         -----------     ------------------------------
GL  .F        1777                 : gl           - GROUND LEVEL ELEVATION
EREF.F        1787                 : kb           - ELEVATION OF DEPTH REFERENCE
DATM.F        1787                 : datum        - DATUM ELEVATION
TDD .F        1120                 : tdd          - TOTAL DEPTH DRILLER
RUN .         ONE                  : Run          - RUN NUMBER
ENG .         BILL                 : Engineer     - RECORDING ENGINEER
WIT .         JIM                  : Witness      - WITNESSED BY
MUD .         GEL                  : Mud_type     - MUD TYPE
MATR.         SANDSTONE            : Logunit      - NEUTRON MATRIX
TMAX.F        68                   : BHT          - MAXIMUM RECORDED TEMPERATURE
BHTD.F        1120                 : BHTDEP       - MAXIMUM RECORDED TEMPERATURE
MATR.         1                    : LOGUNIT      - NEUTRON MATRIX
RMT .F        68                   : MDTP         - TEMPERATURE OF MUD
NEUT.         1                    : NEUTRON      - NEUTRON TYPE
RESI.         1.88                 : RESIST       - RESISTIVITY TYPE
RMC .OHMM     3.4                  : RMC          - RESISTIVITY OF MUD CAKE
RMF .OHMM     1.88                 : RMF          - RESISTIVITY OF MUD FILTRATE
SUFT.F        37.4                 : SUFT         - SURFACE TEMPERATURE
~A  DEPTH       GR     PHIN     PHID     RESD
# ...
  915.433   60.717    0.236    0.023   15.986
  916.253   59.513    0.160    0.018   16.700
  917.073   61.910    0.121    0.042   18.447
  917.894   65.509    0.133    0.087   20.034
  918.714   72.108    0.180    0.139   17.970
  919.534   75.106    0.230    0.190   16.858
  920.354   77.505    0.294    0.235   15.667
  921.175   79.303    0.313    0.242   14.159
  921.995   81.100    0.340    0.242   13.127
  922.815   82.897    0.340    0.238   12.412
  923.635   84.094    0.343    0.221   11.062
  924.455   88.293    0.342    0.208   10.824
  925.276   91.290    0.335    0.208   10.744
  926.096   90.088    0.333    0.205   10.744
  926.916   87.684    0.340    0.199   10.744
  927.736   86.479    0.360    0.188   10.823
  928.556   85.275    0.358    0.165   10.823
  929.377   83.472    0.341    0.167   10.823
  930.197   82.268    0.336    0.205   10.743
  931.017   81.665    0.361    0.215   10.584
  931.837   81.062    0.376    0.223   10.505
  932.657   80.458    0.379    0.221   10.425
  933.478   80.455    0.376    0.217   10.187
  934.298   82.252    0.375    0.216   10.187
  935.118   82.850    0.374    0.213   10.028
  935.938   83.447    0.375    0.211    9.948
  936.759   84.043    0.375    0.211    9.869
  937.579   82.239    0.373    0.216    9.789
  938.399   80.436    0.368    0.222    9.710
  939.219   78.032    0.367    0.221    9.551
  940.039   78.029    0.368    0.219    9.392
  940.860   82.226    0.368    0.221    9.233
  941.680   84.024    0.361    0.222    9.074
  942.500   84.622    0.359    0.226    8.995
  943.320   85.219    0.352    0.228    8.915
  944.140   85.816    0.349    0.229    8.836
  944.961   87.013    0.349    0.231    8.756
  945.781   88.210    0.353    0.226    8.597
  946.601   88.207    0.360    0.215    8.518
  947.421   85.803    0.373    0.213    8.279
  948.241   85.800    0.388    0.210    8.200
  949.062   88.798    0.396    0.207    7.961
  949.882   92.395    0.401    0.202    7.803
  950.702   93.594    0.408    0.193    7.564
  951.522   94.791    0.415    0.191    7.485
  952.343   97.789    0.418    0.193    7.246
  953.163  100.187    0.416    0.194    7.008
  953.983  104.385    0.414    0.196    6.928
  954.803  109.184    0.412    0.197    6.690
  955.623  111.581    0.407    0.198    6.531
  956.444  110.378    0.402    0.194    6.531
  957.264  108.574    0.398    0.191    6.610
  958.084  106.770    0.366    0.176    6.769
  958.904  103.767    0.348    0.165    7.166
  959.724   95.359    0.324    0.152    7.563
  960.545   85.752    0.290    0.126    8.515
  961.365   75.545    0.239    0.118   12.088
  962.185   72.541    0.207    0.106   14.866
  963.005   75.539    0.294    0.127   17.009
  963.825   89.940    0.342    0.151   20.502
  964.646   94.740    0.360    0.179   21.217
  965.466   95.937    0.351    0.191   16.691
  966.286   92.933    0.346    0.193   14.945
  967.106   86.328    0.341    0.192   14.547
  967.927   88.725    0.336    0.192   14.230
  968.747   90.522    0.327    0.193   14.071
  969.567   89.319    0.316    0.194   14.309
  970.387   92.317    0.322    0.194   14.467
  971.207   96.516    0.329    0.196   14.785
  972.028   95.312    0.334    0.196   15.182
  972.848   95.308    0.327    0.193   15.579
  973.668   95.305    0.316    0.183   16.134
  974.488   92.901    0.311    0.165   16.531
  975.308   89.297    0.307    0.134   16.848
  976.129   89.293    0.307    0.128   17.404
  976.949   91.091    0.305    0.116   17.801
  977.769   94.689    0.309    0.125   17.721
  978.589   97.687    0.333    0.171   17.165
  979.409  100.685    0.342    0.183   16.371
  980.230  102.482    0.345    0.187   15.180
  981.050  101.279    0.343    0.194   13.195
  981.870   82.068    0.338    0.203   11.211
  982.690   66.459    0.330    0.214   10.337
  983.510   56.252    0.319    0.238   12.401
  984.331   46.044    0.303    0.244   15.894
  985.151   42.440    0.302    0.257   18.831
  985.971   40.634    0.297    0.279   21.927
  986.791   41.232    0.293    0.276   23.912
  987.612   43.030    0.295    0.272   26.294
  988.432   45.428    0.299    0.270   25.817
  989.252   48.426    0.308    0.268   25.102
  990.072   50.224    0.321    0.265   24.150
  990.892   53.821    0.332    0.263   23.435
  991.713   56.219    0.337    0.259   23.197
  992.533   58.617    0.343    0.257   22.879
  993.353   60.414    0.350    0.256   21.132
  994.173   63.412    0.358    0.254   15.416
  994.993   64.611    0.363    0.250   13.669
  995.814   67.608    0.371    0.238   10.573
  996.634   71.206    0.374    0.232    9.938
  997.454   73.605    0.371    0.228    9.302
  998.274   79.004    0.364    0.228    8.826
  999.094   83.202    0.365    0.225    8.270
  999.915   88.000    0.369    0.219    7.794
 1000.730   89.797    0.378    0.206    7.317
 1001.560   89.195    0.387    0.189    6.841
 1002.380   88.591    0.395    0.192    6.364
 1003.200   90.989    0.404    0.194    5.967
 1004.020   92.787    0.410    0.198    5.570
 1004.840   96.984    0.408    0.193    5.173
 1005.660   98.783    0.384    0.188    5.014
 1006.480   96.979    0.368    0.176    4.776
 1007.300   92.774    0.357    0.169    4.776
 1008.120   95.772    0.382    0.175    4.696
 1008.940   99.371    0.406    0.199    4.696
 1009.760  103.569    0.411    0.202    4.775
 1010.580  107.767    0.411    0.212    4.775
 1011.400  106.563    0.407    0.212    4.695
 1012.220  105.359    0.394    0.207    4.695
 1013.040  105.356    0.372    0.200    4.774
 1013.860  103.552    0.367    0.178    4.933
 1014.680   99.947    0.358    0.174    5.092
 1015.500   96.344    0.349    0.163    5.330
 1016.320   92.139    0.342    0.159    5.647
 1017.140   88.534    0.337    0.155    5.885
 1017.960   88.530    0.336    0.159    6.361
 1018.780   90.328    0.337    0.166    6.599
 1019.600   92.726    0.338    0.169    6.679
 1020.420   94.524    0.338    0.172    6.678
 1021.240   90.319    0.339    0.180    6.440
 1022.060   86.715    0.343    0.188    5.964
 1022.880   83.710    0.395    0.202    5.249
 1023.700   82.506    0.414    0.233    3.582
 1024.520   79.502    0.381    0.241    3.264
 1025.340   75.897    0.354    0.235    4.852
 1026.160   77.695    0.349    0.234    6.439
 1026.980   84.895    0.374    0.231    5.725
 1027.800   93.895    0.395    0.230    4.613
 1028.620   96.892    0.402    0.230    4.454
 1029.440   97.489    0.409    0.228    5.248
 1030.260   98.688    0.402    0.226    8.026
 1031.080   99.285    0.377    0.222    8.741
 1031.900   98.081    0.370    0.219    9.773
 1032.720   95.676    0.362    0.215    9.773
 1033.540   90.871    0.356    0.209    9.614
 1034.360   90.268    0.350    0.202    9.534
 1035.180   94.467    0.345    0.196   11.836
 1036.000   98.064    0.337    0.192   14.535
 1036.820   98.061    0.329    0.187   15.885
 1037.640   84.252    0.326    0.181   16.917
 1038.460   80.648    0.320    0.173   17.631
 1039.280   77.644    0.319    0.192   19.774
 1040.100   77.641    0.319    0.219   17.790
 1040.930   83.640    0.317    0.213   16.440
 1041.750   95.040    0.317    0.189   15.805
 1042.570   99.240    0.316    0.181   14.772
 1043.390  101.637    0.333    0.174   14.296
 1044.210  101.635    0.326    0.176   15.328
 1045.030  100.431    0.317    0.181   17.233
 1045.850   96.226    0.312    0.187   18.979
 1046.670   92.621    0.306    0.211   20.646
 1047.490   87.216    0.306    0.226   23.425
 1048.310   75.808    0.317    0.240   16.280
 1049.130   74.005    0.342    0.199   11.516
 1049.950   93.209    0.364    0.173   10.405
 1050.770  113.013    0.377    0.166   10.166
 1051.590  116.611    0.369    0.154   10.404
 1052.410  113.608    0.350    0.157   10.245
 1053.230  111.804    0.355    0.173   11.039
 1054.050  110.600    0.362    0.193   12.468
 1054.870  111.196    0.357    0.206   10.721
 1055.690  114.194    0.353    0.203   12.229
 1056.510  116.592    0.352    0.192   12.547
 1057.330  112.388    0.338    0.166   13.023
