~VERSION INFORMATION
 VERS.                 2.0:   CWLS LOG ASCII STANDARD -VERSION 2.0
 WRAP.                  NO:   ONE LINE PER DEPTH STEP
~WELL INFORMATION BLOCK
#MNEM.UNIT           DATA                    DESCRIPTION OF MNEMONIC
#---------    -------------------            -------------------------------
# Generated from Intellog Unique Number	CS_73_76/WELL/2001
WELL.         BOW VALLEY INDUSTRIES LTD.     : Well_name    - WELL
LOC .         00/07-03-075-14W4/0            : Location     - LOCATION
UWI .         00/07-03-075-14W4/0            : Uwi          - UNIQUE WELL ID
ENTR.         SP                             : Entered      - ENTERED BY
SRVC.         SCHLUMBERGER                   : Scn          - SERVICE COMPANY
STRT.M        410                            : top_depth    - START DEPTH
STOP.M        640                            : bot_depth    - STOP DEPTH
STEP.M        0.25                           : increment    - STEP LENGTH
 NULL. -999.2500:NULL Value
~CURVE INFORMATION BLOCK
#MNEM UNIT       ERCB CURVE CODE    CURVE DESCRIPTION
#-----------   ------------------   ----------------------------------
DEPT.M        00 001 00 00         : DEPTH        - DEPTH
ILD .OHMM     00 120 00 00         : RESD         - DEEP RESISTIVITY (DIL)
DPHI.V/V      00 890 00 00         : PHID         - DENSITY POROSITY (LIMESTONE)
NPHI.V/V      00 330 00 00         : PHIN         - NEUTRON POROSITY (LIMESTONE)
GR  .API      00 310 00 00         : GR           - GAMMA RAY
~PARAMETER INFORMATION
#MNEM.UNIT           DATA             DESCRIPTION OF MNEMONIC
#---------         -----------     ------------------------------
GL  .M        774.5                : gl           - GROUND LEVEL ELEVATION
EREF.M        777.8                : kb           - ELEVATION OF DEPTH REFERENCE
DATM.M        774.5                : datum        - DATUM ELEVATION
TDD .M        653.4                : tdd          - TOTAL DEPTH DRILLER
RUN .         ONE                  : Run          - RUN NUMBER
ENG .         BILL                 : Engineer     - RECORDING ENGINEER
WIT .         JIM                  : Witness      - WITNESSED BY
MUD .         GEL                  : Mud_type     - MUD TYPE
MATR.         LIMESTONE            : Logunit      - NEUTRON MATRIX
TMAX.C        27.1                 : BHT          - MAXIMUM RECORDED TEMPERATURE
BHTD.M        653.4                : BHTDEP       - MAXIMUM RECORDED TEMPERATURE
MATR.         1                    : LOGUNIT      - NEUTRON MATRIX
RMT .C        25                   : MDTP         - TEMPERATURE OF MUD
NEUT.         1                    : NEUTRON      - NEUTRON TYPE
RESI.         0                    : RESIST       - RESISTIVITY TYPE
RMC .OHMM     0.25                 : RMC          - RESISTIVITY OF MUD CAKE
RMF .OHMM     0.25                 : RMF          - RESISTIVITY OF MUD FILTRATE
SUFT.C        15                   : SUFT         - SURFACE TEMPERATURE
~A  DEPTH     RESD     PHID     PHIN       GR
# ...
  453.500    6.688    0.221    0.498   93.038
  453.750    6.686    0.216    0.511   93.039
  454.000    6.685    0.232    0.512   93.647
  454.250    6.683    0.247    0.506   96.077
  454.500    6.439    0.226    0.510  103.365
  454.750    6.090    0.205    0.518  106.402
  455.000    6.089    0.191    0.523  108.225
  455.250    5.976    0.195    0.522  100.331
  455.500    6.085    0.208    0.524   96.688
  455.750    6.197    0.231    0.528   94.259
  456.000    6.668    0.263    0.535   88.187
  456.250    6.917    0.264    0.527   82.722
  456.500    7.581    0.266    0.498   80.294
  456.750    8.011    0.274    0.474   74.829
  457.000    8.619    0.292    0.470   71.793
  457.250    8.777    0.307    0.476   69.364
  457.500    9.104    0.289    0.481   65.114
  457.750    9.442    0.281    0.484   63.293
  458.000    9.794    0.298    0.462   61.472
  458.250   10.158    0.314    0.450   62.080
  458.500   10.344    0.308    0.448   63.902
  458.750   10.534    0.301    0.459   66.332
  459.000   10.727    0.293    0.468   66.333
  459.250   10.923    0.307    0.460   65.727
  459.500   10.919    0.314    0.480   65.120
  459.750   10.914    0.293    0.487   64.513
  460.000   10.912    0.291    0.482   64.514
  460.250   11.111    0.299    0.481   65.729
  460.500   11.109    0.308    0.478   68.159
  460.750   11.312    0.310    0.477   68.160
  461.000   11.309    0.326    0.477   66.338
  461.250   11.305    0.322    0.477   62.696
  461.500   11.302    0.321    0.476   61.481
  461.750   11.298    0.309    0.472   61.482
  462.000   11.295    0.314    0.465   63.305
  462.250   11.292    0.312    0.465   64.520
  462.500   11.289    0.321    0.467   65.128
  462.750   11.285    0.314    0.470   66.344
  463.000   11.491    0.315    0.474   67.559
  463.250   11.488    0.308    0.459   68.774
  463.500   11.484    0.320    0.454   69.989
  463.750   11.481    0.337    0.446   70.597
  464.000   11.477    0.347    0.472   71.205
  464.250   11.475    0.354    0.477   71.813
  464.500   11.470    0.356    0.478   72.421
  464.750   11.468    0.342    0.483   73.029
  465.000   11.464    0.334    0.488   73.637
  465.250   11.459    0.331    0.489   74.246
  465.500   11.457    0.342    0.492   74.246
  465.750   11.454    0.324    0.492   74.247
  466.000   11.450    0.315    0.485   73.640
  466.250   11.447    0.308    0.476   71.819
  466.500   11.442    0.326    0.470   71.820
  466.750   11.440    0.325    0.477   71.213
  467.000   11.437    0.326    0.476   68.178
  467.250   11.433    0.330    0.470   66.963
  467.500   11.429    0.333    0.466   64.535
  467.750   11.218    0.339    0.460   62.107
  468.000   11.214    0.336    0.458   61.500
  468.250   11.212    0.327    0.458   60.894
  468.500   11.004    0.330    0.464   62.716
  468.750   10.800    0.339    0.469   63.931
  469.000   10.599    0.325    0.475   66.968
  469.250   10.596    0.317    0.484   65.147
  469.500   10.398    0.313    0.487   64.541
  469.750   10.396    0.324    0.482   66.363
  470.000   10.393    0.333    0.481   68.793
  470.250   10.389    0.326    0.483   68.186
  470.500   10.579    0.322    0.484   65.758
  470.750   10.773    0.319    0.483   65.151
  471.000   10.971    0.319    0.483   64.545
  471.250   11.171    0.324    0.471   67.582
  471.500   11.168    0.322    0.470   69.405
  471.750   11.164    0.320    0.488   64.547
  472.000   11.160    0.320    0.496   63.333
  472.250   11.158    0.328    0.491   62.726
  472.500   11.154    0.340    0.479   63.942
  472.750   11.151    0.342    0.461   64.550
  473.000   11.148    0.336    0.452   64.550
  473.250   11.143    0.333    0.437   63.944
  473.500   11.141    0.323    0.431   63.337
  473.750   11.138    0.340    0.450   60.909
  474.000   11.134    0.340    0.461   60.910
  474.250   11.338    0.330    0.468   60.910
  474.500   11.334    0.326    0.470   61.519
  474.750   11.332    0.328    0.464   61.519
  475.000   11.328    0.337    0.473   61.520
  475.250   11.325    0.336    0.478   62.128
  475.500   11.321    0.334    0.477   62.736
  475.750   11.110    0.333    0.472   65.166
  476.000   11.107    0.349    0.482   66.988
  476.250   11.105    0.327    0.476   70.633
  476.500   11.307    0.322    0.470   71.848
  476.750   11.945    0.327    0.484   71.849
  477.000   12.165    0.326    0.492   70.027
  477.250   13.089    0.313    0.486   68.206
  477.500   13.578    0.303    0.491   65.171
  477.750   14.083    0.299    0.500   63.957
  478.000   14.607    0.308    0.509   61.528
  478.250   14.604    0.293    0.503   60.314
  478.500   14.871    0.305    0.491   57.886
  478.750   14.594    0.306    0.483   57.887
  479.000   14.589    0.321    0.492   58.495
  479.250   14.586    0.310    0.502   60.317
  479.500   14.582    0.302    0.508   62.747
  479.750   14.310    0.302    0.503   62.140
  480.000   14.307    0.300    0.494   61.534
  480.250   14.303    0.300    0.495   61.535
  480.500   14.298    0.299    0.490   61.535
  480.750   14.293    0.299    0.502   61.536
  481.000   14.554    0.310    0.519   61.536
  481.250   14.551    0.316    0.539   60.930
  481.500   15.091    0.323    0.536   59.109
  481.750   15.655    0.326    0.524   55.466
  482.000   16.538    0.231    0.502   54.252
  482.250   17.154    0.184    0.449   51.824
  482.500   17.468    0.129    0.390   50.610
  482.750   17.788    0.188    0.355   50.003
  483.000   17.139    0.245    0.395   49.396
  483.250   15.917    0.296    0.455   53.041
  483.500   14.782    0.311    0.491   54.256
  483.750   13.477    0.315    0.498   56.079
  484.000   13.473    0.320    0.503   56.687
  484.250   13.975    0.310    0.507   56.080
  484.500   14.230    0.316    0.507   55.474
  484.750   14.490    0.309    0.500   55.474
  485.000   15.029    0.293    0.492   56.690
  485.250   15.305    0.269    0.485   57.905
  485.500   15.584    0.221    0.473   59.727
  485.750   15.579    0.270    0.490   62.157
  486.000   15.291    0.308    0.503   65.195
  486.250   14.734    0.293    0.515   66.410
  486.500   14.195    0.297    0.524   67.625
  486.750   14.193    0.289    0.508   70.662
  487.000   14.188    0.285    0.498   73.092
  487.250   14.183    0.297    0.501   77.951
  487.500   14.180    0.287    0.504   85.847
  487.750   14.175    0.280    0.505   93.135
  488.000   13.911    0.259    0.501   96.172
  488.250   13.653    0.265    0.498   88.885
  488.500   13.650    0.274    0.504   85.849
  488.750   14.158    0.263    0.515   80.384
  489.000   14.685    0.213    0.492   76.134
  489.250   15.230    0.075    0.377   72.491
  489.500   15.510    0.021    0.284   65.812
  489.750   15.506    0.038    0.309   65.205
  490.000   15.500    0.166    0.404   77.351
  490.250   15.214    0.248    0.484   77.352
  490.500   14.659    0.268    0.514   72.495
  490.750   14.124    0.254    0.515   68.851
  491.000   14.120    0.270    0.499   63.994
  491.250   14.116    0.277    0.501   61.565
  491.500   14.373    0.291    0.504   65.210
  491.750   14.108    0.297    0.493   67.640
  492.000   13.845    0.310    0.485   67.641
  492.250   13.340    0.295    0.492   67.034
  492.500   12.854    0.298    0.496   66.427
  492.750   12.160    0.316    0.509   66.428
  493.000   11.502    0.323    0.516   67.036
  493.250   11.290    0.333    0.511   67.037
  493.500   11.080    0.343    0.503   67.037
  493.750   10.874    0.332    0.499   62.787
  494.000   10.871    0.341    0.504   60.966
  494.250   10.670    0.338    0.519   64.003
  494.500   10.472    0.323    0.526   67.040
  494.750   10.090    0.306    0.503   68.255
  495.000    9.370    0.327    0.494   68.864
  495.250    8.702    0.338    0.498   69.471
  495.500    8.385    0.322    0.505   71.901
  495.750    8.079    0.314    0.499   71.902
  496.000    8.076    0.305    0.494   69.474
  496.250    8.377    0.301    0.496   70.082
  496.500    8.689    0.295    0.498   75.548
  496.750    9.180    0.286    0.509   78.585
