~VERSION INFORMATION
 VERS.                 2.0:   CWLS LOG ASCII STANDARD -VERSION 2.0
 WRAP.                  NO:   ONE LINE PER DEPTH STEP
~WELL INFORMATION BLOCK
#MNEM.UNIT           DATA                    DESCRIPTION OF MNEMONIC
#---------    -------------------            -------------------------------
# Generated from Intellog Unique Number	CW_76_78/WELL/2573
WELL.         SCURRY ET AL MCMULLEN          : Well_name    - WELL
LOC .         00/07-11-078-02W5/0            : Location     - LOCATION
UWI .         00/07-11-078-02W5/0            : Uwi          - UNIQUE WELL ID
ENTR.         MAX                            : Entered      - ENTERED BY
SRVC.         SCHLUMBERGER                   : Scn          - SERVICE COMPANY
STRT.M        332.232                        : top_depth    - START DEPTH
STOP.M        582.232                        : bot_depth    - STOP DEPTH
STEP.M        0.25                           : increment    - STEP LENGTH
 NULL. -999.2500:NULL Value
~CURVE INFORMATION BLOCK
#MNEM UNIT       ERCB CURVE CODE    CURVE DESCRIPTION
#-----------   ------------------   ----------------------------------
DEPT.M        00 001 00 00         : DEPTH        - DEPTH
ILD .OHMM     00 120 00 00         : RESD         - DEEP RESISTIVITY (DIL)
NPHI.V/V      00 330 00 00         : PHIN         - NEUTRON POROSITY (SANDSTONE)
DPHI.V/V      00 890 00 00         : PHID         - DENSITY POROSITY (SANDSTONE)
CALI.MM       00 280 01 00         : CAL          - CALIPER
GR  .API      00 310 00 00         : GR           - GAMMA RAY
~PARAMETER INFORMATION
#MNEM.UNIT           DATA             DESCRIPTION OF MNEMONIC
#---------         -----------     ------------------------------
GL  .M        630.601              : gl           - GROUND LEVEL ELEVATION
EREF.M        634.289              : kb           - ELEVATION OF DEPTH REFERENCE
DATM.M        630.601              : datum        - DATUM ELEVATION
TDD .M        556.26               : tdd          - TOTAL DEPTH DRILLER
RUN .         ONE                  : Run          - RUN NUMBER
ENG .         BILL                 : Engineer     - RECORDING ENGINEER
WIT .         JIM                  : Witness      - WITNESSED BY
MUD .         GEL                  : Mud_type     - MUD TYPE
MATR.         SANDSTONE            : Logunit      - NEUTRON MATRIX
TMAX.C        31.1111              : BHT          - MAXIMUM RECORDED TEMPERATURE
BHTD.M        556.26               : BHTDEP       - MAXIMUM RECORDED TEMPERATURE
RMT .C        15.5556              : MDTP         - TEMPERATURE OF MUD
MUDD.KG/M     9700                 : MWT          - MUD DENSITY
NEUT.         1                    : NEUTRON      - NEUTRON TYPE
RESI.         0                    : RESIST       - RESISTIVITY TYPE
RM  .OHMM     3.75                 : RM           - RESISTIVITY OF MUD
RMC .OHMM     5.24                 : RMC          - RESISTIVITY OF MUD CAKE
RMF .OHMM     5.21                 : RMF          - RESISTIVITY OF MUD FILTRATE
SUFT.C        -12.2222             : SUFT         - SURFACE TEMPERATURE
~A  DEPTH     RESD     PHIN     PHID      CAL       GR
# ...
  551.232    2.138    0.397    0.074  239.149   91.365
  551.482    2.063    0.444    0.041  235.657   98.765
  551.732    1.948    0.504    0.176  236.673  104.689
  551.982    1.834    0.505    0.185  243.196  104.401
  552.232    1.758    0.526    0.171  243.208  105.886
  552.482    1.722    0.550    0.166  242.222  105.009
  552.732    1.725    0.552    0.161  241.235  105.310
  552.982    1.730    0.538    0.165  241.235  108.275
  553.232    1.730    0.524    0.176  241.262  108.580
  553.482    1.733    0.511    0.185  241.774  110.953
  553.732    1.737    0.494    0.177  242.286  111.847
  553.982    1.739    0.495    0.177  240.797  106.829
  554.232    1.781    0.482    0.176  237.308  104.766
  554.482    1.823    0.468    0.155  234.817  103.593
  554.732    1.823    0.467    0.160  239.837  103.009
  554.982    1.908    0.459    0.170  243.854  102.720
  555.232    2.067    0.439    0.182  234.354  104.206
  555.482    2.108    0.415    0.156  238.374  108.651
  555.732    2.111    0.426    0.146  242.895  109.842
  555.982    2.075    0.433    0.149  246.412  111.033
  556.232    1.960    0.451    0.141  255.942  111.632
  556.482    1.807    0.473    0.148  259.456  108.090
  556.732    1.692    0.499    0.150  262.477   96.860
  556.982    1.656    0.583    0.151  261.486   94.798
  557.232    1.659    0.560    0.132  255.492   91.553
  557.482    1.659    0.515    0.100  244.487   89.787
  557.732    1.664    0.435   -0.006  233.485   97.187
  557.982    2.059    0.471    0.077  232.498  104.292
  558.232    2.257    0.496    0.171  233.013  112.284
  558.482    2.417    0.525    0.169  234.029  121.755
  558.732    2.381    0.532    0.163  234.029  118.806
  558.982    2.266    0.511    0.168  234.057  117.335
  559.232    2.190    0.476    0.165  233.565  118.822
  559.482    2.194    0.472    0.163  233.578  117.648
  559.732    2.194    0.473    0.172  233.578  114.106
  559.982    2.278    0.447    0.167  233.605  107.903
  560.232    2.555    0.417    0.155  233.621   93.421
  560.482    2.753    0.410    0.148  234.132   93.134
  560.732    2.874    0.458    0.144  235.147   98.464
  560.982    2.956    0.479    0.185  235.170  101.133
  561.232    2.958    0.466    0.166  236.174   97.592
  561.482    3.000    0.494    0.186  237.691   88.730
  561.732    3.120    0.509    0.187  237.704   82.232
  561.982    3.476    0.480    0.192  237.718   70.707
  562.232    3.831    0.436    0.170  238.232   67.758
  562.482    4.539    0.263    0.133  231.737   63.626
  562.732    6.265    0.272    0.001  231.247   66.590
  562.982    6.659    0.294    0.060  231.260   80.497
  563.232    6.663    0.322    0.137  232.276   91.743
  563.482    5.960    0.358    0.152  232.789   96.185
  563.732    5.375    0.388    0.163  232.303  105.359
  563.982    4.556    0.435    0.184  232.816  110.099
  564.232    3.815    0.449    0.178  232.829  108.037
  564.482    3.661    0.433    0.170  231.343   93.554
  564.732    3.586    0.415    0.196  229.852   90.014
  564.982    3.586    0.397    0.202  229.852   88.544
  565.232    3.591    0.386    0.199  229.882   87.072
  565.482    3.868    0.385    0.204  230.394   85.306
  565.732    4.145    0.387    0.210  230.404   82.653
  565.982    4.188    0.392    0.226  229.917   77.633
  566.232    4.073    0.415    0.236  229.930   71.433
  566.482    3.958    0.574    0.260  230.946   73.510
  566.732    3.963    0.595    0.310  230.959   72.038
  566.982    3.925    0.524    0.278  230.474   73.525
  567.232    3.967    0.408    0.235  230.485   77.672
  567.482    4.087    0.390    0.223  231.000   82.413
  567.732    4.246    0.378    0.216  230.010   84.787
  567.982    4.328    0.387    0.223  230.025   85.975
  568.232    4.330    0.384    0.217  230.548   87.168
  568.482    4.138    0.368    0.221  231.052   87.471
  568.732    3.906    0.363    0.223  232.067   88.365
  568.982    3.791    0.354    0.209  232.082   90.443
  569.232    3.716    0.346    0.186  232.096   91.042
  569.482    3.640    0.344    0.173  232.606   87.797
  569.732    3.604    0.352    0.155  233.621   87.805
  569.982    3.567    0.380    0.146  234.136   88.996
  570.232    3.572    0.398    0.144  234.651   91.074
  570.482    3.573    0.404    0.141  235.163   95.222
  570.732    3.615    0.409    0.153  232.176   97.004
  570.982    3.540    0.435    0.168  231.184   97.012
  571.232    3.503    0.445    0.208  231.197  103.229
  571.482    3.468    0.513    0.247  231.211  110.038
  571.732    3.470    0.456    0.231  231.224  117.438
  571.982    3.434    0.428    0.167  231.237  124.250
  572.232    3.398    0.440    0.166  231.752  122.186
  572.482    3.401    0.405    0.147  232.267  113.619
  572.732    3.404    0.365    0.103  232.278  104.755
  572.982    3.406    0.360    0.082  232.293  100.031
  573.232    3.409    0.383    0.069  232.309  100.632
  573.482    3.490    0.395    0.108  232.309  103.299
  573.732    3.493    0.419    0.155  231.835  106.561
  573.982    3.535    0.435    0.153  231.843  106.865
  574.232    3.538    0.397    0.157  231.843  103.914
  574.482    3.501    0.382    0.156  231.874   98.303
  574.732    3.505    0.384    0.157  231.885   97.425
  574.982    3.586    0.398    0.151  231.899  100.096
  575.232    3.589    0.435    0.154  231.910  105.425
  575.482    3.475    0.539    0.145  232.925  110.756
  575.732    3.281    0.573    0.128  234.441  109.876
  575.982    3.049    0.548    0.117  233.955  108.405
  576.232    2.817    0.561    0.151  233.969  114.919
  576.482    2.585    0.616    0.155  234.483  115.813
  576.732    2.431    0.601    0.150  234.495  112.272
  576.982    2.238    0.596    0.136  234.510  105.480
  577.232    2.045    0.606    0.133  235.023   99.278
  577.482    2.009    0.632    0.119  235.538   98.991
  577.732    1.973    0.635    0.100  235.551  101.068
  577.982    1.819    0.623    0.138  235.562  104.625
  578.232    1.626    0.581    0.114  236.578  106.702
  578.482    1.473    0.577    0.086  237.593  106.415
  578.732    1.473    0.560    0.098  238.106  108.787
  578.982    1.439    0.544    0.124  238.620  110.275
  579.232    1.363    0.568    0.102  239.136  109.689
  579.482    1.366    0.572    0.095  238.146  108.811
  579.732    1.369    0.548    0.079  237.159   96.104
  579.982    1.450    0.510    0.055  234.668   76.889
  580.232    1.610    0.395    0.041  232.176   42.595
  580.482    1.848    0.346    0.027  230.185   34.618
  580.732    2.124    0.294    0.024  228.698   29.599
  580.982    2.715    0.208    0.042  227.215   26.650
  581.232    3.462    0.205    0.065  226.722   26.658
  581.482    3.504    0.235    0.072  226.235   24.595
  581.732    3.076    0.270    0.062  226.250   24.605
  581.982    2.491    0.306    0.092  226.261   26.387
  582.232    1.985    0.325    0.089  226.775   27.281
