~VERSION INFORMATION
 VERS.                 2.0:   CWLS LOG ASCII STANDARD -VERSION 2.0
 WRAP.                  NO:   ONE LINE PER DEPTH STEP
~WELL INFORMATION BLOCK
#MNEM.UNIT           DATA                    DESCRIPTION OF MNEMONIC
#---------    -------------------            -------------------------------
# Generated from Intellog Unique Number	CX_WELLS/WELL/2773
WELL.         CHARD                          : Well_name    - WELL
LOC .         00/08-01-081-06W4/0            : Location     - LOCATION
UWI .         00/08-01-081-06W4/0            : Uwi          - UNIQUE WELL ID
ENTR.         T                              : Entered      - ENTERED BY
SRVC.         SCHLUMBERGER                   : Scn          - SERVICE COMPANY
STRT.M        175                            : top_depth    - START DEPTH
STOP.M        280                            : bot_depth    - STOP DEPTH
STEP.M        0.25                           : increment    - STEP LENGTH
 NULL. -999.2500:NULL Value
~CURVE INFORMATION BLOCK
#MNEM UNIT       ERCB CURVE CODE    CURVE DESCRIPTION
#-----------   ------------------   ----------------------------------
DEPT.M        00 001 00 00         : DEPTH        - DEPTH
GR  .API      00 310 00 00         : GR           - GAMMA RAY
NPHI.V/V      00 330 00 00         : PHIN         - NEUTRON POROSITY (SANDSTONE)
DPHI.V/V      00 890 00 00         : PHID         - DENSITY POROSITY (SANDSTONE)
ILD .OHMM     00 120 00 00         : RESD         - DEEP RESISTIVITY (DLL)
~PARAMETER INFORMATION
#MNEM.UNIT           DATA             DESCRIPTION OF MNEMONIC
#---------         -----------     ------------------------------
GL  .M        473.7                : gl           - GROUND LEVEL ELEVATION
EREF.M        476.9                : kb           - ELEVATION OF DEPTH REFERENCE
DATM.M        476.9                : datum        - DATUM ELEVATION
TDD .M        284                  : tdd          - TOTAL DEPTH DRILLER
RUN .         ONE                  : Run          - RUN NUMBER
ENG .         BILL                 : Engineer     - RECORDING ENGINEER
WIT .         JIM                  : Witness      - WITNESSED BY
MUD .         GEL                  : Mud_type     - MUD TYPE
MATR.         SANDSTONE            : Logunit      - NEUTRON MATRIX
TMAX.C        18                   : BHT          - MAXIMUM RECORDED TEMPERATURE
BHTD.M        284                  : BHTDEP       - MAXIMUM RECORDED TEMPERATURE
MATR.         1                    : LOGUNIT      - NEUTRON MATRIX
RMT .C        12.5                 : MDTP         - TEMPERATURE OF MUD
NEUT.         1                    : NEUTRON      - NEUTRON TYPE
RESI.         4.2                  : RESIST       - RESISTIVITY TYPE
RMC .OHMM     2                    : RMC          - RESISTIVITY OF MUD CAKE
RMF .OHMM     3.9                  : RMF          - RESISTIVITY OF MUD FILTRATE
SUFT.C        4                    : SUFT         - SURFACE TEMPERATURE
~A  DEPTH       GR     PHIN     PHID     RESD
  175.000  109.094    0.453    0.298    8.610
  175.250  108.489    0.451    0.291    8.780
  175.500  107.887    0.448    0.285    8.779
  175.750  110.330    0.444    0.283    8.952
  176.000  111.557    0.442    0.281    9.129
  176.250  112.170    0.438    0.276    9.309
  176.500  113.397    0.434    0.272    9.492
  176.750  114.620    0.432    0.267    9.871
  177.000  116.457    0.429    0.262   10.066
  177.250  117.071    0.428    0.259   10.065
  177.500  117.075    0.428    0.259    9.869
  177.750  115.862    0.429    0.261    9.126
  178.000  114.649    0.431    0.267    8.114
  178.250  116.486    0.433    0.274    7.957
  178.500  117.099    0.437    0.279    7.802
  178.750  118.933    0.444    0.279    7.802
  179.000  119.550    0.449    0.270    7.801
  179.250  119.558    0.447    0.260    7.955
  179.500  118.953    0.444    0.254    8.112
  179.750  118.348    0.443    0.250    8.272
  180.000  116.526    0.441    0.251    8.435
  180.250  114.094    0.438    0.261    8.601
  180.500  110.446    0.432    0.269    8.770
  180.750  108.622    0.429    0.280    8.770
  181.000  106.190    0.425    0.289    8.943
  181.250  104.367    0.424    0.296    8.943
  181.500  103.762    0.424    0.296    8.108
  181.750  106.817    0.424    0.297    7.646
  182.000  109.870    0.424    0.297    6.798
  182.250  112.924    0.429    0.294    5.700
  182.500  114.760    0.438    0.290    5.168
  182.750  115.373    0.449    0.282    4.779
  183.000  115.378    0.466    0.277    4.686
  183.250  114.165    0.484    0.271    4.778
  183.500  114.171    0.459    0.270    5.067
  183.750  115.399    0.460    0.267    5.167
  184.000  115.402    0.467    0.267    5.269
  184.250  115.409    0.474    0.270    5.066
  184.500  114.805    0.483    0.272    4.968
  184.750  114.811    0.494    0.276    4.685
  185.000  113.598    0.468    0.282    4.777
  185.250  110.557    0.438    0.289    6.041
  185.500  104.470    0.427    0.292    7.204
  185.750  102.646    0.432    0.305    7.791
  186.000  107.527    0.438    0.295    7.790
  186.250  117.895    0.444    0.287    6.927
  186.500  120.947    0.450    0.283    5.477
  186.750  121.565    0.458    0.282    5.064
  187.000  121.571    0.469    0.278    5.922
  187.250  121.577    0.467    0.276    6.791
  187.500  119.143    0.439    0.270    7.942
  187.750  117.930    0.430    0.260    9.471
  188.000  116.108    0.424    0.240    9.849
  188.250  113.066    0.424    0.214   10.444
  188.500  106.978    0.424    0.184   10.650
  188.750   95.404    0.424    0.137   10.241
  189.000   91.144    0.425    0.150    9.285
  189.250   94.197    0.428    0.233    8.928
  189.500   99.078    0.430    0.300    8.585
  189.750  102.742    0.433    0.291    8.419
  190.000  105.795    0.440    0.273    8.095
  190.250  108.240    0.448    0.256    7.340
  190.500  110.682    0.457    0.257    6.526
  190.750  113.737    0.467    0.265    5.918
  191.000  114.962    0.469    0.267    5.917
  191.250  115.577    0.470    0.263    5.917
  191.500  116.192    0.465    0.262    6.034
  191.750  116.809    0.459    0.262    6.153
  192.000  116.205    0.450    0.261    6.274
  192.250  113.773    0.449    0.259    6.398
  192.500  111.950    0.450    0.258    6.524
  192.750  110.736    0.451    0.257    6.523
  193.000  113.791    0.455    0.256    6.523
  193.250  116.844    0.459    0.256    6.523
  193.500  118.678    0.454    0.256    6.651
  193.750  119.903    0.430    0.256    6.651
  194.000  121.126    0.428    0.254    6.782
  194.250  122.352    0.423    0.254    6.782
  194.500  122.358    0.421    0.254    6.916
  194.750  121.756    0.423    0.254    6.915
  195.000  121.153    0.434    0.254    6.649
  195.250  121.157    0.440    0.253    5.912
  195.500  120.553    0.453    0.251    5.467
  195.750  116.903    0.478    0.252    4.767
  196.000  110.815    0.498    0.267    4.238
  196.250  108.991    0.505    0.283    3.843
  196.500  106.561    0.513    0.295    3.624
  196.750  105.957    0.518    0.303    3.553
  197.000  105.963    0.524    0.307    3.553
  197.250  104.750    0.529    0.308    3.553
  197.500  103.537    0.537    0.306    3.553
  197.750  103.543    0.530    0.300    3.623
  198.000  105.989    0.503    0.286    3.767
  198.250  107.211    0.475    0.272    3.842
  198.500  109.655    0.461    0.256    4.154
  198.750  111.491    0.459    0.243    4.672
  199.000  110.887    0.455    0.233    5.357
  199.250  107.846    0.448    0.224    6.024
  199.500  104.803    0.435    0.215    6.515
  199.750  104.199    0.410    0.204    6.774
  200.000  106.035    0.394    0.194    6.388
  200.250  107.870    0.387    0.205    5.680
  200.500  110.315    0.394    0.215    5.252
  200.750  110.928    0.402    0.233    4.762
  201.000  112.762    0.421    0.257    4.234
  201.250  113.377    0.445    0.263    3.992
  201.500  113.383    0.447    0.255    3.839
  201.750  113.390    0.450    0.254    3.764
  202.000  113.396    0.460    0.258    3.764
  202.250  113.402    0.483    0.260    3.691
  202.500  112.191    0.457    0.262    3.691
  202.750  110.368    0.459    0.262    3.691
  203.000  110.374    0.466    0.258    3.691
  203.250  114.038    0.471    0.254    3.763
  203.500  117.091    0.457    0.254    3.763
  203.750  119.533    0.456    0.259    3.837
  204.000  119.539    0.464    0.262    3.913
  204.250  118.937    0.469    0.265    4.069
  204.500  118.940    0.459    0.267    4.315
  204.750  118.946    0.451    0.265    4.400
  205.000  114.690    0.442    0.264    4.487
  205.250  112.864    0.434    0.264    4.486
  205.500  111.042    0.430    0.265    4.575
  205.750  108.610    0.424    0.265    4.757
  206.000  109.227    0.415    0.260    4.947
  206.250  111.672    0.411    0.252    5.144
  206.500  112.893    0.421    0.245    5.246
  206.750  112.290    0.429    0.234    5.455
  207.000  110.467    0.430    0.229    5.672
  207.250  109.254    0.427    0.216    6.015
  207.500  107.432    0.422    0.196    6.378
  207.750  102.564    0.416    0.159    6.897
  208.000   98.305    0.381    0.135    7.172
  208.250   95.873    0.371    0.159    7.606
  208.500   93.439    0.376    0.185    7.605
  208.750   90.398    0.381    0.225    7.457
  209.000   88.577    0.387    0.260    7.313
  209.250   89.194    0.391    0.277    7.171
  209.500   89.806    0.396    0.275    6.630
  209.750   92.253    0.406    0.282    6.131
  210.000   93.474    0.425    0.288    5.451
  210.250   97.138    0.440    0.288    4.395
  210.500  100.193    0.452    0.288    3.685
  210.750  103.246    0.466    0.288    3.475
  211.000  104.471    0.477    0.290    3.685
  211.250  104.478    0.477    0.298    3.907
  211.500  104.481    0.436    0.312    4.752
  211.750  103.880    0.398    0.324    7.751
  212.000  102.664    0.351    0.331   12.157
  212.250   97.795    0.196    0.334   19.829
  212.500   91.097    0.154    0.344   24.592
  212.750   84.400    0.152    0.371   21.866
  213.000   78.310    0.157    0.394   19.442
  213.250   94.163    0.224    0.391   17.977
  213.500   97.825    0.256    0.366   16.951
  213.750  102.097    0.278    0.325   15.370
  214.000  105.150    0.304    0.297   14.779
  214.250  106.375    0.318    0.270   14.211
  214.500  106.382    0.327    0.265   13.935
  214.750  106.999    0.328    0.261   13.399
  215.000  107.611    0.335    0.254   13.139
  215.250  108.836    0.352    0.251   13.139
  215.500  108.237    0.353    0.249   13.662
  215.750  105.802    0.313    0.273   15.364
  216.000   98.495    0.279    0.293   15.976
  216.250   91.187    0.250    0.318   17.966
  216.500   91.802    0.214    0.338   20.604
  216.750   94.247    0.190    0.353   23.170
  217.000   94.252    0.132    0.386   26.055
  217.250   89.992    0.117    0.426   29.301
  217.500   83.903    0.108    0.452   32.312
  217.750   76.595    0.123    0.457   36.336
  218.000   74.163    0.147    0.442   32.947
  218.250   77.216    0.166    0.418   28.727
