~VERSION INFORMATION
 VERS.                 2.0:   CWLS LOG ASCII STANDARD -VERSION 2.0
 WRAP.                  NO:   ONE LINE PER DEPTH STEP
~WELL INFORMATION BLOCK
#MNEM.UNIT           DATA                    DESCRIPTION OF MNEMONIC
#---------    -------------------            -------------------------------
# Generated from Intellog Unique Number	CN_94_101/WELL/3278
WELL.         CDC OIL & GAS LTD.             : Well_name    - WELL
LOC .         00/03-14-095-07W4/0            : Location     - LOCATION
UWI .         00/03-14-095-07W400            : Uwi          - UNIQUE WELL ID
ENTR.         JOETTE                         : Entered      - ENTERED BY
SRVC.         SCHLUMBERGER                   : Scn          - SERVICE COMPANY
DATE.         07/22/92                       : Date         - LOG DATE
STRT.M        50                             : top_depth    - START DEPTH
STOP.M        286                            : bot_depth    - STOP DEPTH
STEP.M        0.25                           : increment    - STEP LENGTH
 NULL. -999.2500:NULL Value
~CURVE INFORMATION BLOCK
#MNEM UNIT       ERCB CURVE CODE    CURVE DESCRIPTION
#-----------   ------------------   ----------------------------------
DEPT.M        00 001 00 00         : DEPTH        - DEPTH
GR  .API      00 310 00 00         : GR           - GAMMA RAY
ILD .OHMM     00 120 00 00         : RESD         - DEEP RESISTIVITY (DIL)
NPHI.V/V      00 330 00 00         : PHIN         - NEUTRON POROSITY (SANDSTONE)
DPHI.V/V      00 890 00 00         : PHID         - DENSITY POROSITY (SANDSTONE)
~PARAMETER INFORMATION
#MNEM.UNIT           DATA             DESCRIPTION OF MNEMONIC
#---------         -----------     ------------------------------
GL  .M        505.28               : gl           - GROUND LEVEL ELEVATION
EREF.M        506.66               : kb           - ELEVATION OF DEPTH REFERENCE
DATM.M        506.66               : datum        - DATUM ELEVATION
TDD .M        404                  : tdd          - TOTAL DEPTH DRILLER
RUN .         ONE                  : Run          - RUN NUMBER
ENG .         JO                   : Engineer     - RECORDING ENGINEER
WIT .         TIM                  : Witness      - WITNESSED BY
MUD .         GEL                  : Mud_type     - MUD TYPE
MATR.         SANDSTONE            : Logunit      - NEUTRON MATRIX
TMAX.C        21                   : BHT          - MAXIMUM RECORDED TEMPERATURE
BHTD.M        404                  : BHTDEP       - MAXIMUM RECORDED TEMPERATURE
RMT .C        15                   : MDTP         - TEMPERATURE OF MUD
MUDD.KG/M     1030                 : MWT          - MUD DENSITY
NEUT.         1                    : NEUTRON      - NEUTRON TYPE
RESI.         0                    : RESIST       - RESISTIVITY TYPE
RM  .OHMM     0.33                 : RM           - RESISTIVITY OF MUD
RMC .OHMM     0.58                 : RMC          - RESISTIVITY OF MUD CAKE
RMF .OHMM     0.32                 : RMF          - RESISTIVITY OF MUD FILTRATE
SUFT.C        4                    : SUFT         - SURFACE TEMPERATURE
~A  DEPTH       GR     RESD     PHIN     PHID
# ...
  137.000   45.127    6.645    0.400    0.215
  137.250   42.737    7.364    0.379    0.170
  137.500   40.938    8.894    0.351    0.126
  137.750   43.871   11.513    0.377    0.110
  138.000   46.217   14.390    0.406    0.118
  138.250   49.156   10.361    0.453    0.159
  138.500   50.915    4.762    0.469    0.183
  138.750   53.859    4.440    0.475    0.211
  139.000   55.021    4.513    0.474    0.249
  139.250   54.999    4.747    0.468    0.254
  139.500   54.385    4.827    0.468    0.250
  139.750   54.955    4.991    0.474    0.245
  140.000   55.525    5.433    0.483    0.240
  140.250   54.911    5.525    0.489    0.236
  140.500   53.106    5.240    0.480    0.240
  140.750   50.129    5.235    0.469    0.250
  141.000   49.515    5.508    0.461    0.266
  141.250   51.269    6.001    0.487    0.263
  141.500   57.168    6.883    0.495    0.255
  141.750   61.296    6.876    0.507    0.259
  142.000   61.866    5.781    0.517    0.267
  142.250   61.252    4.459    0.527    0.275
  142.500   58.269    3.380    0.525    0.284
  142.750   55.286    3.151    0.513    0.280
  143.000   53.488    3.259    0.502    0.272
  143.250   54.052    3.611    0.497    0.261
  143.500   55.812    4.070    0.500    0.256
  143.750   58.739    4.138    0.502    0.256
  144.000   59.913    3.420    0.507    0.261
  144.250   62.846    2.504    0.513    0.266
  144.500   64.008    2.217    0.525    0.268
  144.750   65.170    2.103    0.533    0.272
  145.000   65.159    2.030    0.520    0.276
  145.250   65.136    1.994    0.521    0.277
  145.500   64.522    1.924    0.532    0.276
  145.750   63.902    1.856    0.542    0.272
  146.000   63.282    1.824    0.530    0.260
  146.250   62.679    1.790    0.510    0.245
  146.500   61.473    1.851    0.492    0.247
  146.750   59.669    1.915    0.487    0.253
  147.000   57.870    2.159    0.479    0.260
  147.250   58.440    2.563    0.466    0.269
  147.500   60.194    3.149    0.454    0.277
  147.750   61.362    3.430    0.444    0.275
  148.000   60.748    3.801    0.454    0.272
  148.250   59.541    4.068    0.467    0.268
  148.500   57.737    4.134    0.459    0.258
  148.750   57.726    4.202    0.453    0.246
  149.000   57.698    4.348    0.451    0.229
  149.250   57.078    4.900    0.453    0.214
  149.500   57.068    5.336    0.453    0.198
  149.750   55.855    5.614    0.448    0.181
  150.000   55.247    5.708    0.453    0.213
  150.250   54.633    5.605    0.468    0.234
  150.500   55.191    5.410    0.478    0.261
  150.750   55.772    5.402    0.474    0.269
  151.000   56.342    5.306    0.469    0.275
  151.250   56.320    5.211    0.468    0.268
  151.500   55.108    5.117    0.469    0.245
  151.750   53.902    5.024    0.473    0.236
  152.000   53.288    4.935    0.476    0.234
  152.250   53.276    4.760    0.470    0.232
  152.500   54.438    4.677    0.458    0.226
  152.750   56.785    4.436    0.445    0.223
  153.000   58.533    4.281    0.431    0.222
  153.250   60.880    4.204    0.433    0.241
  153.500   61.450    4.201    0.443    0.245
  153.750   62.020    3.985    0.466    0.242
  154.000   61.998    3.780    0.470    0.240
  154.250   62.567    3.586    0.471    0.239
  154.500   62.545    3.646    0.471    0.236
  154.750   62.529    4.110    0.470    0.235
  155.000   61.317    4.400    0.474    0.242
  155.250   60.116    4.472    0.495    0.269
  155.500   59.507    4.169    0.496    0.261
  155.750   58.893    3.821    0.494    0.250
  156.000   58.279    3.626    0.498    0.254
  156.250   57.653    3.381    0.509    0.258
  156.500   58.229    2.942    0.514    0.260
  156.750   58.212    2.516    0.514    0.259
  157.000   58.782    2.558    0.512    0.253
  157.250   60.525    2.884    0.509    0.252
  157.500   61.100    3.141    0.508    0.252
  157.750   61.084    2.829    0.508    0.248
  158.000   61.051    2.593    0.509    0.244
  158.250   60.442    2.376    0.511    0.244
  158.500   59.833    2.254    0.512    0.242
  158.750   59.811    2.455    0.514    0.240
  159.000   59.794    2.816    0.518    0.235
  159.250   59.772    2.911    0.519    0.227
  159.500   57.382    2.810    0.513    0.232
  159.750   56.175    2.531    0.497    0.239
  160.000   58.521    2.486    0.481    0.241
  160.250   60.862    2.571    0.479    0.238
  160.500   62.024    3.000    0.484    0.229
  160.750   61.996    3.211    0.484    0.224
  161.000   61.388    3.321    0.477    0.223
  161.250   60.773    3.494    0.442    0.217
  161.500   60.165    3.740    0.435    0.208
  161.750   60.137    4.144    0.440    0.191
  162.000   60.126    4.285    0.451    0.183
  162.250   57.735    4.281    0.457    0.210
  162.500   55.345    4.351    0.466    0.217
  162.750   54.138    4.501    0.462    0.227
  163.000   55.295    4.735    0.454    0.236
  163.250   57.054    4.897    0.445    0.231
  163.500   58.809    4.891    0.441    0.221
  163.750   58.194    4.887    0.444    0.216
  164.000   56.396    4.882    0.445    0.216
  164.250   55.189    5.047    0.445    0.217
  164.500   54.575    5.131    0.444    0.216
  164.750   54.553    5.216    0.444    0.215
  165.000   53.939    5.488    0.447    0.218
  165.250   54.503    5.578    0.458    0.245
  165.500   54.481    5.384    0.481    0.251
  165.750   52.682    5.021    0.491    0.261
  166.000   52.079    4.149    0.504    0.286
  166.250   50.873    2.987    0.525    0.295
  166.500   53.219    2.077    0.545    0.307
  166.750   54.376    1.839    0.553    0.295
  167.000   53.761    1.838    0.552    0.279
  167.250   53.147    1.836    0.546    0.257
  167.500   53.130    1.898    0.538    0.249
  167.750   53.103    2.032    0.526    0.247
  168.000   53.075    2.291    0.517    0.248
  168.250   53.650    2.410    0.508    0.258
  168.500   53.634    2.492    0.497    0.253
  168.750   53.612    2.668    0.493    0.238
  169.000   54.176    3.007    0.500    0.225
  169.250   54.165    3.219    0.511    0.224
  169.500   54.735    3.054    0.521    0.231
  169.750   54.713    2.751    0.523    0.235
  170.000   54.098    2.702    0.491    0.208
  170.250   53.473    3.208    0.473    0.184
  170.500   53.462    3.874    0.462    0.174
  170.750   53.434    4.293    0.464    0.162
  171.000   54.004    4.072    0.465    0.147
  171.250   54.574    3.544    0.474    0.149
  171.500   56.328    2.687    0.489    0.248
  171.750   58.675    2.463    0.504    0.249
  172.000   60.429    2.502    0.509    0.244
  172.250   61.010    2.679    0.509    0.247
  172.500   59.211    2.918    0.514    0.258
  172.750   58.005    2.767    0.517    0.257
  173.000   58.569    2.671    0.520    0.255
  173.250   59.731    2.668    0.524    0.255
  173.500   59.709    2.532    0.524    0.258
  173.750   60.871    2.402    0.527    0.263
  174.000   62.039    2.279    0.529    0.271
  174.250   62.609    2.199    0.539    0.272
  174.500   61.403    2.159    0.545    0.274
  174.750   60.788    2.157    0.539    0.273
  175.000   59.571    2.193    0.533    0.268
  175.250   59.560    2.348    0.523    0.265
  175.500   58.353    3.255    0.497    0.257
  175.750   56.555    3.485    0.492    0.249
  176.000   54.762    3.542    0.488    0.238
  176.250   54.147    3.539    0.480    0.225
  176.500   54.712    3.475    0.472    0.218
  176.750   54.097    3.354    0.467    0.217
  177.000   51.707    3.127    0.459    0.209
  177.250   49.914    3.124    0.449    0.204
  177.500   48.115    3.402    0.429    0.175
  177.750   46.909    3.836    0.389    0.158
  178.000   44.518    5.138    0.380    0.181
  178.250   43.306    7.635    0.388    0.200
  178.500   43.284    8.172    0.402    0.228
  178.750   40.307    7.111    0.429    0.244
  179.000   38.508    7.104    0.430    0.253
  179.250   37.894    7.736    0.418    0.263
  179.500   37.872    8.425    0.412    0.272
  179.750   37.850    9.021    0.410    0.268
  180.000   38.420    8.858    0.411    0.257
  180.250   38.984    8.258    0.440    0.240
