~VERSION INFORMATION
 VERS.                 2.0:   CWLS LOG ASCII STANDARD -VERSION 2.0
 WRAP.                  NO:   ONE LINE PER DEPTH STEP
~WELL INFORMATION BLOCK
#MNEM.UNIT           DATA                    DESCRIPTION OF MNEMONIC
#---------    -------------------            -------------------------------
# Generated from Intellog Unique Number	CW_70_72/WELL/619
NULL.         -999.25                        : NULL_VALUE
WELL.         MESA SMITH 06-10               : Well_name    - WELL              
LOC .         06-10-072-25W4                 : Location     - LOCATION          
UWI .         00/06-10-072-25W4/0            : Uwi          - UNIQUE WELL ID    
ENTR.         JAYE                           : Entered      - ENTERED BY        
SRVC.         SCHLUMBERGER                   : Scn          - SERVICE COMPANY   
DATE.         10 FEB 75                      : Date         - LOG DATE          
STRT.M        384.048                        : top_depth    - START DEPTH       
STOP.M        600.548                        : bot_depth    - STOP DEPTH        
STEP.M        0.25                           : increment    - STEP LENGTH       
~CURVE INFORMATION BLOCK
#MNEM UNIT       ERCB CURVE CODE    CURVE DESCRIPTION
#-----------   ------------------   ----------------------------------
DEPT.M        00 001 00 00         : DEPTH        - DEPTH                       
DPHI.V/V      00 890 00 00         : PHID         - DENSITY POROSITY (SANDSTONE)
NPHI.V/V      00 330 00 00         : PHIN         - NEUTRON POROSITY (SANDSTONE)
GR  .API      00 310 00 00         : GR           - GAMMA RAY                   
CALI.MM       00 280 01 00         : CAL          - CALIPER                     
ILD .OHMM     00 120 00 00         : RESD         - DEEP RESISTIVITY (DIL)      
~PARAMETER INFORMATION       
#MNEM.UNIT           DATA             DESCRIPTION OF MNEMONIC
#---------         -----------     ------------------------------
GL  .M        606.857              : gl           - GROUND LEVEL ELEVATION      
EREF.M        610.819              : kb           - ELEVATION OF DEPTH REFERENCE
DATM.M        606.857              : datum        - DATUM ELEVATION             
TDD .M        609.6                : tdd          - TOTAL DEPTH DRILLER         
RUN .         ONE                  : Run          - RUN NUMBER                  
ENG .         FETTERLEY            : Engineer     - RECORDING ENGINEER          
WIT .         HOVER                : Witness      - WITNESSED BY                
BASE.         EDM                  : Branch       - HOME BASE OF LOGGING UNIT   
MUD .         GEL CHEM             : Mud_type     - MUD TYPE                    
MATR.         SANDSTONE            : Logunit      - NEUTRON MATRIX              
TMAX.C        23.8889              : BHT          - MAXIMUM RECORDED TEMPERATURE
BHTD.M        610.21               : BHTDEP       - MAXIMUM RECORDED TEMPERATURE
RMT .C        7.22222              : MDTP         - TEMPERATURE OF MUD          
MUDD.KG/M     0                    : MWT          - MUD DENSITY                 
NEUT.         1                    : NEUTRON      - NEUTRON TYPE                
RESI.         0                    : RESIST       - RESISTIVITY TYPE            
RM  .OHMM     4.38                 : RM           - RESISTIVITY OF MUD          
RMC .OHMM     0                    : RMC          - RESISTIVITY OF MUD CAKE     
RMF .OHMM     0                    : RMF          - RESISTIVITY OF MUD FILTRATE 
SUFT.C        -17.7778             : SUFT         - SURFACE TEMPERATURE         
~A  DEPTH     PHID     PHIN       GR      CAL     RESD
# ...
  457.048    0.247    0.397   53.043  171.592    3.493
  457.298    0.263    0.410   50.856  171.712    3.478
  457.548    0.252    0.416   48.121  171.937    3.438
  457.798    0.242    0.412   45.877  172.057    3.391
  458.048    0.233    0.407   45.581  172.075    3.363
  458.298    0.228    0.400   46.871  172.090    3.348
  458.548    0.237    0.402   47.368  172.002    3.358
  458.798    0.234    0.412   48.292  171.916    3.350
  459.048    0.239    0.439   51.230  172.136    3.348
  459.298    0.252    0.438   53.983  172.154    3.345
  459.548    0.247    0.422   54.542  172.376    3.349
  459.798    0.252    0.410   54.552  172.189    3.360
  460.048    0.235    0.403   55.660  172.101    3.369
  460.298    0.240    0.408   57.743  172.014    3.373
  460.548    0.244    0.420   61.288  171.929    3.377
  460.798    0.243    0.426   59.956  172.460    3.393
  461.048    0.238    0.419   57.833  172.683    3.397
  461.298    0.233    0.402   57.842  173.009    3.408
  461.548    0.227    0.393   58.828  173.336    3.411
  461.798    0.226    0.390   59.873  173.454    3.435
  462.048    0.223    0.410   61.286  173.781    3.484
  462.298    0.222    0.410   61.112  174.214    3.533
  462.548    0.233    0.405   60.513  174.640    3.597
  462.798    0.242    0.404   58.998  175.173    3.655
  463.048    0.234    0.405   58.460  174.986    3.734
  463.298    0.233    0.421   59.079  174.280    3.844
  463.548    0.221    0.427   58.662  172.953    3.949
  463.798    0.199    0.395   55.807  172.143    4.088
  464.048    0.167    0.369   53.925  171.850    4.408
  464.298    0.142    0.347   50.276  171.762    4.691
  464.548    0.163    0.346   51.932  172.088    4.919
  464.798    0.184    0.375   55.723  172.209    4.737
  465.048    0.208    0.403   57.440  172.535    4.420
  465.298    0.210    0.411   58.547  172.242    4.240
  465.548    0.201    0.416   60.386  171.433    4.136
  465.798    0.210    0.426   62.164  170.725    4.073
  466.048    0.221    0.445   61.931  170.949    4.101
  466.298    0.233    0.451   59.501  172.824    4.105
  466.548    0.227    0.443   56.157  175.215    4.125
  466.798    0.217    0.431   51.777  174.201    4.138
  467.048    0.226    0.416   51.786  173.080    4.291
  467.298    0.207    0.402   52.956  172.996    4.592
  467.548    0.160    0.385   52.721  172.804    5.157
  467.798    0.114    0.346   51.146  172.718    5.803
  468.048    0.080    0.277   49.447  172.424    6.554
  468.298    0.103    0.294   47.932  172.440    7.160
  468.548    0.187    0.357   47.030  172.560    7.049
  468.798    0.246    0.426   47.832  175.571    5.985
  469.048    0.243    0.452   48.451  184.984    5.752
  469.298    0.163    0.438   48.765  181.696    6.259
  469.548    0.035    0.294   49.201  174.175    8.032
  469.798   -0.002    0.167   50.126  168.616   10.581
  470.048    0.007    0.141   50.745  167.600   14.175
  470.298    0.008    0.140   51.427  167.411   18.635
  470.548    0.010    0.150   51.923  167.533   22.126
  470.798    0.031    0.165   53.092  167.649   21.585
  471.048    0.037    0.179   55.236  167.667   17.657
  471.298    0.062    0.200   58.234  167.582   13.335
  471.548    0.117    0.227   62.207  167.390    9.850
  471.798    0.152    0.262   61.362  166.994    7.303
  472.048    0.216    0.307   60.642  166.287    5.962
  472.298    0.244    0.449   60.712  165.582    4.331
  472.548    0.246    0.459   60.660  166.012    3.690
  472.798    0.252    0.455   61.158  167.162    3.312
  473.048    0.255    0.444   62.631  169.349    3.125
  473.298    0.256    0.434   65.872  171.222    3.048
  473.548    0.251    0.453   70.455  171.239    3.029
  473.798    0.248    0.468   70.039  168.984    3.033
  474.048    0.257    0.455   64.805  170.963    3.036
  474.298    0.263    0.436   61.216  172.735    3.028
  474.548    0.270    0.423   60.495  173.476    3.038
  474.798    0.283    0.488   63.553  173.078    3.069
  475.048    0.280    0.485   67.404  172.267    3.090
  475.298    0.276    0.450   72.964  170.529    3.122
  475.548    0.265    0.463   72.364  164.763    3.138
  475.798    0.248    0.453   67.800  156.313    3.141
  476.048    0.252    0.447   65.431  163.042    3.144
  476.298    0.262    0.440   63.978  164.815    3.142
  476.548    0.275    0.441   61.609  165.657    3.158
  476.798    0.266    0.447   60.461  166.809    3.173
  477.048    0.252    0.456   64.495  168.274    3.200
  477.298    0.261    0.449   68.651  169.631    3.228
  477.548    0.261    0.437   69.210  170.886    3.238
  477.798    0.253    0.422   68.976  172.553    3.260
  478.048    0.256    0.436   69.352  178.146    3.282
  478.298    0.253    0.455   70.277  179.814    3.285
  478.548    0.256    0.461   70.774  175.185    3.332
  478.798    0.256    0.475   72.856  171.898    3.361
  479.048    0.238    0.468   74.878  170.264    3.377
  479.298    0.228    0.434   77.083  170.177    3.419
  479.548    0.196    0.452   81.483  170.295    3.473
  479.798    0.159    0.462   85.579  170.517    3.759
  480.048    0.160    0.445   85.712  170.950    4.053
  480.298    0.164    0.442   89.074  171.174    4.299
  480.548    0.173    0.459   89.266  171.600    4.360
  480.798    0.181    0.458   88.849  172.237    4.365
  481.048    0.189    0.452   87.639  172.253    4.370
  481.298    0.199    0.458   83.564  170.307    4.415
  481.548    0.214    0.432   76.501  168.053    4.570
  481.798    0.221    0.366   63.217  167.346    4.965
  482.048    0.207    0.357   59.142  167.260    5.473
  482.298    0.238    0.403   67.749  167.794    5.740
  482.548    0.270    0.438   73.552  168.119    5.767
  482.798    0.266    0.440   75.818  167.929    5.626
  483.048    0.252    0.423   77.961  168.154    5.309
  483.298    0.245    0.436   80.534  168.584    5.009
  483.548    0.239    0.452   80.909  168.597    4.630
  483.798    0.231    0.454   81.832  168.926    4.360
  484.048    0.222    0.460   84.830  168.738    4.183
  484.298    0.210    0.463   91.364  168.751    4.204
  484.548    0.212    0.469   90.826  168.767    4.295
  484.798    0.207    0.461   86.445  168.784    4.421
  485.048    0.215    0.457   82.552  169.317    4.569
  485.298    0.263    0.496   84.453  170.159    4.668
  485.548    0.304    0.550   87.511  171.208    4.769
  485.798    0.253    0.524   88.862  173.806    4.918
  486.048    0.226    0.438   87.592  172.480    5.053
  486.298    0.220    0.424   84.674  171.054    5.271
  486.548    0.201    0.424   85.843  170.245    5.445
  486.798    0.172    0.416   86.706  169.950    5.616
  487.048    0.203    0.409   85.071  169.968    5.623
  487.298    0.234    0.457   83.372  170.292    5.555
  487.548    0.225    0.445   80.943  170.310    5.380
  487.798    0.208    0.444   78.819  170.328    5.161
  488.048    0.221    0.447   77.304  170.344    4.970
  488.298    0.221    0.426   78.777  170.360    4.875
  488.548    0.210    0.434   82.446  170.377    4.836
  488.798    0.204    0.442   82.882  170.496    4.851
  489.048    0.200    0.432   82.769  170.717    4.856
  489.298    0.191    0.416   85.157  171.148    4.907
  489.548    0.181    0.420   88.643  171.577    4.968
  489.798    0.169    0.447   90.605  171.594    5.001
  490.048    0.158    0.454   92.262  170.165    5.044
  490.298    0.132    0.444   93.306  166.774    5.050
  490.548    0.142    0.446   95.390  166.274    4.981
  490.798    0.151    0.445   96.253  170.216    4.815
  491.048    0.146    0.428   96.080  172.812    4.705
  491.298    0.156    0.430   95.784  173.758    4.572
  491.548    0.172    0.435   94.758  172.850    4.486
  491.798    0.176    0.433   93.914  172.448    4.466
  492.048    0.173    0.439   91.730  171.536    4.464
  492.298    0.185    0.439   87.836  170.729    4.461
  492.548    0.199    0.428   84.370  170.331    4.473
  492.798    0.211    0.419   83.221  170.346    4.529
  493.048    0.191    0.438   85.488  170.365    4.593
  493.298    0.168    0.424   91.656  170.690    4.684
