~VERSION INFORMATION
 VERS.                 2.0:   CWLS LOG ASCII STANDARD -VERSION 2.0
 WRAP.                  NO:   ONE LINE PER DEPTH STEP
~WELL INFORMATION BLOCK
#MNEM.UNIT           DATA                    DESCRIPTION OF MNEMONIC
#---------    -------------------            -------------------------------
# Generated from Intellog Unique Number	CS_77_79/WELL/878
WELL.         C.W.W.E. HARDY                 : Well_name    - WELL
LOC .         00/06-19-078-04W4/0            : Location     - LOCATION
UWI .         00/06-19-078-04W4/0            : Uwi          - UNIQUE WELL ID
ENTR.         JHS                            : Entered      - ENTERED BY
SRVC.         SCHLUMBERGER                   : Scn          - SERVICE COMPANY
STRT.M        140                            : top_depth    - START DEPTH
STOP.M        380                            : bot_depth    - STOP DEPTH
STEP.M        0.25                           : increment    - STEP LENGTH
 NULL. -999.2500:NULL Value
~CURVE INFORMATION BLOCK
#MNEM UNIT       ERCB CURVE CODE    CURVE DESCRIPTION
#-----------   ------------------   ----------------------------------
DEPT.M        00 001 00 00         : DEPTH        - DEPTH
DPHI.V/V      00 890 00 00         : PHID         - DENSITY POROSITY (LIMESTONE)
NPHI.V/V      00 330 00 00         : PHIN         - NEUTRON POROSITY (LIMESTONE)
GR  .API      00 310 00 00         : GR           - GAMMA RAY
ILD .OHMM     00 120 00 00         : RESD         - DEEP RESISTIVITY (DIL)
RHOB.KG/M3    00 350 00 00         : DENS         - BULK DENSITY
~PARAMETER INFORMATION
#MNEM.UNIT           DATA             DESCRIPTION OF MNEMONIC
#---------         -----------     ------------------------------
GL  .M        562.1                : gl           - GROUND LEVEL ELEVATION
EREF.M        566                  : kb           - ELEVATION OF DEPTH REFERENCE
DATM.M        566                  : datum        - DATUM ELEVATION
TDD .M        385                  : tdd          - TOTAL DEPTH DRILLER
RUN .         ONE                  : Run          - RUN NUMBER
ENG .         BILL                 : Engineer     - RECORDING ENGINEER
WIT .         JIM                  : Witness      - WITNESSED BY
MUD .         GEL                  : Mud_type     - MUD TYPE
MATR.         LIMESTONE            : Logunit      - NEUTRON MATRIX
TMAX.C        18                   : BHT          - MAXIMUM RECORDED TEMPERATURE
BHTD.M        385                  : BHTDEP       - MAXIMUM RECORDED TEMPERATURE
MATR.         1                    : LOGUNIT      - NEUTRON MATRIX
RMT .C        25                   : MDTP         - TEMPERATURE OF MUD
NEUT.         1                    : NEUTRON      - NEUTRON TYPE
RESI.         0                    : RESIST       - RESISTIVITY TYPE
RMC .OHMM     0.25                 : RMC          - RESISTIVITY OF MUD CAKE
RMF .OHMM     0.25                 : RMF          - RESISTIVITY OF MUD FILTRATE
SUFT.C        15                   : SUFT         - SURFACE TEMPERATURE
~A  DEPTH     PHID     PHIN       GR     RESD     DENS
# ...
  286.000    0.231    0.497   97.089    5.988    0.000
  286.250    0.245    0.481   95.286    5.994    0.000
  286.500    0.245    0.465   93.484    5.776    0.000
  286.750    0.236    0.488  100.292    5.362    0.000
  287.000    0.230    0.521  101.577    4.617    0.000
  287.250    0.227    0.550  101.616    4.285    0.000
  287.500    0.237    0.533  103.492    3.977    0.000
  287.750    0.247    0.523  105.997    3.624    0.000
  288.000    0.253    0.550  104.820    3.493    0.000
  288.250    0.248    0.572  102.409    3.182    0.000
  288.500    0.245    0.552  103.670    3.067    0.000
  288.750    0.250    0.541  103.724    3.013    0.000
  289.000    0.279    0.542  102.536    3.253    0.000
  289.250    0.285    0.543   99.502    3.511    0.000
  289.500    0.276    0.539   93.403    4.245    0.000
  289.750    0.272    0.477   88.524    5.230    0.000
  290.000    0.293    0.455   91.027    6.819 2208.840
  290.250    0.293    0.464   91.072    7.790 2209.030
  290.500    0.287    0.481   86.200    8.412 2219.750
  290.750    0.283    0.480   83.779    8.583 2226.260
  291.000    0.289    0.479   80.755    8.588 2215.780
  291.250    0.307    0.497   76.496    8.599 2184.220
  291.500    0.325    0.510   75.317    8.293 2154.780
  291.750    0.320    0.500   71.048    8.141 2163.460
  292.000    0.310    0.483   69.876    7.999 2180.490
  292.250    0.298    0.475   80.358    7.857 2199.670
  292.500    0.287    0.483   84.099    7.719 2218.860
  292.750    0.282    0.492   84.138    7.729 2227.430
  293.000    0.273    0.486   83.571    7.450 2242.380
  293.250    0.241    0.480   84.228    7.181 2297.530
  293.500    0.230    0.480   87.345    6.921 2316.710
  293.750    0.221    0.479   92.304    6.673 2331.780
  294.000    0.220    0.470   94.188    6.680 2333.970
  294.250    0.220    0.457   89.317    6.688 2334.140
  294.500    0.225    0.455   86.917    6.821 2325.860
  294.750    0.230    0.479   86.947    6.829 2317.520
  295.000    0.231    0.487   86.385    6.967 2315.520
  295.250    0.233    0.477   87.047    6.975 2311.430
  295.500    0.237    0.469   87.077    7.113 2305.280
  295.750    0.234    0.469   88.968    7.122 2309.630
  296.000    0.239    0.478   89.629    7.265 2301.330
  296.250    0.238    0.474   89.677    7.273 2303.620
  296.500    0.231    0.470   87.892    7.145 2314.310
  296.750    0.219    0.472   85.469    7.151 2335.610
  297.000    0.210    0.479   83.041    7.027 2350.590
  297.250    0.256    0.475   80.010    7.167 2272.460
  297.500    0.263    0.470   83.138    7.311 2259.920
  297.750    0.269    0.463   85.631    7.317 2249.500
  298.000    0.280    0.460   85.674    6.923 2230.610
  298.250    0.265    0.458   83.885    6.426 2256.170
  298.500    0.244    0.469   88.847    5.328 2292.270
  298.750    0.233    0.478   90.112    4.585 2311.450
  299.000    0.228    0.500   86.472    4.022 2320.100
  299.250    0.233    0.525   90.203    3.528 2311.780
  299.500    0.266    0.540   90.856    2.980 2254.790
  299.750    0.293    0.561   88.457    2.614 2208.430
  300.000    0.289    0.584   85.721    2.164 2216.030
  300.250    0.278    0.541   82.677    2.165 2235.080
  300.500    0.270    0.520   81.464    2.167 2247.790
  300.750    0.274    0.528   86.379    2.168 2241.500
  301.000    0.281    0.549   86.393    2.169 2228.880
  301.250    0.289    0.555   79.673    2.212 2216.260
  301.500    0.285    0.558   80.913    2.255 2222.640
  301.750    0.275    0.580   87.663    2.300 2239.580
  302.000    0.270    0.599   92.577    2.435 2248.070
  302.250    0.257    0.563   88.306    2.578 2271.340
  302.500    0.243    0.560   81.587    2.943 2294.600
  302.750    0.223    0.560   82.213    3.360 2328.430
  303.000    0.216    0.533   88.966    3.908 2341.150
  303.250    0.217    0.496   92.043    4.296 2339.080
  303.500    0.219    0.471   86.548    4.814 2334.910
  303.750    0.221    0.447   84.114    5.292 2332.830
  304.000    0.217    0.433   85.968    5.710 2339.220
  304.250    0.213    0.423   84.755    5.933 2345.590
  304.500    0.211    0.419   81.099    5.936 2349.860
  304.750    0.213    0.427   81.114    5.614 2345.680
  305.000    0.224    0.459   87.863    5.310 2326.730
  305.250    0.239    0.462   97.062    5.021 2301.450
  305.500    0.235    0.461  103.814    4.659 2307.830
  305.750    0.230    0.466   97.094    4.165 2316.310
  306.000    0.219    0.471   89.759    3.939 2335.350
  306.250    0.212    0.477   92.224    3.868 2348.080
  306.500    0.212    0.478   94.076    3.727 2348.120
  306.750    0.214    0.480   91.643    3.660 2343.950
  307.000    0.217    0.476   92.273    3.594 2339.770
  307.250    0.215    0.468   96.570    3.464 2341.920
  307.500    0.219    0.478   99.647    3.465 2335.640
  307.750    0.229    0.493  100.276    3.403 2318.790
  308.000    0.232    0.508   99.070    3.342 2312.510
  308.250    0.229    0.523   97.244    3.345 2318.890
  308.500    0.226    0.531   96.035    3.541 2323.150
  308.750    0.225    0.527   92.378    3.820 2325.310
  309.000    0.234    0.495   90.555    4.361 2310.570
  309.250    0.252    0.461   91.183    4.978 2278.950
  309.500    0.255    0.445   89.363    5.683 2274.770
  309.750    0.248    0.432   87.541    5.906 2285.380
  310.000    0.237    0.440   92.454    5.798 2304.430
  310.250    0.225    0.453   93.697    5.694 2325.580
  310.500    0.220    0.464   93.095    5.917 2334.070
  310.750    0.216    0.466   90.663    6.263 2340.460
  311.000    0.128    0.433   83.329    7.287 2490.390
  311.250    0.078    0.384   72.323    8.163 2577.000
  311.500    0.048    0.358   64.991    8.642 2627.720
  311.750    0.114    0.331   74.190    8.981 2515.870
  312.000    0.147    0.348   81.552    8.986 2458.910
  312.250    0.230    0.364   84.022    8.992 2317.500
  312.500    0.252    0.367   81.585    9.168 2279.550
  312.750    0.273    0.348   78.539    8.835 2243.700
  313.000    0.302    0.332   76.104    7.898 2193.080
  313.250    0.332    0.323   74.284    7.058 2142.460
  313.500    0.365    0.329   75.523    5.530 2085.500
  313.750    0.345    0.358   81.659    4.584 2119.320
  314.000    0.303    0.413   88.410    4.021 2191.150
  314.250    0.276    0.474   89.039    3.948 2237.650
  314.500    0.279    0.464   85.380    4.181 2233.470
  314.750    0.298    0.392   81.721    4.510 2199.740
  315.000    0.313    0.288   71.328    8.242 2174.450
  315.250    0.342    0.214   57.871   13.709 2125.940
  315.500    0.393    0.153   50.540   18.891 2037.310
  315.750    0.404    0.118   45.657   24.148 2018.360
  316.000    0.403    0.104   45.063   24.164 2020.510
  316.250    0.396    0.112   43.852   21.595 2033.230
  316.500    0.370    0.141   50.601   16.295 2077.600
  316.750    0.313    0.191   65.311   13.505 2174.770
  317.000    0.244    0.249   89.817    9.631 2293.040
  317.250    0.206    0.356  105.141    7.690 2358.540
  317.500    0.197    0.412  109.443    6.873 2373.360
  317.750    0.208    0.418  111.911    6.379 2354.410
  318.000    0.209    0.439  110.697    6.147 2352.340
  318.250    0.194    0.457  107.652    6.151 2377.720
  318.500    0.186    0.455  105.217    6.156 2392.550
  318.750    0.189    0.441  104.619    6.158 2386.250
  319.000    0.199    0.434  105.247    6.163 2369.420
  319.250    0.198    0.446  104.037    6.283 2371.570
  319.500    0.197    0.446  104.052    6.288 2373.750
  319.750    0.197    0.429  104.069    6.411 2373.790
  320.000    0.197    0.421  101.635    6.662 2373.830
  320.250    0.197    0.420   99.813    6.921 2373.870
  320.500    0.190    0.420  100.444    7.192 2384.470
  320.750    0.179    0.415   99.847    7.334 2403.520
  321.000    0.180    0.405   96.183    7.476 2401.450
  321.250    0.205    0.387   89.464    7.769 2359.270
  321.500    0.217    0.371   79.683    8.073 2338.200
  321.750    0.229    0.361   75.415    8.079 2319.250
  322.000    0.231    0.357   73.594    8.082 2315.080
  322.250    0.227    0.352   77.895    7.938 2321.460
