~VERSION INFORMATION
 VERS.                 2.0:   CWLS LOG ASCII STANDARD -VERSION 2.0
 WRAP.                  NO:   ONE LINE PER DEPTH STEP
~WELL INFORMATION BLOCK
#MNEM.UNIT           DATA                    DESCRIPTION OF MNEMONIC
#---------    -------------------            -------------------------------
# Generated from Intellog Unique Number	CW_70_72/WELL/288
NULL.         -999.25                        : NULL_VALUE
WELL.         GULF NORCEN MITSUE 04-31       : Well_name    - WELL              
LOC .         04-31-072-03W5                 : Location     - LOCATION          
UWI .         00/04-31-072-03W5/0            : Uwi          - UNIQUE WELL ID    
ENTR.         JAYE                           : Entered      - ENTERED BY        
SRVC.         COMPUTALOG                     : Scn          - SERVICE COMPANY   
DATE.         18 MAR 83                      : Date         - LOG DATE          
STRT.M        380                            : top_depth    - START DEPTH       
STOP.M        585                            : bot_depth    - STOP DEPTH        
STEP.M        0.25                           : increment    - STEP LENGTH       
~CURVE INFORMATION BLOCK
#MNEM UNIT       ERCB CURVE CODE    CURVE DESCRIPTION
#-----------   ------------------   ----------------------------------
DEPT.M        00 001 00 00         : DEPTH        - DEPTH                       
DPHI.V/V      00 890 00 00         : PHID         - DENSITY POROSITY (SANDSTONE)
NPHI.V/V      00 330 00 00         : PHIN         - NEUTRON POROSITY (SANDSTONE)
GR  .API      00 310 00 00         : GR           - GAMMA RAY                   
CALI.MM       00 280 01 00         : CAL          - CALIPER                     
ILD .OHMM     00 120 00 00         : RESD         - DEEP RESISTIVITY (DIL)      
~PARAMETER INFORMATION       
#MNEM.UNIT           DATA             DESCRIPTION OF MNEMONIC
#---------         -----------     ------------------------------
GL  .M        586.75               : gl           - GROUND LEVEL ELEVATION      
EREF.M        591.4                : kb           - ELEVATION OF DEPTH REFERENCE
DATM.M        586.75               : datum        - DATUM ELEVATION             
TDD .M        1610                 : tdd          - TOTAL DEPTH DRILLER         
RUN .         ONE                  : Run          - RUN NUMBER                  
ENG .         MCEWAN               : Engineer     - RECORDING ENGINEER          
WIT .         BELLMAN              : Witness      - WITNESSED BY                
BASE.         EDM                  : Branch       - HOME BASE OF LOGGING UNIT   
MUD .         GEL                  : Mud_type     - MUD TYPE                    
MATR.         SANDSTONE            : Logunit      - NEUTRON MATRIX              
TMAX.C        48                   : BHT          - MAXIMUM RECORDED TEMPERATURE
BHTD.M        1609                 : BHTDEP       - MAXIMUM RECORDED TEMPERATURE
RMT .C        18.3                 : MDTP         - TEMPERATURE OF MUD          
MUDD.KG/M     1070                 : MWT          - MUD DENSITY                 
NEUT.         1                    : NEUTRON      - NEUTRON TYPE                
RESI.         0                    : RESIST       - RESISTIVITY TYPE            
RM  .OHMM     0.9                  : RM           - RESISTIVITY OF MUD          
RMC .OHMM     1.3                  : RMC          - RESISTIVITY OF MUD CAKE     
RMF .OHMM     0.9                  : RMF          - RESISTIVITY OF MUD FILTRATE 
SUFT.C        0                    : SUFT         - SURFACE TEMPERATURE         
~A  DEPTH     PHID     PHIN       GR      CAL     RESD
# ...
  526.000    0.225    0.409   70.013  242.001    4.848
  526.250    0.227    0.376   69.632  243.654    4.854
  526.500    0.218    0.372   69.250  247.388    4.824
  526.750    0.206    0.388   68.932  252.995    4.803
  527.000    0.203    0.396   69.611  255.897    4.773
  527.250    0.204    0.393   71.166  258.278    4.726
  527.500    0.209    0.394   69.598  259.723    4.670
  527.750    0.215    0.401   69.529  261.168    4.631
  528.000    0.220    0.386   70.146  262.510    4.584
  528.250    0.215    0.390   69.953  263.954    4.564
  528.500    0.203    0.416   72.443  264.567    4.544
  528.750    0.192    0.410   72.935  265.077    4.525
  529.000    0.194    0.389   70.681  264.961    4.522
  529.250    0.200    0.369   70.238  264.638    4.562
  529.500    0.206    0.380   70.855  263.170    4.648
  529.750    0.210    0.399   74.094  261.078    4.716
  530.000    0.214    0.410   76.022  259.923    4.759
  530.250    0.220    0.388   69.961  259.911    4.748
  530.500    0.225    0.388   69.392  262.916    4.682
  530.750    0.216    0.386   70.384  266.858    4.609
  531.000    0.205    0.376   71.751  270.801    4.493
  531.250    0.197    0.368   73.928  274.118    4.331
  531.500    0.188    0.372   76.980  276.085    4.183
  531.750    0.179    0.382   76.412  277.114    4.133
  532.000    0.174    0.393   77.279  275.542    4.099
  532.250    0.177    0.406   80.517  272.409    4.081
  532.500    0.194    0.414   82.634  272.711    4.064
  532.750    0.207    0.422   75.948  271.347    4.084
  533.000    0.223    0.424   75.192  264.053    4.129
  533.250    0.240    0.437   71.564  258.320    4.167
  533.500    0.225    0.446   63.568  259.972    4.203
  533.750    0.189    0.419   61.626  263.395    4.233
  534.000    0.167    0.394   64.366  268.273    4.247
  534.250    0.170    0.400   67.543  273.776    4.244
  534.500    0.193    0.428   70.720  277.197    4.210
  534.750    0.213    0.446   75.082  277.496    4.175
  535.000    0.222    0.451   75.262  276.239    4.119
  535.250    0.219    0.437   73.321  274.771    4.085
  535.500    0.211    0.417   71.691  281.834    4.082
  535.750    0.198    0.410   72.059  285.671    4.087
  536.000    0.196    0.403   72.739  286.910    4.172
  536.250    0.198    0.398   70.734  286.792    4.275
  536.500    0.199    0.400   69.541  286.261    4.329
  536.750    0.201    0.409   70.159  285.520    4.427
  537.000    0.202    0.410   72.213  285.199    4.569
  537.250    0.201    0.398   66.900  284.668    4.763
  537.500    0.197    0.377   61.899  284.032    4.852
  537.750    0.194    0.363   62.205  283.291    4.721
  538.000    0.207    0.358   63.259  282.969    4.273
  538.250    0.221    0.361   63.751  282.022    3.839
  538.500    0.228    0.390   64.618  279.409    3.624
  538.750    0.232    0.414   69.356  279.085    3.540
  539.000    0.212    0.406   73.219  281.052    3.504
  539.250    0.185    0.412   73.087  284.890    3.556
  539.500    0.169    0.417   72.768  288.000    3.685
  539.750    0.169    0.409   73.698  287.988    3.740
  540.000    0.177    0.394   75.001  287.039    3.773
  540.250    0.195    0.398   75.682  285.885    3.778
  540.500    0.210    0.423   76.861  280.568    3.805
  540.750    0.224    0.447   78.166  278.683    3.854
  541.000    0.217    0.434   73.727  280.232    3.948
  541.250    0.196    0.415   72.097  282.094    4.077
  541.500    0.178    0.397   75.711  282.811    4.224
  541.750    0.170    0.377   78.076  281.966    4.394
  542.000    0.160    0.372   72.202  281.020    4.614
  542.250    0.164    0.366   65.953  279.761    4.791
  542.500    0.180    0.357   60.952  278.189    4.833
  542.750    0.185    0.360   64.254  277.137    4.677
  543.000    0.178    0.364   69.552  277.126    4.448
  543.250    0.180    0.372   71.731  277.426    4.412
  543.500    0.183    0.384   68.478  276.063    4.494
  543.750    0.178    0.382   64.913  270.849    4.587
  544.000    0.164    0.364   63.346  268.237    4.690
  544.250    0.163    0.361   63.027  268.226    4.760
  544.500    0.176    0.380   66.142  269.255    4.802
  544.750    0.178    0.375   72.564  272.156    4.809
  545.000    0.171    0.365   76.490  274.122    4.733
  545.250    0.164    0.356   77.107  274.630    4.547
  545.500    0.172    0.373   75.103  274.514    4.449
  545.750    0.176    0.386   71.351  274.504    4.463
  546.000    0.170    0.388   67.786  274.388    4.714
  546.250    0.157    0.377   69.215  274.377    4.997
  546.500    0.160    0.360   72.392  273.950    4.966
  546.750    0.165    0.348   74.071  273.107    4.662
  547.000    0.170    0.361   73.064  271.431    4.476
  547.250    0.176    0.370   71.123  269.964    4.508
  547.500    0.180    0.369   67.683  267.247    4.993
  547.750    0.175    0.360   63.057  263.905    5.958
  548.000    0.163    0.350   59.430  261.815    7.788
  548.250    0.145    0.341   57.863  260.660    9.240
  548.500    0.135    0.338   58.917  260.024    9.358
  548.750    0.160    0.334   61.219  259.905    8.817
  549.000    0.191    0.318   60.776  260.001    8.243
  549.250    0.193    0.355   58.085  261.862    7.825
  549.500    0.170    0.382   53.522  267.260    7.661
  549.750    0.155    0.389   54.077  270.995    7.817
  550.000    0.183    0.335   57.566  273.064    8.350
  550.250    0.176    0.308   62.053  274.822   10.389
  550.500    0.126    0.282   55.992  275.435   12.278
  550.750    0.069    0.257   47.807  275.527   12.700
  551.000    0.056    0.235   42.682  275.202   11.829
  551.250    0.127    0.214   43.986  274.464   10.425
  551.500    0.157    0.270   48.411  273.931    9.188
  551.750    0.193    0.295   55.333  273.608    8.876
  552.000    0.214    0.311   58.447  273.701    8.852
  552.250    0.209    0.310   55.757  274.000    8.798
  552.500    0.191    0.323   54.377  274.095    8.643
  552.750    0.195    0.350   54.369  274.397    8.410
  553.000    0.221    0.363   54.424  274.906    8.093
  553.250    0.229    0.361   54.856  276.247    7.861
  553.500    0.224    0.358   55.972  278.732    7.692
  553.750    0.220    0.352   58.213  280.696    7.404
  554.000    0.218    0.343   60.703  282.247    7.244
  554.250    0.218    0.353   64.629  284.004    7.062
  554.500    0.215    0.362   58.630  285.448    6.833
  554.750    0.211    0.358   57.062  285.958    6.738
  555.000    0.213    0.349   59.240  286.154    6.621
  555.250    0.217    0.335   63.790  286.143    6.592
  555.500    0.218    0.318   63.658  285.819    6.589
  555.750    0.217    0.325   58.595  285.809    6.558
  556.000    0.212    0.342   57.527  285.693    6.530
  556.250    0.192    0.337   57.708  286.099    6.489
  556.500    0.181    0.327   58.138  286.086    6.437
  556.750    0.175    0.326   55.447  286.076    6.433
  557.000    0.171    0.342   57.189  286.065    6.515
  557.250    0.173    0.354   61.364  286.053    6.675
  557.500    0.173    0.361   55.365  286.874    6.851
  557.750    0.164    0.358   53.735  288.320    6.980
  558.000    0.147    0.350   55.726  292.053    6.950
  558.250    0.137    0.331   59.838  296.412    6.749
  558.500    0.142    0.296   63.202  300.146    6.263
  558.750    0.150    0.305   67.441  302.423    5.723
  559.000    0.161    0.326   71.803  303.035    5.270
  559.250    0.171    0.352   78.788  299.592    5.070
  559.500    0.185    0.355   77.844  291.570    5.264
  559.750    0.163    0.355   73.968  288.227    5.476
  560.000    0.137    0.338   71.402  286.761    5.751
  560.250    0.110    0.303   72.019  285.190    6.063
  560.500    0.100    0.300   73.760  282.681    6.391
  560.750    0.086    0.309   74.939  279.340    6.648
  561.000    0.076    0.287   70.126  276.313    6.889
  561.250    0.096    0.270   69.433  272.868    7.004
  561.500    0.106    0.293   71.111  269.631    7.095
  561.750    0.121    0.338   72.789  266.188    7.157
  562.000    0.156    0.349   72.221  260.871    7.236
  562.250    0.164    0.338   69.094  256.802    7.357
