~VERSION INFORMATION
 VERS.                 2.0:   CWLS LOG ASCII STANDARD -VERSION 2.0
 WRAP.                  NO:   ONE LINE PER DEPTH STEP
~WELL INFORMATION BLOCK
#MNEM.UNIT           DATA                    DESCRIPTION OF MNEMONIC
#---------    -------------------            -------------------------------
# Generated from Intellog Unique Number	CW_70_72/WELL/532
NULL.         -999.25                        : NULL_VALUE
WELL.         MIKAS CALLING LAKE 06-02       : Well_name    - WELL              
LOC .         06-02-072-20W4                 : Location     - LOCATION          
UWI .         00/06-02-072-20W4/0            : Uwi          - UNIQUE WELL ID    
ENTR.         JAYE                           : Entered      - ENTERED BY        
SRVC.         SCHLUMBERGER                   : Scn          - SERVICE COMPANY   
DATE.         15 FEB 72                      : Date         - LOG DATE          
STRT.M        316.992                        : top_depth    - START DEPTH       
STOP.M        508.992                        : bot_depth    - STOP DEPTH        
STEP.M        0.25                           : increment    - STEP LENGTH       
~CURVE INFORMATION BLOCK
#MNEM UNIT       ERCB CURVE CODE    CURVE DESCRIPTION
#-----------   ------------------   ----------------------------------
DEPT.M        00 001 00 00         : DEPTH        - DEPTH                       
DPHI.V/V      00 890 00 00         : PHID         - DENSITY POROSITY (SANDSTONE)
NPHI.V/V      00 330 00 00         : PHIN         - NEUTRON POROSITY (SANDSTONE)
GR  .API      00 310 00 00         : GR           - GAMMA RAY                   
CALI.MM       00 280 01 00         : CAL          - CALIPER                     
ILD .OHMM     00 120 00 00         : RESD         - DEEP RESISTIVITY (DIL)      
~PARAMETER INFORMATION       
#MNEM.UNIT           DATA             DESCRIPTION OF MNEMONIC
#---------         -----------     ------------------------------
GL  .M        589.483              : gl           - GROUND LEVEL ELEVATION      
EREF.M        593.446              : kb           - ELEVATION OF DEPTH REFERENCE
DATM.M        589.483              : datum        - DATUM ELEVATION             
TDD .M        534.619              : tdd          - TOTAL DEPTH DRILLER         
RUN .         ONE                  : Run          - RUN NUMBER                  
ENG .         COVENY               : Engineer     - RECORDING ENGINEER          
WIT .         ANDERSON             : Witness      - WITNESSED BY                
BASE.         EDM                  : Branch       - HOME BASE OF LOGGING UNIT   
MUD .         GEL                  : Mud_type     - MUD TYPE                    
MATR.         SANDSTONE            : Logunit      - NEUTRON MATRIX              
TMAX.C        23.8889              : BHT          - MAXIMUM RECORDED TEMPERATURE
BHTD.M        535.534              : BHTDEP       - MAXIMUM RECORDED TEMPERATURE
RMT .C        1.66667              : MDTP         - TEMPERATURE OF MUD          
MUDD.KG/M     1164                 : MWT          - MUD DENSITY                 
NEUT.         1                    : NEUTRON      - NEUTRON TYPE                
RESI.         0                    : RESIST       - RESISTIVITY TYPE            
RM  .OHMM     1.97                 : RM           - RESISTIVITY OF MUD          
RMC .OHMM     0                    : RMC          - RESISTIVITY OF MUD CAKE     
RMF .OHMM     1.69                 : RMF          - RESISTIVITY OF MUD FILTRATE 
SUFT.C        -17.7778             : SUFT         - SURFACE TEMPERATURE         
~A  DEPTH     PHID     PHIN       GR      CAL     RESD
# ...
  389.992    0.305    0.400   71.876  166.787    4.435
  390.242    0.315    0.395   75.584  166.802    4.440
  390.492    0.326    0.404   78.989  166.717    4.512
  390.742    0.316    0.412   80.513  166.628    4.560
  390.992    0.312    0.434   75.672  166.540    4.549
  391.242    0.303    0.437   74.107  166.453    4.547
  391.492    0.314    0.443   77.328  166.676    4.544
  391.742    0.286    0.424   83.945  167.307    4.551
  391.992    0.254    0.399   92.443  168.759    4.684
  392.242    0.209    0.381   97.424  171.443    4.902
  392.492    0.191    0.393  103.192  172.179    5.122
  392.742    0.197    0.406  103.990  171.474    5.369
  392.992    0.207    0.410  103.393  171.183    5.703
  393.242    0.211    0.404   99.401  171.506    6.080
  393.492    0.209    0.414   97.592  171.829    6.375
  393.742    0.209    0.401   98.511  172.152    6.325
  393.992    0.202    0.402  101.610  172.374    6.160
  394.242    0.208    0.425  106.167  172.389    5.903
  394.492    0.196    0.425  109.452  172.610    5.706
  394.742    0.206    0.416  110.914  172.626    5.427
  394.992    0.211    0.408  111.530  172.436    5.198
  395.242    0.216    0.384  111.358  172.965    4.944
  395.492    0.226    0.407  110.761  173.803    4.744
  395.742    0.237    0.449  109.074  180.594    4.563
  395.992    0.262    0.439  107.324  181.330    4.468
  396.242    0.263    0.425  104.786  173.849    4.400
  396.492    0.272    0.431   98.673  168.218    4.326
  396.742    0.287    0.451   93.952  166.694    4.292
  396.992    0.299    0.452   89.596  166.916    4.393
  397.242    0.277    0.435   92.577  167.548    4.589
  397.492    0.264    0.442   96.162  168.794    4.664
  397.742    0.270    0.447   97.263  170.250    4.509
  397.992    0.282    0.451   97.636  171.701    4.282
  398.242    0.274    0.453   98.312  174.387    4.161
  398.492    0.254    0.452  100.989  177.277    4.008
  398.742    0.269    0.451  105.303  182.630    3.784
  398.992    0.283    0.450  103.434  186.445    3.632
  399.242    0.284    0.450   99.683  188.515    3.492
  399.492    0.273    0.451   98.722  189.966    3.376
  399.742    0.269    0.453   97.822  190.804    3.289
  399.992    0.262    0.453   96.316  190.613    3.227
  400.242    0.282    0.453   94.871  188.986    3.213
  400.492    0.284    0.453   93.000  185.511    3.320
  400.742    0.295    0.454   90.462  177.006    3.507
  400.992    0.295    0.455   87.804  169.322    3.830
  401.242    0.283    0.457   84.358  167.594    4.119
  401.492    0.275    0.457   79.820  166.789    4.667
  401.742    0.261    0.454   76.737  166.496    5.143
  401.992    0.282    0.453   78.383  166.512    5.606
  402.242    0.298    0.452   81.363  166.526    5.761
  402.492    0.292    0.451   82.464  166.541    5.620
  402.742    0.283    0.440   82.897  166.455    5.336
  402.992    0.271    0.427   83.755  166.268    5.111
  403.242    0.263    0.416   82.430  166.180    4.878
  403.492    0.260    0.408   74.680  166.194    4.664
  403.742    0.270    0.396   75.113  166.212    4.569
  403.992    0.286    0.410   81.125  166.328    4.720
  404.242    0.293    0.424   82.650  166.449    4.455
  404.492    0.291    0.428   81.871  166.563    4.277
  404.742    0.289    0.425   81.031  166.684    4.196
  404.992    0.295    0.419   80.618  166.701    4.050
  405.242    0.305    0.415   80.626  167.021    3.988
  405.492    0.310    0.413   80.575  167.140    3.986
  405.742    0.314    0.411   80.644  167.258    3.955
  405.992    0.319    0.424   80.533  167.277    3.924
  406.242    0.312    0.440   78.844  167.189    3.857
  406.492    0.312    0.453   74.670  167.100    3.819
  406.742    0.313    0.450   74.194  166.916    3.838
  406.992    0.309    0.430   77.174  166.822    3.872
  407.242    0.311    0.447   82.337  166.735    3.957
  407.492    0.309    0.448   85.377  166.753    4.203
  407.742    0.302    0.435   87.629  166.872    4.530
  407.992    0.306    0.426   84.365  166.990    4.937
  408.242    0.301    0.439   82.252  167.211    5.401
  408.492    0.296    0.426   80.443  167.227    5.549
  408.742    0.294    0.404   79.239  167.551    5.337
  408.992    0.290    0.388   79.854  167.670    5.131
  409.242    0.289    0.384   83.563  167.888    4.843
  409.492    0.287    0.403   86.906  168.008    4.631
  409.742    0.282    0.438   90.552  167.922    4.478
  409.992    0.283    0.455   90.138  167.835    4.345
  410.242    0.294    0.467   85.600  167.644    4.209
  410.492    0.303    0.452   84.883  167.349    4.107
  410.742    0.310    0.437   82.465  167.060    4.038
  410.992    0.289    0.421   80.777  166.868    4.036
  411.242    0.267    0.413   81.453  165.755    4.071
  411.492    0.238    0.388   80.615  161.149    4.129
  411.742    0.201    0.320   78.561  163.425    4.386
  411.992    0.226    0.326   79.662  166.622    4.914
  412.242    0.284    0.359   81.369  166.228    5.181
  412.492    0.306    0.402   84.531  165.424    5.178
  412.742    0.313    0.422   81.994  165.133    5.090
  412.992    0.316    0.429   78.365  165.350    4.957
  413.242    0.319    0.397   78.799  165.367    4.723
  413.492    0.324    0.390   82.628  165.279    4.526
  413.742    0.320    0.388   82.759  164.477    4.399
  413.992    0.315    0.384   81.191  164.595    4.277
  414.242    0.306    0.376   83.747  164.818    4.159
  414.492    0.297    0.367   88.303  164.935    4.110
  414.742    0.301    0.381   88.737  165.461    4.041
  414.992    0.295    0.424   86.806  166.195    4.038
  415.242    0.286    0.417   84.450  166.107    4.081
  415.492    0.266    0.403   83.490  165.920    4.132
  415.742    0.268    0.398   85.560  166.037    4.261
  415.992    0.262    0.410   89.147  166.360    4.535
  416.242    0.253    0.433   89.338  167.402    4.694
  416.492    0.263    0.452   92.863  170.086    4.631
  416.742    0.256    0.466   96.753  173.285    4.510
  416.992    0.253    0.473  100.158  178.332    4.369
  417.242    0.243    0.473  101.440  182.659    4.232
  417.492    0.234    0.466  105.148  184.112    4.092
  417.742    0.245    0.446  111.159  184.333    3.891
  417.992    0.255    0.442  113.351  185.683    3.673
  418.242    0.254    0.450  112.936  188.472    3.455
  418.492    0.260    0.454  111.793  194.543    3.219
  418.742    0.267    0.454  111.559  196.304    2.967
  418.992    0.246    0.447  112.177  189.750    2.847
  419.242    0.238    0.441  112.246  183.913    3.030
  419.492    0.230    0.433  111.951  178.590    3.383
  419.742    0.224    0.426  111.051  176.040    3.776
  419.992    0.214    0.412  109.605  173.798    4.333
  420.242    0.216    0.410  110.827  174.428    4.749
  420.492    0.224    0.421  112.231  179.064    4.916
  420.742    0.222    0.425  110.421  181.955    4.940
  420.992    0.211    0.429  106.368  181.251    4.956
  421.242    0.215    0.383  102.012  173.156    5.019
  421.492    0.198    0.353   96.019  168.040    5.052
  421.742    0.181    0.361   94.513  168.054    5.115
  421.992    0.177    0.376   97.008  168.894    5.198
  422.242    0.208    0.395   99.928  169.525    5.312
  422.492    0.201    0.399  103.029  170.154    5.409
  422.742    0.199    0.403  100.734  170.274    5.475
  422.992    0.210    0.421   97.833  169.878    5.503
  423.242    0.233    0.438   98.025  169.277    5.531
  423.492    0.232    0.430   99.913  167.446    5.557
  423.742    0.214    0.406  103.803  167.872    5.628
  423.992    0.195    0.386  104.781  169.224    5.665
  424.242    0.205    0.371  105.397  169.753    5.725
  424.492    0.208    0.357  101.041  169.973    5.786
  424.742    0.203    0.349   97.959  169.785    5.815
  424.992    0.205    0.361   99.302  169.592    5.844
  425.242    0.217    0.378  104.343  169.711    5.820
  425.492    0.222    0.387  108.172  170.139    5.763
  425.742    0.233    0.378  106.180  171.182    5.654
  425.992    0.230    0.376  105.887  171.709    5.519
  426.242    0.224    0.374  107.472  172.134    5.455
