~VERSION INFORMATION
 VERS.                 2.0:   CWLS LOG ASCII STANDARD -VERSION 2.0
 WRAP.                  NO:   ONE LINE PER DEPTH STEP
~WELL INFORMATION BLOCK
#MNEM.UNIT           DATA                    DESCRIPTION OF MNEMONIC
#---------    -------------------            -------------------------------
# Generated from Intellog Unique Number	CC_80_83/WELL/1180
NULL.         -999.25                        : NULL_VALUE
WELL.         CAN SUP PONY                   : Well_name    - WELL              
LOC .         07-08-082-07W4                 : Location     - LOCATION          
UWI .         00/07-08-082-07W4/0            : Uwi          - UNIQUE WELL ID    
ENTR.         DW                             : Entered      - ENTERED BY        
SRVC.         SCHLUMBERGER                   : Scn          - SERVICE COMPANY   
DATE.         12 MAR 76                      : Date         - LOG DATE
STRT.M        289.56                         : top_depth    - START DEPTH       
STOP.M        530.36                         : bot_depth    - STOP DEPTH        
STEP.M        0.305                          : increment    - STEP LENGTH       
~CURVE INFORMATION BLOCK
#MNEM UNIT       ERCB CURVE CODE    CURVE DESCRIPTION
#-----------   ------------------   ----------------------------------
DEPT.M        00 001 00 00         : DEPTH        - DEPTH                       
DPHI.V/V      00 890 00 00         : PHID         - DENSITY POROSITY (LIMESTONE)
NPHI.V/V      00 330 00 00         : PHIN         - NEUTRON POROSITY (LIMESTONE)
GR  .API      00 310 00 00         : GR           - GAMMA RAY                   
ILD .OHMM     00 120 00 00         : RESD         - DEEP RESISTIVITY (DIL)      
~PARAMETER INFORMATION       
#MNEM.UNIT           DATA             DESCRIPTION OF MNEMONIC
#---------         -----------     ------------------------------
GL  .M        743.102              : gl           - GROUND LEVEL ELEVATION      
EREF.M        745.846              : kb           - ELEVATION OF DEPTH REFERENCE
DATM.M        745.846              : datum        - DATUM ELEVATION             
TDD .M        533.4                : tdd          - TOTAL DEPTH DRILLER         
RUN .         ONE                  : Run          - RUN NUMBER                  
ENG .         BILL                 : Engineer     - RECORDING ENGINEER          
WIT .         JIM                  : Witness      - WITNESSED BY                
MUD .         GEL                  : Mud_type     - MUD TYPE                    
MATR.         LIMESTONE            : Logunit      - NEUTRON MATRIX              
TMAX.C        23.8889              : BHT          - MAXIMUM RECORDED TEMPERATURE
BHTD.M        533.4                : BHTDEP       - MAXIMUM RECORDED TEMPERATURE
MATR.         1                    : LOGUNIT      - NEUTRON MATRIX              
RMT .C        25                   : MDTP         - TEMPERATURE OF MUD          
NEUT.         1                    : NEUTRON      - NEUTRON TYPE                
RESI.         0                    : RESIST       - RESISTIVITY TYPE            
RMC .OHMM     0.25                 : RMC          - RESISTIVITY OF MUD CAKE     
RMF .OHMM     0.25                 : RMF          - RESISTIVITY OF MUD FILTRATE 
SUFT.C        4                    : SUFT         - SURFACE TEMPERATURE         
~A  DEPTH     PHID     PHIN       GR     RESD
# ...
  395.634    0.264    0.540  116.342    5.152
  395.939    0.278    0.503  115.166    4.614
  396.243    0.264    0.529  113.993    4.055
  396.548    0.254    0.533  114.613    3.500
  396.853    0.248    0.533  117.636    3.020
  397.158    0.271    0.523  117.063    2.705
  397.463    0.282    0.516  116.485    2.657
  397.767    0.266    0.558  121.309    2.760
  398.072    0.247    0.576  124.936    2.868
  398.377    0.247    0.569  123.158    2.979
  398.682    0.252    0.580  122.584    3.093
  398.987    0.242    0.608  125.610    3.274
  399.291    0.233    0.578  124.435    3.338
  399.596    0.234    0.580  123.254    3.341
  399.901    0.237    0.587  126.277    3.406
  400.206    0.260    0.574  128.104    3.473
  400.511    0.259    0.537  124.527    3.607
  400.815    0.271    0.546  117.949    3.746
  401.120    0.256    0.577  117.371    4.113
  401.425    0.282    0.578  120.996    4.434
  401.730    0.285    0.538  119.223    4.521
  402.035    0.273    0.527  115.042    4.524
  402.340    0.259    0.544  116.869    4.446
  402.644    0.269    0.573  117.495    4.450
  402.949    0.270    0.521  111.513    4.452
  403.254    0.272    0.512  104.936    4.712
  403.559    0.268    0.521  107.361    4.985
  403.864    0.251    0.533  110.985    5.274
  404.168    0.239    0.506  113.410    5.582
  404.473    0.247    0.490  114.035    5.690
  404.778    0.271    0.493  111.057    5.592
  405.083    0.251    0.510  105.683    5.392
  405.388    0.269    0.534  103.904    4.920
  405.692    0.280    0.514  103.927    4.405
  405.997    0.264    0.507  105.156    3.732
  406.302    0.249    0.530  107.584    3.103
  406.607    0.237    0.519  108.203    2.678
  406.912    0.255    0.501  105.224    2.354
  407.216    0.271    0.517  104.646    2.271
  407.521    0.274    0.537  110.073    2.273
  407.826    0.272    0.555  108.897    2.318
  408.131    0.282    0.572  108.323    2.545
  408.436    0.271    0.559  110.144    3.425
  408.741    0.277    0.537  110.174    4.875
  409.045    0.272    0.526  108.394   12.098
  409.350    0.296    0.527  103.016   18.203
  409.655    0.294    0.520   97.637   20.364
  409.960    0.290    0.513   92.862   16.932
  410.265    0.368    0.509   89.886   12.840
  410.569    0.392    0.443   84.510   12.153
  410.874    0.408    0.319   79.131   11.295
  411.179    0.381    0.242   73.155   11.097
  411.484    0.360    0.340   70.174   11.105
  411.789    0.343    0.443   69.598   11.535
  412.093    0.338    0.470   72.626   11.983
  412.398    0.337    0.442   75.048   12.219
  412.703    0.333    0.445   76.871   12.009
  413.008    0.336    0.440   76.896   11.797
  413.313    0.343    0.437   74.521   11.807
  413.617    0.349    0.438   71.547   12.034
  413.922    0.356    0.447   69.172   12.273
  414.227    0.354    0.446   69.793   12.279
  414.532    0.341    0.441   71.016   12.524
  414.837    0.328    0.446   71.044   12.301
  415.142    0.340    0.444   69.864   12.087
  415.446    0.362    0.467   68.687   11.875
  415.751    0.358    0.468   70.513   12.566
  416.056    0.352    0.439   73.540   13.544
  416.361    0.356    0.445   74.163   15.149
  416.666    0.346    0.449   71.784   21.164
  416.970    0.346    0.430   68.806   33.047
  417.275    0.373    0.425   67.630   43.677
  417.580    0.352    0.459   66.456   45.361
  417.885    0.336    0.448   64.079   17.004
  418.190    0.297    0.381   61.701   13.627
  418.494    0.257    0.282   59.928   12.206
  418.799    0.181    0.149   59.948   11.554
  419.104    0.044    0.136   61.773   11.352
  419.409    0.000    0.140   65.395   11.575
  419.714    0.000    0.352   70.826   11.801
  420.018    0.044    0.446   72.045   12.264
  420.323    0.275    0.459   69.676   12.501
  420.628    0.344    0.440   70.896   12.745
  420.933    0.357    0.432   73.318   12.525
  421.238    0.346    0.428   71.545   12.534
  421.543    0.332    0.455   67.968   12.541
  421.847    0.335    0.462   67.993   12.329
  422.152    0.344    0.462   68.614   12.338
  422.457    0.339    0.464   70.438   12.345
  422.762    0.341    0.457   71.062   11.909
  423.067    0.344    0.465   74.688   11.915
  423.371    0.333    0.458   75.909   11.711
  423.676    0.324    0.449   72.334   11.718
  423.981    0.336    0.445   69.960   11.515
  424.286    0.336    0.466   71.184   11.739
  424.591    0.337    0.451   75.405   11.532
  424.895    0.319    0.438   77.829   11.330
  425.200    0.311    0.435   73.656   10.726
  425.505    0.352    0.433   70.683   10.539
  425.810    0.355    0.455   70.105   10.355
  426.115    0.349    0.462   69.526    9.988
  426.419    0.336    0.472   68.948    8.780
  426.724    0.332    0.470   69.577    6.534
  427.029    0.338    0.470   70.195    5.433
  427.334    0.337    0.461   71.421    4.775
  427.639    0.327    0.465   74.446    4.358
  427.944    0.325    0.461   78.070    4.126
  428.248    0.325    0.455   85.897    3.834
  428.553    0.306    0.473   94.923    3.434
  428.858    0.267    0.514  105.746    2.963
  429.163    0.247    0.502  109.975    2.419
  429.468    0.249    0.505  110.597    2.207
  429.772    0.240    0.540  113.027    2.013
  430.077    0.236    0.564  115.445    1.942
  430.382    0.248    0.582  118.470    2.093
  430.687    0.270    0.592  119.698    2.341
  430.992    0.288    0.597  120.320    2.820
  431.296    0.296    0.592  123.344    3.526
  431.601    0.299    0.586  123.966    4.407
  431.906    0.299    0.594  119.789    5.310
  432.211    0.298    0.588  113.815    5.830
  432.516    0.285    0.556  114.436    6.169
  432.820    0.266    0.514  115.063    6.289
  433.125    0.253    0.481  111.486    6.294
  433.430    0.256    0.477  106.105    6.185
  433.735    0.271    0.504  102.529    6.425
  434.040    0.237    0.506  109.756    6.925
  434.345    0.257    0.487  115.182    7.327
  434.649    0.247    0.478  113.405    7.610
  434.954    0.254    0.474  105.626    8.052
  435.259    0.246    0.472  105.051    8.678
  435.564    0.265    0.457  107.479    9.529
  435.869    0.314    0.454  108.704   10.083
  436.173    0.312    0.488  111.124    9.908
  436.478    0.248    0.468  116.551    9.205
  436.783    0.226    0.449  118.373    7.944
  437.088    0.236    0.440  115.998    6.732
  437.393    0.223    0.416  111.222    6.028
  437.697    0.206    0.420  109.449    5.602
  438.002    0.180    0.465  107.672    5.608
  438.307    0.232    0.457  107.089    5.932
  438.612    0.227    0.473  107.113    6.760
  438.917    0.212    0.505  108.938    7.704
  439.221    0.221    0.515  117.364    8.305
  439.526    0.217    0.516  120.997    8.953
  439.831    0.222    0.503  122.218    9.125
  440.136    0.218    0.482  123.440    9.132
  440.441    0.249    0.444  121.664    7.319
  440.746    0.270    0.419  113.285    5.975
  441.050    0.272    0.426  108.505    5.253
  441.355    0.252    0.461  106.134    4.882
  441.660    0.234    0.477  104.954    4.796
  441.965    0.234    0.460  104.376    4.801
  442.270    0.245    0.445  106.202    4.895
  442.574    0.255    0.476  117.628    4.808
  442.879    0.249    0.523  120.051    4.903
  443.184    0.243    0.505  117.675    5.485
  443.489    0.237    0.503  115.302    6.250
  443.794    0.246    0.489  115.325    7.121
  444.098    0.252    0.477  111.145    7.965
  444.403    0.227    0.506  106.367    8.427
  444.708    0.260    0.534  102.792    7.547
  445.013    0.278    0.500   99.218    5.513
  445.318    0.293    0.470   90.837    4.102
  445.622    0.285    0.452   89.059    3.109
  445.927    0.271    0.471   93.889    3.479
  446.232    0.276    0.476   96.911    3.748
  446.537    0.273    0.476   99.336    4.775
  446.842    0.269    0.503  104.159    5.752
  447.147    0.277    0.559  110.188    7.325
  447.451    0.292    0.524  113.210    8.193
  447.756    0.280    0.483  111.433    9.163
  448.061    0.280    0.482   98.854   11.246
  448.366    0.312    0.484   91.080   11.680
