~VERSION INFORMATION
 VERS.                 2.0:   CWLS LOG ASCII STANDARD -VERSION 2.0
 WRAP.                  NO:   ONE LINE PER DEPTH STEP
~WELL INFORMATION BLOCK
#MNEM.UNIT           DATA                    DESCRIPTION OF MNEMONIC
#---------    -------------------            -------------------------------
# Generated from Intellog Unique Number	CS_73_76/WELL/2807
WELL.         EAGLE RESOURCES LTD.           : Well_name    - WELL
LOC .         00/02-15-076-18W4/0            : Location     - LOCATION
UWI .         00/02-15-076-18W4/0            : Uwi          - UNIQUE WELL ID
ENTR.         JO                             : Entered      - ENTERED BY
SRVC.         COMPUTALOG                     : Scn          - SERVICE COMPANY
DATE.         05/22/92                       : Date         - LOG DATE
STRT.M        210                            : top_depth    - START DEPTH
STOP.M        440                            : bot_depth    - STOP DEPTH
STEP.M        0.25                           : increment    - STEP LENGTH
 NULL. -999.2500:NULL Value
~CURVE INFORMATION BLOCK
#MNEM UNIT       ERCB CURVE CODE    CURVE DESCRIPTION
#-----------   ------------------   ----------------------------------
DEPT.M        00 001 00 00         : DEPTH        - DEPTH
ILD .OHMM     00 120 00 00         : RESD         - DEEP RESISTIVITY (DIL)
DPHI.V/V      00 890 00 00         : PHID         - DENSITY POROSITY (SANDSTONE)
NPHI.V/V      00 330 00 00         : PHIN         - NEUTRON POROSITY (SANDSTONE)
GR  .API      00 310 00 00         : GR           - GAMMA RAY
~PARAMETER INFORMATION
#MNEM.UNIT           DATA             DESCRIPTION OF MNEMONIC
#---------         -----------     ------------------------------
GL  .M        610.59               : gl           - GROUND LEVEL ELEVATION
EREF.M        614.26               : kb           - ELEVATION OF DEPTH REFERENCE
DATM.M        614.26               : datum        - DATUM ELEVATION
TDD .M        446.6                : tdd          - TOTAL DEPTH DRILLER
RUN .         ONE                  : Run          - RUN NUMBER
ENG .         BILL                 : Engineer     - RECORDING ENGINEER
WIT .         JIM                  : Witness      - WITNESSED BY
MUD .         GEL                  : Mud_type     - MUD TYPE
MATR.         SANDSTONE            : Logunit      - NEUTRON MATRIX
TMAX.C        28                   : BHT          - MAXIMUM RECORDED TEMPERATURE
BHTD.M        446.6                : BHTDEP       - MAXIMUM RECORDED TEMPERATURE
RMT .C        16.7                 : MDTP         - TEMPERATURE OF MUD
MUDD.KG/M     1140                 : MWT          - MUD DENSITY
NEUT.         1                    : NEUTRON      - NEUTRON TYPE
RESI.         0                    : RESIST       - RESISTIVITY TYPE
RM  .OHMM     3.4                  : RM           - RESISTIVITY OF MUD
RMC .OHMM     3.4                  : RMC          - RESISTIVITY OF MUD CAKE
RMF .OHMM     3.4                  : RMF          - RESISTIVITY OF MUD FILTRATE
SUFT.C        4                    : SUFT         - SURFACE TEMPERATURE
~A  DEPTH     RESD     PHID     PHIN       GR
# ...
  384.000    7.276    0.208    0.434  102.308
  384.250    7.289    0.202    0.438  104.113
  384.500    7.302    0.192    0.443  100.075
  384.750    6.902    0.183    0.440   94.867
  385.000    6.288    0.182    0.435   94.348
  385.250    5.948    0.203    0.432   96.167
  385.500    5.954    0.220    0.434   97.362
  385.750    5.965    0.224    0.428   99.168
  386.000    6.205    0.225    0.426   99.818
  386.250    7.374    0.225    0.444   96.962
  386.500    9.101    0.231    0.443   95.234
  386.750   12.126    0.247    0.435   91.806
  387.000   16.150    0.203    0.372   89.495
  387.250   21.104    0.172    0.328   84.287
  387.500   21.961    0.159    0.297   77.910
  387.750   19.991    0.136    0.283   66.274
  388.000   15.343    0.123    0.263   62.235
  388.250   10.707    0.129    0.321   65.210
  388.500    9.214    0.229    0.340   70.535
  388.750    8.548    0.289    0.363   74.082
  389.000    7.494    0.312    0.379   79.420
  389.250    6.701    0.313    0.395   76.551
  389.500    6.338    0.307    0.408   73.096
  389.750    6.224    0.305    0.418   70.798
  390.000    6.235    0.308    0.413   72.617
  390.250    6.128    0.309    0.399   75.020
  390.500    6.133    0.310    0.407   76.228
  390.750    6.142    0.310    0.415   78.047
  391.000    6.271    0.299    0.421   78.658
  391.250    6.648    0.271    0.427   80.477
  391.500    6.786    0.257    0.433   81.712
  391.750    6.672    0.260    0.439   82.920
  392.000    6.552    0.265    0.449   85.310
  392.250    6.440    0.268    0.450   85.362
  392.500    6.325    0.271    0.440   83.662
  392.750    6.337    0.270    0.443   85.481
  393.000    6.348    0.257    0.439   88.455
  393.250    6.233    0.251    0.434   88.508
  393.500    6.009    0.251    0.431   89.742
  393.750    5.793    0.268    0.451   92.133
  394.000    5.381    0.274    0.466   93.354
  394.250    5.287    0.275    0.470   91.055
  394.500    5.293    0.275    0.458   88.186
  394.750    5.203    0.276    0.458   81.238
  395.000    5.210    0.275    0.464   76.601
  395.250    5.736    0.270    0.461   77.238
  395.500    5.428    0.267    0.460   79.629
  395.750    5.434    0.270    0.465   78.538
  396.000    5.443    0.281    0.468   77.980
  396.250    5.451    0.291    0.460   76.864
  396.500    5.457    0.303    0.448   78.670
  396.750    5.574    0.306    0.452   79.917
  397.000    5.580    0.304    0.462   80.567
  397.250    5.695    0.299    0.456   80.594
  397.500    5.705    0.294    0.447   81.230
  397.750    5.821    0.290    0.445   81.880
  398.000    5.944    0.290    0.468   79.582
  398.250    6.066    0.287    0.472   77.297
  398.500    6.311    0.285    0.465   77.960
  398.750    6.565    0.282    0.459   78.570
  399.000    7.093    0.279    0.449   79.207
  399.250    7.665    0.278    0.445   78.688
  399.500    8.606    0.277    0.441   78.754
  399.750    8.615    0.266    0.435   80.547
  400.000    8.150    0.209    0.412   81.781
  400.250    7.421    0.181    0.380   77.729
  400.500    8.173    0.157    0.325   67.262
  400.750   11.315    0.331    0.361   53.287
  401.000   11.771    0.328    0.380   56.833
  401.250   11.348    0.290    0.345   66.250
  401.500   10.936    0.122    0.319   72.147
  401.750    9.588    0.071    0.292   66.355
  402.000    8.092    0.098    0.270   63.485
  402.250    6.963    0.153    0.279   61.213
  402.500    6.584    0.264    0.320   62.434
  402.750    6.115    0.284    0.387   65.396
  403.000    5.894    0.281    0.394   71.891
  403.250    5.791    0.280    0.396   74.865
  403.500    5.688    0.278    0.423   77.269
  403.750    5.696    0.274    0.449   78.490
  404.000    5.597    0.270    0.464   79.698
  404.250    5.605    0.269    0.471   81.504
  404.500    5.613    0.268    0.463   79.219
  404.750    5.623    0.268    0.461   76.349
  405.000    5.742    0.268    0.456   76.415
  405.250    5.858    0.267    0.442   79.389
  405.500    5.983    0.264    0.425   82.377
  405.750    5.988    0.265    0.438   85.352
  406.000    6.111    0.263    0.443   86.560
  406.250    6.357    0.259    0.441   87.808
  406.500    6.367    0.253    0.436   86.678
  406.750    6.500    0.244    0.432   84.977
  407.000    6.637    0.233    0.427   85.614
  407.250    6.644    0.229    0.419   86.264
  407.500    6.654    0.225    0.424   84.550
  407.750    6.663    0.225    0.429   82.862
  408.000    6.675    0.223    0.424   82.928
  408.250    6.683    0.219    0.421   84.136
  408.500    6.566    0.224    0.426   85.345
  408.750    6.578    0.228    0.435   88.346
  409.000    6.466    0.222    0.426   90.138
  409.250    6.349    0.213    0.420   93.711
  409.500    6.123    0.205    0.445   94.945
  409.750    5.905    0.197    0.460   94.971
  410.000    5.909    0.191    0.459   96.790
  410.250    5.699    0.191    0.454   99.194
  410.500    5.604    0.192    0.452  100.986
  410.750    5.939    0.194    0.467  103.961
  411.000    6.418    0.197    0.466  106.365
  411.250    6.804    0.196    0.462  107.573
  411.500    7.078    0.188    0.456  108.807
  411.750    7.363    0.180    0.446  110.626
  412.000    7.659    0.175    0.441  110.653
  412.250    8.123    0.170    0.431  108.380
  412.500    8.132    0.187    0.422  109.017
  412.750    8.144    0.183    0.383  111.408
  413.000    8.315    0.176    0.396  105.615
  413.250    8.816    0.166    0.393  100.408
  413.500   10.278    0.158    0.388   98.122
  413.750   11.106    0.162    0.378   96.421
  414.000   11.557    0.134    0.315   90.616
  414.250   11.574    0.106    0.275   80.148
  414.500   11.377    0.032    0.260   77.876
  414.750   11.170    0.068    0.269   80.253
  415.000   10.566    0.140    0.302   88.501
  415.250    9.089    0.182    0.379   99.074
  415.500    7.971    0.192    0.412  100.893
  415.750    7.685    0.187    0.412   98.621
  416.000    8.150    0.180    0.412   97.491
  416.250    8.472    0.171    0.410   96.375
  416.500    8.813    0.160    0.406   97.012
  416.750    8.998    0.146    0.405   96.493
  417.000    8.682    0.121    0.400   95.948
  417.250    8.364    0.151    0.393   92.507
  417.500    7.338    0.164    0.386   93.130
  417.750    7.069    0.173    0.391   97.274
  418.000    6.561    0.175    0.406  100.846
  418.250    6.573    0.171    0.422  105.016
  418.500    6.580    0.160    0.424  106.211
  418.750    6.589    0.155    0.414  108.017
  419.000    6.728    0.165    0.410  109.252
  419.250    6.864    0.173    0.437  108.720
  419.500    6.874    0.171    0.431  108.188
  419.750    7.016    0.164    0.425  107.071
  420.000    7.161    0.154    0.416  105.370
  420.250    7.042    0.126    0.396  103.669
  420.500    7.052    0.081    0.386  102.540
  420.750    6.799    0.068    0.381   89.734
  421.000    6.680    0.159    0.377   86.865
  421.250    6.438    0.155    0.387   91.593
  421.500    5.752    0.146    0.389   98.685
  421.750    4.763    0.141    0.386  101.075
  422.000    3.797    0.141    0.384  102.283
  422.250    3.204    0.202    0.384  104.089
  422.500    2.653    0.226    0.415  105.895
  422.750    2.416    0.230    0.474  106.532
  423.000    2.200    0.235    0.493  105.415
  423.250    2.122    0.239    0.505  103.715
  423.500    2.125    0.245    0.507  103.183
  423.750    2.296    0.248    0.511  103.261
  424.000    2.677    0.240    0.525  102.132
  424.250    3.242    0.192    0.519   99.275
  424.500    4.750    0.187    0.504  101.652
  424.750    5.863    0.182    0.500  105.796
  425.000    6.707    0.172    0.490  110.524
  425.250    7.392    0.162    0.478  101.810
  425.500    7.837    0.126    0.411   94.849
  425.750    7.848    0.122    0.411   98.992
  426.000    7.709    0.081    0.402  102.565
  426.250    7.432    0.068    0.342   97.928
  426.500    6.518    0.101    0.364   89.798
  426.750    5.936    0.114    0.383   92.773
  427.000    5.830    0.128    0.397   99.852
  427.250    5.731    0.122    0.405  102.242
