~VERSION INFORMATION
 VERS.                 2.0:   CWLS LOG ASCII STANDARD -VERSION 2.0
 WRAP.                  NO:   ONE LINE PER DEPTH STEP
~WELL INFORMATION BLOCK
#MNEM.UNIT           DATA                    DESCRIPTION OF MNEMONIC
#---------    -------------------            -------------------------------
# Generated from Intellog Unique Number	CW_79_81/WELL/2460
WELL.         GULF PELICAN                   : Well_name    - WELL
LOC .         00/07-21-081-21W4/0            : Location     - LOCATION
UWI .         00/07-21-081-21W4/0            : Uwi          - UNIQUE WELL ID
ENTR.         MAX                            : Entered      - ENTERED BY
SRVC.         SCHLUMBERGER                   : Scn          - SERVICE COMPANY
STRT.M        185                            : top_depth    - START DEPTH
STOP.M        429.75                         : bot_depth    - STOP DEPTH
STEP.M        0.25                           : increment    - STEP LENGTH
 NULL. -999.2500:NULL Value
~CURVE INFORMATION BLOCK
#MNEM UNIT       ERCB CURVE CODE    CURVE DESCRIPTION
#-----------   ------------------   ----------------------------------
DEPT.M        00 001 00 00         : DEPTH        - DEPTH
ILD .OHMM     00 120 00 00         : RESD         - DEEP RESISTIVITY (DIL)
NPHI.V/V      00 330 00 00         : PHIN         - NEUTRON POROSITY (SANDSTONE)
DPHI.V/V      00 890 00 00         : PHID         - DENSITY POROSITY (SANDSTONE)
GR  .API      00 310 00 00         : GR           - GAMMA RAY
CALI.MM       00 280 01 00         : CAL          - CALIPER
~PARAMETER INFORMATION
#MNEM.UNIT           DATA             DESCRIPTION OF MNEMONIC
#---------         -----------     ------------------------------
GL  .M        613.45               : gl           - GROUND LEVEL ELEVATION
EREF.M        616.75               : kb           - ELEVATION OF DEPTH REFERENCE
DATM.M        613.45               : datum        - DATUM ELEVATION
TDD .M        432                  : tdd          - TOTAL DEPTH DRILLER
RUN .         ONE                  : Run          - RUN NUMBER
ENG .         BILL                 : Engineer     - RECORDING ENGINEER
WIT .         JIM                  : Witness      - WITNESSED BY
MUD .         GEL                  : Mud_type     - MUD TYPE
MATR.         SANDSTONE            : Logunit      - NEUTRON MATRIX
TMAX.C        19.4                 : BHT          - MAXIMUM RECORDED TEMPERATURE
BHTD.M        432                  : BHTDEP       - MAXIMUM RECORDED TEMPERATURE
MATR.         1                    : LOGUNIT      - NEUTRON MATRIX
RMT .C        17.8                 : MDTP         - TEMPERATURE OF MUD
NEUT.         1                    : NEUTRON      - NEUTRON TYPE
RESI.         0                    : RESIST       - RESISTIVITY TYPE
RMC .OHMM     2.81                 : RMC          - RESISTIVITY OF MUD CAKE
RMF .OHMM     2.05                 : RMF          - RESISTIVITY OF MUD FILTRATE
SUFT.C        -20                  : SUFT         - SURFACE TEMPERATURE
~A  DEPTH     RESD     PHIN     PHID       GR      CAL
# ...
  221.500    2.214    0.541    0.270   97.212  233.234
  221.750    2.289    0.538    0.271   99.971  233.826
  222.000    2.352    0.539    0.263  101.828  234.016
  222.250    2.419    0.543    0.259  100.267  233.186
  222.500    2.494    0.552    0.253   98.509  231.090
  222.750    2.512    0.552    0.248   97.540  229.876
  223.000    2.516    0.547    0.247   97.475  229.565
  223.250    2.516    0.544    0.252   96.868  229.356
  223.500    2.516    0.548    0.260   96.020  228.846
  223.750    2.516    0.556    0.274   97.625  227.949
  224.000    2.516    0.532    0.274  100.874  227.520
  224.250    2.515    0.523    0.275  101.109  227.509
  224.500    2.529    0.520    0.272   99.000  229.001
  224.750    2.548    0.516    0.269   96.350  231.195
  225.000    2.566    0.509    0.268   94.360  233.790
  225.250    2.596    0.507    0.279   93.481  237.734
  225.500    2.656    0.513    0.291   92.724  241.478
  225.750    2.815    0.492    0.290   90.073  241.468
  226.000    3.063    0.478    0.286   87.243  237.253
  226.250    3.536    0.458    0.266   81.588  232.435
  226.500    4.864    0.432    0.241   72.207  228.618
  226.750   16.242    0.405    0.259   56.384  225.066
  227.000   23.119    0.418    0.306   38.600  223.388
  227.250   28.014    0.420    0.331   37.632  222.577
  227.500   35.387    0.414    0.344   37.746  222.065
  227.750   44.193    0.412    0.343   37.860  221.654
  228.000   53.470    0.419    0.335   37.733  221.343
  228.250   70.830    0.425    0.327   38.118  221.331
  228.500   85.285    0.425    0.324   38.863  221.322
  228.750   84.660    0.423    0.323   38.857  221.311
  229.000   82.657    0.421    0.331   38.310  220.700
  229.250   80.572    0.421    0.335   38.063  220.289
  229.500   78.970    0.422    0.333   38.837  220.280
  229.750   78.057    0.420    0.331   41.435  220.267
  230.000   79.252    0.416    0.337   42.430  220.255
  230.250   85.807    0.418    0.331   42.424  224.251
  230.500   90.996    0.430    0.339   42.238  226.745
  230.750   94.413    0.441    0.343   41.390  227.936
  231.000   96.845    0.444    0.341   39.881  228.226
  231.250  102.227    0.438    0.344   38.141  228.214
  231.500  112.084    0.434    0.345   37.885  228.204
  231.750  112.079    0.426    0.335   38.359  228.196
  232.000  109.018    0.425    0.330   39.195  228.185
  232.250  102.725    0.428    0.333   39.790  227.973
  232.500   95.933    0.430    0.338   40.084  227.562
  232.750   92.501    0.427    0.335   40.607  227.150
  233.000   92.496    0.429    0.336   40.852  227.140
  233.250   94.535    0.439    0.340   42.288  227.131
  233.500   95.577    0.458    0.339   44.446  227.421
  233.750   93.455    0.460    0.345   45.040  227.611
  234.000   87.054    0.444    0.354   44.252  227.501
  234.250   75.068    0.429    0.350   44.976  227.004
  234.500   66.561    0.425    0.341   46.223  226.576
  234.750   60.915    0.428    0.335   48.860  226.166
  235.000   53.873    0.430    0.328   50.957  225.754
  235.250   44.556    0.431    0.332   51.793  225.543
  235.500   35.937    0.433    0.343   50.586  225.634
  235.750   28.993    0.441    0.339   47.193  226.273
  236.000   24.595    0.456    0.328   50.692  227.515
  236.250   18.323    0.465    0.332   55.734  229.507
  236.500   14.223    0.475    0.331   60.956  229.999
  236.750   10.396    0.473    0.289   65.156  227.586
  237.000    8.145    0.451    0.215   67.073  223.669
  237.250    8.524    0.405    0.165   64.432  222.537
  237.500   11.110    0.376    0.147   59.667  222.943
  237.750   13.555    0.410    0.257   59.902  222.533
  238.000   14.977    0.432    0.292   61.218  222.123
  238.250   15.147    0.447    0.303   62.654  222.113
  238.500   14.436    0.460    0.315   63.490  222.404
  238.750   12.593    0.473    0.333   63.192  222.309
  239.000    9.863    0.462    0.334   62.936  221.879
  239.250    6.480    0.456    0.333   65.093  221.868
  239.500    5.142    0.458    0.326   68.332  222.159
  239.750    4.481    0.466    0.311   72.052  222.751
  240.000    4.232    0.480    0.297   74.931  223.543
  240.250    4.618    0.493    0.298   74.071  224.332
  240.500    5.649    0.483    0.294   69.809  224.321
  240.750    7.084    0.459    0.309   65.235  223.508
  241.000    8.067    0.447    0.311   62.464  222.397
  241.250    8.533    0.449    0.305   60.895  221.387
  241.500    8.674    0.462    0.297   60.168  220.675
  241.750    8.634    0.478    0.293   60.412  220.261
  242.000    8.439    0.474    0.293   61.658  220.251
  242.250    7.897    0.455    0.298   63.334  220.242
  242.500    7.267    0.454    0.284   65.912  220.530
  242.750    6.291    0.456    0.273   70.834  220.720
  243.000    5.390    0.462    0.269   77.138  220.710
  243.250    5.036    0.481    0.264   80.506  220.698
  243.500    5.152    0.475    0.259   75.743  220.688
  243.750    5.904    0.454    0.280   67.564  220.678
  244.000    7.087    0.444    0.290   66.054  220.667
  244.250    8.113    0.440    0.286   67.129  220.857
  244.500    8.403    0.441    0.273   68.566  221.248
  244.750    8.191    0.440    0.263   70.653  221.637
  245.000    7.768    0.441    0.256   73.901  221.628
  245.250    7.433    0.437    0.247   75.818  222.018
  245.500    7.152    0.435    0.256   77.916  222.407
  245.750    7.152    0.449    0.275   78.030  222.798
  246.000    7.594    0.473    0.290   75.440  223.090
  246.250    8.935    0.476    0.279   70.514  223.077
  246.500   10.027    0.444    0.277   68.754  223.066
  246.750   10.248    0.437    0.286   70.191  223.056
  247.000   10.024    0.428    0.295   71.808  223.046
  247.250    9.298    0.424    0.286   73.484  223.636
  247.500    7.850    0.427    0.258   75.522  224.728
  247.750    5.700    0.439    0.229   79.691  225.684
  248.000    5.054    0.451    0.222   84.944  226.507
  248.250    5.017    0.466    0.208   92.629  227.698
  248.500    5.035    0.464    0.210   96.168  229.492
  248.750    5.163    0.449    0.224   97.123  231.486
  249.000    5.487    0.430    0.236   96.757  232.877
  249.250    6.362    0.414    0.230   95.978  232.631
  249.500    7.482    0.409    0.231   95.722  233.456
  249.750    7.928    0.424    0.242   95.475  233.044
  250.000    7.741    0.435    0.244   95.770  232.934
  250.250    6.961    0.444    0.246   96.606  232.324
  250.500    5.781    0.454    0.245   98.343  230.611
  250.750    4.393    0.473    0.223  102.501  226.977
  251.000    3.983    0.492    0.207  106.502  224.880
  251.250    3.868    0.483    0.218  104.813  225.270
  251.500    3.903    0.477    0.211   99.699  225.659
  251.750    4.338    0.470    0.202   88.636  225.448
  252.000    5.344    0.462    0.203   75.228  224.739
  252.250    7.072    0.451    0.243   67.158  224.159
  252.500   10.482    0.439    0.310   56.885  223.313
  252.750   14.829    0.425    0.320   46.543  222.902
  253.000   18.572    0.422    0.324   41.788  222.792
  253.250   23.044    0.423    0.329   40.340  222.782
  253.500   31.444    0.426    0.336   40.574  222.872
  253.750   48.574    0.425    0.338   41.678  224.012
  254.000   67.490    0.418    0.327   42.423  227.756
  254.250   67.980    0.402    0.329   44.100  231.353
  254.500   45.823    0.394    0.327   48.301  233.146
  254.750   29.689    0.397    0.320   56.828  232.735
  255.000   16.571    0.407    0.295   72.148  230.921
  255.250    7.395    0.424    0.220   99.233  229.626
  255.500    5.281    0.438    0.179  108.491  229.198
  255.750    4.121    0.459    0.159  107.041  229.587
  256.000    3.549    0.471    0.165  105.594  229.676
  256.250    3.283    0.480    0.178  104.627  229.266
  256.500    3.230    0.492    0.194  104.200  228.756
  256.750    3.439    0.526    0.226  103.902  229.145
  257.000    3.800    0.561    0.254  103.645  229.134
  257.250    4.542    0.552    0.261  100.755  227.117
  257.500    5.386    0.514    0.280   95.341  226.308
  257.750    6.207    0.473    0.288   91.248  226.099
