~VERSION INFORMATION
 VERS.                 2.0:   CWLS LOG ASCII STANDARD -VERSION 2.0
 WRAP.                  NO:   ONE LINE PER DEPTH STEP
~WELL INFORMATION BLOCK
#MNEM.UNIT           DATA                    DESCRIPTION OF MNEMONIC
#---------    -------------------            -------------------------------
# Generated from Intellog Unique Number	CS_71_72/WELL/812
WELL.         BVX ET AL NIXON                : Well_name    - WELL
LOC .         00/07-15-072-15W4/0            : Location     - LOCATION
UWI .         00/07-15-072-15W4/0            : Uwi          - UNIQUE WELL ID
ENTR.         SP                             : Entered      - ENTERED BY
SRVC.         SCHLUMBERGER                   : Scn          - SERVICE COMPANY
STRT.M        280                            : top_depth    - START DEPTH
STOP.M        466                            : bot_depth    - STOP DEPTH
STEP.M        0.25                           : increment    - STEP LENGTH
 NULL. -999.2500:NULL Value
~CURVE INFORMATION BLOCK
#MNEM UNIT       ERCB CURVE CODE    CURVE DESCRIPTION
#-----------   ------------------   ----------------------------------
DEPT.M        00 001 00 00         : DEPTH        - DEPTH
ILD .OHMM     00 120 00 00         : RESD         - DEEP RESISTIVITY (DIL)
DPHI.V/V      00 890 00 00         : PHID         - DENSITY POROSITY (LIMESTONE)
NPHI.V/V      00 330 00 00         : PHIN         - NEUTRON POROSITY (LIMESTONE)
GR  .API      00 310 00 00         : GR           - GAMMA RAY
~PARAMETER INFORMATION
#MNEM.UNIT           DATA             DESCRIPTION OF MNEMONIC
#---------         -----------     ------------------------------
GL  .M        603.39               : gl           - GROUND LEVEL ELEVATION
EREF.M        606.89               : kb           - ELEVATION OF DEPTH REFERENCE
DATM.M        603.39               : datum        - DATUM ELEVATION
TDD .M        471.95               : tdd          - TOTAL DEPTH DRILLER
RUN .         ONE                  : Run          - RUN NUMBER
ENG .         BILL                 : Engineer     - RECORDING ENGINEER
WIT .         JIM                  : Witness      - WITNESSED BY
MUD .         GEL                  : Mud_type     - MUD TYPE
MATR.         LIMESTONE            : Logunit      - NEUTRON MATRIX
TMAX.C        21                   : BHT          - MAXIMUM RECORDED TEMPERATURE
BHTD.M        471.95               : BHTDEP       - MAXIMUM RECORDED TEMPERATURE
MATR.         1                    : LOGUNIT      - NEUTRON MATRIX
RMT .C        25                   : MDTP         - TEMPERATURE OF MUD
NEUT.         1                    : NEUTRON      - NEUTRON TYPE
RESI.         0                    : RESIST       - RESISTIVITY TYPE
RMC .OHMM     0.25                 : RMC          - RESISTIVITY OF MUD CAKE
RMF .OHMM     0.25                 : RMF          - RESISTIVITY OF MUD FILTRATE
SUFT.C        15                   : SUFT         - SURFACE TEMPERATURE
~A  DEPTH     RESD     PHID     PHIN       GR
  280.000    3.343    0.191    0.468   97.590
  280.250    3.405    0.198    0.452   91.563
  280.500    3.404    0.204    0.433   89.753
  280.750    3.279    0.232    0.431   92.161
  281.000    3.159    0.233    0.445   98.784
  281.250    3.100    0.225    0.457  101.794
  281.500    2.987    0.225    0.443   99.382
  281.750    2.877    0.236    0.444   97.573
  282.000    2.823    0.227    0.456   99.980
  282.250    2.771    0.223    0.467   99.977
  282.500    2.770    0.234    0.468  101.180
  282.750    2.822    0.230    0.456  101.780
  283.000    2.927    0.214    0.475   99.368
  283.250    2.982    0.198    0.497   98.763
  283.500    3.037    0.188    0.450   95.146
  283.750    3.093    0.212    0.444   96.951
  284.000    3.036    0.196    0.450   99.359
  284.250    3.035    0.185    0.473  102.368
  284.500    2.979    0.212    0.475  102.366
  284.750    2.923    0.237    0.461  103.568
  285.000    2.923    0.228    0.472  101.758
  285.250    2.977    0.220    0.476   97.539
  285.500    3.032    0.214    0.472   95.127
  285.750    3.088    0.203    0.480   92.112
  286.000    3.087    0.205    0.453   90.905
  286.250    3.144    0.206    0.433   93.311
  286.500    3.086    0.214    0.414   93.310
  286.750    3.085    0.232    0.433   92.103
  287.000    3.142    0.265    0.445   87.280
  287.250    3.321    0.280    0.460   84.869
  287.500    3.446    0.197    0.468   79.444
  287.750    3.781    0.130    0.408   74.020
  288.000    4.148    0.206    0.381   71.608
  288.250    4.550    0.225    0.379   75.221
  288.500    4.810    0.228    0.388   81.243
  288.750    4.899    0.232    0.395   83.650
  289.000    4.898    0.241    0.403   83.044
  289.250    4.897    0.224    0.391   84.247
  289.500    4.896    0.200    0.376   83.040
  289.750    4.895    0.201    0.379   81.230
  290.000    4.893    0.201    0.376   85.445
  290.250    4.984    0.201    0.362   86.045
  290.500    4.983    0.207    0.368   85.439
  290.750    5.075    0.200    0.374   85.436
  291.000    5.074    0.205    0.378   86.036
  291.250    5.168    0.212    0.374   86.637
  291.500    5.166    0.217    0.368   87.237
  291.750    5.166    0.202    0.387   88.439
  292.000    5.164    0.200    0.378   89.642
  292.250    5.163    0.199    0.372   89.037
  292.500    5.162    0.196    0.383   90.842
  292.750    5.161    0.191    0.392   92.044
  293.000    5.159    0.182    0.399   92.042
  293.250    5.158    0.182    0.391   90.232
  293.500    5.254    0.190    0.375   90.230
  293.750    5.253    0.194    0.383   92.636
  294.000    5.251    0.199    0.399   93.237
  294.250    5.250    0.201    0.393   92.633
  294.500    5.249    0.202    0.402   91.425
  294.750    5.151    0.204    0.407   90.820
  295.000    5.056    0.204    0.414   91.420
  295.250    4.962    0.214    0.412   91.418
  295.500    4.780    0.225    0.396   90.211
  295.750    4.436    0.239    0.391   84.786
  296.000    4.274    0.269    0.383   79.964
  296.250    4.194    0.285    0.381   75.745
  296.500    4.040    0.279    0.381   76.947
  296.750    4.040    0.275    0.393   79.355
  297.000    4.039    0.258    0.398   82.365
  297.250    4.113    0.237    0.390   83.567
  297.500    4.268    0.230    0.358   75.733
  297.750    4.596    0.222    0.333   69.104
  298.000    4.769    0.230    0.318   63.078
  298.250    5.041    0.219    0.328   60.063
  298.500    5.134    0.156    0.334   60.061
  298.750    5.327    0.144    0.321   70.299
  299.000    5.327    0.146    0.316   77.526
  299.250    5.227    0.150    0.331   80.536
  299.500    5.035    0.172    0.338   76.315
  299.750    4.942    0.187    0.348   75.108
  300.000    4.502    0.194    0.358   74.504
  300.250    4.179    0.181    0.362   75.104
  300.500    3.952    0.199    0.351   72.692
  300.750    3.668    0.247    0.345   68.473
  301.000    3.534    0.224    0.348   63.048
  301.250    3.404    0.230    0.350   62.444
  301.500    3.219    0.251    0.350   60.032
  301.750    3.101    0.271    0.350   54.005
  302.000    3.100    0.277    0.351   49.183
  302.250    3.217    0.273    0.354   51.591
  302.500    3.338    0.254    0.357   60.022
  302.750    3.463    0.171    0.384   75.683
  303.000    3.661    0.153    0.392   91.343
  303.250    3.870    0.125    0.402  100.376
  303.500    3.942    0.084    0.407  106.398
  303.750    4.090    0.129    0.413  107.601
  304.000    4.165    0.136    0.425  113.020
  304.250    4.088    0.121    0.402  117.234
  304.500    4.012    0.119    0.407  110.003
  304.750    4.010    0.163    0.443  111.205
  305.000    4.085    0.175    0.472  120.238
  305.250    4.009    0.130    0.440  116.019
  305.500    3.862    0.091    0.419  112.403
  305.750    3.720    0.138    0.432  116.014
  306.000    3.453    0.154    0.446  122.036
  306.250    3.265    0.157    0.459  123.238
  306.500    3.031    0.166    0.448  122.633
  306.750    2.975    0.165    0.457  122.029
  307.000    2.974    0.189    0.474  124.436
  307.250    3.086    0.210    0.493  125.036
  307.500    3.323    0.233    0.415  123.227
  307.750    3.578    0.236    0.392  114.187
  308.000    3.925    0.220    0.388  108.161
  308.250    4.306    0.210    0.391  105.147
  308.500    4.469    0.210    0.394  108.758
  308.750    4.724    0.230    0.395  109.962
  309.000    4.993    0.243    0.400  104.537
  309.250    5.085    0.243    0.399  102.125
  309.500    5.084    0.247    0.388  100.918
  309.750    5.083    0.249    0.384   91.277
  310.000    4.988    0.232    0.383   81.034
  310.250    4.895    0.216    0.380   82.236
  310.500    4.804    0.199    0.384   85.848
  310.750    4.628    0.187    0.407   89.460
  311.000    4.542    0.172    0.435   98.493
  311.250    4.458    0.148    0.451  105.118
  311.500    4.374    0.159    0.447  110.537
  311.750    4.373    0.183    0.441  111.740
  312.000    4.373    0.168    0.425  102.701
  312.250    4.537    0.198    0.399   97.880
  312.500    4.708    0.215    0.391   97.876
  312.750    4.885    0.233    0.378   98.477
  313.000    5.068    0.239    0.402   95.463
  313.250    5.162    0.232    0.370   87.025
  313.500    5.066    0.241    0.371   83.409
  313.750    4.972    0.245    0.376   80.395
  314.000    4.879    0.249    0.381   82.802
  314.250    4.788    0.252    0.374   82.800
  314.500    4.787    0.252    0.372   85.809
  314.750    4.876    0.241    0.390   90.625
  315.000    5.059    0.231    0.393   94.237
  315.250    5.249    0.220    0.389   96.645
  315.500    5.446    0.212    0.383   97.848
  315.750    5.548    0.212    0.382  100.254
  316.000    5.650    0.212    0.404  100.855
  316.250    5.649    0.210    0.405  101.455
  316.500    5.754    0.216    0.407  103.862
  316.750    5.752    0.198    0.417  108.077
  317.000    5.751    0.185    0.417  111.086
  317.250    5.749    0.222    0.411  112.891
  317.500    5.748    0.244    0.396  110.479
  317.750    5.747    0.269    0.385  104.452
  318.000    5.640    0.289    0.401   98.425
  318.250    5.535    0.208    0.395   94.207
  318.500    5.432    0.204    0.379   89.987
  318.750    5.431    0.199    0.372   94.202
  319.000    5.531    0.192    0.376  100.825
  319.250    5.634    0.183    0.378  103.233
  319.500    5.845    0.167    0.377  106.845
  319.750    5.845    0.151    0.372  108.650
  320.000    5.843    0.146    0.371  109.250
  320.250    5.525    0.167    0.379  109.248
  320.500    5.224    0.196    0.385  108.643
  320.750    5.033    0.193    0.392  106.832
  321.000    4.759    0.187    0.405  105.625
  321.250    4.585    0.188    0.419  105.021
  321.500    4.335    0.209    0.430  108.031
  321.750    4.335    0.217    0.417  114.052
  322.000    4.175    0.208    0.424  112.845
  322.250    4.174    0.232    0.446  105.613
  322.500    4.097    0.263    0.429  102.599
  322.750    4.096    0.250    0.416  100.187
  323.000    4.172    0.296    0.419   96.570
  323.250    4.171    0.329    0.434  100.183
