~VERSION INFORMATION
 VERS.                 2.0:   CWLS LOG ASCII STANDARD -VERSION 2.0
 WRAP.                  NO:   ONE LINE PER DEPTH STEP
~WELL INFORMATION BLOCK
#MNEM.UNIT           DATA                    DESCRIPTION OF MNEMONIC
#---------    -------------------            -------------------------------
# Generated from Intellog Unique Number	CN_94_101/WELL/2594
WELL.         PARAMOUNT RESOURCES LTD.       : Well_name    - WELL
LOC .         00/09-35-094-18W4/0            : Location     - LOCATION
UWI .         00/09-35-094-18W400            : Uwi          - UNIQUE WELL ID
ENTR.         JOETTE                         : Entered      - ENTERED BY
SRVC.         COMPUTALOG                     : Scn          - SERVICE COMPANY
DATE.         06/12/92                       : Date         - LOG DATE
STRT.M        95                             : top_depth    - START DEPTH
STOP.M        295                            : bot_depth    - STOP DEPTH
STEP.M        0.25                           : increment    - STEP LENGTH
 NULL. -999.2500:NULL Value
~CURVE INFORMATION BLOCK
#MNEM UNIT       ERCB CURVE CODE    CURVE DESCRIPTION
#-----------   ------------------   ----------------------------------
DEPT.M        00 001 00 00         : DEPTH        - DEPTH
CALI.MM       00 280 01 00         : CAL          - CALIPER
GR  .API      00 310 00 00         : GR           - GAMMA RAY
NPHI.V/V      00 330 00 00         : PHIN         - NEUTRON POROSITY (SANDSTONE)
DPHI.V/V      00 890 00 00         : PHID         - DENSITY POROSITY (SANDSTONE)
ILD .OHMM     00 120 00 00         : RESD         - DEEP RESISTIVITY (DIL)
~PARAMETER INFORMATION
#MNEM.UNIT           DATA             DESCRIPTION OF MNEMONIC
#---------         -----------     ------------------------------
GL  .M        554.9                : gl           - GROUND LEVEL ELEVATION
EREF.M        558.7                : kb           - ELEVATION OF DEPTH REFERENCE
DATM.M        558.7                : datum        - DATUM ELEVATION
TDD .M        293.9                : tdd          - TOTAL DEPTH DRILLER
RUN .         ONE                  : Run          - RUN NUMBER
ENG .         BILL                 : Engineer     - RECORDING ENGINEER
WIT .         JIM                  : Witness      - WITNESSED BY
MUD .         GEL                  : Mud_type     - MUD TYPE
MATR.         SANDSTONE            : Logunit      - NEUTRON MATRIX
TMAX.C        25                   : BHT          - MAXIMUM RECORDED TEMPERATURE
BHTD.M        293.9                : BHTDEP       - MAXIMUM RECORDED TEMPERATURE
RMT .C        15                   : MDTP         - TEMPERATURE OF MUD
MUDD.KG/M     1100                 : MWT          - MUD DENSITY
NEUT.         1                    : NEUTRON      - NEUTRON TYPE
RESI.         0                    : RESIST       - RESISTIVITY TYPE
RM  .OHMM     2.1                  : RM           - RESISTIVITY OF MUD
RMC .OHMM     2.1                  : RMC          - RESISTIVITY OF MUD CAKE
RMF .OHMM     4.5                  : RMF          - RESISTIVITY OF MUD FILTRATE
SUFT.C        -15                  : SUFT         - SURFACE TEMPERATURE
~A  DEPTH      CAL       GR     PHIN     PHID     RESD
# ...
  241.000  156.004   59.240    0.216    0.010   22.349
  241.250  154.958   65.490    0.221    0.071   18.857
  241.500  154.955   73.615    0.251    0.107   16.522
  241.750  155.992   82.990    0.337    0.132   15.034
  242.000  157.031   91.741    0.367    0.161   14.206
  242.250  159.110   94.864    0.362    0.184   13.941
  242.500  159.107   88.610    0.357    0.203   14.207
  242.750  159.101   83.606    0.355    0.247   14.207
  243.000  159.099   80.478    0.360    0.263   14.207
  243.250  159.095   78.600    0.365    0.264   13.942
  243.500  158.048   83.599    0.368    0.256   13.425
  243.750  158.045   86.097    0.368    0.253   13.175
  244.000  158.041   89.846    0.367    0.254   13.426
  244.250  159.079   91.094    0.367    0.259   14.209
  244.500  160.117   87.966    0.358    0.277   15.324
  244.750  159.071   84.212    0.346    0.304   15.915
  245.000  156.983   81.709    0.348    0.277   15.325
  245.250  154.896   82.331    0.360    0.272   13.945
  245.500  151.766   84.205    0.375    0.272   12.688
  245.750  152.803   86.078    0.363    0.268   11.990
  246.000  154.883   88.577    0.353    0.251   11.546
  246.250  158.005   89.200    0.391    0.235   12.689
  246.500  158.000   81.069    0.389    0.194   13.946
  246.750  156.954   74.190    0.363    0.155   17.166
  247.000  153.823   68.561    0.286    0.081   20.735
  247.250  152.778   63.556    0.263    0.039   24.117
  247.500  152.775   62.928    0.251    0.014   25.524
  247.750  152.771   61.676    0.242   -0.002   16.847
  248.000  156.933   75.428    0.283    0.077   13.687
  248.250  161.096   78.552    0.322    0.184    9.929
  248.500  164.220   84.801    0.408    0.198    9.382
  248.750  167.342   90.426    0.410    0.190    9.207
  249.000  168.380   94.799    0.404    0.185    9.207
  249.250  168.376   97.297    0.407    0.198    9.383
  249.500  168.371   97.921    0.431    0.192    9.562
  249.750  168.368   98.543    0.444    0.163    9.562
  250.000  168.364   98.540    0.448    0.157    9.563
  250.250  168.361   97.914    0.421    0.152    9.208
  250.500  164.189   97.911    0.391    0.153    8.701
  250.750  160.017   97.908    0.386    0.163    7.770
  251.000  154.802   99.156    0.381    0.174    7.482
  251.250  154.799  101.029    0.395    0.188    7.342
  251.500  156.879  104.779    0.442    0.157    7.482
  251.750  161.043  105.402    0.436    0.133    7.625
  252.000  165.207  101.648    0.423    0.113    7.770
  252.250  168.329   99.770    0.426    0.140    7.919
  252.500  167.283  101.643    0.442    0.186    8.224
  252.750  162.067  104.767    0.436    0.195    8.381
  253.000  157.896  107.890    0.427    0.194    8.703
  253.250  156.849  106.012    0.420    0.179    8.704
  253.500  157.889   97.882    0.397    0.103    8.541
  253.750  157.885   95.379    0.356    0.110    7.484
  254.000  157.881  103.504    0.357    0.152    6.809
  254.250  158.919  107.253    0.370    0.182    6.682
  254.500  167.251  109.751    0.404    0.188    6.557
  254.750  169.330  113.500    0.407    0.179    6.558
  255.000  167.242  117.248    0.412    0.190    6.435
  255.250  168.280  114.745    0.421    0.189    6.081
  255.500  171.402  111.617    0.426    0.166    5.856
  255.750  170.356  110.364    0.417    0.141    5.639
  256.000  168.267  107.236    0.420    0.141    5.639
  256.250  166.180  102.857    0.430    0.140    5.639
  256.500  165.135  101.605    0.441    0.149    5.747
  256.750  160.963  104.102    0.452    0.155    5.747
  257.000  160.958  105.976    0.452    0.167    5.747
  257.250  164.081  109.100    0.447    0.167    5.639
  257.500  169.287  110.348    0.442    0.161    5.329
  257.750  173.451  106.594    0.441    0.150    4.941
  258.000  172.405  109.092    0.442    0.156    4.582
  258.250  170.317  110.966    0.446    0.157    4.669
  258.500  169.270  109.088    0.441    0.147    5.036
  258.750  167.181  105.959    0.426    0.135    5.640
  259.000  167.179  107.207    0.411    0.130    6.199
  259.250  164.049  110.331    0.452    0.163    7.210
  259.500  156.750  113.454    0.467    0.140    6.317
  259.750  156.745  112.201    0.430    0.097    4.759
  260.000  158.826  101.571    0.393    0.066    4.670
  260.250  164.031   89.689    0.396    0.097    4.497
  260.500  162.986   92.813    0.416    0.110    4.497
  260.750  156.731   99.063    0.425    0.161    4.583
  261.000  158.810  105.312    0.430    0.172    4.671
  261.250  161.933  109.686    0.489    0.183    4.943
  261.500  166.096  111.559    0.478    0.154    5.231
  261.750  166.093  109.681    0.452    0.150    5.536
  262.000  164.004  104.678    0.439    0.143    6.085
  262.250  164.000   99.674    0.425    0.138    6.319
  262.500  163.995  101.546    0.427    0.150    6.815
  262.750  163.993  102.794    0.433    0.144    7.350
  263.000  166.071  102.792    0.436    0.139    7.927
  263.250  166.069  100.914    0.432    0.134    9.220
  263.500  168.149   97.161    0.432    0.145   10.724
  263.750  168.145   78.403    0.432    0.157   12.953
  264.000  163.973   70.898    0.387    0.166   15.353
  264.250  157.716   60.893    0.351    0.147   17.857
  264.500  154.584   52.138    0.288    0.082   21.981
  264.750  154.582   44.633    0.272    0.013   28.633
  265.000  154.579   46.506    0.251    0.213   39.474
  265.250  154.575   50.255    0.198    0.252   54.418
  265.500  155.613   46.502    0.203    0.372   65.730
  265.750  156.651   45.248    0.207    0.369   70.889
  266.000  157.688   46.496    0.213    0.364   69.565
  266.250  158.723   48.995    0.223    0.361   63.299
  266.500  159.762   47.117    0.233    0.358   53.406
  266.750  159.759   45.864    0.250    0.356   45.919
  267.000  159.756   45.861    0.316    0.350   40.234
  267.250  159.749   48.984    0.362    0.342   36.609
  267.500  159.746   52.107    0.405    0.327   32.077
  267.750  159.745   52.731    0.428    0.304   30.311
  268.000  159.739   53.354    0.428    0.295   31.478
  268.250  159.736   52.101    0.426    0.289   35.256
  268.500  158.690   51.473    0.421    0.281   38.748
  268.750  158.687   53.346    0.415    0.270   41.790
  269.000  157.641   53.970    0.406    0.270   43.399
  269.250  157.636   53.342    0.406    0.273   44.228
  269.500  157.632   51.464    0.406    0.268   42.590
  269.750  157.628   51.462    0.406    0.262   42.590
  270.000  157.623   54.586    0.408    0.265   45.934
  270.250  157.621   56.459    0.408    0.300   48.612
  270.500  157.617   53.956    0.415    0.316   51.447
  270.750  157.613   48.952    0.420    0.324   55.485
  271.000  157.609   45.198    0.414    0.320   56.545
  271.250  157.604   44.571    0.409    0.311   55.487
  271.500  157.599   47.694    0.399    0.304   52.432
  271.750  157.597   51.442    0.431    0.302   46.817
  272.000  157.592   50.814    0.449    0.304   41.802
  272.250  157.589   47.687    0.415    0.303   30.324
  272.500  157.583   43.934    0.404    0.297   27.593
  272.750  157.581   46.432    0.403    0.289   16.887
  273.000  157.577   45.179    0.399    0.282   13.212
  273.250  157.571   31.422    0.388    0.281   10.938
  273.500  157.567   20.166    0.331    0.299   10.734
  273.750  157.563   20.789    0.347    0.320   11.576
  274.000  157.560   23.287    0.360    0.331   13.465
  274.250  157.556   25.159    0.363    0.339   15.368
  274.500  157.551   25.158    0.366    0.337   20.401
  274.750  156.505   25.781    0.367    0.334   21.591
  275.000  156.502   25.778    0.347    0.332   24.181
  275.250  156.499   25.775    0.340    0.336   28.662
  275.500  156.494   25.773    0.347    0.342   38.774
  275.750  155.449   27.021    0.351    0.344   49.565
  276.000  155.445   31.396    0.358    0.339   77.986
  276.250  155.440   33.268    0.362    0.331   87.345
  276.500  154.393   31.390    0.368    0.328   89.012
  276.750  154.390   30.138    0.377    0.332   94.204
  277.000  154.385   32.637    0.384    0.332  103.533
  277.250  154.382   33.884    0.378    0.330   99.699
