~VERSION INFORMATION
 VERS.                 2.0:   CWLS LOG ASCII STANDARD -VERSION 2.0
 WRAP.                  NO:   ONE LINE PER DEPTH STEP
~WELL INFORMATION BLOCK
#MNEM.UNIT           DATA                    DESCRIPTION OF MNEMONIC
#---------    -------------------            -------------------------------
# Generated from Intellog Unique Number	CS_73_76/WELL/2161
WELL.         MANY ISLANDS PIPELINES         : Well_name    - WELL
LOC .         00/06-08-074-11W4/0            : Location     - LOCATION
UWI .         00/06-08-074-11W4/0            : Uwi          - UNIQUE WELL ID
ENTR.         SP                             : Entered      - ENTERED BY
SRVC.         SCHLUMBERGER                   : Scn          - SERVICE COMPANY
STRT.M        298.704                        : top_depth    - START DEPTH
STOP.M        536.204                        : bot_depth    - STOP DEPTH
STEP.M        0.25                           : increment    - STEP LENGTH
 NULL. -999.2500:NULL Value
~CURVE INFORMATION BLOCK
#MNEM UNIT       ERCB CURVE CODE    CURVE DESCRIPTION
#-----------   ------------------   ----------------------------------
DEPT.M        00 001 00 00         : DEPTH        - DEPTH
GR  .API      00 310 00 00         : GR           - GAMMA RAY
DPHI.V/V      00 890 00 00         : PHID         - DENSITY POROSITY (SANDSTONE)
NPHI.V/V      00 330 00 00         : PHIN         - NEUTRON POROSITY (SANDSTONE)
ILD .OHMM     00 120 00 00         : RESD         - DEEP RESISTIVITY (DIL)
~PARAMETER INFORMATION
#MNEM.UNIT           DATA             DESCRIPTION OF MNEMONIC
#---------         -----------     ------------------------------
GL  .M        661.416              : gl           - GROUND LEVEL ELEVATION
EREF.M        664.891              : kb           - ELEVATION OF DEPTH REFERENCE
DATM.M        661.416              : datum        - DATUM ELEVATION
TDD .M        553.517              : tdd          - TOTAL DEPTH DRILLER
RUN .         ONE                  : Run          - RUN NUMBER
ENG .         BILL                 : Engineer     - RECORDING ENGINEER
WIT .         JIM                  : Witness      - WITNESSED BY
MUD .         GEL                  : Mud_type     - MUD TYPE
MATR.         SANDSTONE            : Logunit      - NEUTRON MATRIX
TMAX.C        26.6667              : BHT          - MAXIMUM RECORDED TEMPERATURE
BHTD.M        553.517              : BHTDEP       - MAXIMUM RECORDED TEMPERATURE
MATR.         1                    : LOGUNIT      - NEUTRON MATRIX
RMT .C        25                   : MDTP         - TEMPERATURE OF MUD
NEUT.         1                    : NEUTRON      - NEUTRON TYPE
RESI.         0                    : RESIST       - RESISTIVITY TYPE
RMC .OHMM     0.25                 : RMC          - RESISTIVITY OF MUD CAKE
RMF .OHMM     0.25                 : RMF          - RESISTIVITY OF MUD FILTRATE
SUFT.C        15                   : SUFT         - SURFACE TEMPERATURE
~A  DEPTH       GR     PHID     PHIN     RESD
# ...
  385.704   76.133    0.308    0.463   10.336
  385.954   76.392    0.306    0.456   10.332
  386.204   76.728    0.303    0.454   10.331
  386.454   77.307    0.297    0.460   10.331
  386.704   77.165    0.303    0.474   10.336
  386.954   75.459    0.317    0.488   10.338
  387.204   74.663    0.325    0.475   10.537
  387.454   74.654    0.315    0.461   10.526
  387.704   76.069    0.307    0.451   10.525
  387.954   78.062    0.303    0.449   10.521
  388.204   80.124    0.310    0.450   10.494
  388.454   82.667    0.308    0.462   10.152
  388.704   82.994    0.305    0.472   10.113
  388.954   84.104    0.303    0.480   11.244
  389.204   86.054    0.301    0.483   10.089
  389.454   88.275    0.306    0.489   10.134
  389.704   88.835    0.318    0.494   10.145
  389.954   89.321    0.305    0.498   10.145
  390.204   88.551    0.314    0.479   10.143
  390.454   89.999    0.314    0.461   10.145
  390.704   92.397    0.307    0.455    9.661
  390.954   92.585    0.298    0.481    8.416
  391.204   92.826    0.294    0.511    6.954
  391.454   97.507    0.283    0.529    5.606
  391.704  100.629    0.271    0.554    4.754
  391.954   99.934    0.264    0.513    4.137
  392.204   98.398    0.260    0.478    3.864
  392.454   97.721    0.246    0.498    3.979
  392.704   94.485    0.254    0.516    4.281
  392.954   95.430    0.254    0.497    4.682
  393.204   93.512    0.241    0.504    5.350
  393.454   93.259    0.253    0.514    6.000
  393.704   92.606    0.274    0.503    6.367
  393.954   90.051    0.294    0.489    6.634
  394.204   85.805    0.310    0.480    6.852
  394.454   81.996    0.306    0.475    6.906
  394.704   83.687    0.289    0.472    7.138
  394.954   85.577    0.282    0.474    7.109
  395.204   85.929    0.273    0.481    6.595
  395.454   87.624    0.261    0.493    6.412
  395.704   85.497    0.256    0.494    6.390
  395.954   83.166    0.246    0.480    6.529
  396.204   77.778    0.167    0.343    6.800
  396.454   71.402    0.058    0.189    7.701
  396.704   68.931   -0.000    0.161    9.642
  396.954   65.745    0.000    0.143   12.249
  397.204   58.637    0.000    0.137   15.932
  397.454   52.241   -0.000    0.134   22.624
  397.704   48.864    0.000    0.135   29.131
  397.954   47.822    0.000    0.138   35.718
  398.204   48.307   -0.000    0.150   39.634
  398.454   50.860   -0.000    0.159   41.368
  398.704   54.247    0.009    0.186   42.047
  398.954   59.011    0.045    0.225   39.468
  399.204   66.389    0.106    0.334   31.802
  399.454   72.177    0.221    0.393   17.414
  399.704   75.707    0.294    0.428   12.831
  399.954   77.481    0.327    0.447   10.464
  400.204   77.407    0.304    0.460    8.930
  400.454   78.507    0.290    0.475    7.980
  400.704   79.701    0.282    0.475    7.504
  400.954   79.160    0.300    0.462    7.418
  401.204   81.124    0.288    0.460    7.434
  401.454   83.138    0.270    0.470    7.278
  401.704   86.187    0.256    0.474    7.164
  401.954   86.469    0.254    0.475    7.033
  402.204   87.367    0.259    0.463    6.895
  402.454   91.286    0.248    0.449    6.887
  402.704   88.498    0.244    0.438    6.844
  402.954   85.223    0.243    0.442    6.766
  403.204   84.316    0.255    0.456    6.769
  403.454   82.429    0.269    0.460    6.804
  403.704   81.078    0.268    0.455    6.889
  403.954   78.787    0.248    0.450    7.018
  404.204   86.258    0.226    0.449    7.165
  404.454   88.865    0.232    0.424    7.151
  404.704   87.473    0.244    0.422    7.155
  404.954   88.311    0.250    0.442    7.169
  405.204   88.744    0.246    0.449    7.291
  405.454   89.743    0.239    0.455    7.287
  405.704   90.720    0.229    0.442    7.286
  405.954   91.089    0.235    0.429    7.290
  406.204   91.950    0.246    0.429    7.332
  406.454   91.917    0.234    0.436    7.422
  406.704   91.250    0.224    0.445    7.423
  406.954   91.145    0.220    0.452    7.423
  407.204   90.763    0.227    0.455    7.423
  407.454   89.448    0.223    0.448    7.424
  407.704   88.754    0.214    0.457    7.429
  407.954   91.015    0.226    0.454    7.302
  408.204   90.799    0.218    0.458    7.229
  408.454   88.829    0.214    0.460    7.161
  408.704   87.460    0.221    0.465    7.037
  408.954   85.909    0.224    0.447    7.172
  409.204   88.389    0.227    0.433    7.155
  409.454   88.930    0.223    0.446    7.155
  409.704   90.119    0.218    0.463    7.155
  409.954   91.374    0.221    0.467    7.156
  410.204   93.071    0.227    0.473    7.170
  410.454   96.478    0.230    0.483    7.018
  410.704   97.977    0.240    0.495    6.913
  410.954   97.057    0.263    0.499    6.641
  411.204   96.157    0.270    0.497    6.389
  411.454   95.695    0.265    0.526    6.188
  411.704   95.909    0.262    0.523    6.174
  411.954   95.529    0.258    0.503    6.170
  412.204   94.009    0.255    0.497    6.352
  412.454   93.388    0.254    0.513    6.431
  412.704   91.961    0.262    0.510    6.648
  412.954   93.795    0.265    0.496    6.646
  413.204   96.827    0.254    0.505    6.646
  413.454   96.203    0.245    0.494    6.653
  413.704   96.997    0.245    0.480    6.516
  413.954  100.232    0.239    0.474    6.531
  414.204  101.031    0.231    0.493    6.419
  414.454  100.781    0.236    0.490    6.354
  414.704   99.744    0.234    0.481    6.293
  414.954   98.758    0.254    0.468    6.279
  415.204   97.838    0.240    0.462    6.423
  415.454   99.928    0.226    0.473    6.413
  415.704  103.295    0.222    0.458    6.523
  415.954  106.177    0.215    0.452    6.663
  416.204  106.462    0.231    0.453    6.650
  416.454  106.448    0.243    0.460    6.666
  416.704  106.339    0.238    0.458    6.543
  416.954  105.397    0.236    0.473    6.018
  417.204  105.214    0.253    0.518    4.434
  417.454  109.119    0.258    0.560    3.040
  417.704  117.020    0.256    0.585    2.562
  417.954  117.561    0.259    0.597    2.344
  418.204  113.996    0.273    0.578    2.189
  418.454  107.785    0.262    0.583    2.054
  418.704  100.260    0.248    0.599    2.042
  418.954  101.673    0.246    0.604    2.080
  419.204  105.096    0.246    0.553    2.668
  419.454  106.857    0.245    0.511    3.029
  419.704  103.602    0.235    0.482    3.662
  419.954  101.723    0.230    0.478    4.306
  420.204   98.212    0.238    0.484    5.028
  420.454   92.913    0.252    0.480    5.318
  420.704   96.275    0.258    0.473    5.438
  420.954   96.751    0.258    0.477    5.430
  421.204   95.560    0.258    0.481    5.431
  421.454   98.638    0.223    0.497    5.460
  421.704   97.333    0.249    0.492    5.634
  421.954   92.604    0.269    0.463    5.780
  422.204   90.306    0.288    0.460    5.987
  422.454   86.705    0.292    0.469    6.178
  422.704   80.600    0.292    0.472    6.190
  422.954   80.268    0.294    0.465    6.056
  423.204   82.336    0.288    0.458    6.066
  423.454   83.346    0.282    0.468    6.006
  423.704   84.342    0.289    0.468    5.958
  423.954   85.388    0.295    0.461    5.956
  424.204   85.670    0.299    0.466    5.956
  424.454   86.735    0.302    0.458    5.956
  424.704   89.581    0.288    0.455    5.957
  424.954   94.695    0.266    0.465    5.966
  425.204   99.355    0.263    0.467    5.846
  425.454  101.043    0.256    0.480    5.862
  425.704  100.310    0.245    0.487    5.738
  425.954   99.353    0.252    0.492    5.639
  426.204   98.592    0.251    0.483    5.577
  426.454  100.346    0.240    0.480    5.536
  426.704  102.360    0.234    0.477    5.535
  426.954   99.938    0.250    0.458    5.589
  427.204   96.733    0.272    0.445    5.647
  427.454   94.580    0.272    0.438    5.747
  427.704   95.866    0.255    0.479    5.740
  427.954   91.925    0.243    0.490    5.737
  428.204   89.002    0.288    0.496    5.641
  428.454   85.594    0.285    0.505    5.516
  428.704   83.078    0.291    0.504    5.637
  428.954   83.240    0.304    0.486    5.810
