~VERSION INFORMATION
 VERS.                 2.0:   CWLS LOG ASCII STANDARD -VERSION 2.0
 WRAP.                  NO:   ONE LINE PER DEPTH STEP
~WELL INFORMATION BLOCK
#MNEM.UNIT           DATA                    DESCRIPTION OF MNEMONIC
#---------    -------------------            -------------------------------
# Generated from Intellog Unique Number	CS_71_72/WELL/770
WELL.         SULPETRO LIMITED               : Well_name    - WELL
LOC .         00/06-19-071-10W4/0            : Location     - LOCATION
UWI .         00/06-19-071-10W4/0            : Uwi          - UNIQUE WELL ID
ENTR.         SP                             : Entered      - ENTERED BY
SRVC.         SCHLUMBERGER                   : Scn          - SERVICE COMPANY
STRT.M        300                            : top_depth    - START DEPTH
STOP.M        525                            : bot_depth    - STOP DEPTH
STEP.M        0.25                           : increment    - STEP LENGTH
 NULL. -999.2500:NULL Value
~CURVE INFORMATION BLOCK
#MNEM UNIT       ERCB CURVE CODE    CURVE DESCRIPTION
#-----------   ------------------   ----------------------------------
DEPT.M        00 001 00 00         : DEPTH        - DEPTH
ILD .OHMM     00 120 00 00         : RESD         - DEEP RESISTIVITY (DIL)
DPHI.V/V      00 890 00 00         : PHID         - DENSITY POROSITY (LIMESTONE)
NPHI.V/V      00 330 00 00         : PHIN         - NEUTRON POROSITY (LIMESTONE)
GR  .API      00 310 00 00         : GR           - GAMMA RAY
~PARAMETER INFORMATION
#MNEM.UNIT           DATA             DESCRIPTION OF MNEMONIC
#---------         -----------     ------------------------------
GL  .M        648.81               : gl           - GROUND LEVEL ELEVATION
EREF.M        651.64               : kb           - ELEVATION OF DEPTH REFERENCE
DATM.M        648.81               : datum        - DATUM ELEVATION
TDD .M        538                  : tdd          - TOTAL DEPTH DRILLER
RUN .         ONE                  : Run          - RUN NUMBER
ENG .         BILL                 : Engineer     - RECORDING ENGINEER
WIT .         JIM                  : Witness      - WITNESSED BY
MUD .         GEL                  : Mud_type     - MUD TYPE
MATR.         LIMESTONE            : Logunit      - NEUTRON MATRIX
TMAX.C        24                   : BHT          - MAXIMUM RECORDED TEMPERATURE
BHTD.M        538                  : BHTDEP       - MAXIMUM RECORDED TEMPERATURE
MATR.         1                    : LOGUNIT      - NEUTRON MATRIX
RMT .C        25                   : MDTP         - TEMPERATURE OF MUD
NEUT.         1                    : NEUTRON      - NEUTRON TYPE
RESI.         0                    : RESIST       - RESISTIVITY TYPE
RMC .OHMM     0.25                 : RMC          - RESISTIVITY OF MUD CAKE
RMF .OHMM     0.25                 : RMF          - RESISTIVITY OF MUD FILTRATE
SUFT.C        15                   : SUFT         - SURFACE TEMPERATURE
~A  DEPTH     RESD     PHID     PHIN       GR
# ...
  343.500    6.266    0.228    0.310   89.544
  343.750    6.290    0.208    0.343   96.401
  344.000    6.362    0.190    0.363  100.283
  344.250    6.641    0.167    0.378   93.962
  344.500    6.972    0.181    0.357   83.755
  344.750    7.319    0.212    0.331   77.434
  345.000    7.626    0.228    0.317   74.453
  345.250    7.727    0.214    0.323   77.423
  345.500    7.757    0.204    0.351   78.573
  345.750    7.772    0.198    0.381   76.199
  346.000    7.845    0.209    0.408   74.554
  346.250    8.053    0.218    0.406   77.403
  346.500    8.190    0.213    0.379   79.281
  346.750    8.314    0.223    0.382   74.600
  347.000    8.408    0.240    0.358   66.032
  347.250    8.456    0.250    0.348   61.958
  347.500    8.457    0.254    0.341   58.431
  347.750    8.332    0.238    0.338   59.883
  348.000    8.148    0.223    0.325   62.915
  348.250    7.983    0.207    0.316   68.861
  348.500    7.850    0.192    0.327   77.358
  348.750    7.705    0.190    0.343   83.790
  349.000    7.300    0.206    0.337   83.178
  349.250    6.967    0.215    0.296   84.205
  349.500    6.763    0.192    0.274   88.269
  349.750    6.650    0.173    0.366   92.272
  350.000    6.688    0.185    0.428   92.024
  350.250    6.917    0.232    0.377   85.460
  350.500    7.009    0.270    0.354   72.642
  350.750    7.168    0.285    0.352   63.589
  351.000    7.276    0.284    0.346   61.275
  351.250    7.250    0.277    0.328   62.121
  351.500    7.129    0.261    0.313   75.719
  351.750    6.959    0.228    0.401   85.187
  352.000    6.742    0.209    0.441   79.595
  352.250    6.581    0.248    0.357   65.927
  352.500    6.532    0.291    0.339   68.958
  352.750    6.594    0.284    0.377   79.762
  353.000    6.668    0.188    0.403   80.303
  353.250    6.656    0.196    0.394   73.436
  353.500    6.620    0.222    0.359   68.573
  353.750    6.745    0.224    0.323   78.041
  354.000    7.028    0.202    0.336   83.502
  354.250    7.269    0.217    0.354   86.108
  354.500    7.420    0.234    0.346   80.820
  354.750    7.421    0.238    0.342   76.564
  355.000    6.991    0.238    0.328   79.534
  355.250    6.404    0.239    0.340   84.752
  355.500    5.888    0.219    0.349   88.876
  355.750    5.364    0.220    0.387   88.568
  356.000    5.384    0.238    0.459   83.279
  356.250    6.113    0.235    0.477   76.472
  356.500    6.993    0.222    0.444   72.217
  356.750    7.794    0.267    0.431   65.168
  357.000    8.336    0.308    0.417   53.928
  357.250    8.654    0.317    0.374   56.838
  357.500    8.884    0.285    0.330   65.213
  357.750    8.934    0.262    0.380   69.398
  358.000    9.001    0.280    0.411   57.794
  358.250    9.189    0.299    0.393   48.437
  358.500    9.380    0.309    0.391   42.602
  358.750    9.416    0.316    0.370   48.609
  359.000    9.208    0.286    0.365   58.684
  359.250    9.021    0.234    0.384   65.178
  359.500    8.921    0.245    0.401   62.440
  359.750    9.005    0.278    0.419   58.002
  360.000    9.262    0.281    0.373   53.260
  360.250    9.262    0.284    0.369   49.733
  360.500    8.693    0.302    0.371   56.104
  360.750    7.934    0.320    0.366   69.216
  361.000    6.949    0.287    0.381   79.656
  361.250    6.133    0.237    0.389   86.513
  361.500    5.342    0.217    0.385   91.184
  361.750    4.948    0.207    0.451   97.920
  362.000    5.244    0.252    0.499   93.786
  362.250    5.965    0.308    0.482   61.474
  362.500    6.722    0.338    0.438   45.497
  362.750    7.380    0.352    0.395   36.443
  363.000    7.894    0.319    0.371   48.523
  363.250    8.210    0.272    0.353   58.295
  363.500    8.165    0.247    0.338   61.813
  363.750    7.692    0.254    0.359   63.751
  364.000    7.438    0.273    0.374   61.134
  364.250    7.193    0.280    0.416   57.485
  364.500    7.021    0.290    0.440   52.804
  364.750    6.866    0.284    0.381   59.904
  365.000    6.677    0.235    0.352   71.559
  365.250    6.468    0.227    0.413   74.591
  365.500    6.290    0.249    0.435   72.035
  365.750    6.256    0.263    0.461   68.932
  366.000    6.268    0.275    0.414   61.823
  366.250    6.641    0.286    0.438   52.466
  366.500    6.818    0.306    0.463   48.878
  366.750    7.025    0.328    0.446   59.378
  367.000    7.025    0.275    0.399   68.483
  367.250    6.718    0.242    0.363   72.364
  367.500    6.606    0.262    0.373   67.137
  367.750    6.497    0.283    0.358   69.925
  368.000    6.497    0.294    0.317   77.753
  368.250    6.486    0.229    0.293   83.638
  368.500    6.402    0.204    0.339   88.613
  368.750    6.133    0.199    0.434   90.005
  369.000    5.735    0.215    0.479   86.478
  369.250    5.352    0.238    0.482   83.862
  369.500    5.023    0.250    0.443   82.035
  369.750    5.033    0.268    0.415   77.597
  370.000    5.343    0.295    0.369   55.184
  370.250    5.933    0.281    0.340   59.490
  370.500    6.417    0.266    0.342   61.489
  370.750    6.737    0.262    0.354   62.334
  371.000    6.813    0.234    0.399   64.212
  371.250    6.852    0.222    0.454   64.875
  371.500    6.968    0.270    0.430   60.497
  371.750    7.247    0.303    0.399   52.111
  372.000    7.927    0.319    0.378   47.491
  372.250    8.275    0.331    0.416   46.757
  372.500    8.736    0.342    0.427   46.630
  372.750    9.172    0.351    0.408   44.926
  373.000    9.397    0.359    0.438   41.216
  373.250    9.381    0.365    0.422   42.061
  373.500    8.186    0.319    0.402   49.161
  373.750    7.360    0.254    0.381   56.140
  374.000    6.520    0.229    0.379   61.296
  374.250    6.246    0.240    0.409   64.024
  374.500    6.108    0.254    0.415   65.841
  374.750    6.400    0.277    0.398   64.257
  375.000    6.632    0.303    0.381   54.961
  375.250    6.744    0.312    0.392   60.907
  375.500    6.121    0.300    0.401   70.678
  375.750    5.223    0.281    0.405   77.049
  376.000    4.334    0.256    0.504   82.632
  376.250    4.136    0.273    0.553   87.972
  376.500    4.857    0.299    0.469   64.890
  376.750    6.192    0.327    0.421   49.399
  377.000    7.216    0.343    0.389   45.204
  377.250    8.569    0.335    0.414   43.499
  377.500    9.356    0.339    0.430   44.708
  377.750    9.515    0.339    0.425   48.832
  378.000    9.201    0.321    0.402   53.564
  378.250    8.750    0.310    0.373   58.660
  378.500    8.652    0.304    0.357   61.024
  378.750    8.414    0.296    0.387   63.205
  379.000    8.368    0.287    0.412   65.021
  379.250    8.479    0.279    0.424   64.652
  379.500    8.526    0.284    0.420   62.035
  379.750    8.671    0.289    0.401   60.634
  380.000    8.968    0.293    0.389   61.053
  380.250    9.328    0.285    0.392   59.166
  380.500    9.940    0.278    0.432   55.518
  380.750   10.493    0.293    0.447   57.577
  381.000   11.223    0.335    0.433   59.455
  381.250   12.072    0.346    0.420   61.333
  381.500   12.649    0.351    0.423   62.783
  381.750   13.330    0.346    0.426   62.476
  382.000   13.430    0.336    0.436   61.074
  382.250   13.456    0.334    0.450   59.490
  382.500   13.332    0.341    0.464   60.761
  382.750   13.283    0.347    0.455   62.213
  383.000   13.210    0.347    0.461   62.330
  383.250   13.161    0.347    0.460   60.805
  383.500   13.113    0.352    0.433   58.979
  383.750   13.163    0.344    0.422   56.969
  384.000   13.263    0.337    0.419   55.566
  384.250   13.313    0.338    0.459   55.745
  384.500   13.438    0.340    0.484   58.776
  384.750   13.490    0.338    0.504   61.017
  385.000   13.592    0.332    0.447   62.044
  385.250   13.720    0.331    0.426   61.615
  385.500   13.695    0.336    0.409   61.125
  385.750   13.645    0.340    0.398   61.181
  386.000   13.570    0.343    0.410   60.386
  386.250   13.495    0.348    0.422   59.227
  386.500   13.420    0.345    0.423   58.129
  386.750   13.297    0.340    0.420   57.638
