~VERSION INFORMATION
 VERS.                 2.0:   CWLS LOG ASCII STANDARD -VERSION 2.0
 WRAP.                  NO:   ONE LINE PER DEPTH STEP
~WELL INFORMATION BLOCK
#MNEM.UNIT           DATA                    DESCRIPTION OF MNEMONIC
#---------    -------------------            -------------------------------
# Generated from Intellog Unique Number	CS_77_79/WELL/915
WELL.         MESA HB LEISMER                : Well_name    - WELL
LOC .         00/07-33-078-09W4/0            : Location     - LOCATION
UWI .         00/07-33-078-09W4/0            : Uwi          - UNIQUE WELL ID
ENTR.         JHS                            : Entered      - ENTERED BY
SRVC.         SCHLUMBERGER                   : Scn          - SERVICE COMPANY
STRT.M        228.6                          : top_depth    - START DEPTH
STOP.M        460.1                          : bot_depth    - STOP DEPTH
STEP.M        0.25                           : increment    - STEP LENGTH
 NULL. -999.2500:NULL Value
~CURVE INFORMATION BLOCK
#MNEM UNIT       ERCB CURVE CODE    CURVE DESCRIPTION
#-----------   ------------------   ----------------------------------
DEPT.M        00 001 00 00         : DEPTH        - DEPTH
RHOB.KG/M3    00 350 00 00         : DENS         - BULK DENSITY
GR  .API      00 310 00 00         : GR           - GAMMA RAY
DPHI.V/V      00 890 00 00         : PHID         - DENSITY POROSITY (SANDSTONE)
NPHI.V/V      00 330 00 00         : PHIN         - NEUTRON POROSITY (SANDSTONE)
ILD .OHMM     00 120 00 00         : RESD         - DEEP RESISTIVITY (DIL)
~PARAMETER INFORMATION
#MNEM.UNIT           DATA             DESCRIPTION OF MNEMONIC
#---------         -----------     ------------------------------
GL  .M        660.38               : gl           - GROUND LEVEL ELEVATION
EREF.M        661.416              : kb           - ELEVATION OF DEPTH REFERENCE
DATM.M        661.416              : datum        - DATUM ELEVATION
TDD .M        475.488              : tdd          - TOTAL DEPTH DRILLER
RUN .         ONE                  : Run          - RUN NUMBER
ENG .         BILL                 : Engineer     - RECORDING ENGINEER
WIT .         JIM                  : Witness      - WITNESSED BY
MUD .         GEL                  : Mud_type     - MUD TYPE
MATR.         SANDSTONE            : Logunit      - NEUTRON MATRIX
TMAX.C        60                   : BHT          - MAXIMUM RECORDED TEMPERATURE
BHTD.M        475.488              : BHTDEP       - MAXIMUM RECORDED TEMPERATURE
MATR.         1                    : LOGUNIT      - NEUTRON MATRIX
RMT .C        25                   : MDTP         - TEMPERATURE OF MUD
NEUT.         1                    : NEUTRON      - NEUTRON TYPE
RESI.         0                    : RESIST       - RESISTIVITY TYPE
RMC .OHMM     0.25                 : RMC          - RESISTIVITY OF MUD CAKE
RMF .OHMM     0.25                 : RMF          - RESISTIVITY OF MUD FILTRATE
SUFT.C        15                   : SUFT         - SURFACE TEMPERATURE
~A  DEPTH     DENS       GR     PHID     PHIN     RESD
# ...
  338.100    0.000  113.043    0.263    0.584    3.054
  338.350    0.000  114.786    0.261    0.595    3.193
  338.600   -0.000  109.648    0.257    0.582    3.437
  338.850   -0.000  108.290    0.258    0.574    3.742
  339.100   -0.000  108.255    0.266    0.577    4.057
  339.350    0.000  108.142    0.241    0.550    4.517
  339.600    0.000  106.373    0.249    0.514    4.897
  339.850   -0.000  106.386    0.243    0.502    5.741
  340.100   -0.000  109.873    0.245    0.500    6.359
  340.350   -0.000  109.494    0.271    0.494    6.990
  340.600    0.000  103.999    0.274    0.472    7.447
  340.850    0.000   99.899    0.260    0.469    7.552
  341.100    0.000   98.993    0.277    0.482    7.470
  341.350   -0.000   97.640    0.274    0.484    7.368
  341.600   -0.000  101.179    0.252    0.477    7.300
  341.850   -0.000  100.892    0.238    0.488    7.230
  342.100    0.000   97.710    0.258    0.484    7.235
  342.350    0.000   99.992    0.261    0.471    7.234
  342.600    0.000  102.822    0.253    0.471    7.386
  342.850   -0.000  102.515    0.252    0.481    7.495
  343.100   -0.000   98.965    0.268    0.489    8.074
  343.350    0.000   99.812    0.269    0.488    8.417
  343.600    0.000   97.199    0.259    0.493    8.512
  343.850    0.000   94.851    0.261    0.489    8.567
  344.100   -0.000   96.607    0.278    0.484    8.314
  344.350   -0.000   95.293    0.278    0.476    8.085
  344.600   -0.000   93.876    0.263    0.473    7.676
  344.850    0.000   96.193    0.261    0.478    7.338
  345.100    0.000  101.046    0.254    0.492    7.122
  345.350    0.000  100.382    0.242    0.501    7.062
  345.600   -0.000   99.736    0.251    0.505    7.084
  345.850   -0.000  100.624    0.238    0.474    6.972
  346.100    0.000  101.617    0.229    0.465    7.084
  346.350    0.000  101.511    0.226    0.471    7.103
  346.600    0.000  103.139    0.235    0.480    6.961
  346.850   -0.000  105.646    0.255    0.497    6.862
  347.100   -0.000  108.602    0.261    0.513    6.660
  347.350   -0.000  111.536    0.249    0.519    6.454
  347.600    0.000  112.999    0.233    0.513    6.165
  347.850    0.000  112.629    0.235    0.505    5.943
  348.100    0.000  110.578    0.237    0.486    4.972
  348.350   -0.000  110.083    0.246    0.488    4.112
  348.600   -0.000  109.061    0.252    0.520    3.341
  348.850   -0.000  106.402    0.244    0.561    2.850
  349.100    0.000  102.645    0.259    0.574    2.383
  349.350    0.000  106.067    0.296    0.589    2.192
  349.600   -0.000  112.255    0.299    0.607    2.210
  349.850   -0.000  115.065    0.290    0.613    2.407
  350.100   -0.000  114.114    0.282    0.616    2.826
  350.350    0.000  111.427    0.307    0.608    3.111
  350.600    0.000  110.822    0.305    0.607    3.768
  350.850    0.000  106.982    0.287    0.609    4.483
  351.100   -0.000   98.500    0.261    0.607    5.798
  351.350   -0.000   97.606    0.279    0.567    6.415
  351.600   -0.000   98.628    0.288    0.503    7.824
  351.850    0.000   97.641    0.284    0.475    9.291
  352.100    0.000   97.172    0.278    0.460   10.108
  352.350   -0.000   97.463    0.286    0.440   11.463
  352.600   -0.000   94.590    0.304    0.421   12.802
  352.850   -0.000   91.131    0.315    0.403   13.934
  353.100    0.000   93.014    0.324    0.370   14.313
  353.350    0.000   95.525    0.353    0.350   15.276
  353.600    0.000   94.831    0.372    0.327   17.509
  353.850   -0.000   95.489    0.374    0.317   18.889
  354.100   -0.000   91.316    0.343    0.329   18.988
  354.350   -0.000   81.201    0.299    0.338   18.591
  354.600    0.000   74.584    0.146    0.263   17.311
  354.850    0.000   71.990    0.066    0.237   16.103
  355.100    0.000   80.149    0.077    0.258   13.910
  355.350   -0.000   88.386    0.193    0.337   12.732
  355.600   -0.000   92.674    0.270    0.371   10.960
  355.850    0.000   93.867    0.346    0.367    9.550
  356.100    0.000   91.495    0.321    0.371    8.816
  356.350    0.000   91.250    0.291    0.397    8.341
  356.600   -0.000   94.847    0.259    0.440    7.849
  356.850   -0.000   96.608    0.248    0.456    7.401
  357.100   -0.000   98.526    0.244    0.452    6.845
  357.350    0.000  103.044    0.257    0.441    6.772
  357.600    0.000  106.900    0.259    0.424    6.754
  357.850    0.000  104.512    0.253    0.421    6.752
  358.100   -0.000   98.827    0.268    0.435    6.626
  358.350   -0.000  100.981    0.286    0.441    6.859
  358.600    0.000  104.693    0.260    0.466    7.164
  358.850    0.000  102.071    0.246    0.477    7.226
  359.100    0.000  100.235    0.246    0.483    7.619
  359.350   -0.000   99.839    0.241    0.486    8.128
  359.600   -0.000  100.787    0.253    0.456    8.573
  359.850   -0.000  102.647    0.261    0.426    8.824
  360.100    0.000  104.163    0.264    0.413    8.675
  360.350    0.000  102.928    0.264    0.403    8.672
  360.600    0.000  101.661    0.262    0.409    8.686
  360.850   -0.000  101.681    0.278    0.423    8.941
  361.100   -0.000  101.610    0.267    0.438    9.748
  361.350   -0.000   98.581    0.294    0.419   10.458
  361.600    0.000   95.017    0.317    0.395   10.328
  361.850    0.000   90.868    0.320    0.382    9.947
  362.100   -0.000   87.249    0.331    0.367    9.076
  362.350   -0.000   90.334    0.338    0.354    8.141
  362.600   -0.000   94.211    0.316    0.393    7.289
  362.850    0.000   97.275    0.279    0.474    6.896
  363.100    0.000   99.077    0.262    0.490    6.896
  363.350    0.000   98.362    0.261    0.489    6.897
  363.600   -0.000   95.177    0.272    0.474    7.020
  363.850   -0.000   95.244    0.268    0.475    7.097
  364.100   -0.000   96.949    0.247    0.460    7.182
  364.350    0.000   97.554    0.245    0.463    7.090
  364.600    0.000   96.777    0.260    0.466    7.062
  364.850    0.000   97.477    0.269    0.456    7.205
  365.100   -0.000   98.027    0.276    0.464    7.337
  365.350   -0.000   92.797    0.290    0.457    7.509
  365.600    0.000   86.903    0.306    0.454    7.363
  365.850    0.000   86.112    0.314    0.448    7.291
  366.100    0.000   90.875    0.336    0.439    7.242
  366.350   -0.000   85.585    0.366    0.429    7.245
  366.600   -0.000   80.042    0.345    0.491    7.254
  366.850   -0.000   79.338    0.338    0.505    7.272
  367.100    0.000   77.896    0.322    0.497    7.406
  367.350    0.000   75.552    0.303    0.478    7.404
  367.600    0.000   71.502    0.276    0.456    7.410
  367.850   -0.000   74.473    0.258    0.455    7.288
  368.100   -0.000   79.460    0.299    0.471    7.107
  368.350    0.000   87.760    0.333    0.481    7.038
  368.600    0.000   88.180    0.316    0.485    6.960
  368.850    0.000   81.924    0.319    0.485    6.897
  369.100   -0.000   83.988    0.311    0.495    6.801
  369.350   -0.000   85.343    0.315    0.507    6.811
  369.600   -0.000   82.970    0.323    0.500    6.820
  369.850    0.000   83.837    0.306    0.483    6.725
  370.100    0.000   88.063    0.311    0.457    6.539
  370.350    0.000   88.449    0.298    0.459    6.213
  370.600   -0.006   88.820    0.292    0.463    5.842
  370.850   -0.065   90.623    0.295    0.447    5.811
  371.100   -0.026   94.536    0.293    0.464    5.811
  371.350    4.579   97.681    0.285    0.482    5.999
  371.600   37.250   96.365    0.272    0.496    6.211
  371.850  -89.662   92.213    0.277    0.457    6.602
  372.100 2412.470   90.283    0.292    0.436    7.104
  372.350 2218.780   87.639    0.296    0.442    7.313
  372.600 2199.980   83.684    0.297    0.455    7.423
  372.850 2194.540   78.518    0.301    0.465    7.430
  373.100 2170.410   78.924    0.316    0.461    7.435
  373.350 2173.660   79.953    0.314    0.456    7.441
  373.600 2199.760   80.221    0.298    0.458    7.460
  373.850 2217.080   81.270    0.288    0.462    7.316
  374.100 2212.240   80.334    0.291    0.457    7.431
  374.350 2225.260   81.080    0.283    0.482    7.509
