~VERSION INFORMATION
 VERS.                 2.0:   CWLS LOG ASCII STANDARD -VERSION 2.0
 WRAP.                  NO:   ONE LINE PER DEPTH STEP
~WELL INFORMATION BLOCK
#MNEM.UNIT           DATA                    DESCRIPTION OF MNEMONIC
#---------    -------------------            -------------------------------
# Generated from Intellog Unique Number	CS_73_76/WELL/1997
WELL.         06-31-076-12W4                 : Well_name    - WELL
LOC .         00/06-31-076-12W4/0            : Location     - LOCATION
UWI .         00/06-31-076-12W4/0            : Uwi          - UNIQUE WELL ID
ENTR.         SP                             : Entered      - ENTERED BY
SRVC.         SCHLUMBERGER                   : Scn          - SERVICE COMPANY
STRT.M        310.896                        : top_depth    - START DEPTH
STOP.M        545.396                        : bot_depth    - STOP DEPTH
STEP.M        0.25                           : increment    - STEP LENGTH
 NULL. -999.2500:NULL Value
~CURVE INFORMATION BLOCK
#MNEM UNIT       ERCB CURVE CODE    CURVE DESCRIPTION
#-----------   ------------------   ----------------------------------
DEPT.M        00 001 00 00         : DEPTH        - DEPTH
GR  .API      00 310 00 00         : GR           - GAMMA RAY
DPHI.V/V      00 890 00 00         : PHID         - DENSITY POROSITY (SANDSTONE)
NPHI.V/V      00 330 00 00         : PHIN         - NEUTRON POROSITY (SANDSTONE)
ILD .OHMM     00 120 00 00         : RESD         - DEEP RESISTIVITY (DIL)
~PARAMETER INFORMATION
#MNEM.UNIT           DATA             DESCRIPTION OF MNEMONIC
#---------         -----------     ------------------------------
GL  .M        698.998              : gl           - GROUND LEVEL ELEVATION
EREF.M        702.564              : kb           - ELEVATION OF DEPTH REFERENCE
DATM.M        698.998              : datum        - DATUM ELEVATION
TDD .M        547.726              : tdd          - TOTAL DEPTH DRILLER
RUN .         ONE                  : Run          - RUN NUMBER
ENG .         BILL                 : Engineer     - RECORDING ENGINEER
WIT .         JIM                  : Witness      - WITNESSED BY
MUD .         GEL                  : Mud_type     - MUD TYPE
MATR.         SANDSTONE            : Logunit      - NEUTRON MATRIX
TMAX.C        23.3333              : BHT          - MAXIMUM RECORDED TEMPERATURE
BHTD.M        547.726              : BHTDEP       - MAXIMUM RECORDED TEMPERATURE
MATR.         1                    : LOGUNIT      - NEUTRON MATRIX
RMT .C        25                   : MDTP         - TEMPERATURE OF MUD
NEUT.         1                    : NEUTRON      - NEUTRON TYPE
RESI.         0                    : RESIST       - RESISTIVITY TYPE
RMC .OHMM     0.25                 : RMC          - RESISTIVITY OF MUD CAKE
RMF .OHMM     0.25                 : RMF          - RESISTIVITY OF MUD FILTRATE
SUFT.C        15                   : SUFT         - SURFACE TEMPERATURE
~A  DEPTH       GR     PHID     PHIN     RESD
# ...
  441.396   72.590    0.337    0.470    5.546
  441.646   69.805    0.330    0.459    5.647
  441.896   69.602    0.322    0.462    5.649
  442.146   72.922    0.319    0.468    5.649
  442.396   67.091    0.318    0.479    5.650
  442.646   63.127    0.319    0.489    5.689
  442.896   69.320    0.318    0.478    5.874
  443.146   69.584    0.310    0.474    6.301
  443.396   64.716    0.267    0.438    7.186
  443.646   61.127    0.207    0.277    8.158
  443.896   63.021    0.122    0.228    9.171
  444.146   64.812    0.087    0.207   10.538
  444.396   59.390    0.088    0.213   11.285
  444.646   56.802    0.078    0.208   11.406
  444.896   58.694    0.067    0.189   10.669
  445.146   62.610    0.093    0.319    8.952
  445.396   65.285    0.241    0.408    8.445
  445.646   67.922    0.265    0.473    7.622
  445.896   69.766    0.306    0.517    6.849
  446.146   69.046    0.331    0.534    6.234
  446.396   63.841    0.334    0.505    5.816
  446.646   63.272    0.333    0.500    5.715
  446.896   66.061    0.326    0.503    5.709
  447.146   68.846    0.319    0.482    5.822
  447.396   69.716    0.311    0.469    5.818
  447.646   67.688    0.302    0.468    5.818
  447.896   69.274    0.309    0.447    5.817
  448.146   70.112    0.292    0.420    5.812
  448.396   63.832    0.273    0.398    5.795
  448.646   67.695    0.255    0.421    5.702
  448.896   71.700    0.298    0.453    5.716
  449.146   67.858    0.312    0.472    5.605
  449.396   63.767    0.316    0.482    5.614
  449.646   64.532    0.327    0.464    5.722
  449.896   65.803    0.332    0.466    5.589
  450.146   67.120    0.328    0.484    5.589
  450.396   69.974    0.321    0.476    5.555
  450.646   68.856    0.312    0.475    5.907
  450.896   66.157    0.316    0.480    5.155
  451.146   67.145    0.324    0.487    5.271
  451.396   70.299    0.319    0.492    5.185
  451.646   71.665    0.316    0.499    5.195
  451.896   68.237    0.327    0.481    5.084
  452.146   68.882    0.338    0.473    5.011
  452.396   70.358    0.344    0.475    4.996
  452.646   67.886    0.343    0.495    4.992
  452.896   68.127    0.330    0.526    4.981
  453.146   71.268    0.322    0.573    5.093
  453.396   71.674    0.318    0.553    5.080
  453.646   68.539    0.313    0.508    5.171
  453.896   66.344    0.318    0.488    5.301
  454.146   69.172    0.318    0.508    5.361
  454.396   72.211    0.317    0.527    5.349
  454.646   73.586    0.324    0.521    5.465
  454.896   74.151    0.322    0.523    5.456
  455.146   72.210    0.326    0.507    5.503
  455.396   71.021    0.331    0.474    5.552
  455.646   71.472    0.321    0.472    5.479
  455.896   73.737    0.331    0.469    5.347
  456.146   77.743    0.331    0.482    5.243
  456.396   80.646    0.320    0.502    5.098
  456.646   83.391    0.306    0.505    4.840
  456.896   86.567    0.289    0.517    4.618
  457.146   88.728    0.279    0.545    4.441
  457.396   90.888    0.266    0.584    4.334
  457.646   85.026    0.266    0.592    4.349
  457.896   81.811    0.281    0.577    4.668
  458.146   77.981    0.289    0.516    4.879
  458.396   77.046    0.291    0.514    5.021
  458.646   78.167    0.279    0.527    5.283
  458.896   79.466    0.289    0.524    5.428
  459.146   81.117    0.291    0.522    5.502
  459.396   79.971    0.292    0.544    5.556
  459.646   76.928    0.293    0.559    5.622
  459.896   74.992    0.267    0.556    5.624
  460.146   73.237    0.271    0.538    5.647
  460.396   76.777    0.275    0.550    5.722
  460.646   79.805    0.276    0.562    5.720
  460.896   80.943    0.273    0.548    5.717
  461.146   79.392    0.276    0.514    5.715
  461.396   78.655    0.256    0.500    5.713
  461.646   79.568    0.242    0.509    5.712
  461.896   86.087    0.240    0.503    5.700
  462.146   91.830    0.245    0.495    5.825
  462.396   94.309    0.240    0.487    5.812
  462.646   94.826    0.230    0.491    5.798
  462.896   93.384    0.236    0.502    5.917
  463.146   92.483    0.213    0.510    6.022
  463.396   93.181    0.203    0.507    6.067
  463.646   95.366    0.209    0.461    6.391
  463.896   96.685    0.194    0.459    6.701
  464.146   96.614    0.188    0.464    6.761
  464.396   97.374    0.204    0.486    6.958
  464.646   98.291    0.196    0.508    7.185
  464.896   99.986    0.200    0.527    7.276
  465.146  101.729    0.210    0.518    7.184
  465.396  106.967    0.196    0.471    6.949
  465.646  108.705    0.197    0.456    6.763
  465.896  108.616    0.189    0.477    6.698
  466.146  108.248    0.202    0.464    6.698
  466.396  107.353    0.210    0.436    6.728
  466.646  107.402    0.210    0.460    6.814
  466.896  105.732    0.210    0.458    6.743
  467.146  103.446    0.211    0.455    6.499
  467.396   99.937    0.201    0.468    6.003
  467.646   97.139    0.194    0.476    5.715
  467.896   97.997    0.222    0.477    5.440
  468.146   93.319    0.216    0.493    5.110
  468.396   90.252    0.209    0.507    4.813
  468.646   91.879    0.209    0.517    4.431
  468.896   93.985    0.202    0.541    3.734
  469.146   95.760    0.216    0.580    3.212
  469.396   97.726    0.251    0.601    2.820
  469.646   98.051    0.279    0.645    2.407
  469.896   99.104    0.290    0.649    2.104
  470.146   99.526    0.275    0.667    2.028
  470.396   99.713    0.274    0.677    1.988
  470.646   97.595    0.261    0.670    1.947
  470.896   94.341    0.258    0.674    1.950
  471.146   97.778    0.257    0.670    2.068
  471.396  101.603    0.261    0.665    2.309
  471.646  104.522    0.246    0.628    2.435
  471.896  103.325    0.231    0.630    2.758
  472.146   97.591    0.224    0.603    3.034
  472.396   93.885    0.220    0.630    3.732
  472.646   96.484    0.205    0.480    4.062
  472.896   98.826    0.182    0.490    4.841
  473.146   96.552    0.171    0.488    5.381
  473.396   91.322    0.177    0.464    6.138
  473.646   88.364    0.164    0.401    6.378
  473.896   93.181    0.151    0.431    6.224
  474.146   99.013    0.114    0.485    5.634
  474.396  103.410    0.182    0.532    4.972
  474.646  104.182    0.175    0.547    4.457
  474.896  102.349    0.189    0.556    4.170
  475.146  105.117    0.194    0.574    3.889
  475.396  107.264    0.190    0.599    3.991
  475.646  106.586    0.177    0.601    4.182
  475.896  102.394    0.172    0.600    5.012
  476.146   95.812    0.162    0.505    5.494
  476.396   91.667    0.151    0.475    5.809
  476.646   91.490    0.136    0.473    5.868
  476.896   94.404    0.119    0.476    5.907
  477.146   98.412    0.123    0.477    6.001
  477.396   99.534    0.163    0.482    6.184
  477.646   97.418    0.177    0.477    6.369
  477.896   97.393    0.186    0.464    6.648
  478.146   98.991    0.183    0.443    7.351
  478.396   98.006    0.195    0.431    8.385
  478.646   93.718    0.174    0.431    9.609
  478.896   88.936    0.157    0.430   10.275
  479.146   84.376    0.163    0.436   10.601
  479.396   82.096    0.165    0.410   10.083
  479.646   80.331    0.140    0.378    9.506
  479.896   86.328    0.120    0.369    8.535
  480.146   89.937    0.109    0.381    7.943
  480.396   94.087    0.151    0.407    7.582
  480.646   93.869    0.179    0.425    7.566
  480.896   86.329    0.176    0.415    8.145
  481.146   84.082    0.163    0.406    9.231
  481.396   77.790    0.174    0.386   10.772
  481.646   72.594    0.168    0.364   12.570
  481.896   75.234    0.187    0.354   14.981
  482.146   78.241    0.223    0.348   16.633
  482.396   80.125    0.239    0.350   17.040
  482.646   81.868    0.217    0.369   16.694
  482.896   78.923    0.203    0.380   16.866
  483.146   76.917    0.180    0.389   17.013
  483.396   77.492    0.166    0.392   17.552
  483.646   79.699    0.165    0.407   18.909
  483.896   81.949    0.186    0.399   20.891
  484.146   81.694    0.205    0.388   22.902
  484.396   85.905    0.236    0.384   24.427
  484.646   90.421    0.256    0.385   24.886
