~VERSION INFORMATION
 VERS.                 2.0:   CWLS LOG ASCII STANDARD -VERSION 2.0
 WRAP.                  NO:   ONE LINE PER DEPTH STEP
~WELL INFORMATION BLOCK
#MNEM.UNIT           DATA                    DESCRIPTION OF MNEMONIC
#---------    -------------------            -------------------------------
# Generated from Intellog Unique Number	CS_73_76/WELL/641
WELL.         BOW VALLEY INDUSTRIES LTD      : Well_name    - WELL
LOC .         00/06-24-073-17W4/0            : Location     - LOCATION
UWI .         00/06-24-073-17W4/0            : Uwi          - UNIQUE WELL ID
ENTR.         SP                             : Entered      - ENTERED BY
SRVC.         SCHLUMBERGER                   : Scn          - SERVICE COMPANY
STRT.M        237.744                        : top_depth    - START DEPTH
STOP.M        426.494                        : bot_depth    - STOP DEPTH
STEP.M        0.25                           : increment    - STEP LENGTH
 NULL. -999.2500:NULL Value
~CURVE INFORMATION BLOCK
#MNEM UNIT       ERCB CURVE CODE    CURVE DESCRIPTION
#-----------   ------------------   ----------------------------------
DEPT.M        00 001 00 00         : DEPTH        - DEPTH
GR  .API      00 310 00 00         : GR           - GAMMA RAY
DPHI.V/V      00 890 00 00         : PHID         - DENSITY POROSITY (SANDSTONE)
NPHI.V/V      00 330 00 00         : PHIN         - NEUTRON POROSITY (SANDSTONE)
ILD .OHMM     00 120 00 00         : RESD         - DEEP RESISTIVITY (DIL)
~PARAMETER INFORMATION
#MNEM.UNIT           DATA             DESCRIPTION OF MNEMONIC
#---------         -----------     ------------------------------
GL  .M        571.988              : gl           - GROUND LEVEL ELEVATION
EREF.M        574.853              : kb           - ELEVATION OF DEPTH REFERENCE
DATM.M        571.988              : datum        - DATUM ELEVATION
TDD .M        427.939              : tdd          - TOTAL DEPTH DRILLER
RUN .         ONE                  : Run          - RUN NUMBER
ENG .         BILL                 : Engineer     - RECORDING ENGINEER
WIT .         JIM                  : Witness      - WITNESSED BY
MUD .         GEL                  : Mud_type     - MUD TYPE
MATR.         SANDSTONE            : Logunit      - NEUTRON MATRIX
TMAX.C        24.4444              : BHT          - MAXIMUM RECORDED TEMPERATURE
BHTD.M        427.939              : BHTDEP       - MAXIMUM RECORDED TEMPERATURE
MATR.         1                    : LOGUNIT      - NEUTRON MATRIX
RMT .C        25                   : MDTP         - TEMPERATURE OF MUD
NEUT.         1                    : NEUTRON      - NEUTRON TYPE
RESI.         0                    : RESIST       - RESISTIVITY TYPE
RMC .OHMM     0.25                 : RMC          - RESISTIVITY OF MUD CAKE
RMF .OHMM     0.25                 : RMF          - RESISTIVITY OF MUD FILTRATE
SUFT.C        15                   : SUFT         - SURFACE TEMPERATURE
~A  DEPTH       GR     PHID     PHIN     RESD
# ...
  368.244   63.952    0.312    0.461    6.209
  368.494   61.310    0.317    0.464    6.208
  368.744   61.031    0.330    0.468    6.208
  368.994   63.903    0.334    0.469    6.211
  369.244   64.853    0.331    0.451    6.108
  369.494   63.365    0.328    0.438    6.105
  369.744   61.829    0.323    0.444    5.972
  369.994   61.920    0.316    0.461    5.990
  370.244   61.930    0.311    0.471    5.854
  370.494   61.942    0.307    0.477    5.864
  370.744   63.105    0.321    0.481    5.748
  370.994   62.849    0.319    0.474    5.726
  371.244   63.748    0.316    0.471    5.651
  371.494   65.199    0.310    0.465    5.658
  371.744   63.585    0.308    0.485    5.516
  371.994   63.149    0.307    0.498    5.442
  372.244   65.138    0.303    0.497    5.432
  372.494   65.500    0.299    0.483    5.552
  372.744   63.429    0.294    0.492    5.542
  372.994   63.729    0.287    0.500    5.540
  373.244   65.779    0.284    0.493    5.536
  373.494   66.978    0.283    0.479    5.436
  373.744   67.376    0.287    0.480    5.473
  373.994   70.500    0.301    0.492    5.539
  374.244   72.506    0.268    0.508    5.472
  374.494   77.738    0.274    0.486    5.438
  374.744   82.306    0.283    0.460    5.439
  374.994   87.237    0.257    0.451    5.279
  375.244   90.819    0.236    0.474    5.126
  375.494   94.231    0.231    0.496    4.888
  375.744   97.467    0.236    0.503    4.725
  375.994   99.907    0.240    0.484    4.679
  376.244   98.389    0.231    0.480    4.595
  376.494   97.720    0.224    0.490    4.598
  376.744   98.811    0.229    0.498    4.598
  376.994  100.911    0.220    0.488    4.588
  377.244  103.241    0.231    0.486    4.691
  377.494  104.737    0.240    0.493    4.681
  377.744  104.417    0.249    0.501    4.681
  377.994  103.354    0.238    0.509    4.680
  378.244  101.317    0.229    0.518    4.679
  378.494  100.071    0.242    0.523    4.669
  378.744   99.047    0.248    0.526    4.769
  378.994  101.318    0.235    0.519    4.840
  379.244   99.475    0.224    0.514    4.882
  379.494   98.254    0.212    0.508    5.042
  379.744   97.284    0.197    0.503    5.208
  379.994   96.318    0.188    0.497    5.255
  380.244   95.351    0.174    0.492    5.319
  380.494   94.320    0.226    0.499    5.251
  380.744   94.066    0.229    0.478    5.203
  380.994   96.456    0.225    0.481    5.036
  381.244   98.803    0.230    0.492    4.897
  381.494  101.035    0.236    0.497    4.658
  381.744  103.060    0.218    0.491    4.608
  381.994  103.881    0.201    0.492    4.409
  382.244  103.912    0.211    0.505    4.322
  382.494  104.032    0.212    0.513    4.255
  382.744  102.813    0.229    0.503    4.282
  382.994  100.805    0.223    0.497    4.420
  383.244   98.306    0.233    0.489    4.766
  383.494   95.666    0.238    0.479    5.107
  383.744   93.243    0.232    0.481    5.603
  383.994   86.289    0.232    0.479    6.220
  384.244   79.977    0.226    0.467    6.693
  384.494   74.836    0.188    0.450    7.494
  384.744   70.897    0.157    0.429    8.130
  384.994   68.561    0.129    0.389    8.767
  385.244   69.014    0.085    0.317    9.021
  385.494   73.212    0.109    0.307    9.119
  385.744   76.808    0.138    0.372    8.339
  385.994   72.891    0.162    0.425    7.132
  386.244   66.235    0.164    0.439    7.947
  386.494   61.005    0.096    0.415    9.240
  386.744   61.887    0.055    0.260   10.081
  386.994   67.178    0.120    0.268   10.381
  387.244   75.279    0.150    0.326   10.314
  387.494   78.632    0.164    0.384   10.024
  387.744   80.914    0.146    0.414    9.515
  387.994   80.784    0.142    0.431    9.088
  388.244   84.420    0.160    0.398    8.799
  388.494   88.871    0.168    0.400    8.518
  388.744   87.975    0.183    0.409    8.101
  388.994   85.644    0.195    0.421    7.972
  389.244   85.148    0.189    0.426    7.794
  389.494   88.256    0.193    0.425    7.658
  389.744   90.190    0.186    0.421    7.496
  389.994   90.538    0.194    0.417    7.512
  390.244   89.903    0.209    0.426    7.602
  390.494   89.941    0.196    0.438    7.646
  390.744   90.495    0.187    0.446    7.649
  390.994   92.679    0.178    0.460    7.662
  391.244   96.433    0.177    0.444    7.495
  391.494   99.991    0.182    0.437    7.503
  391.744   98.247    0.185    0.446    7.440
  391.994   95.440    0.178    0.444    7.365
  392.244   96.498    0.174    0.437    7.472
  392.494   97.436    0.162    0.444    7.499
  392.744   99.082    0.147    0.441    7.502
  392.994   99.681    0.127    0.434    7.748
  393.244   99.593    0.155    0.431    7.779
  393.494   97.949    0.164    0.439    7.774
  393.744   96.643    0.157    0.431    7.935
  393.994  100.263    0.154    0.417    7.922
  394.244  103.641    0.164    0.411    7.921
  394.494  105.515    0.165    0.406    7.934
  394.744  105.801    0.187    0.414    7.763
  394.994  106.448    0.198    0.425    7.770
  395.244  105.796    0.204    0.424    7.709
  395.494  104.478    0.197    0.416    7.624
  395.744  101.011    0.190    0.414    7.376
  395.994   98.486    0.176    0.423    7.363
  396.244   95.082    0.157    0.428    7.214
  396.494   92.847    0.145    0.422    7.125
  396.744   93.268    0.134    0.414    7.059
  396.994   98.530    0.161    0.405    6.827
  397.244  100.971    0.167    0.417    6.430
  397.494  101.626    0.173    0.431    5.922
  397.744  100.122    0.189    0.443    4.896
  397.994   99.312    0.197    0.448    4.186
  398.244   99.325    0.206    0.469    3.671
  398.494   98.333    0.218    0.505    3.140
  398.744   97.514    0.236    0.543    2.838
  398.994   98.248    0.218    0.559    2.508
  399.244  101.003    0.224    0.534    2.368
  399.494  103.848    0.218    0.544    2.184
  399.744  104.866    0.203    0.548    2.167
  399.994   99.750    0.213    0.532    2.189
  400.244   97.789    0.213    0.517    2.266
  400.494   95.449    0.206    0.539    2.406
  400.744   92.510    0.187    0.542    2.731
  400.994   91.050    0.154    0.494    3.266
  401.244   89.078    0.097    0.440    4.036
  401.494   87.627    0.072    0.413    5.086
  401.744   92.180    0.070    0.390    6.134
  401.994   96.211    0.112    0.376    6.733
  402.244   97.826    0.136    0.404    7.045
  402.494   91.243    0.122    0.427    6.799
  402.744   85.662    0.091    0.426    6.795
  402.994   81.609    0.061    0.376    7.014
  403.244   76.332    0.038    0.338    7.709
  403.494   83.163    0.117    0.288    8.284
  403.744   89.438    0.148    0.314    7.221
  403.994   97.543    0.165    0.366    6.362
  404.244  101.050    0.170    0.395    5.436
  404.494  106.074    0.172    0.424    4.649
  404.744  110.345    0.179    0.454    4.087
  404.994  108.786    0.197    0.502    3.639
  405.244  106.224    0.190    0.491    3.363
  405.494  101.305    0.172    0.480    3.629
  405.744   96.481    0.148    0.463    3.988
  405.994   94.427    0.136    0.442    4.511
  406.244   93.841    0.124    0.425    4.987
  406.494   96.733    0.148    0.434    5.623
  406.744   97.996    0.160    0.443    6.058
  406.994   99.122    0.156    0.442    6.066
  407.244   99.700    0.147    0.435    6.068
  407.494  107.418    0.138    0.435    6.078
  407.744  114.642    0.128    0.426    5.944
  407.994  125.704    0.111    0.428    5.954
  408.244  136.368    0.152    0.439    6.027
  408.494  132.075    0.157    0.440    6.170
  408.744  122.590    0.134    0.422    6.412
  408.994  116.530    0.113    0.415    6.688
  409.244  108.623    0.114    0.385    6.933
  409.494  115.953    0.145    0.383    7.149
  409.744  114.791    0.136    0.399    7.380
  409.994  110.379    0.122    0.438    7.430
  410.244  102.545    0.103    0.440    7.207
  410.494   97.937    0.079    0.434    6.598
  410.744  106.481    0.133    0.422    5.901
  410.994  106.825    0.145    0.437    5.581
  411.244  105.790    0.141    0.445    5.166
  411.494  106.196    0.123    0.454    5.029
