~VERSION INFORMATION
 VERS.                 2.0:   CWLS LOG ASCII STANDARD -VERSION 2.0
 WRAP.                  NO:   ONE LINE PER DEPTH STEP
~WELL INFORMATION BLOCK
#MNEM.UNIT           DATA                    DESCRIPTION OF MNEMONIC
#---------    -------------------            -------------------------------
# Generated from Intellog Unique Number	CS_73_76/WELL/2610
WELL.         BOW VALLEY INDUSTRIES LTD      : Well_name    - WELL
LOC .         00/07-30-075-15W4/0            : Location     - LOCATION
UWI .         00/07-30-075-15W4/0            : Uwi          - UNIQUE WELL ID
ENTR.         SP                             : Entered      - ENTERED BY
SRVC.         SCHLUMBERGER                   : Scn          - SERVICE COMPANY
STRT.M        350                            : top_depth    - START DEPTH
STOP.M        565                            : bot_depth    - STOP DEPTH
STEP.M        0.25                           : increment    - STEP LENGTH
 NULL. -999.2500:NULL Value
~CURVE INFORMATION BLOCK
#MNEM UNIT       ERCB CURVE CODE    CURVE DESCRIPTION
#-----------   ------------------   ----------------------------------
DEPT.M        00 001 00 00         : DEPTH        - DEPTH
ILD .OHMM     00 120 00 00         : RESD         - DEEP RESISTIVITY (DIL)
DPHI.V/V      00 890 00 00         : PHID         - DENSITY POROSITY (LIMESTONE)
NPHI.V/V      00 330 00 00         : PHIN         - NEUTRON POROSITY (LIMESTONE)
GR  .API      00 310 00 00         : GR           - GAMMA RAY
~PARAMETER INFORMATION
#MNEM.UNIT           DATA             DESCRIPTION OF MNEMONIC
#---------         -----------     ------------------------------
GL  .M        733.4                : gl           - GROUND LEVEL ELEVATION
EREF.M        736.4                : kb           - ELEVATION OF DEPTH REFERENCE
DATM.M        733.4                : datum        - DATUM ELEVATION
TDD .M        564                  : tdd          - TOTAL DEPTH DRILLER
RUN .         ONE                  : Run          - RUN NUMBER
ENG .         BILL                 : Engineer     - RECORDING ENGINEER
WIT .         JIM                  : Witness      - WITNESSED BY
MUD .         GEL                  : Mud_type     - MUD TYPE
MATR.         LIMESTONE            : Logunit      - NEUTRON MATRIX
TMAX.C        26.6                 : BHT          - MAXIMUM RECORDED TEMPERATURE
BHTD.M        564                  : BHTDEP       - MAXIMUM RECORDED TEMPERATURE
MATR.         1                    : LOGUNIT      - NEUTRON MATRIX
RMT .C        25                   : MDTP         - TEMPERATURE OF MUD
NEUT.         1                    : NEUTRON      - NEUTRON TYPE
RESI.         0                    : RESIST       - RESISTIVITY TYPE
RMC .OHMM     0.25                 : RMC          - RESISTIVITY OF MUD CAKE
RMF .OHMM     0.25                 : RMF          - RESISTIVITY OF MUD FILTRATE
SUFT.C        15                   : SUFT         - SURFACE TEMPERATURE
~A  DEPTH     RESD     PHID     PHIN       GR
# ...
  437.000    8.928    0.372    0.443   39.310
  437.250    8.927    0.375    0.444   40.525
  437.500    8.925    0.374    0.433   40.533
  437.750    8.924    0.370    0.421   40.542
  438.000    8.758    0.369    0.420   41.154
  438.250    8.757    0.369    0.436   42.370
  438.500    8.756    0.374    0.446   43.586
  438.750    8.755    0.376    0.438   44.196
  439.000    8.754    0.377    0.419   44.806
  439.250    8.591    0.376    0.416   45.421
  439.500    8.590    0.376    0.421   45.425
  439.750    8.589    0.375    0.426   43.630
  440.000    8.588    0.375    0.425   42.432
  440.250    8.587    0.376    0.416   43.648
  440.500    8.585    0.383    0.426   46.668
  440.750    8.584    0.385    0.426   49.088
  441.000    8.425    0.385    0.422   50.904
  441.250    8.424    0.388    0.435   52.720
  441.500    8.581    0.389    0.446   54.536
  441.750    8.580    0.387    0.440   55.750
  442.000    8.579    0.384    0.426   56.361
  442.250    8.578    0.377    0.428   54.563
  442.500    8.738    0.377    0.444   53.368
  442.750    8.737    0.382    0.455   53.377
  443.000    8.900    0.387    0.447   55.193
  443.250    9.237    0.383    0.441   57.611
  443.500   10.327    0.380    0.440   59.427
  443.750   11.546    0.378    0.450   61.245
  444.000   12.909    0.378    0.456   60.651
  444.250   13.397    0.267    0.468   58.251
  444.500   13.647    0.196    0.476   56.452
  444.750   13.393    0.091    0.229   54.652
  445.000   12.431    0.198    0.366   63.698
  445.250   11.324    0.289    0.433   82.383
  445.500   10.707    0.340    0.457   86.608
  445.750   10.508    0.324    0.469   87.220
  446.000   10.507    0.317    0.470   80.605
  446.250   10.703    0.315    0.459   77.600
  446.500   10.902    0.319    0.456   74.599
  446.750   10.901    0.315    0.442   73.400
  447.000   11.105    0.318    0.436   74.617
  447.250   11.103    0.315    0.436   75.829
  447.500   11.102    0.312    0.442   77.649
  447.750   10.896    0.313    0.449   78.258
  448.000   10.496    0.312    0.443   78.868
  448.250   10.111    0.308    0.445   78.878
  448.500    9.740    0.307    0.443   80.092
  448.750    9.210    0.308    0.441   82.510
  449.000    8.708    0.315    0.449   83.724
  449.250    8.235    0.324    0.458   81.325
  449.500    7.932    0.330    0.460   79.524
  449.750    7.931    0.333    0.460   79.535
  450.000    7.930    0.326    0.458   79.543
  450.250    8.078    0.313    0.446   81.962
  450.500    8.078    0.311    0.458   83.778
  450.750    7.927    0.319    0.466   84.992
  451.000    7.637    0.325    0.473   85.001
  451.250    7.087    0.326    0.471   86.216
  451.500    6.702    0.323    0.464   89.239
  451.750    6.220    0.321    0.461   91.056
  452.000    5.992    0.304    0.449   92.267
  452.250    5.561    0.262    0.443   93.484
  452.500    5.258    0.248    0.453   93.489
  452.750    5.065    0.247    0.466   92.898
  453.000    4.880    0.245    0.464   91.701
  453.250    4.879    0.241    0.454   92.915
  453.500    4.878    0.241    0.451   95.938
  453.750    4.788    0.247    0.465   95.945
  454.000    4.699    0.250    0.474   95.352
  454.250    4.612    0.241    0.478   95.363
  454.500    4.526    0.233    0.483   95.972
  454.750    4.442    0.225    0.482   94.778
  455.000    4.359    0.219    0.461   93.580
  455.250    4.359    0.219    0.450   91.782
  455.500    4.358    0.227    0.459   91.188
  455.750    4.439    0.235    0.473   94.815
  456.000    4.694    0.236    0.469   97.835
  456.250    4.963    0.224    0.438  100.252
  456.500    5.759    0.220    0.461   94.840
  456.750    6.809    0.245    0.492   84.008
  457.000    7.335    0.276    0.463   79.194
  457.250    7.755    0.296    0.450   67.758
  457.500    7.754    0.313    0.438   56.925
  457.750    8.046    0.322    0.431   50.910
  458.000    8.046    0.327    0.439   50.919
  458.250    8.196    0.334    0.443   55.147
  458.500    8.195    0.339    0.445   56.962
  458.750    8.194    0.326    0.449   58.173
  459.000    8.347    0.319    0.460   59.993
  459.250    8.346    0.316    0.483   61.208
  459.500    8.345    0.318    0.475   61.817
  459.750    8.190    0.326    0.457   62.430
  460.000    7.460    0.331    0.452   62.436
  460.250    6.924    0.330    0.447   67.268
  460.500    6.192    0.323    0.445   71.493
  460.750    4.770    0.320    0.447   76.321
  461.000    3.476    0.319    0.449   82.355
  461.250    2.728    0.308    0.438   90.194
  461.500    2.350    0.268    0.424  102.251
  461.750    2.102    0.254    0.470  109.491
  462.000    1.879    0.251    0.521  113.717
  462.250    1.744    0.254    0.542  116.134
  462.500    1.744    0.250    0.549  110.722
  462.750    1.810    0.250    0.551  108.321
  463.000    2.023    0.269    0.556  111.343
  463.250    2.776    0.290    0.575  108.943
  463.500    3.671    0.277    0.614  104.733
  463.750    5.426    0.256    0.581   98.115
  464.000    7.041    0.262    0.564   87.284
  464.250    9.308    0.308    0.558   81.870
  464.500   11.005    0.335    0.549   78.865
  464.750   12.304    0.344    0.512   79.479
  465.000   13.009    0.350    0.468   80.691
  465.250   13.501    0.353    0.448   81.303
  465.500   12.299    0.351    0.440   79.504
  465.750   10.794    0.351    0.462   77.103
  466.000   10.018    0.345    0.478   75.307
  466.250    9.473    0.327    0.491   74.713
  466.500    8.957    0.298    0.459   73.516
  466.750    8.470    0.284    0.423   69.311
  467.000    7.861    0.304    0.448   66.907
  467.250    7.433    0.327    0.477   65.711
  467.500    7.028    0.340    0.454   72.349
  467.750    6.898    0.321    0.436   78.382
  468.000    7.158    0.308    0.460   82.006
  468.250    6.896    0.309    0.477   82.616
  468.500    7.156    0.316    0.460   79.011
  468.750    8.001    0.320    0.435   78.418
  469.000    8.781    0.314    0.438   79.029
  469.250    9.459    0.316    0.447   76.028
  469.500    9.816    0.321    0.466   73.027
  469.750    9.456    0.242    0.483   72.430
  470.000    8.776    0.192    0.385   74.850
  470.250    8.145    0.241    0.331   77.267
  470.500    7.420    0.270    0.397   76.071
  470.750    7.016    0.292    0.442   77.285
  471.000    6.634    0.316    0.464   83.926
  471.250    6.273    0.293    0.456   85.740
  471.500    6.043    0.268    0.450   87.554
  471.750    5.821    0.249    0.449   89.371
  472.000    5.713    0.241    0.453   90.585
  472.250    5.607    0.236    0.437   89.993
  472.500    5.401    0.234    0.427   88.796
  472.750    5.301    0.236    0.420   87.599
  473.000    5.203    0.237    0.420   87.007
  473.250    5.202    0.247    0.430   87.619
  473.500    5.399    0.252    0.438   88.831
  473.750    5.499    0.261    0.460   90.046
  474.000    5.602    0.279    0.455   87.043
  474.250    5.601    0.264    0.438   84.043
  474.500    5.706    0.248    0.425   82.242
  474.750    5.705    0.232    0.420   80.442
  475.000    5.704    0.221    0.419   81.058
  475.250    5.811    0.224    0.417   81.666
  475.500    5.810    0.238    0.423   82.277
  475.750    6.030    0.249    0.434   82.889
  476.000    6.258    0.249    0.452   79.885
  476.250    6.257    0.270    0.463   71.464
  476.500    6.256    0.294    0.452   67.858
  476.750    6.255    0.302    0.437   64.855
  477.000    6.025    0.311    0.427   63.657
  477.250    6.025    0.340    0.421   64.875
  477.500    5.913    0.352    0.408   64.880
  477.750    5.803    0.353    0.401   63.685
  478.000    5.802    0.352    0.416   61.283
  478.250    5.802    0.353    0.432   61.295
  478.500    5.694    0.358    0.424   61.906
  478.750    5.693    0.361    0.418   63.121
  479.000    5.693    0.362    0.439   63.731
  479.250    5.692    0.358    0.452   61.931
  479.500    5.586    0.355    0.449   60.737
  479.750    5.585    0.355    0.445   62.555
  480.000    5.584    0.356    0.435   64.974
  480.250    5.584    0.358    0.421   66.788
