~VERSION INFORMATION
 VERS.                 2.0:   CWLS LOG ASCII STANDARD -VERSION 2.0
 WRAP.                  NO:   ONE LINE PER DEPTH STEP
~WELL INFORMATION BLOCK
#MNEM.UNIT           DATA                    DESCRIPTION OF MNEMONIC
#---------    -------------------            -------------------------------
# Generated from Intellog Unique Number	CW_82_90/WELL/693
WELL.         08-34-083-24W4                 : Well_name    - WELL
LOC .         00/08-34-083-24W4/0            : Location     - LOCATION
UWI .         00/08-34-083-24W4/0            : Uwi          - UNIQUE WELL ID
ENTR.         JAYE                           : Entered      - ENTERED BY
SRVC.         SCHLUMBERGER                   : Scn          - SERVICE COMPANY
DATE.         01 MAR 86                      : Date         - LOG DATE
STRT.M        180                            : top_depth    - START DEPTH
STOP.M        395                            : bot_depth    - STOP DEPTH
STEP.M        0.25                           : increment    - STEP LENGTH
 NULL. -999.2500:NULL Value
~CURVE INFORMATION BLOCK
#MNEM UNIT       ERCB CURVE CODE    CURVE DESCRIPTION
#-----------   ------------------   ----------------------------------
DEPT.M        00 001 00 00         : DEPTH        - DEPTH
CALI.MM       00 280 01 00         : CAL          - CALIPER
GR  .API      00 310 00 00         : GR           - GAMMA RAY
NPHI.V/V      00 330 00 00         : PHIN         - NEUTRON POROSITY (SANDSTONE)
DPHI.V/V      00 890 00 00         : PHID         - DENSITY POROSITY (SANDSTONE)
ILD .OHMM     00 120 00 00         : RESD         - DEEP RESISTIVITY (DIL)
~PARAMETER INFORMATION
#MNEM.UNIT           DATA             DESCRIPTION OF MNEMONIC
#---------         -----------     ------------------------------
GL  .M        564.16               : gl           - GROUND LEVEL ELEVATION
EREF.M        567.76               : kb           - ELEVATION OF DEPTH REFERENCE
DATM.M        564.16               : datum        - DATUM ELEVATION
TDD .M        398                  : tdd          - TOTAL DEPTH DRILLER
RUN .         ONE                  : Run          - RUN NUMBER
ENG .         MILROSS              : Engineer     - RECORDING ENGINEER
WIT .         DZIUBA               : Witness      - WITNESSED BY
BASE.         SL                   : Branch       - HOME BASE OF LOGGING UNIT
MUD .         GEL CHEM             : Mud_type     - MUD TYPE
MATR.         SANDSTONE            : Logunit      - NEUTRON MATRIX
TMAX.C        21                   : BHT          - MAXIMUM RECORDED TEMPERATURE
BHTD.M        398                  : BHTDEP       - MAXIMUM RECORDED TEMPERATURE
RMT .C        18                   : MDTP         - TEMPERATURE OF MUD
MUDD.KG/M     1130                 : MWT          - MUD DENSITY
NEUT.         1                    : NEUTRON      - NEUTRON TYPE
RESI.         0                    : RESIST       - RESISTIVITY TYPE
RM  .OHMM     4.99                 : RM           - RESISTIVITY OF MUD
RMC .OHMM     0                    : RMC          - RESISTIVITY OF MUD CAKE
RMF .OHMM     4.75                 : RMF          - RESISTIVITY OF MUD FILTRATE
SUFT.C        0                    : SUFT         - SURFACE TEMPERATURE
~A  DEPTH      CAL       GR     PHIN     PHID     RESD
# ...
  362.500  272.615   87.034    0.398    0.148   17.012
  362.750  272.474   88.201    0.391    0.146   16.488
  363.000  271.440   88.675    0.384    0.164   15.776
  363.250  271.055   88.840    0.384    0.165   15.377
  363.500  271.273   89.064    0.406    0.164   15.104
  363.750  271.606   88.354    0.430    0.166   15.115
  364.000  270.739   87.279    0.417    0.156   15.441
  364.250  269.661   85.252    0.395    0.136   15.802
  364.500  270.042   76.063    0.364    0.109   16.326
  364.750  270.625   73.485    0.372    0.126   16.996
  365.000  270.843   70.156    0.395    0.120   17.458
  365.250  270.968   72.751    0.365    0.095   17.767
  365.500  270.520   79.466    0.348    0.127   17.812
  365.750  270.275   83.997    0.378    0.144   17.662
  366.000  269.827   85.780    0.404    0.154   17.606
  366.250  268.538   85.204    0.435    0.171   17.520
  366.500  266.427   83.675    0.438    0.175   16.921
  366.750  263.377   75.672    0.417    0.149   16.493
  367.000  261.785   74.841    0.364    0.097   16.169
  367.250  262.369   76.873    0.396    0.116   15.882
  367.500  264.930   83.586    0.403    0.133   15.626
  367.750  267.910   87.181    0.389    0.127   15.176
  368.000  271.523   90.213    0.391    0.136   14.685
  368.250  270.748   90.565    0.406    0.153   14.263
  368.500  269.557   89.549    0.421    0.157   14.084
  368.750  267.135   86.405    0.431    0.146   13.963
  369.000  265.436   77.400    0.412    0.057   14.698
  369.250  264.782   86.981    0.352    0.029   15.559
  369.500  264.954   96.438    0.307    0.051   16.348
  369.750  264.395  106.020    0.325    0.121   16.514
  370.000  263.941  108.616    0.353    0.146   16.371
  370.250  263.384  108.657    0.392    0.167   15.142
  370.500  262.860  105.887    0.404    0.164   13.341
  370.750  262.378   98.694    0.403    0.154   12.228
  371.000  261.548   99.233    0.399    0.143   11.633
  371.250  261.372  101.833    0.401    0.145   11.274
  371.500  262.058  101.185    0.389    0.128   10.829
  371.750  262.551  102.908    0.376    0.094   10.575
  372.000  261.988  106.565    0.368    0.112   10.194
  372.250  261.988  110.665    0.387    0.142    9.698
  372.500  261.198  111.694    0.420    0.154    9.158
  372.750  259.932  100.758    0.419    0.147    8.877
  373.000  259.352   99.175    0.403    0.125    8.621
  373.250  259.002  105.765    0.345    0.046    9.093
  373.500  258.967  106.869    0.338    0.138    9.697
  373.750  258.754  101.103    0.360    0.154   10.439
  374.000  259.099   73.518    0.364    0.162   11.601
  374.250  259.588   66.136    0.382    0.173   13.261
  374.500  261.242   64.180    0.382    0.220   14.710
  374.750  261.173   82.741    0.333    0.188   16.319
  375.000  260.629  100.990    0.405    0.151   17.081
  375.250  258.848   99.721    0.416    0.127   16.779
  375.500  258.152   91.278    0.406    0.143   15.754
  375.750  256.687   66.748    0.407    0.199   14.573
  376.000  255.319   63.799    0.409    0.224   14.206
  376.250  255.031   64.709    0.401    0.250   14.402
  376.500  254.293   62.380    0.381    0.256   15.739
  376.750  253.612   58.113    0.290    0.243   19.720
  377.000  254.195   55.908    0.288    0.098   22.290
  377.250  253.455   51.962    0.309    0.034   24.176
  377.500  253.294   50.879    0.327    0.016   25.117
  377.750  252.740   54.281    0.348    0.060   25.328
  378.000  251.987   62.993    0.377    0.112   25.110
  378.250  251.987   75.751    0.384    0.165   24.428
  378.500  252.147   82.649    0.385    0.164   24.913
  378.750  252.174   81.131    0.383    0.160   25.785
  379.000  252.658   76.495    0.368    0.207   26.738
  379.250  252.742   73.105    0.362    0.226   27.674
  379.500  254.399   70.782    0.375    0.243   28.429
  379.750  254.523   68.888    0.377    0.246   29.095
  380.000  255.111   67.364    0.368    0.238   29.115
  380.250  255.489   66.277    0.359    0.223   27.700
  380.500  255.775   75.609    0.367    0.204   23.640
  380.750  255.730   81.264    0.393    0.184   18.063
  381.000  256.005   81.305    0.406    0.164   14.711
  381.250  255.347   75.791    0.392    0.096   12.276
  381.500  254.892   76.893    0.353    0.154   10.695
  381.750  254.549   87.721    0.332    0.172    9.601
  382.000  254.862   93.123    0.406    0.167    8.848
  382.250  254.989   89.544    0.470    0.155    8.513
  382.500  255.064   77.049    0.430    0.146    8.567
  382.750  254.807   81.268    0.385    0.156    8.752
  383.000  253.757   92.470    0.367    0.172    8.974
  383.250  253.489   87.458    0.451    0.172    9.289
  383.500  253.558   79.081    0.462    0.177    9.577
  383.750  253.983   92.404    0.422    0.184    9.820
  384.000  254.109   96.370    0.387    0.190    9.976
  384.250  254.132  103.587    0.410    0.182    9.835
  384.500  254.139  107.613    0.399    0.168    9.551
  384.750  254.102  106.279    0.403    0.147    9.104
  385.000  253.985   98.399    0.423    0.141    8.710
  385.250  254.260   90.084    0.417    0.147    8.364
  385.500  254.655   86.952    0.419    0.153    8.062
  385.750  254.784   85.551    0.437    0.173    7.656
  386.000  254.958   84.215    0.432    0.198    7.366
  386.250  255.649   85.503    0.464    0.241    7.127
  386.500  255.649   83.741    0.511    0.225    7.000
  386.750  255.716   86.335    0.557    0.108    6.939
  387.000  256.056   92.420    0.524    0.095    7.116
  387.250  256.751   99.008    0.458    0.145    7.365
  387.500  256.219  104.536    0.451    0.163    7.652
  387.750  255.949  107.007    0.459    0.178    8.025
  388.000  254.993  105.553    0.455    0.191    8.384
  388.250  254.993  101.972    0.469    0.179    8.776
  388.500  254.916   83.680    0.464    0.175    9.134
  388.750  254.972   85.900    0.410    0.188    9.562
  389.000  254.829   88.370    0.393    0.179    9.989
  389.250  254.689   84.112    0.392    0.170   10.456
  389.500  254.756   82.028    0.390    0.185   10.783
  389.750  254.821   91.359    0.399    0.199   10.871
  390.000  253.877   93.642    0.414    0.193   11.002
  390.250  250.182   93.620    0.412    0.197   11.218
  390.500  246.096   91.539    0.431    0.214   11.546
  390.750  245.333   83.535    0.464    0.223   12.039
  391.000  248.098   77.965    0.495    0.174   12.865
  391.250  252.322   80.685    0.475    0.155   14.568
  391.500  251.971   90.014    0.444    0.172   16.282
  391.750  252.038   92.986    0.390    0.205   27.580
  392.000  252.312   95.397    0.392    0.174   54.886
  392.250  252.277   93.877    0.403    0.142  102.103
  392.500  252.984   91.553    0.403    0.017  127.456
  392.750  252.721   88.970    0.382    0.024  139.018
  393.000  252.895   86.393    0.343    0.015  129.804
  393.250  252.341   85.686    0.246    0.040   95.184
  393.500  252.508   86.351    0.062    0.138   61.912
  393.750  252.164   87.819    0.062    0.200   48.295
  394.000  251.917   92.157    0.062    0.214   41.371
  394.250  251.703   92.766    0.060    0.215   37.846
  394.500  251.851   92.302    0.060    0.214   36.276
  394.750  251.496   90.794    0.061    0.210   36.642
  395.000  251.251   89.158    0.062    0.204   40.190
