~VERSION INFORMATION
 VERS.                 2.0:   CWLS LOG ASCII STANDARD -VERSION 2.0
 WRAP.                  NO:   ONE LINE PER DEPTH STEP
~WELL INFORMATION BLOCK
#MNEM.UNIT           DATA                    DESCRIPTION OF MNEMONIC
#---------    -------------------            -------------------------------
# Generated from Intellog Unique Number	CN_91_93/WELL/3193
WELL.         PARAMOUNT RESOURCES LTD.       : Well_name    - WELL
LOC .         00/06-02-092-19W4/0            : Location     - LOCATION
UWI .         00/06-02-092-19W4/0            : Uwi          - UNIQUE WELL ID
ENTR.         JOETTE                         : Entered      - ENTERED BY
SRVC.         COMPUTALOG                     : Scn          - SERVICE COMPANY
DATE.         04/14/92                       : Date         - LOG DATE
STRT.M        100                            : top_depth    - START DEPTH
STOP.M        267                            : bot_depth    - STOP DEPTH
STEP.M        0.25                           : increment    - STEP LENGTH
 NULL. -999.2500:NULL Value
~CURVE INFORMATION BLOCK
#MNEM UNIT       ERCB CURVE CODE    CURVE DESCRIPTION
#-----------   ------------------   ----------------------------------
DEPT.M        00 001 00 00         : DEPTH        - DEPTH
CALI.MM       00 280 01 00         : CAL          - CALIPER
GR  .API      00 310 00 00         : GR           - GAMMA RAY
NPHI.V/V      00 330 00 00         : PHIN         - NEUTRON POROSITY (SANDSTONE)
DPHI.V/V      00 890 00 00         : PHID         - DENSITY POROSITY (SANDSTONE)
ILD .OHMM     00 120 00 00         : RESD         - DEEP RESISTIVITY (DIL)
~PARAMETER INFORMATION
#MNEM.UNIT           DATA             DESCRIPTION OF MNEMONIC
#---------         -----------     ------------------------------
GL  .M        527.02               : gl           - GROUND LEVEL ELEVATION
EREF.M        530.82               : kb           - ELEVATION OF DEPTH REFERENCE
DATM.M        530.82               : datum        - DATUM ELEVATION
TDD .M        267.5                : tdd          - TOTAL DEPTH DRILLER
RUN .         ONE                  : Run          - RUN NUMBER
ENG .         JO                   : Engineer     - RECORDING ENGINEER
WIT .         TIM                  : Witness      - WITNESSED BY
MUD .         GEL                  : Mud_type     - MUD TYPE
MATR.         SANDSTONE            : Logunit      - NEUTRON MATRIX
TMAX.C        22                   : BHT          - MAXIMUM RECORDED TEMPERATURE
BHTD.M        267.5                : BHTDEP       - MAXIMUM RECORDED TEMPERATURE
RMT .C        11.1                 : MDTP         - TEMPERATURE OF MUD
MUDD.KG/M     1130                 : MWT          - MUD DENSITY
NEUT.         1                    : NEUTRON      - NEUTRON TYPE
RESI.         0                    : RESIST       - RESISTIVITY TYPE
RM  .OHMM     1.8                  : RM           - RESISTIVITY OF MUD
RMC .OHMM     1.8                  : RMC          - RESISTIVITY OF MUD CAKE
RMF .OHMM     5                    : RMF          - RESISTIVITY OF MUD FILTRATE
SUFT.C        4                    : SUFT         - SURFACE TEMPERATURE
~A  DEPTH      CAL       GR     PHIN     PHID     RESD
# ...
  246.000  216.651   79.690    0.383    0.200   15.322
  246.250  214.640   86.509    0.359    0.188   11.004
  246.500  214.687   92.093    0.409    0.186    7.750
  246.750  215.775   94.591    0.450    0.191    6.255
  247.000  218.921   95.854    0.468    0.194    5.456
  247.250  221.002  104.525    0.461    0.196    5.146
  247.500  222.078  110.726    0.444    0.195    5.045
  247.750  224.183  117.545    0.492    0.164    5.244
  248.000  217.040   92.263    0.562    0.170    6.368
  248.250  212.971   87.353    0.577    0.187    7.733
  248.500  210.961   81.825    0.609    0.201    8.860
  248.750  209.979   71.366    0.494    0.203   11.407
  249.000  207.968   75.091    0.407    0.196   18.190
  249.250  203.900   78.206    0.453    0.187   21.665
  249.500  204.976   68.357    0.446    0.258   26.828
  249.750  211.196   58.508    0.427    0.303   35.219
  250.000  213.301   47.425    0.198    0.346   48.068
  250.250  199.973   43.125    0.213    0.336   55.066
  250.500  196.934   44.395    0.224    0.332   63.082
  250.750  202.125   43.806    0.217    0.342   75.128
  251.000  201.155   43.834    0.191    0.359   81.191
  251.250  196.058   39.541    0.175    0.362   87.737
  251.500  193.007   38.952    0.174    0.357   96.667
  251.750  193.054   41.464    0.242    0.348  104.469
  252.000  197.217   42.102    0.269    0.332  104.439
  252.250  205.506   46.445    0.287    0.324  102.397
  252.500  214.813   60.054    0.307    0.318   98.460
  252.750  209.704   61.317    0.313    0.317   87.586
  253.000  203.578   56.407    0.321    0.309   81.004
  253.250  201.568   44.713    0.343    0.298   79.420
  253.500  197.523   48.445    0.360    0.299   89.223
  253.750  199.604   50.318    0.371    0.306   87.479
  254.000  207.882   49.729    0.378    0.292   79.346
  254.250  206.901   45.444    0.358    0.281   74.831
  254.500  201.803   45.479    0.377    0.262   67.874
  254.750  198.764   43.648    0.418    0.246   61.555
  255.000  198.811   45.521    0.458    0.230   56.934
  255.250  202.986   53.582    0.482    0.258   50.646
  255.500  209.206   61.635    0.463    0.245   43.336
  255.750  216.455   69.689    0.359    0.227   37.078
  256.000  221.658   78.360    0.341    0.200   27.683
  256.250  226.838   87.648    0.415    0.173   24.151
  256.500  234.087  100.654    0.422    0.216   19.492
  256.750  236.192   98.830    0.381    0.221   21.477
  257.000  235.210   94.530    0.366    0.222   28.748
  257.250  224.969   83.440    0.428    0.243   35.599
  257.500  215.756   62.479    0.559    0.285   41.583
  257.750  217.861   48.309    0.516    0.303   52.504
  258.000  223.064   46.485    0.486    0.317   57.848
  258.250  223.100   53.304    0.465    0.314   57.831
  258.500  221.101   59.505    0.455    0.303   52.459
  258.750  220.119   68.176    0.441    0.293   44.019
  259.000  219.126   76.854    0.547    0.299   31.003
  259.250  219.173   80.593    0.542    0.308   28.119
  259.500  218.203   69.503    0.524    0.299   33.493
  259.750  220.308   51.622    0.490    0.292   43.968
  260.000  223.453   46.094    0.471    0.284   46.598
  260.250  226.575   46.129    0.438    0.284   44.803
  260.500  223.536   44.916    0.394    0.274   43.081
  260.750  221.537   45.576    0.436    0.259   42.238
  261.000  222.601   44.355    0.454    0.303   44.764
  261.250  225.735   38.828    0.458    0.315   45.631
  261.500  226.811   30.831    0.442    0.318   43.876
  261.750  224.824   29.631    0.413    0.302   41.374
  262.000  222.802   29.653    0.386    0.285   36.809
  262.250  224.906   29.681    0.380    0.254   31.494
  262.500  225.971   29.709    0.361    0.218   20.923
  262.750  227.047   29.127    0.368    0.239   14.450
  263.000  226.077   27.921    0.377    0.276   14.170
  263.250  226.136   27.949    0.496    0.324   14.166
  263.500  224.101   30.447    0.518    0.309   15.308
  263.750  222.091   32.327    0.484    0.261   19.328
  264.000  222.138   32.980    0.463    0.212   22.577
  264.250  223.226   33.008    0.455    0.114   25.862
  264.500  223.261   33.654    0.504    0.159   29.056
  264.750  223.308   35.534    0.414    0.207   29.621
  265.000  222.338   36.172    0.411    0.239   29.610
  265.250  220.328   35.590    0.415    0.234   31.383
  265.500  219.346   33.149    0.421    0.230   35.259
  265.750  219.405   31.943    0.426    0.232   41.995
  266.000  219.452   32.589    0.441    0.284   48.109
  266.250  219.499   32.610    0.457    0.291   61.938
  266.500  219.558   30.793    0.476    0.291  288.007
  266.750  219.582   30.822    0.484    0.299  450.371
  267.000  219.641   31.460    0.492    0.306  496.317
