~VERSION INFORMATION
 VERS.                 2.0:   CWLS LOG ASCII STANDARD -VERSION 2.0
 WRAP.                  NO:   ONE LINE PER DEPTH STEP
~WELL INFORMATION BLOCK
#MNEM.UNIT           DATA                    DESCRIPTION OF MNEMONIC
#---------    -------------------            -------------------------------
# Generated from Intellog Unique Number	CS_69_70/WELL/770
NULL.         -999.25                        : NULL_VALUE
WELL.         ET AL TWEEDIE                  : Well_name    - WELL              
LOC .         00/06-11-070-13W4/0            : Location     - LOCATION          
UWI .         00/06-11-070-13W4/0            : Uwi          - UNIQUE WELL ID    
ENTR.         SP                             : Entered      - ENTERED BY        
SRVC.         SCHLUMBERGER                   : Scn          - SERVICE COMPANY   
STRT.M        265                            : top_depth    - START DEPTH       
STOP.M        500                            : bot_depth    - STOP DEPTH        
STEP.M        0.25                           : increment    - STEP LENGTH       
~CURVE INFORMATION BLOCK
#MNEM UNIT       ERCB CURVE CODE    CURVE DESCRIPTION
#-----------   ------------------   ----------------------------------
DEPT.M        00 001 00 00         : DEPTH        - DEPTH                       
ILD .OHMM     00 120 00 00         : RESD         - DEEP RESISTIVITY (DIL)      
DPHI.V/V      00 890 00 00         : PHID         - DENSITY POROSITY (LIMESTONE)
NPHI.V/V      00 330 00 00         : PHIN         - NEUTRON POROSITY (LIMESTONE)
GR  .API      00 310 00 00         : GR           - GAMMA RAY                   
~PARAMETER INFORMATION       
#MNEM.UNIT           DATA             DESCRIPTION OF MNEMONIC
#---------         -----------     ------------------------------
GL  .M        579.7                : gl           - GROUND LEVEL ELEVATION      
EREF.M        583.3                : kb           - ELEVATION OF DEPTH REFERENCE
DATM.M        579.7                : datum        - DATUM ELEVATION             
TDD .M        511                  : tdd          - TOTAL DEPTH DRILLER         
RUN .         ONE                  : Run          - RUN NUMBER                  
ENG .         BILL                 : Engineer     - RECORDING ENGINEER          
WIT .         JIM                  : Witness      - WITNESSED BY                
MUD .         GEL                  : Mud_type     - MUD TYPE                    
MATR.         LIMESTONE            : Logunit      - NEUTRON MATRIX              
TMAX.C        26                   : BHT          - MAXIMUM RECORDED TEMPERATURE
BHTD.M        511                  : BHTDEP       - MAXIMUM RECORDED TEMPERATURE
MATR.         1                    : LOGUNIT      - NEUTRON MATRIX              
RMT .C        25                   : MDTP         - TEMPERATURE OF MUD          
NEUT.         1                    : NEUTRON      - NEUTRON TYPE                
RESI.         0                    : RESIST       - RESISTIVITY TYPE            
RMC .OHMM     0.25                 : RMC          - RESISTIVITY OF MUD CAKE     
RMF .OHMM     0.25                 : RMF          - RESISTIVITY OF MUD FILTRATE 
SUFT.C        15                   : SUFT         - SURFACE TEMPERATURE         
~A  DEPTH     RESD     PHID     PHIN       GR
# ...
  308.500    4.416    0.268    0.458   94.680
  308.750    4.256    0.262    0.481   95.176
  309.000    4.193    0.267    0.444   95.733
  309.250    4.163    0.258    0.414   96.290
  309.500    3.923    0.246    0.394   96.242
  309.750    3.703    0.238    0.418   94.015
  310.000    3.589    0.248    0.434   95.660
  310.250    3.458    0.258    0.406   97.669
  310.500    3.370    0.265    0.389   97.741
  310.750    3.327    0.273    0.395   92.006
  311.000    3.346    0.280    0.393   79.069
  311.250    3.416    0.296    0.387   73.030
  311.500    3.559    0.322    0.381   68.505
  311.750    3.654    0.349    0.374   66.641
  312.000    3.793    0.331    0.375   72.401
  312.250    3.930    0.303    0.386   81.066
  312.500    4.057    0.277    0.394   87.310
  312.750    4.228    0.272    0.390   92.707
  313.000    4.405    0.277    0.384   90.299
  313.250    4.430    0.274    0.377   87.892
  313.500    4.439    0.264    0.371   91.352
  313.750    4.465    0.263    0.368   93.663
  314.000    4.433    0.281    0.369   88.231
  314.250    4.311    0.301    0.392   84.250
  314.500    4.201    0.314    0.413   84.020
  314.750    4.186    0.315    0.426   86.815
  315.000    4.250    0.296    0.460   90.639
  315.250    4.355    0.261    0.450   93.496
  315.500    4.437    0.250    0.439   95.080
  315.750    4.471    0.248    0.422   96.120
  316.000    4.489    0.260    0.441   92.503
  316.250    4.523    0.285    0.464   87.734
  316.500    4.541    0.304    0.446   83.571
  316.750    4.550    0.302    0.425   81.042
  317.000    4.559    0.297    0.430   81.721
  317.250    4.568    0.291    0.444   84.697
  317.500    4.569    0.290    0.449   89.430
  317.750    4.570    0.292    0.429   92.587
  318.000    4.495    0.271    0.407   95.140
  318.250    4.372    0.249    0.394   96.967
  318.500    4.260    0.239    0.408  100.185
  318.750    4.245    0.237    0.403  104.676
  319.000    4.374    0.241    0.391  103.599
  319.250    4.507    0.254    0.386   99.739
  319.500    4.601    0.264    0.390   95.031
  319.750    4.636    0.268    0.413   89.719
  320.000    4.680    0.278    0.425   84.890
  320.250    4.638    0.272    0.411   88.230
  320.500    4.527    0.258    0.419   93.810
  320.750    4.478    0.246    0.424   96.180
  321.000    4.487    0.245    0.433   94.559
  321.250    4.598    0.257    0.445   88.944
  321.500    4.357    0.269    0.424   85.386
  321.750    4.531    0.276    0.388   82.676
  322.000    4.748    0.281    0.368   84.684
  322.250    4.883    0.286    0.362   86.753
  322.500    4.994    0.291    0.359   83.498
  322.750    5.051    0.296    0.363   80.969
  323.000    5.090    0.299    0.371   77.774
  323.250    5.091    0.292    0.377   76.819
  323.500    5.073    0.286    0.380   80.763
  323.750    5.055    0.279    0.384   84.164
  324.000    5.056    0.275    0.385   86.173
  324.250    5.114    0.277    0.376   84.006
  324.500    5.172    0.284    0.364   76.637
  324.750    5.280    0.273    0.358   74.470
  325.000    5.370    0.243    0.355   85.072
  325.250    5.553    0.228    0.353   94.222
  325.500    5.830    0.224    0.354   97.802
  325.750    5.985    0.219    0.356   99.447
  326.000    6.190    0.221    0.362   98.189
  326.250    6.284    0.225    0.370   97.051
  326.500    6.285    0.228    0.374   96.519
  326.750    6.239    0.228    0.374   96.350
  327.000    6.115    0.228    0.378   96.120
  327.250    5.958    0.229    0.379   96.253
  327.500    5.709    0.231    0.373   99.048
  327.750    5.491    0.225    0.370  103.416
  328.000    5.232    0.221    0.370  103.549
  328.250    5.014    0.243    0.372   91.037
  328.500    4.876    0.272    0.378   79.613
  328.750    4.743    0.295    0.384   71.154
  329.000    4.579    0.323    0.394   65.540
  329.250    4.453    0.340    0.395   63.313
  329.500    4.291    0.332    0.387   63.990
  329.750    4.229    0.334    0.386   64.123
  330.000    4.167    0.341    0.387   61.836
  330.250    4.183    0.329    0.384   60.335
  330.500    4.286    0.316    0.377   66.823
  330.750    4.576    0.296    0.369   71.070
  331.000    4.858    0.273    0.367   74.107
  331.250    5.014    0.253    0.366   78.536
  331.500    5.235    0.244    0.370   81.755
  331.750    5.334    0.260    0.375   82.433
  332.000    5.355    0.280    0.379   77.241
  332.250    5.336    0.298    0.384   74.832
  332.500    5.337    0.294    0.393   75.571
  332.750    5.269    0.283    0.408   76.914
  333.000    5.240    0.280    0.424   78.441
  333.250    5.164    0.280    0.399   80.328
  333.500    5.097    0.298    0.374   82.216
  333.750    4.912    0.296    0.377   83.740
  334.000    4.760    0.300    0.387   82.663
  334.250    4.708    0.305    0.386   79.952
  334.500    4.708    0.308    0.384   80.387
  334.750    4.843    0.313    0.393   83.424
  335.000    4.953    0.306    0.384   87.431
  335.250    5.113    0.294    0.374   90.288
  335.500    5.249    0.285    0.371   92.538
  335.750    5.348    0.276    0.378   94.001
  336.000    5.420    0.273    0.381   90.686
  336.250    5.420    0.282    0.380   83.317
  336.500    5.391    0.289    0.387   76.794
  336.750    5.322    0.279    0.374   71.843
  337.000    5.157    0.276    0.368   65.504
  337.250    5.016    0.280    0.364   60.855
  337.500    4.824    0.308    0.363   54.032
  337.750    4.597    0.323    0.369   49.141
  338.000    4.389    0.332    0.377   42.739
  338.250    4.174    0.336    0.379   40.332
  338.500    4.030    0.335    0.373   47.062
  338.750    3.934    0.334    0.367   52.399
  339.000    3.898    0.336    0.373   56.342
  339.250    3.870    0.327    0.388   58.350
  339.500    3.871    0.320    0.399   59.695
  339.750    3.879    0.314    0.385   59.887
  340.000    3.879    0.309    0.382   61.049
  340.250    3.880    0.311    0.388   63.605
  340.500    3.881    0.320    0.397   64.825
  340.750    3.860    0.324    0.407   63.869
  341.000    3.839    0.325    0.414   57.951
  341.250    3.797    0.330    0.404   50.763
  341.500    3.776    0.334    0.394   48.415
  341.750    3.728    0.338    0.385   52.542
  342.000    3.729    0.333    0.379   56.426
  342.250    3.729    0.326    0.392   62.368
  342.500    3.758    0.324    0.405   69.096
  342.750    3.829    0.308    0.419   77.397
  343.000    3.931    0.290    0.420   88.543
  343.250    4.096    0.263    0.428   96.240
  343.500    4.292    0.252    0.451   98.370
  343.750    4.349    0.246    0.490   98.806
  344.000    4.507    0.247    0.464   95.126
  344.250    4.490    0.268    0.430   77.169
  344.500    4.644    0.292    0.398   70.887
  344.750    4.767    0.313    0.386   65.151
  345.000    4.876    0.329    0.383   63.408
  345.250    4.959    0.323    0.387   68.626
  345.500    5.082    0.316    0.381   70.996
  345.750    5.130    0.313    0.378   68.224
  346.000    5.169    0.319    0.383   64.486
  346.250    5.160    0.328    0.389   63.287
  346.500    5.142    0.334    0.385   66.627
  346.750    5.039    0.333    0.385   68.879
  347.000    4.965    0.336    0.402   69.798
  347.250    4.947    0.331    0.406   69.326
  347.500    4.930    0.322    0.404   67.281
  347.750    4.940    0.311    0.397   67.595
  348.000    4.959    0.300    0.385   70.876
  348.250    4.970    0.292    0.381   71.794
  348.500    4.970    0.322    0.392   71.383
  348.750    4.971    0.337    0.421   68.977
  349.000    4.972    0.347    0.429   68.987
  349.250    4.973    0.342    0.411   68.999
  349.500    4.918    0.333    0.402   68.406
  349.750    4.855    0.320    0.396   68.843
  350.000    4.767    0.313    0.389   71.032
  350.250    4.697    0.305    0.382   76.732
  350.500    4.602    0.303    0.374   81.221
  350.750    4.485    0.306    0.369   85.291
  351.000    4.338    0.295    0.369   87.056
  351.250    4.172    0.290    0.380   88.216
  351.500    3.924    0.287    0.414   88.954
  351.750    3.824    0.298    0.433   84.549
