~VERSION INFORMATION
 VERS.                 2.0:   CWLS LOG ASCII STANDARD -VERSION 2.0
 WRAP.                  NO:   ONE LINE PER DEPTH STEP
~WELL INFORMATION BLOCK
#MNEM.UNIT           DATA                    DESCRIPTION OF MNEMONIC
#---------    -------------------            -------------------------------
# Generated from Intellog Unique Number	CW_76_78/WELL/620
WELL.         PACIFIC MARTENCK 07-16         : Well_name    - WELL
LOC .         00/07-16-077-04W5/0            : Location     - LOCATION
UWI .         00/07-16-077-04W5/0            : Uwi          - UNIQUE WELL ID
ENTR.         JAYE                           : Entered      - ENTERED BY
SRVC.         SCHLUMBERGER                   : Scn          - SERVICE COMPANY
DATE.         14 FEB 78                      : Date         - LOG DATE
STRT.M        405.384                        : top_depth    - START DEPTH
STOP.M        637.134                        : bot_depth    - STOP DEPTH
STEP.M        0.25                           : increment    - STEP LENGTH
 NULL. -999.2500:NULL Value
~CURVE INFORMATION BLOCK
#MNEM UNIT       ERCB CURVE CODE    CURVE DESCRIPTION
#-----------   ------------------   ----------------------------------
DEPT.M        00 001 00 00         : DEPTH        - DEPTH
ILD .OHMM     00 120 00 00         : RESD         - DEEP RESISTIVITY (DIL)
DPHI.V/V      00 890 00 00         : PHID         - DENSITY POROSITY (SANDSTONE)
NPHI.V/V      00 330 00 00         : PHIN         - NEUTRON POROSITY (SANDSTONE)
GR  .API      00 310 00 00         : GR           - GAMMA RAY
CALI.MM       00 280 01 00         : CAL          - CALIPER
~PARAMETER INFORMATION
#MNEM.UNIT           DATA             DESCRIPTION OF MNEMONIC
#---------         -----------     ------------------------------
GL  .M        690.982              : gl           - GROUND LEVEL ELEVATION
EREF.M        694.334              : kb           - ELEVATION OF DEPTH REFERENCE
DATM.M        690.982              : datum        - DATUM ELEVATION
TDD .M        648.614              : tdd          - TOTAL DEPTH DRILLER
RUN .         ONE                  : Run          - RUN NUMBER
ENG .         DALV                 : Engineer     - RECORDING ENGINEER
WIT .         MEZEL                : Witness      - WITNESSED BY
BASE.         EDM                  : Branch       - HOME BASE OF LOGGING UNIT
MUD .         GEL CHEM             : Mud_type     - MUD TYPE
MATR.         SANDSTONE            : Logunit      - NEUTRON MATRIX
TMAX.C        0                    : BHT          - MAXIMUM RECORDED TEMPERATURE
BHTD.M        648                  : BHTDEP       - MAXIMUM RECORDED TEMPERATURE
RMT .C        14.4444              : MDTP         - TEMPERATURE OF MUD
MUDD.KG/M     1116                 : MWT          - MUD DENSITY
NEUT.         1                    : NEUTRON      - NEUTRON TYPE
RESI.         0                    : RESIST       - RESISTIVITY TYPE
RM  .OHMM     3.94                 : RM           - RESISTIVITY OF MUD
RMC .OHMM     0                    : RMC          - RESISTIVITY OF MUD CAKE
RMF .OHMM     0                    : RMF          - RESISTIVITY OF MUD FILTRATE
SUFT.C        -17                  : SUFT         - SURFACE TEMPERATURE
~A  DEPTH     RESD     PHID     PHIN       GR      CAL
# ...
  587.884    5.414    0.142    0.436   96.280  163.818
  588.134    5.401    0.163    0.428   98.332  163.721
  588.384    5.379    0.172    0.441  100.944  163.624
  588.634    5.368    0.166    0.451   99.521  163.947
  588.884    5.346    0.157    0.458   99.091  164.061
  589.134    5.354    0.150    0.468  100.027  163.858
  589.384    5.372    0.145    0.431   99.969  164.077
  589.634    5.401    0.138    0.413   99.975  164.609
  589.884    5.440    0.149    0.418  102.896  165.143
  590.134    5.469    0.155    0.426  105.756  165.676
  590.384    5.518    0.159    0.425  105.574  165.895
  590.634    5.579    0.174    0.426  106.013  166.112
  590.884    5.629    0.165    0.433  107.260  166.331
  591.134    5.713    0.136    0.439  108.753  165.919
  591.384    5.775    0.138    0.435  109.254  164.455
  591.634    5.883    0.147    0.401  110.004  163.833
  591.884    6.014    0.144    0.389  116.898  163.000
  592.134    6.196    0.125    0.402  117.150  162.693
  592.384    6.589    0.131    0.408  111.135  162.700
  592.634    7.886    0.154    0.396  107.789  163.339
  592.884    9.246    0.175    0.382  104.193  164.187
  593.134   10.363    0.189    0.383  101.840  164.301
  593.384   11.442    0.196    0.390   95.762  163.993
  593.634   12.516    0.173    0.389   95.023  162.950
  593.884   13.385    0.164    0.380   93.848  162.118
  594.134   14.262    0.153    0.372   90.811  161.705
  594.384   15.777    0.153    0.357   86.348  161.818
  594.634   17.984    0.106    0.246   80.022  162.036
  594.884   20.308    0.065    0.219   73.138  162.149
  595.134   21.883    0.039    0.179   67.805  162.263
  595.384   21.958    0.064    0.188   76.374  162.481
  595.634   21.745    0.099    0.223   83.020  162.699
  595.884   21.255    0.135    0.346   90.907  162.917
  596.134   18.951    0.136    0.363   92.897  163.135
  596.384   17.575    0.147    0.374   92.343  163.353
  596.634   16.954    0.157    0.363   91.045  163.361
  596.884   16.478    0.150    0.345   89.250  163.579
  597.134   16.167    0.145    0.342   88.820  163.378
  597.384   15.625    0.166    0.350   90.066  163.176
  597.634   15.017    0.175    0.376   97.084  162.868
  597.884   14.486    0.184    0.382   99.385  162.350
  598.134   14.080    0.175    0.374  101.127  161.939
  598.384   13.557    0.167    0.370  103.677  161.736
  598.634   12.931    0.163    0.375  104.798  161.639
  598.884   12.405    0.165    0.373  104.493  161.962
  599.134   11.766    0.158    0.380  102.822  162.600
  599.384   11.245    0.154    0.387  102.640  163.974
  599.634   10.706    0.153    0.390  102.831  164.823
  599.884   10.136    0.142    0.386  101.905  165.252
  600.134    9.705    0.115    0.380  102.779  165.679
  600.384    9.240    0.117    0.361  104.521  166.003
  600.634    8.964    0.119    0.354  107.939  166.326
  600.884    8.502    0.114    0.360  110.985  166.439
  601.134    7.900    0.123    0.379  115.272  166.447
  601.384    7.231    0.134    0.388  118.318  166.455
  601.634    6.387    0.145    0.396  119.625  166.779
  601.884    5.684    0.153    0.407  124.099  167.101
  602.134    5.242    0.160    0.434  123.979  167.109
  602.384    5.172    0.169    0.461  116.971  166.487
  602.634    5.298    0.170    0.444  111.762  164.919
  602.884    5.478    0.161    0.421  107.485  163.666
  603.134    5.675    0.150    0.402  107.489  162.833
  603.384    5.867    0.153    0.391  109.542  162.526
  603.634    6.090    0.166    0.385  106.630  162.534
  603.884    6.320    0.175    0.397  105.021  162.647
  604.134    6.523    0.167    0.405  104.343  162.444
  604.384    6.619    0.166    0.394  102.672  162.032
  604.634    6.617    0.172    0.389  100.319  161.830
  604.884    6.652    0.154    0.393  101.006  161.627
  605.134    6.776    0.131    0.388  101.321  161.321
  605.384    6.967    0.132    0.385   98.098  161.223
  605.634    7.493    0.154    0.382   93.200  161.546
  605.884    8.670    0.142    0.375   88.550  161.764
  606.134   10.495    0.138    0.342   75.770  162.088
  606.384   12.350    0.149    0.270   59.018  162.096
  606.634   15.725    0.166    0.292   29.977  160.947
  606.884   18.715    0.195    0.353   30.975  159.169
  607.134   19.941    0.277    0.367   32.283  158.021
  607.384   18.286    0.287    0.380   33.343  156.663
  607.634   16.832    0.277    0.386   33.969  156.040
  607.884   15.436    0.268    0.379   33.787  155.733
  608.134   13.814    0.267    0.373   33.419  155.425
  608.384   12.597    0.265    0.365   33.300  155.223
  608.634   11.423    0.284    0.361   33.428  155.231
  608.884    9.737    0.278    0.363   34.426  155.344
  609.134    8.191    0.273    0.370   36.541  155.037
  609.384    7.568    0.281    0.376   39.028  154.624
  609.634    6.206    0.262    0.387   42.167  154.315
  609.884    5.825    0.268    0.380   44.836  152.681
  610.134    5.603    0.262    0.362   47.689  151.257
  610.384    5.420    0.251    0.365   50.480  150.562
  610.634    5.423    0.275    0.368   52.039  150.394
  610.884    5.519    0.266    0.361   52.737  150.325
  611.134    5.596    0.255    0.365   51.035  150.051
  611.384    5.599    0.270    0.379   46.009  149.771
  611.634    5.498    0.256    0.389   45.107  149.702
  611.884    5.389    0.253    0.378   46.543  149.736
  612.134    5.262    0.287    0.367   46.811  150.709
  612.384    5.157    0.291    0.373   44.923  152.417
  612.634    5.122    0.277    0.383   42.543  153.492
  612.884    5.154    0.274    0.382   41.765  154.674
  613.134    5.216    0.282    0.373   43.017  155.234
  613.384    5.220    0.280    0.373   45.685  155.373
  613.634    5.223    0.273    0.375   46.507  155.613
  613.884    5.285    0.271    0.369   45.361  155.441
  614.134    5.328    0.266    0.364   46.240  155.372
  614.384    5.372    0.266    0.366   48.109  155.098
  614.634    5.436    0.267    0.377   51.024  155.027
  614.884    5.522    0.237    0.390   53.753  154.854
  615.134    5.705    0.250    0.401   57.038  154.577
  615.384    5.984    0.260    0.402   59.889  153.993
  615.634    6.158    0.249    0.386   63.481  153.606
  615.884    6.267    0.234    0.376   65.966  153.122
  616.134    6.342    0.240    0.382   67.032  152.741
  616.384    6.382    0.232    0.383   66.624  152.678
  616.634    6.619    0.220    0.382   66.397  152.709
  616.884    6.954    0.219    0.378   64.694  152.853
  617.134    7.717    0.211    0.366   60.776  153.094
  617.384    8.079    0.180    0.331   56.919  153.548
  617.634    8.191    0.161    0.261   55.155  153.996
  617.884    8.089    0.170    0.304   58.624  154.659
  618.134    7.479    0.231    0.355   62.522  155.424
  618.384    6.915    0.226    0.361   65.745  156.297
  618.634    6.601    0.222    0.354   69.089  156.961
  618.884    6.374    0.199    0.366   73.113  157.511
  619.134    6.154    0.176    0.377   78.612  158.280
  619.384    6.054    0.177    0.377   82.881  158.840
  619.634    6.116    0.168    0.359   85.487  159.495
  619.884    6.247    0.165    0.358   85.262  159.844
  620.134    6.274    0.177    0.368   86.268  159.883
  620.384    6.069    0.145    0.359   89.059  159.917
  620.634    5.805    0.157    0.365   95.051  159.852
  620.884    5.218    0.183    0.412  100.673  159.680
  621.134    4.543    0.168    0.439  111.836  159.714
  621.384    3.955    0.171    0.459  119.121  159.745
  621.634    3.528    0.182    0.481  123.143  159.786
  621.884    3.306    0.185    0.463  119.410  159.923
  622.134    3.573    0.172    0.472  107.982  162.670
  622.384    4.047    0.186    0.486   99.448  164.792
  622.634    4.408    0.201    0.457   84.941  164.513
  622.884    4.956    0.195    0.421   74.373  161.628
  623.134    5.459    0.199    0.414   76.858  158.746
  623.384    5.390    0.200    0.408   86.296  158.996
  623.634    5.204    0.178    0.416   98.444  159.863
  623.884    4.894    0.157    0.434  109.914  161.043
  624.134    4.585    0.155    0.449  117.138  162.226
