~VERSION INFORMATION
 VERS.                 2.0:   CWLS LOG ASCII STANDARD -VERSION 2.0
 WRAP.                  NO:   ONE LINE PER DEPTH STEP
~WELL INFORMATION BLOCK
#MNEM.UNIT           DATA                    DESCRIPTION OF MNEMONIC
#---------    -------------------            -------------------------------
# Generated from Intellog Unique Number	CN_94_101/WELL/2773
WELL.         PARAMOUNT LTD.                 : Well_name    - WELL
LOC .         00/04-23-094-21W4/0            : Location     - LOCATION
UWI .         00/04-23-094-21W4/0            : Uwi          - UNIQUE WELL ID
ENTR.         JOETTE                         : Entered      - ENTERED BY
SRVC.         COMPUTALOG                     : Scn          - SERVICE COMPANY
DATE.         07/03/92                       : Date         - LOG DATE
STRT.M        175                            : top_depth    - START DEPTH
STOP.M        350                            : bot_depth    - STOP DEPTH
STEP.M        0.25                           : increment    - STEP LENGTH
 NULL. -999.2500:NULL Value
~CURVE INFORMATION BLOCK
#MNEM UNIT       ERCB CURVE CODE    CURVE DESCRIPTION
#-----------   ------------------   ----------------------------------
DEPT.M        00 001 00 00         : DEPTH        - DEPTH
CALI.MM       00 280 01 00         : CAL          - CALIPER
GR  .API      00 310 00 00         : GR           - GAMMA RAY
NPHI.V/V      00 330 00 00         : PHIN         - NEUTRON POROSITY (SANDSTONE)
DPHI.V/V      00 890 00 00         : PHID         - DENSITY POROSITY (SANDSTONE)
ILD .OHMM     00 120 00 00         : RESD         - DEEP RESISTIVITY (DIL)
~PARAMETER INFORMATION
#MNEM.UNIT           DATA             DESCRIPTION OF MNEMONIC
#---------         -----------     ------------------------------
GL  .M        662.1                : gl           - GROUND LEVEL ELEVATION
EREF.M        665.5                : kb           - ELEVATION OF DEPTH REFERENCE
DATM.M        665.5                : datum        - DATUM ELEVATION
TDD .M        354.5                : tdd          - TOTAL DEPTH DRILLER
RUN .         ONE                  : Run          - RUN NUMBER
ENG .         JO                   : Engineer     - RECORDING ENGINEER
WIT .         TIM                  : Witness      - WITNESSED BY
MUD .         GEL                  : Mud_type     - MUD TYPE
MATR.         SANDSTONE            : Logunit      - NEUTRON MATRIX
TMAX.C        25                   : BHT          - MAXIMUM RECORDED TEMPERATURE
BHTD.M        354.5                : BHTDEP       - MAXIMUM RECORDED TEMPERATURE
RMT .C        7.8                  : MDTP         - TEMPERATURE OF MUD
MUDD.KG/M     1050                 : MWT          - MUD DENSITY
NEUT.         1                    : NEUTRON      - NEUTRON TYPE
RESI.         0                    : RESIST       - RESISTIVITY TYPE
RM  .OHMM     3.2                  : RM           - RESISTIVITY OF MUD
RMC .OHMM     3.2                  : RMC          - RESISTIVITY OF MUD CAKE
RMF .OHMM     3.2                  : RMF          - RESISTIVITY OF MUD FILTRATE
SUFT.C        4                    : SUFT         - SURFACE TEMPERATURE
~A  DEPTH      CAL       GR     PHIN     PHID     RESD
# ...
  284.500  163.885  117.437    0.476    0.186    4.211
  284.750  164.909  118.643    0.477    0.199    4.632
  285.000  166.911  118.065    0.475    0.219    5.294
  285.250  169.900  107.426    0.446    0.233    5.825
  285.500  166.978   97.383    0.435    0.245    6.408
  285.750  164.042   90.299    0.420    0.256    7.466
  286.000  162.099   92.093    0.393    0.262    8.214
  286.250  162.136   92.707    0.387    0.270    9.036
  286.500  162.166   93.908    0.377    0.274    9.941
  286.750  160.215   95.706    0.378    0.279   10.524
  287.000  157.294   91.581    0.383    0.282   10.929
  287.250  156.330   86.268    0.389    0.289   11.137
  287.500  156.374   80.368    0.384    0.267   11.791
  287.750  156.389   77.427    0.338    0.179   12.971
  288.000  156.419   67.384    0.311    0.149   13.999
  288.250  156.456   67.994    0.279    0.068   14.263
  288.500  156.479   77.481    0.268    0.020   13.459
  288.750  158.481   84.013    0.278    0.101   12.459
  289.000  160.484   85.214    0.289    0.195   10.683
  289.250  163.480   87.599    0.310    0.210    9.159
  289.500  166.476   92.347    0.336    0.243    7.703
  289.750  168.464  100.059    0.377    0.252    6.479
  290.000  169.487  109.554    0.391    0.242    5.555
  290.250  170.511  107.201    0.406    0.241    4.761
  290.500  169.554  102.484    0.412    0.249    4.851
  290.750  169.577   98.359    0.404    0.243    5.235
  291.000  170.600   94.826    0.396    0.238    5.334
  291.250  170.623   96.032    0.384    0.238    5.230
  291.500  170.660   99.597    0.389    0.242    5.129
  291.750  171.684  105.532    0.403    0.245    4.933
  292.000  171.699  109.101    0.413    0.253    4.838
  292.250  171.736  110.894    0.422    0.258    4.928
  292.500  170.779  109.137    0.430    0.259    5.318
  292.750  169.823  104.425    0.423    0.259    5.740
  293.000  169.852  101.479    0.411    0.260    6.315
  293.250  165.937   96.763    0.409    0.266    7.081
  293.500  163.000   89.679    0.418    0.281    9.996
  293.750  159.092   79.636    0.419    0.297   10.382
  294.000  157.142   79.062    0.409    0.310   10.579
  294.250  156.185   74.346    0.399    0.314   10.779
  294.500  155.236   67.262    0.383    0.297    9.420
  294.750  156.252   74.381    0.352    0.242    7.480
  295.000  158.262   86.827    0.351    0.183    6.054
  295.250  159.271   97.502    0.378    0.187    4.807
  295.500  160.287   98.112    0.404    0.231    4.043
  295.750  162.297   99.313    0.409    0.260    3.400
  296.000  163.306  100.524    0.423    0.263    3.813
  296.250  164.322   98.170    0.435    0.261    4.276
  296.500  165.338   96.408    0.431    0.253    5.079
  296.750  167.348   93.471    0.432    0.246    5.696
  297.000  168.357   91.709    0.430    0.243    6.510
  297.250  172.347   91.731    0.421    0.240    7.162
  297.500  173.348   93.520    0.409    0.238    7.440
  297.750  175.358   94.722    0.401    0.263    7.875
  298.000  173.408   93.561    0.391    0.259    7.873
  298.250  170.486   90.619    0.380    0.248    7.869
  298.500  166.563   88.270    0.377    0.233    8.017
  298.750  162.647   88.884    0.380    0.218    8.012
  299.000  158.739   90.077    0.384    0.204    8.164
  299.250  158.776   90.095    0.395    0.184    8.319
  299.500  160.771   87.750    0.395    0.213    8.315
  299.750  165.740   87.171    0.392    0.228    8.151
  300.000  168.729   89.565    0.394    0.245    7.993
  300.250  170.732   92.538    0.399    0.245    7.839
  300.500  172.727   93.748    0.403    0.244    7.539
  300.750  174.744   93.165    0.400    0.251    7.535
  301.000  172.786   90.820    0.391    0.274    7.533
  301.250  167.884   87.879    0.379    0.297    7.973
  301.500  162.997   84.342    0.367    0.271    8.283
  301.750  161.047   79.625    0.356    0.244    8.602
  302.000  159.104   79.056    0.355    0.271    9.106
  302.250  159.134   79.661    0.364    0.293    9.102
  302.500  159.156   77.312    0.377    0.306    9.274
  302.750  158.207   75.559    0.382    0.298    9.269
  303.000  158.244   78.531    0.391    0.293    9.090
  303.250  158.267   78.553    0.399    0.314    8.743
  303.500  158.297   76.204    0.398    0.330    8.092
  303.750  158.341   75.630    0.392    0.315    7.350
  304.000  158.364   78.603    0.389    0.292    6.423
  304.250  159.372   83.355    0.391    0.286    5.199
  304.500  160.396   90.479    0.398    0.278    4.128
  304.750  161.412   95.828    0.447    0.273    3.472
  305.000  162.421   98.208    0.470    0.274    3.537
  305.250  169.363   94.680    0.481    0.277    3.967
  305.500  172.351   90.551    0.450    0.280    4.534
  305.750  170.416   83.467    0.431    0.285    5.284
  306.000  167.479   77.567    0.389    0.299    6.277
  306.250  165.529   73.442    0.380    0.303    9.565
  306.500  161.613   71.684    0.368    0.299   10.325
  306.750  160.664   70.519    0.361    0.284   11.803
  307.000  160.687   68.169    0.351    0.227   13.492
  307.250  161.710   65.228    0.322    0.174   15.720
  307.500  161.733   59.920    0.321    0.133   16.967
  307.750  163.750   54.611    0.316    0.118   15.406
  308.000  163.765   53.450    0.308    0.118   13.210
  308.250  164.803   61.157    0.311    0.137    7.718
  308.500  165.812   75.378    0.318    0.163    5.058
  308.750  165.834   86.049    0.347    0.239    4.773
  309.000  167.837   89.030    0.386    0.268    4.770
  309.250  170.833   90.231    0.402    0.264    5.049
  309.500  168.890   90.850    0.406    0.261    5.244
  309.750  164.975   90.859    0.408    0.259    5.345
  310.000  164.011   90.881    0.401    0.265    5.658
  310.250  162.068   91.496    0.397    0.270    5.990
  310.500  162.113   92.101    0.386    0.270    6.222
  310.750  163.114   92.119    0.377    0.267    6.845
  311.000  165.124   90.357    0.383    0.259    7.529
  311.250  165.146   85.053    0.392    0.252    8.444
  311.500  164.189   83.291    0.399    0.241    9.290
  311.750  161.268   83.905    0.399    0.224   10.220
  312.000  159.317   87.474    0.397    0.220   10.614
  312.250  157.389   90.446    0.389    0.224   10.207
  312.500  157.404   94.015    0.382    0.218    9.821
  312.750  165.340   95.216    0.371    0.202    8.917
  313.000  169.315   95.239    0.350    0.181    8.579
  313.250  171.310   95.848    0.339    0.203    8.250
  313.500  176.272   97.054    0.360    0.231    8.248
  313.750  179.268   97.659    0.381    0.234    8.244
  314.000  180.284   98.269    0.374    0.230    8.083
  314.250  182.294   98.879    0.368    0.224    7.926
  314.500  182.309   98.305    0.367    0.224    7.478
  314.750  182.346   96.547    0.377    0.231    6.791
  315.000  182.368   98.345    0.389    0.235    5.935
  315.250  182.406  101.914    0.396    0.235    5.709
  315.500  182.435  103.115    0.399    0.235    5.706
  315.750  181.486  103.129    0.393    0.243    5.927
  316.000  180.515  100.784    0.389    0.247    6.520
  316.250  178.572   98.435    0.394    0.243    7.311
  316.500  174.656   96.681    0.404    0.234    7.891
  316.750  176.681   95.507    0.406    0.232    8.515
  317.000  178.669   94.937    0.383    0.231    9.014
  317.250  180.671   94.364    0.380    0.227    9.364
  317.500  178.736   96.753    0.374    0.223    9.725
  317.750  173.827   99.134    0.368    0.222   10.101
  318.000  166.952  105.070    0.365    0.217   10.291
  318.250  168.954  106.867    0.361    0.213   10.287
  318.500  174.910  103.926    0.363    0.213   10.479
  318.750  173.946  101.577    0.363    0.217   10.676
  319.000  169.059  101.595    0.364    0.216   10.880
  319.250  168.095  102.796    0.359    0.207   10.875
  319.500  168.125  102.810    0.353    0.212   11.079
  319.750  170.127  100.460    0.356    0.217   11.288
  320.000  170.157   98.111    0.350    0.222   11.722
  320.250  168.207   98.133    0.354    0.230   12.176
  320.500  166.271   98.151    0.373    0.235   12.648
  320.750  165.315   95.797    0.385    0.238   13.648
