~VERSION INFORMATION
 VERS.                 2.0:   CWLS LOG ASCII STANDARD -VERSION 2.0
 WRAP.                  NO:   ONE LINE PER DEPTH STEP
~WELL INFORMATION BLOCK
#MNEM.UNIT           DATA                    DESCRIPTION OF MNEMONIC
#---------    -------------------            -------------------------------
# Generated from Intellog Unique Number	CW_73_75/WELL/693
WELL.         CDN SUP ET AL FRANCIS 07-05    : Well_name    - WELL
LOC .         00/07-05-074-20W4/0            : Location     - LOCATION
UWI .         00/07-05-074-20W4/0            : Uwi          - UNIQUE WELL ID
ENTR.         JAYE                           : Entered      - ENTERED BY
SRVC.         SCHLUMBERGER                   : Scn          - SERVICE COMPANY
DATE.         15 MAR 76                      : Date         - LOG DATE
STRT.M        393.192                        : top_depth    - START DEPTH
STOP.M        609.692                        : bot_depth    - STOP DEPTH
STEP.M        0.25                           : increment    - STEP LENGTH
 NULL. -999.2500:NULL Value
~CURVE INFORMATION BLOCK
#MNEM UNIT       ERCB CURVE CODE    CURVE DESCRIPTION
#-----------   ------------------   ----------------------------------
DEPT.M        00 001 00 00         : DEPTH        - DEPTH
DPHI.V/V      00 890 00 00         : PHID         - DENSITY POROSITY (SANDSTONE)
NPHI.V/V      00 330 00 00         : PHIN         - NEUTRON POROSITY (SANDSTONE)
GR  .API      00 310 00 00         : GR           - GAMMA RAY
CALI.IN       00 280 01 00         : CAL          - CALIPER
ILD .OHMM     00 120 00 00         : RESD         - DEEP RESISTIVITY (DIL)
~PARAMETER INFORMATION
#MNEM.UNIT           DATA             DESCRIPTION OF MNEMONIC
#---------         -----------     ------------------------------
GL  .M        705.612              : gl           - GROUND LEVEL ELEVATION
EREF.M        708.965              : kb           - ELEVATION OF DEPTH REFERENCE
DATM.M        705.612              : datum        - DATUM ELEVATION
TDD .M        682.752              : tdd          - TOTAL DEPTH DRILLER
RUN .         ONE                  : Run          - RUN NUMBER
BASE.         EDMONTON             : Branch       - HOME BASE OF LOGGING UNIT
MATR.         SANDSTONE            : Logunit      - NEUTRON MATRIX
TMAX.C        28.8889              : BHT          - MAXIMUM RECORDED TEMPERATURE
BHTD.M        682.752              : BHTDEP       - MAXIMUM RECORDED TEMPERATURE
RMT .C        -16.45               : MDTP         - TEMPERATURE OF MUD
MUDD.KG/M     0                    : MWT          - MUD DENSITY
NEUT.         1                    : NEUTRON      - NEUTRON TYPE
RESI.         0                    : RESIST       - RESISTIVITY TYPE
RM  .OHMM     5.48                 : RM           - RESISTIVITY OF MUD
RMC .OHMM     4                    : RMC          - RESISTIVITY OF MUD CAKE
RMF .OHMM     2.86                 : RMF          - RESISTIVITY OF MUD FILTRATE
SUFT.C        -17.7778             : SUFT         - SURFACE TEMPERATURE
~A  DEPTH     PHID     PHIN       GR      CAL     RESD
# ...
  502.692    0.266    0.453   80.857    7.755    5.045
  502.942    0.282    0.456   81.413    7.747    5.083
  503.192    0.276    0.462   83.456    7.743    5.112
  503.442    0.282    0.464   79.427    7.747    5.123
  503.692    0.266    0.461   76.824    7.747    5.143
  503.942    0.253    0.459   76.079    7.759    5.144
  504.192    0.239    0.468   81.839    7.771    5.145
  504.442    0.255    0.471   88.963    7.788    5.016
  504.692    0.261    0.456   90.386    7.854    4.715
  504.942    0.233    0.445   92.925    7.994    4.128
  505.192    0.200    0.460   95.711    8.324    3.633
  505.442    0.219    0.474   96.206    9.051    3.245
  505.692    0.239    0.507   94.469    9.303    3.039
  505.942    0.237    0.539   94.406    9.385    3.159
  506.192    0.257    0.520   98.865    9.327    3.399
  506.442    0.249    0.505   96.075    9.356    3.724
  506.692    0.264    0.488   93.967    9.422    4.248
  506.942    0.273    0.469   92.665    9.096    4.776
  507.192    0.196    0.452   87.892    7.869    5.253
  507.442    0.153    0.425   89.192    8.055    5.351
  507.692    0.118    0.412   93.528    8.228    5.160
  507.942    0.206    0.434   99.226    8.542    4.842
  508.192    0.197    0.447  104.739    8.670    4.420
  508.442    0.200    0.448  103.994    8.633    3.869
  508.692    0.204    0.445  103.682    8.604    3.450
  508.942    0.196    0.447  103.371    8.624    2.960
  509.192    0.173    0.437  102.192    8.711    2.467
  509.442    0.191    0.444   98.659    8.843    1.939
  509.692    0.206    0.457   98.162    9.012    1.627
  509.942    0.201    0.471  100.825    9.128    1.412
  510.192    0.191    0.483  103.549    9.214    1.457
  510.442    0.189    0.463  103.733    9.272    1.629
  510.692    0.192    0.462  100.820    9.177    1.888
  510.942    0.204    0.459   96.853    9.082    2.439
  511.192    0.204    0.444   94.373    8.611    4.908
  511.442    0.197    0.421   93.318    8.061    5.871
  511.692    0.196    0.412   96.848    8.181    6.329
  511.942    0.199    0.419   98.396    8.280    6.388
  512.192    0.226    0.427   96.907    8.301    6.413
  512.442    0.225    0.434   94.613    8.296    6.367
  512.692    0.220    0.434   92.753    8.247    6.299
  512.942    0.214    0.426   93.495    8.238    6.266
  513.192    0.199    0.421   95.910    8.238    6.279
  513.442    0.199    0.426   98.820    8.230    6.303
  513.692    0.203    0.420  101.917    8.238    6.340
  513.942    0.185    0.427  103.402    8.259    6.411
  514.192    0.207    0.426  101.170    8.172    6.435
  514.442    0.186    0.413  100.611    8.134    6.425
  514.692    0.183    0.409   97.325    8.221    6.450
  514.942    0.219    0.421   96.147    8.266    6.416
  515.192    0.213    0.436   98.314    8.279    6.370
  515.442    0.215    0.439   98.126    8.225    6.326
  515.692    0.238    0.426   97.815    7.899    6.281
  515.942    0.239    0.414   98.929    8.146    6.203
  516.192    0.218    0.418   99.671    8.303    6.125
  516.442    0.199    0.429  100.350    8.241    6.026
  516.692    0.205    0.435  101.154    8.212    5.919
  516.942    0.218    0.440  100.781    8.257    5.771
  517.192    0.201    0.444   98.983    8.377    5.667
  517.442    0.206    0.447   96.379    8.389    5.597
  517.692    0.231    0.461   96.006    8.269    5.567
  517.942    0.214    0.473   98.173    8.327    5.578
  518.192    0.207    0.465   98.791    8.443    5.672
  518.442    0.186    0.438   95.691    8.434    6.026
  518.692    0.196    0.438   90.361    8.149    6.555
  518.942    0.206    0.448   84.412    7.930    8.000
  519.192    0.266    0.434   77.347    7.806    9.551
  519.442    0.317    0.408   71.212    7.736   10.935
  519.692    0.341    0.403   64.209    7.728   11.365
  519.942    0.341    0.397   57.950    7.732   11.060
  520.192    0.320    0.388   58.940    7.744   10.416
  520.442    0.300    0.400   59.185    7.789    9.845
  520.692    0.290    0.417   57.945    7.851    9.408
  520.942    0.319    0.418   55.899    7.979    8.990
  521.192    0.332    0.417   54.534    8.082    8.701
  521.442    0.327    0.409   54.533    8.107    8.391
  521.692    0.326    0.414   57.629    8.020    8.181
  521.942    0.339    0.421   61.097    7.888    8.049
  522.192    0.321    0.415   61.839    7.710    7.963
  522.442    0.312    0.416   58.926    7.764    8.156
  522.692    0.281    0.376   53.038    7.879    8.728
  522.942    0.245    0.315   48.390    7.912    9.477
  523.192    0.158    0.275   47.768    7.895   10.031
  523.442    0.230    0.341   50.989    7.879    9.798
  523.692    0.291    0.391   54.085    7.825    8.562
  523.942    0.313    0.429   56.066    7.734    7.495
  524.192    0.317    0.418   55.631    7.722    6.658
  524.442    0.337    0.405   57.116    7.738    5.936
  524.692    0.338    0.404   57.920    7.767    5.569
  524.942    0.341    0.412   58.105    7.779    5.274
  525.192    0.324    0.422   59.342    7.787    5.170
  525.442    0.321    0.434   60.518    7.791    5.247
  525.692    0.313    0.428   59.153    7.791    5.345
  525.942    0.294    0.402   58.160    7.787    5.606
  526.192    0.262    0.374   58.654    7.779    6.021
  526.442    0.268    0.361   59.706    7.762    6.586
  526.692    0.283    0.367   60.696    7.737    7.177
  526.942    0.274    0.382   60.880    7.733    7.583
  527.192    0.253    0.366   60.879    7.733    7.571
  527.442    0.220    0.346   60.319    7.737    7.130
  527.692    0.198    0.342   60.690    7.786    6.751
  527.942    0.219    0.368   67.751    7.848    6.522
  528.192    0.233    0.403   68.307    7.889    6.382
  528.442    0.253    0.403   69.359    7.910    6.234
  528.692    0.263    0.420   72.146    7.930    6.167
  528.942    0.239    0.416   72.144    7.951    6.236
  529.192    0.214    0.406   69.664    7.951    6.470
  529.442    0.203    0.389   68.609    7.955    6.507
  529.692    0.198    0.373   68.670    7.967    6.520
  529.942    0.204    0.371   70.837    7.979    6.462
  530.192    0.196    0.372   71.703    7.979    6.323
  530.442    0.210    0.380   71.082    7.963    6.120
  530.692    0.219    0.387   69.345    7.950    5.827
  530.942    0.227    0.385   69.715    7.929    5.619
  531.192    0.240    0.391   73.183    7.917    5.449
  531.442    0.265    0.418   73.182    7.904    5.381
  531.692    0.290    0.421   72.623    7.892    5.343
  531.942    0.290    0.415   72.683    7.884    5.354
  532.192    0.282    0.409   74.602    7.875    5.454
  532.442    0.273    0.414   75.220    7.859    5.555
  532.692    0.260    0.428   74.289    7.863    5.763
  532.942    0.216    0.418   73.916    7.879    5.957
  533.192    0.203    0.413   73.852    7.879    6.035
  533.442    0.212    0.413   74.161    7.887    6.003
  533.692    0.227    0.416   76.514    7.949    5.874
  533.942    0.231    0.424   89.028    8.056    5.665
  534.192    0.215    0.414   95.408    8.230    5.493
  534.442    0.227    0.418   98.442    8.428    5.306
  534.692    0.216    0.440   98.812    8.605    5.080
  534.942    0.202    0.433   99.864    8.766    4.758
  535.192    0.206    0.423  101.659    8.923    4.352
  535.442    0.209    0.431  106.243    9.096    4.106
  535.692    0.213    0.458  106.241    9.249    3.923
  535.942    0.210    0.483  105.124    9.319    3.832
  536.192    0.206    0.477  105.556    9.323    3.833
  536.442    0.211    0.477  106.360    9.290    3.869
  536.692    0.229    0.471  107.164    9.249    3.992
  536.942    0.215    0.470  108.154    9.232    4.111
  537.192    0.209    0.475  108.214    9.273    4.257
  537.442    0.226    0.467  106.354    9.310    4.506
  537.692    0.223    0.465  102.077    9.335    4.778
  537.942    0.214    0.469   99.783    9.314    5.057
  538.192    0.201    0.456   99.968    9.042    5.343
  538.442    0.182    0.436  100.896    9.042    5.624
  538.692    0.191    0.424  102.753    9.116    5.942
  538.942    0.194    0.424  101.636    9.140    6.244
