~VERSION INFORMATION
 VERS.                 2.0:   CWLS LOG ASCII STANDARD -VERSION 2.0
 WRAP.                  NO:   ONE LINE PER DEPTH STEP
~WELL INFORMATION BLOCK
#MNEM.UNIT           DATA                    DESCRIPTION OF MNEMONIC
#---------    -------------------            -------------------------------
# Generated from Intellog Unique Number	CW_76_78/WELL/3097
WELL.         04-30-078-23W4                 : Well_name    - WELL
LOC .         00/04-30-078-23W4/0            : Location     - LOCATION
UWI .         00/04-30-078-23W4/0            : Uwi          - UNIQUE WELL ID
ENTR.         MAX                            : Entered      - ENTERED BY
SRVC.         SCHLUMBERGER                   : Scn          - SERVICE COMPANY
DATE.         4 MAR 84                       : Date         - LOG DATE
STRT.M        270                            : top_depth    - START DEPTH
STOP.M        520                            : bot_depth    - STOP DEPTH
STEP.M        0.25                           : increment    - STEP LENGTH
 NULL. -999.2500:NULL Value
~CURVE INFORMATION BLOCK
#MNEM UNIT       ERCB CURVE CODE    CURVE DESCRIPTION
#-----------   ------------------   ----------------------------------
DEPT.M        00 001 00 00         : DEPTH        - DEPTH
GR  .API      00 310 00 00         : GR           - GAMMA RAY
ILD .OHMM     00 120 00 00         : RESD         - DEEP RESISTIVITY (DIL)
NPHI.V/V      00 330 00 00         : PHIN         - NEUTRON POROSITY (SANDSTONE)
DPHI.V/V      00 890 00 00         : PHID         - DENSITY POROSITY (SANDSTONE)
~PARAMETER INFORMATION
#MNEM.UNIT           DATA             DESCRIPTION OF MNEMONIC
#---------         -----------     ------------------------------
GL  .M        587.9                : gl           - GROUND LEVEL ELEVATION
EREF.M        591.6                : kb           - ELEVATION OF DEPTH REFERENCE
DATM.M        587.9                : datum        - DATUM ELEVATION
TDD .M        525                  : tdd          - TOTAL DEPTH DRILLER
RUN .         ONE                  : Run          - RUN NUMBER
MUD .         GEL CHEM             : Mud_type     - MUD TYPE
MATR.         SANDSTONE            : Logunit      - NEUTRON MATRIX
TMAX.C        11                   : BHT          - MAXIMUM RECORDED TEMPERATURE
BHTD.M        524                  : BHTDEP       - MAXIMUM RECORDED TEMPERATURE
RMT .C        11                   : MDTP         - TEMPERATURE OF MUD
MUDD.KG/M     1130                 : MWT          - MUD DENSITY
NEUT.         1                    : NEUTRON      - NEUTRON TYPE
RESI.         0                    : RESIST       - RESISTIVITY TYPE
RM  .OHMM     9                    : RM           - RESISTIVITY OF MUD
RMC .OHMM     13.8                 : RMC          - RESISTIVITY OF MUD CAKE
RMF .OHMM     13.8                 : RMF          - RESISTIVITY OF MUD FILTRATE
SUFT.C        4                    : SUFT         - SURFACE TEMPERATURE
~A  DEPTH       GR     RESD     PHIN     PHID
# ...
  400.500   87.073   17.450    0.362    0.136
  400.750   81.608   17.149    0.363    0.131
  401.000   78.586   16.859    0.358    0.140
  401.250   80.431   18.163    0.344    0.135
  401.500   84.726   18.864    0.358    0.122
  401.750   85.967   19.249    0.368    0.135
  402.000   87.203   19.261    0.373    0.151
  402.250   86.620   18.947    0.384    0.158
  402.500   84.203   18.294    0.394    0.163
  402.750   81.791   17.973    0.384    0.160
  403.000   81.198   17.669    0.357    0.153
  403.250   79.995   17.370    0.350    0.150
  403.500   78.193   17.713    0.402    0.161
  403.750   76.380   19.083    0.428    0.229
  404.000   72.744   21.326    0.455    0.251
  404.250   70.942   25.179    0.471    0.255
  404.500   70.349   37.731    0.462    0.241
  404.750   75.857   34.472    0.396    0.203
  405.000   89.906   29.262    0.351    0.164
  405.250   88.104   22.679    0.361    0.152
  405.500   84.468   20.345    0.370    0.152
  405.750   80.832   18.931    0.375    0.130
  406.000   80.238   18.949    0.333    0.099
  406.250   81.479   20.057    0.317    0.092
  406.500   83.335   20.818    0.323    0.098
  406.750   84.576   21.242    0.334    0.118
  407.000   84.598   20.504    0.345    0.129
  407.250   83.406   19.785    0.340    0.134
  407.500   82.807   18.422    0.326    0.158
  407.750   81.615   18.105    0.362    0.183
  408.000   80.417   17.475    0.377    0.131
  408.250   82.872   17.497    0.400    0.108
  408.500   87.166   17.519    0.367    0.106
  408.750   87.797   17.860    0.347    0.139
  409.000   86.605   17.888    0.362    0.152
  409.250   86.012   17.585    0.364    0.152
  409.500   86.033   17.287    0.363    0.144
  409.750   86.055   16.995    0.361    0.136
  410.000   86.697   16.702    0.359    0.131
  410.250   86.708   16.723    0.359    0.127
  410.500   87.345   16.744    0.360    0.124
  410.750   87.981   16.770    0.367    0.124
  411.000   87.998   16.786    0.371    0.124
  411.250   88.014   16.202    0.375    0.124
  411.500   88.645   15.365    0.375    0.124
  411.750   89.891   15.100    0.375    0.124
  412.000   89.908   14.845    0.377    0.125
  412.250   91.159   14.594    0.378    0.124
  412.500   92.395   14.342    0.377    0.119
  412.750   93.641   14.104    0.374    0.115
  413.000   92.444   13.861    0.364    0.123
  413.250   88.198   13.887    0.353    0.124
  413.500   85.775   14.161    0.355    0.121
  413.750   87.022   14.441    0.359    0.116
  414.000   89.477   14.726    0.359    0.114
  414.250   93.161   14.745    0.363    0.115
  414.500   93.183   14.763    0.370    0.114
  414.750   93.210   14.782    0.379    0.114
  415.000   92.611   14.800    0.384    0.116
  415.250   92.633   14.545    0.381    0.120
  415.500   92.665   14.299    0.377    0.122
  415.750   92.676   14.057    0.371    0.117
  416.000   93.313   14.079    0.363    0.110
  416.250   93.944   14.101    0.363    0.105
  416.500   95.191   14.114    0.360    0.105
  416.750   95.816   14.127    0.353    0.101
  417.000   97.063   14.944    0.354    0.096
  417.250   98.298   15.808    0.346    0.084
  417.500  103.197   16.125    0.340    0.077
  417.750  108.101   16.145    0.324    0.108
  418.000  105.684   15.306    0.329    0.124
  418.250  103.872   13.984    0.350    0.120
  418.500   99.021   12.773    0.362    0.105
  418.750   97.214   12.105    0.349    0.099
  419.000   96.626   12.128    0.337    0.113
  419.250   96.038   12.360    0.342    0.131
  419.500   95.445   13.320    0.352    0.121
  419.750   93.637   14.611    0.357    0.104
  420.000   86.953   16.630    0.362    0.109
  420.250   82.103   19.634    0.364    0.132
  420.500   79.686   23.181    0.373    0.137
  420.750   77.263   34.747    0.383    0.146
  421.000   74.237   37.423    0.366    0.154
  421.250   71.216   40.318    0.354    0.150
  421.500   70.018   45.056    0.348    0.132
  421.750   70.045   52.231    0.353    0.109
  422.000   71.890   65.190    0.345    0.086
  422.250   73.741   65.292    0.338    0.094
  422.500   75.597   64.147    0.323    0.100
  422.750   76.838   58.626    0.318    0.106
  423.000   76.859   52.575    0.328    0.116
  423.250   75.662   43.036    0.344    0.129
  423.500   73.245   36.542    0.360    0.144
  423.750   69.608   32.175    0.382    0.142
  424.000   65.972   27.825    0.379    0.130
  424.250   63.550   26.858    0.347    0.102
  424.500   65.400   32.306    0.328    0.096
  424.750   75.176   35.459    0.310    0.104
  425.000   84.343   33.595    0.344    0.116
  425.250   84.375   27.500    0.362    0.130
  425.500   83.177   22.504    0.374    0.137
  425.750   80.145   20.187    0.374    0.137
  426.000   79.557   19.138    0.372    0.133
  426.250   83.237   18.814    0.373    0.135
  426.500   81.435   20.269    0.380    0.122
  426.750   77.189   22.241    0.379    0.095
  427.000   75.986   23.961    0.348    0.072
  427.250   79.665   26.291    0.303    0.091
  427.500   83.955   26.324    0.301    0.113
  427.750   85.811   24.066    0.337    0.128
  428.000   85.827   22.801    0.352    0.140
  428.250   86.458   22.008    0.360    0.137
  428.500   87.699   21.243    0.366    0.134
  428.750   88.330   20.133    0.366    0.133
  429.000   89.577   19.786    0.369    0.133
  429.250   90.823   18.758    0.371    0.133
  429.500   91.454   18.105    0.373    0.130
  429.750   90.257   17.476    0.375    0.127
  430.000   88.455   16.874    0.374    0.120
  430.250   88.466   16.583    0.373    0.112
  430.500   89.102   16.313    0.367    0.117
  430.750   87.905   16.323    0.360    0.129
  431.000   87.311   16.338    0.352    0.132
  431.250   86.723   16.359    0.344    0.130
  431.500   87.365   16.687    0.332    0.125
  431.750   88.601   17.331    0.329    0.122
  432.000   89.227   18.006    0.327    0.120
  432.250   89.259   18.356    0.326    0.121
  432.500   89.270   18.057    0.352    0.121
  432.750   88.682   18.068    0.359    0.121
  433.000   86.880   16.828    0.362    0.120
  433.250   88.731   16.539    0.362    0.118
  433.500   93.020   16.249    0.361    0.117
  433.750   89.384   15.984    0.363    0.115
  434.000   84.533   15.994    0.363    0.105
  434.250   86.999   16.014    0.361    0.095
  434.500   88.229   16.335    0.342    0.094
  434.750   92.524   16.966    0.354    0.106
  435.000   95.588   17.306    0.364    0.118
  435.250   97.439   17.322    0.376    0.122
  435.500   97.466   17.029    0.383    0.120
  435.750   97.493   16.741    0.389    0.120
  436.000   97.509   16.159    0.392    0.120
  436.250   97.525   15.598    0.387    0.118
  436.500   96.333   15.055    0.376    0.114
  436.750   94.526   14.528    0.362    0.116
  437.000   93.938   13.527    0.364    0.126
  437.250   95.788   13.294    0.382    0.130
  437.500   97.029   12.828    0.382    0.131
  437.750   95.832   12.844    0.374    0.135
  438.000   92.805   12.401    0.368    0.131
  438.250   89.778   12.199    0.373    0.121
  438.500   91.629   11.989    0.375    0.117
  438.750   95.924   12.000    0.368    0.122
  439.000   97.165   12.015    0.364    0.125
  439.250   96.571   12.037    0.363    0.125
  439.500   95.384   12.045    0.365    0.127
  439.750   94.785   12.283    0.369    0.129
  440.000   94.203   12.765    0.374    0.138
  440.250   93.005   13.013    0.365    0.140
  440.500   91.813   14.020    0.353    0.139
  440.750   90.610   15.104    0.340    0.143
  441.000   86.979   16.573    0.337    0.150
  441.250   85.166   18.527    0.340    0.161
  441.500   81.530   20.329    0.341    0.165
  441.750   77.899   22.718    0.345    0.152
  442.000   76.081   25.858    0.339    0.128
  442.250   73.664   27.344    0.330    0.113
  442.500   73.691   32.294    0.315    0.087
  442.750   77.986   35.424    0.304    0.054
  443.000   82.275   32.963    0.319    0.076
  443.250   86.564   27.989    0.334    0.114
  443.500   90.848   23.765    0.347    0.138
  443.750   95.137   19.813    0.357    0.136
