~VERSION INFORMATION
 VERS.                 2.0:   CWLS LOG ASCII STANDARD -VERSION 2.0
 WRAP.                  NO:   ONE LINE PER DEPTH STEP
~WELL INFORMATION BLOCK
#MNEM.UNIT           DATA                    DESCRIPTION OF MNEMONIC
#---------    -------------------            -------------------------------
# Generated from Intellog Unique Number	CW_79_81/WELL/2456
WELL.         GULF WABASCA                   : Well_name    - WELL
LOC .         00/06-34-081-21W4/0            : Location     - LOCATION
UWI .         00/06-34-081-21W4/0            : Uwi          - UNIQUE WELL ID
ENTR.         MAX                            : Entered      - ENTERED BY
SRVC.         SCHLUMBERGER                   : Scn          - SERVICE COMPANY
STRT.M        204.216                        : top_depth    - START DEPTH
STOP.M        441.716                        : bot_depth    - STOP DEPTH
STEP.M        0.25                           : increment    - STEP LENGTH
 NULL. -999.2500:NULL Value
~CURVE INFORMATION BLOCK
#MNEM UNIT       ERCB CURVE CODE    CURVE DESCRIPTION
#-----------   ------------------   ----------------------------------
DEPT.M        00 001 00 00         : DEPTH        - DEPTH
ILD .OHMM     00 120 00 00         : RESD         - DEEP RESISTIVITY (DIL)
NPHI.V/V      00 330 00 00         : PHIN         - NEUTRON POROSITY (SANDSTONE)
DPHI.V/V      00 890 00 00         : PHID         - DENSITY POROSITY (SANDSTONE)
GR  .API      00 310 00 00         : GR           - GAMMA RAY
CALI.MM       00 280 01 00         : CAL          - CALIPER
~PARAMETER INFORMATION
#MNEM.UNIT           DATA             DESCRIPTION OF MNEMONIC
#---------         -----------     ------------------------------
GL  .M        627.492              : gl           - GROUND LEVEL ELEVATION
EREF.M        630.997              : kb           - ELEVATION OF DEPTH REFERENCE
DATM.M        627.492              : datum        - DATUM ELEVATION
TDD .M        440.436              : tdd          - TOTAL DEPTH DRILLER
RUN .         ONE                  : Run          - RUN NUMBER
ENG .         BILL                 : Engineer     - RECORDING ENGINEER
WIT .         JIM                  : Witness      - WITNESSED BY
MUD .         GEL                  : Mud_type     - MUD TYPE
MATR.         SANDSTONE            : Logunit      - NEUTRON MATRIX
TMAX.C        23.8889              : BHT          - MAXIMUM RECORDED TEMPERATURE
BHTD.M        440.436              : BHTDEP       - MAXIMUM RECORDED TEMPERATURE
MATR.         1                    : LOGUNIT      - NEUTRON MATRIX
RMT .C        16.6667              : MDTP         - TEMPERATURE OF MUD
NEUT.         1                    : NEUTRON      - NEUTRON TYPE
RESI.         0                    : RESIST       - RESISTIVITY TYPE
RMC .OHMM     5.1                  : RMC          - RESISTIVITY OF MUD CAKE
RMF .OHMM     5.24                 : RMF          - RESISTIVITY OF MUD FILTRATE
SUFT.C        -20.5556             : SUFT         - SURFACE TEMPERATURE
~A  DEPTH     RESD     PHIN     PHID       GR      CAL
  204.216    6.289    0.540    0.276  141.999  173.689
  204.466    5.867    0.556    0.282  144.546  170.802
  204.716    5.504    0.562    0.284  145.093  168.171
  204.966    5.427    0.563    0.282  143.224  166.430
  205.216    5.759    0.551    0.276  139.615  166.096
  205.466    6.863    0.498    0.265  135.658  167.094
  205.716    8.622    0.440    0.264  131.219  167.605
  205.966    9.620    0.450    0.269  125.994  167.681
  206.216    9.799    0.465    0.274  127.420  167.757
  206.466    9.257    0.478    0.274  133.222  168.044
  206.716    8.221    0.488    0.268  138.484  168.642
  206.966    6.957    0.504    0.256  132.319  169.557
  207.216    7.177    0.504    0.261  115.642  169.654
  207.466    8.965    0.493    0.275   96.758  168.504
  207.716   10.748    0.445    0.284   75.359  165.238
  207.966   12.691    0.397    0.287   59.474  161.672
  208.216   14.165    0.374    0.284   53.235  159.217
  208.466   12.347    0.401    0.287   57.931  159.067
  208.716    9.931    0.440    0.295   63.223  160.009
  208.966   10.006    0.471    0.301   76.213  160.508
  209.216   10.306    0.502    0.310   81.654  161.298
  209.466   10.658    0.507    0.320   72.118  161.175
  209.716   10.758    0.478    0.329   53.234  159.633
  209.966   10.092    0.411    0.340   41.960  157.132
  210.216    9.495    0.353    0.331   33.273  158.488
  210.466    8.552    0.363    0.317   34.521  158.986
  210.716    7.440    0.399    0.300   42.955  161.912
  210.966    6.286    0.422    0.297   51.631  163.822
  211.216    5.202    0.416    0.301   56.595  163.296
  211.466    4.115    0.387    0.271   56.996  160.618
  211.716    3.537    0.375    0.238   57.552  159.016
  211.966    3.284    0.385    0.275   61.669  159.092
  212.216    3.262    0.421    0.313   67.590  159.180
  212.466    3.467    0.453    0.327   71.957  159.261
  212.716    3.969    0.467    0.320   74.285  159.637
  212.966    5.175    0.457    0.318   78.122  161.295
  213.216    6.399    0.436    0.324   83.908  163.082
  213.466    6.689    0.442    0.311  103.366  162.753
  213.716    6.654    0.461    0.302  111.322  163.336
  213.966    6.063    0.491    0.298  111.494  164.637
  214.216    5.132    0.516    0.299  107.833  165.945
  214.466    4.226    0.512    0.304  104.518  166.029
  214.716    3.647    0.520    0.316   92.896  164.592
  214.966    3.375    0.476    0.315   75.975  162.568
  215.216    3.180    0.440    0.311   72.266  161.922
  215.466    3.021    0.419    0.314   76.628  163.224
  215.716    2.918    0.423    0.322   84.886  164.525
  215.966    2.897    0.451    0.318   90.446  160.959
  216.216    3.007    0.470    0.304   94.401  160.557
  216.466    3.174    0.461    0.299  101.190  162.767
  216.716    3.553    0.471    0.292  110.494  164.780
  216.966    4.366    0.491    0.292  122.648  168.308
  217.216    5.820    0.513    0.297  132.645  172.050
  217.466    7.309    0.537    0.296  131.492  172.134
  217.716    8.877    0.538    0.278  132.159  170.697
  217.966   10.487    0.539    0.280  130.205  168.682
  218.216   10.702    0.528    0.281  126.614  168.038
  218.466   10.193    0.527    0.274  121.750  167.708
  218.716    9.583    0.537    0.258  115.870  167.072
  218.966    9.307    0.541    0.229  104.994  165.308
  219.216    9.309    0.522    0.194   86.322  164.137
  219.466    9.874    0.407    0.162   62.166  160.960
  219.716   10.645    0.338    0.202   51.671  158.397
  219.966   11.749    0.338    0.259   51.961  158.076
  220.216   13.128    0.384    0.296   59.440  159.278
  220.466   14.342    0.406    0.300   70.300  158.704
  220.716   14.796    0.418    0.303   72.847  157.525
  220.966   14.473    0.437    0.300   70.022  157.626
  221.216   13.296    0.445    0.287   69.350  157.702
  221.466   12.276    0.446    0.284   68.559  157.571
  221.716   11.621    0.445    0.297   65.853  157.347
  221.966   11.018    0.444    0.322   58.571  157.458
  222.216   10.525    0.442    0.339   51.880  157.545
  222.466    9.993    0.430    0.338   52.410  157.630
  222.716    9.382    0.420    0.340   50.243  157.702
  222.966    8.848    0.411    0.343   49.455  157.786
  223.216    8.470    0.407    0.343   51.600  157.879
  223.466    8.312    0.426    0.334   56.276  157.880
  223.716    8.443    0.448    0.330   59.073  157.545
  223.966    8.383    0.433    0.325   57.935  157.630
  224.216    8.276    0.434    0.321   59.481  158.621
  224.466    8.065    0.432    0.318   62.640  159.719
  224.716    7.699    0.424    0.314   66.938  160.118
  224.966    7.032    0.428    0.310   72.558  158.844
  225.216    6.467    0.436    0.304   72.859  158.052
  225.466    6.049    0.425    0.302   72.909  158.136
  225.716    5.594    0.423    0.300   75.115  158.525
  225.966    5.219    0.424    0.292   77.680  159.434
  226.216    4.950    0.422    0.276   79.766  160.648
  226.466    4.765    0.414    0.255   82.053  161.965
  226.716    4.730    0.405    0.262   84.855  164.157
  226.966    4.872    0.424    0.275   88.972  167.081
  227.216    5.074    0.454    0.276   93.452  166.659
  227.466    5.267    0.474    0.273   95.184  165.932
  227.716    5.357    0.479    0.270   94.879  166.323
  227.966    5.225    0.476    0.258   97.684  167.817
  228.216    5.147    0.480    0.246  100.731  168.741
  228.466    4.923    0.500    0.274   97.662  169.629
  228.716    4.657    0.508    0.276   93.335  169.305
  228.966    4.424    0.490    0.280   90.031  167.155
  229.216    4.242    0.456    0.291   89.305  164.596
  229.466    4.038    0.445    0.286   92.844  165.440
  229.716    3.799    0.470    0.280   97.144  167.209
  229.966    3.689    0.484    0.298   99.110  168.519
  230.216    3.622    0.490    0.311  102.150  169.823
  230.466    3.570    0.497    0.311  104.353  171.327
  230.716    3.518    0.503    0.302  105.243  172.725
  230.966    3.446    0.501    0.300  106.187  173.133
  231.216    3.343    0.490    0.293  108.235  172.808
  231.466    3.197    0.507    0.280  110.915  169.647
  231.716    3.094    0.520    0.288  112.157  168.610
  231.966    2.970    0.528    0.288  112.686  169.907
  232.216    2.821    0.532    0.278  113.517  172.220
  232.466    2.655    0.538    0.283  116.217  171.792
  232.716    2.537    0.538    0.290  117.517  167.241
  232.966    2.463    0.559    0.302  116.369  166.091
  233.216    2.446    0.558    0.306  115.577  168.301
  233.466    2.446    0.558    0.303  115.145  171.635
  233.716    2.447    0.569    0.298  115.497  174.056
  233.966    2.455    0.582    0.300  117.581  173.321
  234.216    2.493    0.590    0.296  118.122  171.297
  234.466    2.494    0.596    0.295  117.703  169.759
  234.716    2.481    0.605    0.294  115.113  171.256
  234.966    2.481    0.605    0.299  112.759  173.365
  235.216    2.514    0.592    0.305  112.088  174.666
  235.466    2.590    0.562    0.292  113.581  174.751
  235.716    2.664    0.582    0.296  115.140  176.377
  235.966    2.706    0.578    0.317  115.431  176.897
  236.216    2.745    0.583    0.319  113.913  176.138
  236.466    2.796    0.595    0.307  113.125  173.375
  236.716    2.854    0.602    0.288  114.250  169.604
  236.966    2.898    0.585    0.276  117.180  167.652
  237.216    2.980    0.568    0.231  118.433  168.275
  237.466    3.004    0.555    0.251  118.231  169.199
  237.716    3.009    0.553    0.273  118.052  169.143
  237.966    3.009    0.556    0.281  117.984  169.430
  238.216    3.010    0.561    0.275  118.153  170.529
  238.466    3.011    0.572    0.283  118.887  172.424
  238.716    3.012    0.581    0.290  119.937  173.366
  238.966    3.012    0.560    0.289  122.143  173.434
  239.216    3.063    0.544    0.287  122.016  172.595
  239.466    3.121    0.545    0.285  120.866  171.467
  239.716    3.180    0.558    0.284  119.710  170.748
  239.966    3.296    0.567    0.285  119.087  171.412
  240.216    3.400    0.571    0.285  118.146  172.362
  240.466    3.581    0.569    0.287  117.233  172.827
