~VERSION INFORMATION
 VERS.                 2.0:   CWLS LOG ASCII STANDARD -VERSION 2.0
 WRAP.                  NO:   ONE LINE PER DEPTH STEP
~WELL INFORMATION BLOCK
#MNEM.UNIT           DATA                    DESCRIPTION OF MNEMONIC
#---------    -------------------            -------------------------------
# Generated from Intellog Unique Number	CW_70_72/WELL/995
NULL.         -999.25                        : NULL_VALUE
WELL.         CHEVRON MCSU 1 MITSUE 09-27    : Well_name    - WELL              
LOC .         09-27-072-05W5                 : Location     - LOCATION          
UWI .         00/09-27-072-05W5/0            : Uwi          - UNIQUE WELL ID    
ENTR.         JAYE                           : Entered      - ENTERED BY        
SRVC.         WESTERN ATLAS                  : Scn          - SERVICE COMPANY   
DATE.         3 MAR 86                       : Date         - LOG DATE          
STRT.M        390                            : top_depth    - START DEPTH       
STOP.M        625                            : bot_depth    - STOP DEPTH        
STEP.M        0.25                           : increment    - STEP LENGTH       
~CURVE INFORMATION BLOCK
#MNEM UNIT       ERCB CURVE CODE    CURVE DESCRIPTION
#-----------   ------------------   ----------------------------------
DEPT.M        00 001 00 00         : DEPTH        - DEPTH                       
DPHI.V/V      00 890 00 00         : PHID         - DENSITY POROSITY (SANDSTONE)
NPHI.V/V      00 330 00 00         : PHIN         - NEUTRON POROSITY (SANDSTONE)
GR  .API      00 310 00 00         : GR           - GAMMA RAY                   
CALI.MM       00 280 01 00         : CAL          - CALIPER                     
ILD .OHMM     00 120 00 00         : RESD         - DEEP RESISTIVITY (DIL)      
~PARAMETER INFORMATION       
#MNEM.UNIT           DATA             DESCRIPTION OF MNEMONIC
#---------         -----------     ------------------------------
GL  .M        585.42               : gl           - GROUND LEVEL ELEVATION      
EREF.M        591                  : kb           - ELEVATION OF DEPTH REFERENCE
DATM.M        585.42               : datum        - DATUM ELEVATION             
TDD .M        1700                 : tdd          - TOTAL DEPTH DRILLER         
RUN .         ONE                  : Run          - RUN NUMBER                  
ENG .         SENTSEN              : Engineer     - RECORDING ENGINEER          
WIT .         SUO                  : Witness      - WITNESSED BY                
BASE.         LEDUC                : Branch       - HOME BASE OF LOGGING UNIT   
MUD .         GEL-CHEM             : Mud_type     - MUD TYPE                    
MATR.         SANDSTONE            : Logunit      - NEUTRON MATRIX              
TMAX.C        51                   : BHT          - MAXIMUM RECORDED TEMPERATURE
BHTD.M        1701.25              : BHTDEP       - MAXIMUM RECORDED TEMPERATURE
RMT .C        25                   : MDTP         - TEMPERATURE OF MUD          
MUDD.KG/M     1370                 : MWT          - MUD DENSITY                 
NEUT.         1                    : NEUTRON      - NEUTRON TYPE                
RESI.         0                    : RESIST       - RESISTIVITY TYPE            
RM  .OHMM     0.76                 : RM           - RESISTIVITY OF MUD          
RMC .OHMM     1.19                 : RMC          - RESISTIVITY OF MUD CAKE     
RMF .OHMM     0.7                  : RMF          - RESISTIVITY OF MUD FILTRATE 
SUFT.C        32                   : SUFT         - SURFACE TEMPERATURE         
~A  DEPTH     PHID     PHIN       GR      CAL     RESD
# ...
  572.500    0.203    0.418   49.148  278.637    4.012
  572.750    0.203    0.437   48.312  274.531    3.898
  573.000    0.213    0.439   58.117  270.931    3.816
  573.250    0.226    0.428   50.579  269.119    3.743
  573.500    0.237    0.416   50.800  269.692    3.658
  573.750    0.242    0.431   54.971  270.914    3.608
  574.000    0.242    0.441   53.884  272.437    3.520
  574.250    0.233    0.438   44.962  274.058    3.510
  574.500    0.228    0.442   48.257  275.583    3.477
  574.750    0.229    0.439   42.531  276.793    3.461
  575.000    0.225    0.446   44.450  277.273    3.439
  575.250    0.224    0.439   49.749  277.128    3.419
  575.500    0.222    0.444   51.349  276.563    3.429
  575.750    0.217    0.460   49.820  275.997    3.493
  576.000    0.220    0.451   49.738  275.544    3.531
  576.250    0.235    0.438   49.020  275.283    3.575
  576.500    0.233    0.436   43.613  274.625    3.607
  576.750    0.220    0.442   50.095  274.262    3.605
  577.000    0.215    0.439   52.515  272.862    3.576
  577.250    0.222    0.449   51.047  271.051    3.514
  577.500    0.237    0.454   49.709  269.650    3.454
  577.750    0.245    0.444   46.990  269.605    3.400
  578.000    0.255    0.436   44.083  271.340    3.342
  578.250    0.273    0.434   51.509  273.487    3.254
  578.500    0.312    0.413   44.345  275.635    3.233
  578.750    0.280    0.441   39.308  275.810    3.195
  579.000    0.264    0.459   47.991  275.869    3.163
  579.250    0.254    0.452   55.792  276.145    3.138
  579.500    0.246    0.435   52.451  276.511    3.136
  579.750    0.244    0.435   47.099  276.586    3.105
  580.000    0.250    0.427   45.821  276.546    3.063
  580.250    0.262    0.418   49.554  276.494    2.971
  580.500    0.271    0.394   44.768  277.089    2.920
  580.750    0.288    0.393   45.313  278.495    2.885
  581.000    0.280    0.429   50.291  286.491    2.883
  581.250    0.280    0.416   51.272  287.597    2.970
  581.500    0.270    0.394   49.239  287.885    3.059
  581.750    0.243    0.352   46.519  288.348    3.247
  582.000    0.215    0.328   55.954  290.085    3.499
  582.250    0.118    0.287   43.963  292.760    3.826
  582.500    0.080    0.260   42.560  294.797    4.411
  582.750    0.055    0.262   45.918  297.382    4.880
  583.000    0.086    0.279   49.968  298.678    5.268
  583.250    0.107    0.327   51.316  300.200    5.528
  583.500    0.127    0.309   42.209  301.314    5.362
  583.750    0.148    0.331   46.325  302.099    4.878
  584.000    0.195    0.379   50.241  303.315    4.227
  584.250    0.232    0.391   54.913  305.686    3.803
  584.500    0.246    0.385   55.450  307.928    3.493
  584.750    0.230    0.377   52.108  310.910    3.214
  585.000    0.209    0.362   53.712  314.835    3.076
  585.250    0.187    0.344   55.939  318.132    3.057
  585.500    0.166    0.364   57.980  320.914    3.096
  585.750    0.168    0.360   58.392  322.537    3.213
  586.000    0.165    0.358   63.190  323.645    3.322
  586.250    0.155    0.357   63.290  324.333    3.351
  586.500    0.178    0.363   61.196  325.031    3.306
  586.750    0.210    0.383   63.615  326.962    3.224
  587.000    0.258    0.404   62.085  333.394    3.109
  587.250    0.308    0.421   54.609  343.265    3.010
  587.500    0.340    0.416   50.448  346.985    3.009
  587.750    0.373    0.392   50.798  339.114    3.129
  588.000    0.335    0.403   60.418  331.662    3.222
  588.250    0.352    0.439   61.524  325.565    3.407
  588.500    0.199    0.428   54.167  315.605    3.671
  588.750    0.143    0.369   53.204  304.077    3.970
  589.000    0.148    0.362   55.935  293.499    4.375
  589.250    0.166    0.378   55.219  290.319    4.785
  589.500    0.167    0.330   57.262  286.723    5.061
  589.750    0.104    0.308   64.814  281.258    5.241
  590.000    0.084    0.321   60.660  278.085    5.439
  590.250    0.105    0.343   56.246  279.501    5.539
  590.500    0.135    0.367   56.470  283.219    5.433
  590.750    0.157    0.384   60.578  287.044    5.171
  591.000    0.170    0.377   60.622  285.533    5.015
  591.250    0.161    0.383   60.282  277.246    4.783
  591.500    0.161    0.382   59.438  276.264    4.621
  591.750    0.188    0.388   58.170  281.960    4.515
  592.000    0.193    0.397   57.886  289.959    4.522
  592.250    0.165    0.405   58.926  286.055    4.631
  592.500    0.158    0.393   57.835  281.207    4.752
  592.750    0.148    0.379   52.546  283.468    4.922
  593.000    0.137    0.364   54.777  285.195    5.215
  593.250    0.115    0.340   54.320  286.724    5.411
  593.500    0.122    0.342   53.724  288.768    5.500
  593.750    0.160    0.392   54.891  291.545    5.416
  594.000    0.171    0.418   56.115  295.673    5.242
  594.250    0.158    0.394   56.842  300.434    4.934
  594.500    0.157    0.378   54.188  304.464    4.803
  594.750    0.157    0.325   50.090  308.190    4.801
  595.000    0.154    0.357   56.831  310.541    4.926
  595.250    0.126    0.354   62.127  306.855    5.055
  595.500    0.097    0.332   59.662  301.688    5.129
  595.750    0.084    0.356   60.639  295.591    5.145
  596.000    0.112    0.380   59.859  288.029    5.065
  596.250    0.139    0.396   53.320  279.115    4.997
  596.500    0.154    0.366   56.364  281.679    5.003
  596.750    0.161    0.374   59.224  288.741    4.936
  597.000    0.173    0.362   56.129  285.882    4.840
  597.250    0.192    0.377   50.343  290.635    4.703
  597.500    0.240    0.395   56.202  321.078    4.545
  597.750    0.301    0.416   62.000  347.028    4.214
  598.000    0.378    0.406   66.110  339.156    3.603
  598.250    0.408    0.438   60.132  329.930    3.013
  598.500    0.473    0.557   53.909  347.531    2.605
  598.750    0.563    0.921   48.306  365.023    2.182
  599.000    0.569    0.950   41.642  374.167    1.784
  599.250    0.583    0.934   36.481  379.451    1.480
  599.500    0.598    0.954   33.886  383.171    1.251
  599.750    0.602    0.985   30.856  384.062    1.132
  600.000    0.550    0.974   33.087  383.293    1.084
  600.250    0.486    0.941   42.396  370.825    1.063
  600.500    0.478    0.940   49.696  346.354    1.081
  600.750    0.491    0.993   39.025  330.549    1.121
  601.000    0.324    0.570   46.012  250.124    1.215
  601.250    0.300    0.457   58.953  259.897    1.396
  601.500    0.277    0.425   59.056  281.150    1.621
  601.750    0.283    0.396   53.327  300.943    1.901
  602.000    0.308    0.414   52.303  306.644    2.310
  602.250    0.297    0.460   54.530  312.237    2.964
  602.500    0.305    0.437   54.507  300.504    3.643
  602.750    0.355    0.420   52.223  308.612    4.129
  603.000    0.358    0.435   56.274  312.841    4.245
  603.250    0.354    0.417   59.501  315.519    4.380
  603.500    0.370    0.391   50.144  311.611    4.538
  603.750    0.418    0.455   48.804  314.490    4.718
  604.000    0.455    0.557   52.723  321.029    4.831
  604.250    0.427    0.559   46.625  328.080    4.847
  604.500    0.390    0.505   49.165  311.546    4.675
  604.750    0.293    0.456   57.971  284.047    4.681
  605.000    0.227    0.439   53.060  267.094    4.794
  605.250    0.190    0.418   64.623  279.475    5.013
  605.500    0.159    0.389   65.602  295.093    5.221
  605.750    0.146    0.469   56.305  278.455    5.459
  606.000    0.387    0.971   49.266  341.776    5.487
  606.250    0.380    0.908   46.297  365.428    4.918
  606.500    0.376    0.656   50.592  364.242    4.483
  606.750    0.328    0.737   53.576  351.668    3.884
  607.000    0.279    0.873   54.675  305.697    3.501
  607.250    0.215    0.665   61.352  285.920    3.216
  607.500    0.207    0.576   62.706  273.562    3.049
  607.750    0.193    0.593   65.123  268.926    2.996
  608.000    0.085    0.586   66.351  283.811    3.234
  608.250    0.056    0.490   56.741  277.821    3.793
  608.500    0.058    0.432   55.213  269.847    4.364
  608.750    0.324    0.460   52.994  287.651    4.513
