~VERSION INFORMATION
 VERS.                 2.0:   CWLS LOG ASCII STANDARD -VERSION 2.0
 WRAP.                  NO:   ONE LINE PER DEPTH STEP
~WELL INFORMATION BLOCK
#MNEM.UNIT           DATA                    DESCRIPTION OF MNEMONIC
#---------    -------------------            -------------------------------
# Generated from Intellog Unique Number	CS_67_68/WELL/785
WELL.         CANADIAN HOMESTEAD OILS        : Well_name    - WELL
LOC .         00/07-36-068-10W4/0            : Location     - LOCATION
UWI .         00/07-36-068-10W4/0            : Uwi          - UNIQUE WELL ID
ENTR.         SP                             : Entered      - ENTERED BY
SRVC.         SCHLUMBERGER                   : Scn          - SERVICE COMPANY
STRT.M        445                            : top_depth    - START DEPTH
STOP.M        665                            : bot_depth    - STOP DEPTH
STEP.M        0.25                           : increment    - STEP LENGTH
 NULL. -999.2500:NULL Value
~CURVE INFORMATION BLOCK
#MNEM UNIT       ERCB CURVE CODE    CURVE DESCRIPTION
#-----------   ------------------   ----------------------------------
DEPT.M        00 001 00 00         : DEPTH        - DEPTH
ILD .OHMM     00 120 00 00         : RESD         - DEEP RESISTIVITY (DIL)
DPHI.V/V      00 890 00 00         : PHID         - DENSITY POROSITY (LIMESTONE)
NPHI.V/V      00 330 00 00         : PHIN         - NEUTRON POROSITY (LIMESTONE)
GR  .API      00 310 00 00         : GR           - GAMMA RAY
~PARAMETER INFORMATION
#MNEM.UNIT           DATA             DESCRIPTION OF MNEMONIC
#---------         -----------     ------------------------------
GL  .M        768.6                : gl           - GROUND LEVEL ELEVATION
EREF.M        761.69               : kb           - ELEVATION OF DEPTH REFERENCE
DATM.M        768.6                : datum        - DATUM ELEVATION
TDD .M        667                  : tdd          - TOTAL DEPTH DRILLER
RUN .         ONE                  : Run          - RUN NUMBER
ENG .         BILL                 : Engineer     - RECORDING ENGINEER
WIT .         JIM                  : Witness      - WITNESSED BY
MUD .         GEL                  : Mud_type     - MUD TYPE
MATR.         LIMESTONE            : Logunit      - NEUTRON MATRIX
TMAX.C        25                   : BHT          - MAXIMUM RECORDED TEMPERATURE
BHTD.M        667                  : BHTDEP       - MAXIMUM RECORDED TEMPERATURE
MATR.         1                    : LOGUNIT      - NEUTRON MATRIX
RMT .C        25                   : MDTP         - TEMPERATURE OF MUD
NEUT.         1                    : NEUTRON      - NEUTRON TYPE
RESI.         0                    : RESIST       - RESISTIVITY TYPE
RMC .OHMM     0.25                 : RMC          - RESISTIVITY OF MUD CAKE
RMF .OHMM     0.25                 : RMF          - RESISTIVITY OF MUD FILTRATE
SUFT.C        15                   : SUFT         - SURFACE TEMPERATURE
~A  DEPTH     RESD     PHID     PHIN       GR
# ...
  488.500    5.908    0.285    0.448   76.579
  488.750    5.888    0.306    0.454   72.079
  489.000    5.901    0.316    0.453   68.251
  489.250    5.881    0.302    0.447   67.224
  489.500    5.818    0.321    0.447   67.844
  489.750    5.608    0.337    0.453   68.280
  490.000    5.395    0.344    0.468   68.780
  490.250    5.229    0.336    0.470   69.213
  490.500    5.144    0.332    0.458   69.773
  490.750    5.080    0.334    0.453   70.268
  491.000    5.062    0.338    0.453   71.130
  491.250    5.035    0.332    0.462   72.664
  491.500    5.019    0.319    0.468   75.050
  491.750    4.983    0.304    0.477   77.618
  492.000    4.948    0.296    0.490   80.797
  492.250    4.940    0.289    0.478   82.756
  492.500    4.924    0.283    0.470   84.045
  492.750    4.934    0.276    0.465   84.969
  493.000    4.936    0.257    0.460   84.979
  493.250    4.947    0.267    0.461   84.501
  493.500    4.948    0.286    0.478   84.084
  493.750    4.932    0.296    0.485   83.789
  494.000    4.906    0.306    0.474   83.738
  494.250    4.889    0.293    0.480   83.016
  494.500    4.864    0.280    0.486   82.051
  494.750    4.821    0.264    0.489   81.088
  495.000    4.786    0.260    0.493   80.791
  495.250    4.788    0.282    0.494   77.754
  495.500    4.789    0.293    0.505   71.549
  495.750    4.773    0.300    0.513   66.808
  496.000    4.784    0.320    0.508   64.197
  496.250    4.785    0.341    0.505   65.059
  496.500    4.787    0.332    0.504   65.922
  496.750    4.780    0.322    0.491   66.421
  497.000    4.781    0.323    0.486   66.551
  497.250    4.783    0.337    0.492   66.439
  497.500    4.784    0.337    0.501   66.875
  497.750    4.786    0.335    0.492   67.555
  498.000    4.787    0.346    0.489   68.174
  498.250    4.771    0.351    0.499   68.916
  498.500    4.764    0.348    0.491   67.646
  498.750    4.766    0.345    0.497   66.558
  499.000    4.767    0.332    0.504   69.371
  499.250    4.777    0.320    0.495   72.062
  499.500    4.798    0.312    0.490   73.168
  499.750    4.798    0.330    0.483   72.265
  500.000    4.800    0.351    0.477   71.544
  500.250    4.784    0.347    0.487   71.980
  500.500    4.786    0.337    0.485   72.658
  500.750    4.814    0.336    0.478   73.643
  501.000    4.896    0.334    0.475   72.434
  501.250    5.055    0.325    0.474   70.312
  501.500    5.437    0.317    0.477   66.971
  501.750    5.750    0.331    0.480   63.995
  502.000    6.092    0.352    0.485   62.419
  502.250    6.384    0.358    0.491   61.151
  502.500    6.327    0.357    0.498   60.064
  502.750    6.098    0.352    0.510   59.220
  503.000    5.448    0.348    0.520   57.890
  503.250    5.359    0.361    0.515   57.533
  503.500    5.098    0.367    0.495   59.676
  503.750    4.905    0.369    0.482   61.208
  504.000    4.745    0.367    0.486   62.559
  504.250    4.591    0.367    0.493   62.814
  504.500    4.474    0.370    0.495   62.152
  504.750    4.394    0.375    0.494   60.394
  505.000    4.354    0.376    0.491   58.637
  505.250    4.348    0.374    0.487   58.951
  505.500    4.374    0.371    0.481   59.693
  505.750    4.449    0.373    0.477   59.583
  506.000    4.636    0.378    0.478   59.346
  506.250    4.786    0.377    0.483   58.808
  506.500    5.015    0.371    0.481   57.721
  506.750    5.443    0.357    0.455   55.476
  507.000    6.155    0.336    0.434   52.256
  507.250    6.769    0.275    0.404   48.428
  507.500    6.404    0.247    0.291   45.513
  507.750    6.026    0.306    0.355   49.606
  508.000    5.555    0.346    0.407   52.906
  508.250    5.226    0.362    0.446   55.839
  508.500    5.037    0.374    0.459   59.139
  508.750    4.928    0.361    0.453   61.403
  509.000    4.966    0.351    0.446   63.180
  509.250    5.109    0.342    0.443   64.043
  509.500    5.264    0.340    0.453   63.748
  509.750    5.405    0.341    0.461   62.966
  510.000    5.529    0.331    0.463   61.637
  510.250    5.624    0.325    0.458   61.035
  510.500    5.689    0.322    0.462   62.751
  510.750    5.722    0.319    0.469   61.542
  511.000    5.755    0.313    0.461   59.117
  511.250    5.652    0.308    0.460   58.395
  511.500    5.706    0.307    0.461   59.012
  511.750    5.751    0.316    0.465   60.363
  512.000    5.806    0.328    0.468   61.470
  512.250    5.884    0.337    0.475   62.393
  512.500    5.908    0.336    0.480   62.950
  512.750    5.954    0.332    0.481   62.230
  513.000    6.011    0.329    0.480   60.594
  513.250    6.092    0.328    0.474   61.396
  513.500    6.139    0.327    0.470   62.441
  513.750    6.141    0.328    0.474   62.940
  514.000    6.031    0.333    0.476   63.192
  514.250    5.943    0.336    0.476   63.264
  514.500    5.814    0.332    0.470   62.971
  514.750    5.720    0.336    0.462   62.795
  515.000    5.637    0.331    0.458   62.746
  515.250    5.495    0.336    0.456   62.632
  515.500    5.356    0.345    0.465   62.885
  515.750    5.298    0.349    0.479   63.443
  516.000    5.270    0.352    0.476   64.612
  516.250    5.252    0.341    0.471   65.657
  516.500    5.215    0.349    0.478   66.337
  516.750    5.188    0.361    0.478   66.285
  517.000    5.124    0.349    0.472   63.248
  517.250    5.124    0.346    0.467   61.492
  517.500    5.155    0.339    0.458   61.135
  517.750    5.195    0.326    0.447   61.937
  518.000    5.333    0.312    0.433   63.958
  518.250    5.465    0.304    0.418   65.246
  518.500    5.559    0.307    0.403   67.268
  518.750    5.613    0.303    0.396   68.982
  519.000    5.625    0.295    0.405   70.516
  519.250    5.596    0.283    0.418   70.769
  519.500    5.495    0.288    0.413   68.952
  519.750    5.426    0.292    0.431   66.890
  520.000    5.387    0.277    0.448   66.046
  520.250    5.369    0.277    0.472   69.468
  520.500    5.351    0.284    0.485   70.939
  520.750    5.343    0.288    0.493   71.683
  521.000    5.334    0.307    0.481   71.630
  521.250    5.406    0.301    0.463   71.336
  521.500    5.520    0.292    0.443   71.222
  521.750    5.511    0.290    0.431   71.232
  522.000    5.033    0.281    0.427   71.120
  522.250    4.268    0.273    0.443   73.201
  522.500    3.373    0.272    0.484   81.558
  522.750    2.881    0.268    0.512   88.271
  523.000    2.475    0.268    0.530   93.825
  523.250    2.290    0.281    0.561   98.586
  523.500    2.096    0.291    0.582   92.382
  523.750    2.096    0.293    0.600   91.599
  524.000    2.349    0.277    0.595   93.315
  524.250    2.855    0.278    0.570   94.727
  524.500    3.697    0.282    0.535   92.725
  524.750    4.243    0.284    0.506   88.775
  525.000    4.563    0.281    0.488   85.312
  525.250    4.676    0.254    0.473   83.372
  525.500    4.600    0.245    0.483   82.102
  525.750    4.417    0.240    0.491   81.625
  526.000    4.234    0.243    0.491   82.245
  526.250    4.051    0.256    0.477   82.680
  526.500    3.933    0.258    0.468   82.812
  526.750    3.855    0.250    0.477   82.516
  527.000    3.885    0.244    0.484   80.942
  527.250    4.034    0.236    0.464   78.698
  527.500    4.227    0.223    0.450   78.828
  527.750    4.339    0.234    0.468   78.840
  528.000    4.324    0.248    0.482   78.057
  528.250    4.215    0.250    0.490   76.664
  528.500    4.116    0.235    0.493   74.481
  528.750    4.049    0.228    0.499   71.810
  529.000    3.969    0.230    0.499   71.454
  529.250    3.955    0.238    0.493   73.535
  529.500    3.950    0.241    0.490   77.019
  529.750    3.972    0.229    0.488   78.064
  530.000    4.026    0.231    0.489   75.880
  530.250    4.080    0.243    0.495   73.757
  530.500    4.220    0.256    0.494   72.487
  530.750    4.364    0.274    0.480   69.694
  531.000    4.633    0.303    0.470   65.561
  531.250    4.964    0.335    0.462   62.707
  531.500    5.299    0.348    0.457   63.448
  531.750    5.512    0.342    0.454   62.789
