~VERSION INFORMATION
 VERS.                 2.0:   CWLS LOG ASCII STANDARD -VERSION 2.0
 WRAP.                  NO:   ONE LINE PER DEPTH STEP
~WELL INFORMATION BLOCK
#MNEM.UNIT           DATA                    DESCRIPTION OF MNEMONIC
#---------    -------------------            -------------------------------
# Generated from Intellog Unique Number	CS_77_79/WELL/906
WELL.         SUNCOR ET AL PORTAGE           : Well_name    - WELL
LOC .         00/07-23-078-17W4/0            : Location     - LOCATION
UWI .         00/07-23-078-17W4/0            : Uwi          - UNIQUE WELL ID
ENTR.         JHS                            : Entered      - ENTERED BY
SRVC.         SCHLUMBERGER                   : Scn          - SERVICE COMPANY
STRT.M        165                            : top_depth    - START DEPTH
STOP.M        347                            : bot_depth    - STOP DEPTH
STEP.M        0.25                           : increment    - STEP LENGTH
 NULL. -999.2500:NULL Value
~CURVE INFORMATION BLOCK
#MNEM UNIT       ERCB CURVE CODE    CURVE DESCRIPTION
#-----------   ------------------   ----------------------------------
DEPT.M        00 001 00 00         : DEPTH        - DEPTH
DPHI.V/V      00 890 00 00         : PHID         - DENSITY POROSITY (LIMESTONE)
NPHI.V/V      00 330 00 00         : PHIN         - NEUTRON POROSITY (LIMESTONE)
GR  .API      00 310 00 00         : GR           - GAMMA RAY
ILD .OHMM     00 120 00 00         : RESD         - DEEP RESISTIVITY (DIL)
~PARAMETER INFORMATION
#MNEM.UNIT           DATA             DESCRIPTION OF MNEMONIC
#---------         -----------     ------------------------------
GL  .M        559.6                : gl           - GROUND LEVEL ELEVATION
EREF.M        562.9                : kb           - ELEVATION OF DEPTH REFERENCE
DATM.M        562.9                : datum        - DATUM ELEVATION
TDD .M        348                  : tdd          - TOTAL DEPTH DRILLER
RUN .         ONE                  : Run          - RUN NUMBER
ENG .         BILL                 : Engineer     - RECORDING ENGINEER
WIT .         JIM                  : Witness      - WITNESSED BY
MUD .         GEL                  : Mud_type     - MUD TYPE
MATR.         LIMESTONE            : Logunit      - NEUTRON MATRIX
TMAX.C        26                   : BHT          - MAXIMUM RECORDED TEMPERATURE
BHTD.M        348                  : BHTDEP       - MAXIMUM RECORDED TEMPERATURE
MATR.         1                    : LOGUNIT      - NEUTRON MATRIX
RMT .C        25                   : MDTP         - TEMPERATURE OF MUD
NEUT.         1                    : NEUTRON      - NEUTRON TYPE
RESI.         0                    : RESIST       - RESISTIVITY TYPE
RMC .OHMM     0.25                 : RMC          - RESISTIVITY OF MUD CAKE
RMF .OHMM     0.25                 : RMF          - RESISTIVITY OF MUD FILTRATE
SUFT.C        15                   : SUFT         - SURFACE TEMPERATURE
~A  DEPTH     PHID     PHIN       GR     RESD
  165.000    0.252    0.485  104.489    2.727
  165.250    0.225    0.512  101.391    2.782
  165.500    0.219    0.544   98.299    2.891
  165.750    0.238    0.499   99.503    2.949
  166.000    0.258    0.459  113.618    3.008
  166.250    0.253    0.451  114.209    3.068
  166.500    0.253    0.470  114.186    3.129
  166.750    0.252    0.444  117.847    3.254
  167.000    0.243    0.423  119.052    3.319
  167.250    0.243    0.416  115.338    3.386
  167.500    0.255    0.440  111.631    3.452
  167.750    0.271    0.460  107.919    3.521
  168.000    0.273    0.435  103.589    3.660
  168.250    0.260    0.434  104.185    3.733
  168.500    0.243    0.453  119.528    3.881
  168.750    0.230    0.435  124.423    3.958
  169.000    0.232    0.428  120.091    4.038
  169.250    0.250    0.464  115.768    4.118
  169.500    0.271    0.478  112.056    4.202
  169.750    0.271    0.451  112.035    4.205
  170.000    0.258    0.430  116.926    4.209
  170.250    0.257    0.443  121.200    4.213
  170.500    0.262    0.463  121.180    4.297
  170.750    0.256    0.439  118.084    4.382
  171.000    0.240    0.422  112.527    4.470
  171.250    0.225    0.458  109.435    4.474
  171.500    0.225    0.473  103.874    4.311
  171.750    0.235    0.471  101.395    4.156
  172.000    0.235    0.460  106.291    4.319
  172.250    0.228    0.442  108.724    4.323
  172.500    0.225    0.437  105.015    4.245
  172.750    0.240    0.446   98.845    4.092
  173.000    0.289    0.457  108.654    3.943
  173.250    0.291    0.462  117.237    3.872
  173.500    0.292    0.456  121.511    3.733
  173.750    0.290    0.453  120.874    3.666
  174.000    0.291    0.453  116.550    3.669
  174.250    0.293    0.441  114.066    3.742
  174.500    0.291    0.432  114.041    3.817
  174.750    0.281    0.445  115.251    3.967
  175.000    0.262    0.431  112.153    4.283
  175.250    0.241    0.381  100.452    4.894
  175.500    0.238    0.364   81.989    5.919
  175.750    0.292    0.366   78.890    7.295
  176.000    0.325    0.361   83.163    8.990
  176.250    0.326    0.368   87.445   11.508
  176.500    0.320    0.377   91.110   13.149
  176.750    0.309    0.388   93.546   14.469
  177.000    0.300    0.380   92.294   15.045
  177.250    0.291    0.354   81.824   15.052
  177.500    0.281    0.346   78.723   14.238
  177.750    0.266    0.353   87.309   13.209
  178.000    0.252    0.386  106.952   11.581
  178.250    0.236    0.417  113.077   10.152
  178.500    0.254    0.408  111.210    8.409
  178.750    0.301    0.401  105.036    7.373
  179.000    0.319    0.391  100.095    6.972
  179.250    0.323    0.387   92.698    6.849
  179.500    0.301    0.401   83.453    6.854
  179.750    0.268    0.414   80.359    6.731
  180.000    0.253    0.442   95.084    6.129
  180.250    0.257    0.468  107.355    5.373
  180.500    0.254    0.471  117.781    4.801
  180.750    0.236    0.455  123.903    4.454
  181.000    0.228    0.440  125.725    4.375
  181.250    0.237    0.434  122.011    4.297
  181.500    0.252    0.479  126.892    4.301
  181.750    0.265    0.476  128.111    4.387
  182.000    0.267    0.445  130.547    4.475
  182.250    0.254    0.420  133.597    4.740
  182.500    0.238    0.400  134.189    5.021
  182.750    0.226    0.383  123.102    5.630
  183.000    0.219    0.378  111.398    6.433
  183.250    0.221    0.381  105.840    7.491
  183.500    0.229    0.387  106.434    7.935
  183.750    0.235    0.392  119.314    7.648
  184.000    0.242    0.407  123.597    7.096
  184.250    0.256    0.407  126.649    6.972
  184.500    0.268    0.400  127.234    7.245
  184.750    0.295    0.375  121.070    7.973
  185.000    0.308    0.337  100.761    9.458
  185.250    0.303    0.312   82.295   12.339
  185.500    0.239    0.302   70.597   14.921
  185.750    0.196    0.308   65.040   16.730
  186.000    0.196    0.331   76.695   16.750
  186.250    0.230    0.373  100.029   15.540
  186.500    0.244    0.407  112.912   12.871
  186.750    0.244    0.415  115.956   10.461
  187.000    0.242    0.398  115.938    9.347
  187.250    0.243    0.372  112.228    9.008
  187.500    0.259    0.347  107.901   10.099
  187.750    0.275    0.337  102.347   13.177
  188.000    0.277    0.342   95.559   15.933
  188.250    0.267    0.358   98.609   17.866
  188.500    0.259    0.369  107.189   18.570
  188.750    0.254    0.373  112.086   18.595
  189.000    0.248    0.382  111.440   18.257
  189.250    0.253    0.397  111.423   16.941
  189.500    0.268    0.394  111.397   16.325
  189.750    0.282    0.380  107.076   16.341
  190.000    0.296    0.372  101.519   17.310
  190.250    0.303    0.344   98.423   18.337
  190.500    0.309    0.309   95.941   18.357
  190.750    0.317    0.266   83.009   18.718
  191.000    0.330    0.217   61.470   22.638
  191.250    0.354    0.192   52.227   34.360
  191.500    0.366    0.188   49.130   49.269
  191.750    0.373    0.224   49.719   61.880
  192.000    0.374    0.245   50.925   66.816
  192.250    0.358    0.249   49.057   57.477
  192.500    0.352    0.264   43.506   42.499
  192.750    0.358    0.315   37.949   35.202
  193.000    0.362    0.334   35.464   28.614
  193.250    0.349    0.331   34.826   26.052
  193.500    0.337    0.325   37.260   24.635
  193.750    0.323    0.325   43.999   23.297
  194.000    0.299    0.340   57.499   20.816
  194.250    0.278    0.353   72.229   18.598
  194.500    0.275    0.363   83.271   17.259
  194.750    0.270    0.383   88.163   16.634
  195.000    0.262    0.383   85.066   16.967
  195.250    0.247    0.355   80.736   17.634
  195.500    0.232    0.351   79.483   17.650
  195.750    0.219    0.361   77.005   14.618
  196.000    0.214    0.376   78.211   10.408
  196.250    0.211    0.402  104.618    8.459
  196.500    0.204    0.420  118.117    7.007
  196.750    0.184    0.430  128.542    6.029
  197.000    0.164    0.461  130.363    5.387
  197.250    0.153    0.490  119.887    4.998
  197.500    0.179    0.473  121.705    4.727
  197.750    0.234    0.461  125.988    4.555
  198.000    0.238    0.465  128.424    4.308
  198.250    0.234    0.467  130.860    4.231
  198.500    0.228    0.458  138.213    4.155
  198.750    0.225    0.449  145.564    4.239
  199.000    0.219    0.456  142.464    4.162
  199.250    0.235    0.482  139.368    3.936
  199.500    0.256    0.466  145.491    3.940
  199.750    0.260    0.441  150.382    4.096
  200.000    0.257    0.425  152.209    4.338
  200.250    0.247    0.394  148.496    4.864
  200.500    0.236    0.385  135.565    5.663
  200.750    0.225    0.394  126.928    6.849
  201.000    0.213    0.400  130.589    9.106
  201.250    0.204    0.387  132.417   10.209
  201.500    0.204    0.372  133.011   10.612
  201.750    0.211    0.363  132.369   10.824
  202.000    0.216    0.389  126.202   10.044
  202.250    0.211    0.433  120.027    8.807
  202.500    0.209    0.422  125.539    8.020
  202.750    0.219    0.407  131.048    7.878
  203.000    0.248    0.382  134.100    8.033
  203.250    0.279    0.371  130.384    8.510
  203.500    0.310    0.390  118.071    9.724
  203.750    0.325    0.397  108.827   11.111
  204.000    0.325    0.387  106.344   12.222
  204.250    0.307    0.391  108.775   13.449
  204.500    0.293    0.392  111.214   13.979
  204.750    0.291    0.385  111.804   13.993
  205.000    0.292    0.382  107.478   13.741
  205.250    0.293    0.383  104.998   12.998
  205.500    0.293    0.375  116.036   12.763
  205.750    0.290    0.368  125.849   12.535
  206.000    0.280    0.369  127.047   12.312
  206.250    0.273    0.381  130.102   12.091
  206.500    0.268    0.395  138.070   11.874
  206.750    0.264    0.379  138.663   11.228
  207.000    0.276    0.370  130.032   10.620
  207.250    0.293    0.369  118.948   10.835
  207.500    0.305    0.374  117.692   11.048
  207.750    0.299    0.382  106.604   11.705
  208.000    0.287    0.386   85.685   12.877
  208.250    0.277    0.382   73.982   14.167
