~VERSION INFORMATION
 VERS.                 2.0:   CWLS LOG ASCII STANDARD -VERSION 2.0
 WRAP.                  NO:   ONE LINE PER DEPTH STEP
~WELL INFORMATION BLOCK
#MNEM.UNIT           DATA                    DESCRIPTION OF MNEMONIC
#---------    -------------------            -------------------------------
# Generated from Intellog Unique Number	CW_76_78/WELL/529
WELL.         CHIEFCO RR ET AL PELICAN 06-21 : Well_name    - WELL
LOC .         00/06-21-077-22W4/0            : Location     - LOCATION
UWI .         00/06-21-077-22W4/0            : Uwi          - UNIQUE WELL ID
ENTR.         jj                             : Entered      - ENTERED BY
SRVC.         SCHLUMBERGER                   : Scn          - SERVICE COMPANY
DATE.         24 FEB 1973                    : Date         - LOG DATE
STRT.M        377.952                        : top_depth    - START DEPTH
STOP.M        600.452                        : bot_depth    - STOP DEPTH
STEP.M        0.25                           : increment    - STEP LENGTH
 NULL. -999.2500:NULL Value
~CURVE INFORMATION BLOCK
#MNEM UNIT       ERCB CURVE CODE    CURVE DESCRIPTION
#-----------   ------------------   ----------------------------------
DEPT.M        00 001 00 00         : DEPTH        - DEPTH
ILD .OHMM     00 120 00 00         : RESD         - DEEP RESISTIVITY (DIL)
NPHI.V/V      00 330 00 00         : PHIN         - NEUTRON POROSITY (SANDSTONE)
DPHI.V/V      00 890 00 00         : PHID         - DENSITY POROSITY (SANDSTONE)
GR  .API      00 310 00 00         : GR           - GAMMA RAY
CALI.MM       00 280 01 00         : CAL          - CALIPER
~PARAMETER INFORMATION
#MNEM.UNIT           DATA             DESCRIPTION OF MNEMONIC
#---------         -----------     ------------------------------
GL  .M        701.954              : gl           - GROUND LEVEL ELEVATION
EREF.M        704.088              : kb           - ELEVATION OF DEPTH REFERENCE
DATM.M        701.954              : datum        - DATUM ELEVATION
TDD .M        601.066              : tdd          - TOTAL DEPTH DRILLER
RUN .         ONE                  : Run          - RUN NUMBER
ENG .         XXXXX                : Engineer     - RECORDING ENGINEER
WIT .         XXXXX                : Witness      - WITNESSED BY
BASE.         EDMONTON             : Branch       - HOME BASE OF LOGGING UNIT
MUD .         GEL CHEM             : Mud_type     - MUD TYPE
MATR.         SANDSTONE            : Logunit      - NEUTRON MATRIX
TMAX.C        20                   : BHT          - MAXIMUM RECORDED TEMPERATURE
BHTD.M        598.932              : BHTDEP       - MAXIMUM RECORDED TEMPERATURE
RMT .C        15.5556              : MDTP         - TEMPERATURE OF MUD
MUDD.KG/M     1080                 : MWT          - MUD DENSITY
NEUT.         1                    : NEUTRON      - NEUTRON TYPE
RESI.         0                    : RESIST       - RESISTIVITY TYPE
RM  .OHMM     3.57                 : RM           - RESISTIVITY OF MUD
RMC .OHMM     2.5                  : RMC          - RESISTIVITY OF MUD CAKE
RMF .OHMM     3.51                 : RMF          - RESISTIVITY OF MUD FILTRATE
SUFT.C        4.5                  : SUFT         - SURFACE TEMPERATURE
~A  DEPTH     RESD     PHIN     PHID       GR      CAL
  377.952    2.238    0.616    0.193  117.183  165.257
  378.202    2.301    0.599    0.202  118.046  165.574
  378.452    2.352    0.589    0.192  117.682  168.796
  378.702    2.342    0.566    0.186  116.584  171.811
  378.952    2.316    0.556    0.192  114.813  171.505
  379.202    2.255    0.570    0.212  113.287  169.646
  379.452    2.267    0.554    0.199  108.393  167.787
  379.702    2.373    0.500    0.198  104.969  165.826
  379.952    2.804    0.449    0.188   99.156  166.869
  380.202    3.463    0.448    0.184   91.753  169.261
  380.452    4.114    0.476    0.168   79.879  168.544
  380.702    4.674    0.421    0.127   68.741  167.513
  380.952    6.550    0.392    0.089   65.745  164.618
  381.202    7.332    0.475    0.215   73.219  161.721
  381.452    7.130    0.444    0.288   81.794  160.276
  381.702    6.399    0.420    0.243   93.309  160.803
  381.952    5.648    0.452    0.177  111.374  162.158
  382.202    4.967    0.492    0.165  118.909  165.378
  382.452    4.280    0.515    0.155  120.567  169.222
  382.702    3.547    0.520    0.151  120.142  170.267
  382.952    3.155    0.520    0.163  117.330  170.688
  383.202    2.933    0.532    0.180  112.253  171.317
  383.452    2.753    0.550    0.187  106.930  171.221
  383.702    2.656    0.543    0.204  103.567  170.502
  383.952    2.558    0.529    0.193  101.306  170.301
  384.202    2.415    0.546    0.186  101.678  171.034
  384.452    2.254    0.571    0.181  100.152  171.353
  384.702    2.068    0.602    0.229  100.829  170.946
  384.952    1.978    0.640    0.218  102.793  171.160
  385.202    1.852    0.643    0.218   98.389  171.374
  385.452    1.633    0.614    0.225   97.291  173.145
  385.702    1.604    0.591    0.240  101.459  172.945
  385.952    1.806    0.577    0.260  101.830  171.707
  386.202    2.138    0.563    0.278   97.855  168.708
  386.452    2.438    0.554    0.284   92.227  166.538
  386.702    2.827    0.524    0.296   87.823  164.264
  386.952    3.882    0.495    0.282   84.460  164.582
  387.202    5.192    0.495    0.261   70.321  164.590
  387.452    7.441    0.482    0.272   61.631  162.109
  387.702    8.838    0.459    0.306   59.248  160.147
  387.952   10.385    0.457    0.313   61.640  157.976
  388.202   10.496    0.468    0.297   61.950  157.778
  388.452   10.415    0.474    0.287   64.894  159.132
  388.702    9.997    0.462    0.279   64.714  159.969
  388.952    9.789    0.459    0.266   63.188  159.768
  389.202    9.376    0.467    0.213   62.947  160.397
  389.452    9.390    0.499    0.240   64.237  160.923
  389.702    9.473    0.522    0.250   68.894  160.308
  389.952    9.939    0.507    0.277   68.102  159.900
  390.202   10.045    0.448    0.298   67.373  159.597
  390.452   10.100    0.425    0.278   67.131  159.191
  390.702    9.873    0.451    0.225   67.748  158.884
  390.952    9.061    0.482    0.175   72.466  160.345
  391.202    8.133    0.468    0.169   80.185  162.009
  391.452    7.381    0.476    0.249   78.965  162.950
  391.702    7.111    0.463    0.274   83.561  162.336
  391.952    6.311    0.460    0.262  105.422  161.202
  392.202    5.220    0.483    0.234  118.345  161.106
  392.452    3.806    0.501    0.211  123.124  163.291
  392.702    3.039    0.488    0.198  116.210  166.200
  392.952    2.764    0.501    0.209  109.357  171.184
  393.202    2.804    0.513    0.216  102.382  173.057
  393.452    3.313    0.495    0.246   93.448  170.887
  393.702    4.407    0.495    0.257   84.084  167.888
  393.952    5.744    0.488    0.285   70.252  164.784
  394.202    7.531    0.487    0.333   65.297  161.888
  394.452    7.527    0.501    0.327   69.036  160.237
  394.702    6.819    0.483    0.296   79.388  159.830
  394.952    5.417    0.495    0.266   97.943  161.496
  395.202    4.667    0.547    0.178  108.845  163.783
  395.452    4.051    0.553    0.170  111.237  166.175
  395.702    3.609    0.529    0.201  108.241  166.390
  395.952    3.257    0.528    0.231  102.735  165.671
  396.202    3.126    0.572    0.246  102.188  164.953
  396.452    2.654    0.630    0.256  105.254  165.894
  396.702    2.317    0.622    0.271  103.115  167.146
  396.952    2.053    0.593    0.267   96.140  167.359
  397.202    2.029    0.564    0.235   93.940  166.641
  397.452    2.314    0.492    0.171   89.781  164.678
  397.702    2.822    0.505    0.222   92.418  162.922
  397.952    3.021    0.516    0.234   96.585  162.931
  398.202    3.048    0.514    0.234   99.836  162.729
  398.452    3.029    0.520    0.232  101.859  162.115
  398.702    2.951    0.530    0.240  102.109  163.057
  398.952    2.874    0.548    0.204  103.766  166.175
  399.202    2.868    0.544    0.201  106.220  168.254
  399.452    2.899    0.518    0.184  107.999  169.919
  399.702    2.921    0.488    0.179  109.840  170.134
  399.952    2.935    0.489    0.213  113.885  170.246
  400.202    2.961    0.485    0.197  116.460  170.667
  400.452    2.966    0.433    0.204  114.261  168.600
  400.702    2.988    0.393    0.211  114.265  164.048
  400.952    3.008    0.361    0.196  115.372  164.366
  401.202    3.064    0.462    0.187  112.375  164.580
  401.452    3.119    0.539    0.190  106.625  164.067
  401.702    3.231    0.549    0.189  102.711  163.247
  401.952    3.319    0.568    0.220   93.960  163.045
  402.202    3.568    0.573    0.232   87.046  162.742
  402.452    3.948    0.531    0.244   82.030  162.023
  402.702    4.814    0.506    0.247   81.360  161.408
  402.952    5.709    0.486    0.253   73.222  160.380
  403.202    6.719    0.487    0.267   67.593  159.973
  403.452    8.070    0.507    0.296   63.129  159.771
  403.702    9.713    0.513    0.298   66.011  159.572
  403.952   10.776    0.487    0.275   68.402  159.890
  404.202   10.768    0.479    0.287   75.753  160.520
  404.452    9.996    0.457    0.259  105.390  160.734
  404.702    9.241    0.425    0.265  125.108  160.843
  404.952    8.295    0.406    0.250  117.215  160.747
  405.202    7.365    0.442    0.231  107.423  160.651
  405.452    6.647    0.469    0.185  103.999  160.139
  405.702    5.933    0.475    0.191  112.574  159.835
  405.952    5.578    0.478    0.181  116.375  160.050
  406.202    5.255    0.457    0.193  117.481  160.472
  406.452    5.263    0.471    0.212  113.138  161.827
  406.702    5.260    0.522    0.196  106.408  162.354
  406.952    5.057    0.542    0.221  101.025  161.738
  407.202    4.498    0.526    0.246  106.539  161.435
  407.452    3.919    0.536    0.238  120.809  162.063
  407.702    3.415    0.580    0.184  129.262  164.352
  407.952    2.981    0.583    0.168  131.348  166.330
  408.202    2.559    0.580    0.182  127.924  167.892
  408.452    2.310    0.576    0.159  125.601  168.831
  408.702    2.176    0.541    0.126  127.932  170.082
  408.952    2.220    0.515    0.140  131.058  170.506
  409.202    2.303    0.510    0.149  133.267  171.237
  409.452    2.251    0.541    0.174  135.230  171.037
  409.702    2.101    0.566    0.168  135.969  168.867
  409.952    2.047    0.582    0.223  136.218  165.763
  410.202    2.119    0.579    0.229  135.121  165.047
  410.452    2.281    0.566    0.220  129.125  164.949
  410.702    2.578    0.519    0.206  130.047  162.884
  410.952    2.940    0.499    0.216  131.276  162.788
  411.202    3.260    0.480    0.217  127.179  163.521
  411.452    4.173    0.491    0.201  122.958  163.838
  411.702    4.377    0.517    0.184  119.656  163.533
  411.952    4.255    0.534    0.180  121.192  162.815
  412.202    4.301    0.521    0.192  121.930  163.652
  412.452    4.503    0.518    0.206  121.139  163.452
  412.702    4.794    0.501    0.193  115.632  162.527
  412.952    5.125    0.488    0.216  107.004  163.155
  413.202    5.395    0.487    0.240  105.356  163.370
  413.452    6.166    0.502    0.239  108.788  162.446
  413.702    6.600    0.510    0.238  104.445  161.414
  413.952    6.821    0.490    0.233   95.144  158.935
  414.202    7.147    0.480    0.253   90.189  157.075
