~VERSION INFORMATION
 VERS.                 2.0:   CWLS LOG ASCII STANDARD -VERSION 2.0
 WRAP.                  NO:   ONE LINE PER DEPTH STEP
~WELL INFORMATION BLOCK
#MNEM.UNIT           DATA                    DESCRIPTION OF MNEMONIC
#---------    -------------------            -------------------------------
# Generated from Intellog Unique Number	CS_69_70/WELL/701
NULL.         -999.25                        : NULL_VALUE
WELL.         HUSKY OIL OPERATION            : Well_name    - WELL              
LOC .         00/05-19-070-05W4/0            : Location     - LOCATION          
UWI .         00/05-19-070-05W4/0            : Uwi          - UNIQUE WELL ID    
ENTR.         SP                             : Entered      - ENTERED BY        
SRVC.         SCHLUMBERGER                   : Scn          - SERVICE COMPANY   
STRT.M        305                            : top_depth    - START DEPTH       
STOP.M        550                            : bot_depth    - STOP DEPTH        
STEP.M        0.25                           : increment    - STEP LENGTH       
~CURVE INFORMATION BLOCK
#MNEM UNIT       ERCB CURVE CODE    CURVE DESCRIPTION
#-----------   ------------------   ----------------------------------
DEPT.M        00 001 00 00         : DEPTH        - DEPTH                       
ILD .OHMM     00 120 00 00         : RESD         - DEEP RESISTIVITY (DIL)      
DPHI.V/V      00 890 00 00         : PHID         - DENSITY POROSITY (LIMESTONE)
NPHI.V/V      00 330 00 00         : PHIN         - NEUTRON POROSITY (LIMESTONE)
GR  .API      00 310 00 00         : GR           - GAMMA RAY                   
~PARAMETER INFORMATION       
#MNEM.UNIT           DATA             DESCRIPTION OF MNEMONIC
#---------         -----------     ------------------------------
GL  .M        667.3                : gl           - GROUND LEVEL ELEVATION      
EREF.M        671                  : kb           - ELEVATION OF DEPTH REFERENCE
DATM.M        667                  : datum        - DATUM ELEVATION             
TDD .M        555                  : tdd          - TOTAL DEPTH DRILLER         
RUN .         ONE                  : Run          - RUN NUMBER                  
ENG .         BILL                 : Engineer     - RECORDING ENGINEER          
WIT .         JIM                  : Witness      - WITNESSED BY                
MUD .         GEL                  : Mud_type     - MUD TYPE                    
MATR.         LIMESTONE            : Logunit      - NEUTRON MATRIX              
TMAX.C        26                   : BHT          - MAXIMUM RECORDED TEMPERATURE
BHTD.M        555                  : BHTDEP       - MAXIMUM RECORDED TEMPERATURE
MATR.         1                    : LOGUNIT      - NEUTRON MATRIX              
RMT .C        25                   : MDTP         - TEMPERATURE OF MUD          
NEUT.         1                    : NEUTRON      - NEUTRON TYPE                
RESI.         0                    : RESIST       - RESISTIVITY TYPE            
RMC .OHMM     0.25                 : RMC          - RESISTIVITY OF MUD CAKE     
RMF .OHMM     0.25                 : RMF          - RESISTIVITY OF MUD FILTRATE 
SUFT.C        15                   : SUFT         - SURFACE TEMPERATURE         
~A  DEPTH     RESD     PHID     PHIN       GR
# ...
  392.000    3.790    0.263    0.516   83.547
  392.250    4.321    0.268    0.509   81.139
  392.500    4.836    0.275    0.493   82.967
  392.750    5.313    0.282    0.471   82.982
  393.000    5.516    0.288    0.470   81.784
  393.250    5.623    0.277    0.465   79.375
  393.500    5.626    0.284    0.470   76.969
  393.750    5.127    0.298    0.471   75.165
  394.000    4.418    0.309    0.465   76.388
  394.250    3.879    0.301    0.461   83.658
  394.500    3.405    0.290    0.477   93.350
  394.750    3.046    0.279    0.519   99.412
  395.000    2.776    0.266    0.539  103.655
  395.250    2.577    0.252    0.564  108.509
  395.500    2.531    0.264    0.578  109.729
  395.750    2.533    0.270    0.597  106.721
  396.000    2.582    0.272    0.590  102.498
  396.250    2.583    0.263    0.587   97.671
  396.500    2.733    0.257    0.577  100.709
  396.750    2.838    0.260    0.563  104.347
  397.000    3.117    0.263    0.576  106.175
  397.250    3.554    0.271    0.596  103.770
  397.500    4.368    0.280    0.594  100.153
  397.750    4.620    0.279    0.561   95.325
  398.000    5.075    0.280    0.508   89.893
  398.250    5.574    0.298    0.467   84.463
  398.500    5.899    0.313    0.447   80.245
  398.750    6.013    0.321    0.447   79.042
  399.000    6.362    0.316    0.461   77.242
  399.250    6.486    0.311    0.458   76.652
  399.500    6.736    0.306    0.451   76.060
  399.750    6.996    0.299    0.459   75.464
  400.000    7.132    0.300    0.487   74.267
  400.250    7.270    0.303    0.473   73.674
  400.500    7.273    0.300    0.474   74.897
  400.750    7.277    0.301    0.500   78.540
  401.000    7.280    0.311    0.498   79.761
  401.250    7.149    0.317    0.465   78.566
  401.500    6.891    0.320    0.471   79.179
  401.750    6.641    0.315    0.491   84.035
  402.000    5.941    0.304    0.475   86.463
  402.250    5.313    0.288    0.475   90.109
  402.500    4.579    0.272    0.470   90.117
  402.750    4.173    0.270    0.461   90.128
  403.000    4.253    0.266    0.474   88.932
  403.250    4.761    0.254    0.483   87.129
  403.500    4.943    0.250    0.478   85.933
  403.750    5.330    0.245    0.471   85.339
  404.000    5.641    0.244    0.467   85.958
  404.250    5.748    0.252    0.481   88.993
  404.500    5.861    0.250    0.482   92.031
  404.750    5.864    0.241    0.473   91.438
  405.000    5.757    0.237    0.467   87.824
  405.250    5.549    0.243    0.453   86.623
  405.500    5.057    0.249    0.443   90.872
  405.750    4.784    0.256    0.445   95.118
  406.000    4.443    0.261    0.456   96.337
  406.250    4.125    0.262    0.474   94.536
  406.500    4.050    0.256    0.494   93.340
  406.750    3.831    0.246    0.506   95.772
  407.000    3.625    0.245    0.508   98.810
  407.250    3.429    0.245    0.495  100.028
  407.500    3.244    0.239    0.507  100.649
  407.750    3.185    0.234    0.500  101.264
  408.000    3.247    0.234    0.491  102.485
  408.250    3.373    0.245    0.523  102.498
  408.500    3.374    0.247    0.538  102.510
  408.750    3.439    0.239    0.541  105.549
  409.000    3.441    0.226    0.521  106.769
  409.250    3.379    0.230    0.548  104.969
  409.500    3.257    0.248    0.541  104.374
  409.750    3.259    0.246    0.526  104.992
  410.000    3.384    0.241    0.520  104.404
  410.250    3.649    0.262    0.546  103.203
  410.500    4.084    0.276    0.568   97.771
  410.750    4.241    0.275    0.551   93.548
  411.000    4.487    0.270    0.536   89.934
  411.250    4.749    0.259    0.512   88.738
  411.500    4.840    0.257    0.494   86.328
  411.750    4.933    0.259    0.470   80.291
  412.000    4.935    0.257    0.454   84.540
  412.250    4.757    0.247    0.459   85.163
  412.500    4.585    0.244    0.478   84.564
  412.750    4.674    0.244    0.503   86.996
  413.000    4.946    0.247    0.511   86.404
  413.250    5.434    0.266    0.492   82.180
  413.500    5.643    0.288    0.459   76.751
  413.750    5.860    0.307    0.442   75.552
  414.000    6.085    0.318    0.447   71.936
  414.250    6.321    0.309    0.454   68.318
  414.500    6.442    0.249    0.443   67.123
  414.750    6.326    0.251    0.431   73.182
  415.000    5.874    0.301    0.439   75.618
  415.250    5.158    0.325    0.449   73.210
  415.500    4.789    0.338    0.450   73.220
  415.750    4.530    0.346    0.444   75.049
  416.000    4.286    0.339    0.460   76.272
  416.250    4.208    0.333    0.483   76.888
  416.500    4.210    0.334    0.482   76.293
  416.750    4.291    0.341    0.466   72.681
  417.000    4.376    0.342    0.449   70.271
  417.250    4.459    0.337    0.461   68.468
  417.500    4.461    0.334    0.471   67.276
  417.750    4.634    0.335    0.466   66.677
  418.000    4.724    0.337    0.460   67.905
  418.250    4.816    0.342    0.452   69.124
  418.500    4.909    0.346    0.471   70.949
  418.750    5.004    0.340    0.485   75.800
  419.000    5.100    0.323    0.483   83.077
  419.250    5.103    0.300    0.469   84.897
  419.500    5.202    0.300    0.456   81.282
  419.750    5.204    0.307    0.445   83.714
  420.000    5.110    0.302    0.430   88.564
  420.250    5.113    0.289    0.447   89.787
  420.500    5.021    0.270    0.455   84.961
  420.750    4.932    0.263    0.469   80.738
  421.000    4.842    0.280    0.454   86.195
  421.250    4.754    0.291    0.456   91.650
  421.500    4.415    0.288    0.460   89.848
  421.750    4.255    0.284    0.456   86.839
  422.000    3.951    0.293    0.466   85.038
  422.250    3.669    0.287    0.515   84.442
  422.500    3.406    0.282    0.523   86.271
  422.750    2.881    0.276    0.504   88.703
  423.000    2.725    0.274    0.495   90.527
  423.250    2.483    0.270    0.499   92.958
  423.500    2.349    0.272    0.521   94.183
  423.750    2.223    0.281    0.547   94.194
  424.000    2.182    0.291    0.552   94.210
  424.250    2.143    0.287    0.558   95.429
  424.500    2.144    0.271    0.568   97.859
  424.750    2.145    0.267    0.561   94.243
  425.000    2.147    0.272    0.529   90.021
  425.250    2.229    0.278    0.516   91.243
  425.500    2.316    0.287    0.541   93.677
  425.750    2.405    0.298    0.566   94.899
  426.000    2.406    0.294    0.576   96.119
  426.250    2.499    0.286    0.549   93.715
  426.500    2.500    0.275    0.542   96.143
  426.750    2.596    0.268    0.548  102.207
  427.000    2.696    0.262    0.528   96.172
  427.250    3.018    0.273    0.534   90.740
  427.500    3.253    0.282    0.534   87.726
  427.750    3.641    0.291    0.494   84.114
  428.000    3.999    0.297    0.468   81.701
  428.250    4.476    0.304    0.461   76.271
  428.500    4.647    0.311    0.442   67.215
  428.750    4.918    0.306    0.433   61.176
  429.000    5.012    0.320    0.437   52.114
  429.250    5.111    0.340    0.452   50.312
  429.500    5.113    0.352    0.450   53.349
  429.750    5.212    0.358    0.440   55.176
  430.000    5.414    0.357    0.441   55.188
  430.250    5.621    0.362    0.501   51.573
  430.500    5.949    0.360    0.550   52.801
  430.750    6.177    0.346    0.540   53.414
  431.000    6.913    0.337    0.492   54.030
  431.250    7.452    0.321    0.468   53.438
  431.500    8.988    0.308    0.473   53.450
  431.750   10.441    0.300    0.481   54.671
  432.000   11.046    0.308    0.481   57.706
  432.250   12.596    0.332    0.473   60.138
  432.500   14.097    0.344    0.488   57.129
  432.750   14.917    0.350    0.485   54.720
  433.000   15.202    0.331    0.462   53.521
  433.250   16.088    0.295    0.439   56.560
  433.500   16.400    0.265    0.408   57.175
  433.750   16.716    0.267    0.423   55.377
  434.000   16.726    0.301    0.442   56.602
  434.250   16.735    0.325    0.440   57.212
  434.500   16.431    0.350    0.420   56.019
  434.750   16.439    0.305    0.411   54.213
  435.000   16.758    0.269    0.386   53.623
  435.250   17.088    0.258    0.391   57.262
