~VERSION INFORMATION
 VERS.                 2.0:   CWLS LOG ASCII STANDARD -VERSION 2.0
 WRAP.                  NO:   ONE LINE PER DEPTH STEP
~WELL INFORMATION BLOCK
#MNEM.UNIT           DATA                    DESCRIPTION OF MNEMONIC
#---------    -------------------            -------------------------------
# Generated from Intellog Unique Number	CS_73_76/WELL/2158
WELL.         PEX KIRBY                      : Well_name    - WELL
LOC .         00/07-13-075-07W4/0            : Location     - LOCATION
UWI .         00/07-13-075-07W4/0            : Uwi          - UNIQUE WELL ID
ENTR.         SP                             : Entered      - ENTERED BY
SRVC.         SCHLUMBERGER                   : Scn          - SERVICE COMPANY
STRT.M        245                            : top_depth    - START DEPTH
STOP.M        475                            : bot_depth    - STOP DEPTH
STEP.M        0.25                           : increment    - STEP LENGTH
 NULL. -999.2500:NULL Value
~CURVE INFORMATION BLOCK
#MNEM UNIT       ERCB CURVE CODE    CURVE DESCRIPTION
#-----------   ------------------   ----------------------------------
DEPT.M        00 001 00 00         : DEPTH        - DEPTH
ILD .OHMM     00 120 00 00         : RESD         - DEEP RESISTIVITY (DIL)
DPHI.V/V      00 890 00 00         : PHID         - DENSITY POROSITY (LIMESTONE)
NPHI.V/V      00 330 00 00         : PHIN         - NEUTRON POROSITY (LIMESTONE)
GR  .API      00 310 00 00         : GR           - GAMMA RAY
~PARAMETER INFORMATION
#MNEM.UNIT           DATA             DESCRIPTION OF MNEMONIC
#---------         -----------     ------------------------------
GL  .M        642.12               : gl           - GROUND LEVEL ELEVATION
EREF.M        645.4                : kb           - ELEVATION OF DEPTH REFERENCE
DATM.M        642.12               : datum        - DATUM ELEVATION
TDD .M        480                  : tdd          - TOTAL DEPTH DRILLER
RUN .         ONE                  : Run          - RUN NUMBER
ENG .         BILL                 : Engineer     - RECORDING ENGINEER
WIT .         JIM                  : Witness      - WITNESSED BY
MUD .         GEL                  : Mud_type     - MUD TYPE
MATR.         LIMESTONE            : Logunit      - NEUTRON MATRIX
TMAX.C        21                   : BHT          - MAXIMUM RECORDED TEMPERATURE
BHTD.M        480                  : BHTDEP       - MAXIMUM RECORDED TEMPERATURE
MATR.         1                    : LOGUNIT      - NEUTRON MATRIX
RMT .C        25                   : MDTP         - TEMPERATURE OF MUD
NEUT.         1                    : NEUTRON      - NEUTRON TYPE
RESI.         0                    : RESIST       - RESISTIVITY TYPE
RMC .OHMM     0.25                 : RMC          - RESISTIVITY OF MUD CAKE
RMF .OHMM     0.25                 : RMF          - RESISTIVITY OF MUD FILTRATE
SUFT.C        15                   : SUFT         - SURFACE TEMPERATURE
~A  DEPTH     RESD     PHID     PHIN       GR
  245.000    2.986    0.228    0.431   95.513
  245.250    2.875    0.235    0.430   96.130
  245.500    2.874    0.240    0.425   93.076
  245.750    2.928    0.238    0.432   94.919
  246.000    3.040    0.222    0.422   97.987
  246.250    3.156    0.211    0.422  100.444
  246.500    3.215    0.198    0.408  102.287
  246.750    3.401    0.193    0.417  101.680
  247.000    3.531    0.218    0.419   99.851
  247.250    3.531    0.236    0.415   98.022
  247.500    3.530    0.234    0.410   96.191
  247.750    3.399    0.223    0.427   96.809
  248.000    3.335    0.224    0.426  101.716
  248.250    3.211    0.225    0.404  104.782
  248.500    3.210    0.231    0.415  107.850
  248.750    3.149    0.217    0.415  105.408
  249.000    3.209    0.191    0.409  101.741
  249.250    3.394    0.198    0.426   98.686
  249.500    3.591    0.230    0.432  102.979
  249.750    3.728    0.216    0.428  103.600
  250.000    4.019    0.231    0.410  104.218
  250.250    4.094    0.243    0.416  106.060
  250.500    4.251    0.251    0.426  107.904
  250.750    4.413    0.248    0.439  106.077
  251.000    4.582    0.174    0.444  105.470
  251.250    4.668    0.171    0.426  103.638
  251.500    4.494    0.188    0.427  101.197
  251.750    4.327    0.198    0.434  100.591
  252.000    4.246    0.204    0.425  103.045
  252.250    4.165    0.199    0.414  107.339
  252.500    4.244    0.193    0.431  104.286
  252.750    4.324    0.182    0.445  103.679
  253.000    4.661    0.186    0.420  103.074
  253.250    5.025    0.181    0.394  101.243
  253.500    5.625    0.206    0.387   98.188
  253.750    6.416    0.221    0.390   93.910
  254.000    7.891    0.247    0.389   89.020
  254.250   10.271    0.280    0.385   85.966
  254.500   13.880    0.282    0.369   84.745
  254.750   16.134    0.244    0.353   81.691
  255.000   17.068    0.203    0.339   82.923
  255.250   16.434    0.192    0.330   85.379
  255.500   15.238    0.199    0.334   86.612
  255.750   14.670    0.182    0.347   86.616
  256.000   14.668    0.156    0.355   87.236
  256.250   15.518    0.128    0.342   84.792
  256.500   16.727    0.132    0.334   81.739
  256.750   17.697    0.206    0.341   84.806
  257.000   19.441    0.258    0.364   86.041
  257.250   21.762    0.280    0.375   86.659
  257.500   23.459    0.275    0.366   86.663
  257.750   24.355    0.265    0.354   89.735
  258.000   24.351    0.249    0.364   91.575
  258.250   22.155    0.237    0.377   99.540
  258.500   21.333    0.233    0.386  101.995
  258.750   20.932    0.222    0.408  105.677
  259.000   19.778    0.209    0.401  106.907
  259.250   19.405    0.218    0.385  101.405
  259.500   19.401    0.212    0.372   99.574
  259.750   18.331    0.218    0.379   94.685
  260.000   16.368    0.225    0.369   93.465
  260.250   14.895    0.243    0.359   94.696
  260.500   13.301    0.233    0.359   94.703
  260.750   12.103    0.271    0.368   92.261
  261.000   11.012    0.309    0.390   90.430
  261.250   10.805    0.276    0.367   90.438
  261.500   12.324    0.207    0.367   91.668
  261.750   13.039    0.190    0.365   88.001
  262.000   15.156    0.204    0.344   87.396
  262.250   16.649    0.218    0.338   88.018
  262.500   18.991    0.255    0.341   87.412
  262.750   20.092    0.246    0.346   86.192
  263.000   23.353    0.250    0.363   83.138
  263.250   25.176    0.255    0.344   80.083
  263.500   27.141    0.265    0.338   73.969
  263.750   24.235    0.272    0.330   78.260
  264.000   18.967    0.257    0.341   87.453
  264.250   16.312    0.229    0.360   89.905
  264.500   12.528    0.196    0.375   96.034
  264.750   11.188    0.192    0.385  100.942
  265.000    9.440    0.189    0.369  102.783
  265.250    9.263    0.181    0.358   96.056
  265.500   10.566    0.214    0.361   87.491
  265.750   13.494    0.245    0.353   79.538
  266.000   17.562    0.265    0.337   67.299
  266.250   21.199    0.284    0.326   52.613
  266.500   30.313    0.296    0.332   45.272
  266.750   39.451    0.300    0.330   42.829
  267.000   46.730    0.301    0.342   46.509
  267.250   48.509    0.300    0.341   50.190
  267.500   46.708    0.300    0.332   51.421
  267.750   44.134    0.306    0.359   54.489
  268.000   41.701    0.288    0.354   60.620
  268.250   36.540    0.271    0.344   65.525
  268.500   32.631    0.261    0.353   69.205
  268.750   28.061    0.255    0.348   72.884
  269.000   22.378    0.249    0.342   79.012
  269.250   19.611    0.246    0.334   88.204
  269.500   16.864    0.237    0.325   87.598
  269.750   15.346    0.222    0.350   82.094
  270.000   12.950    0.229    0.339   76.591
  270.250   11.784    0.186    0.362   89.455
  270.500    9.758    0.154    0.376   98.646
  270.750    8.713    0.164    0.388  104.773
  271.000    8.234    0.147    0.383  110.291
  271.250    7.635    0.101    0.369  111.521
  271.500    6.817    0.170    0.362  115.814
  271.750    6.322    0.181    0.366  119.494
  272.000    5.435    0.165    0.388  121.951
  272.250    5.040    0.158    0.392  118.897
  272.500    4.763    0.144    0.404  118.291
  272.750    4.500    0.163    0.399  120.133
  273.000    4.252    0.161    0.415  117.078
  273.250    4.094    0.202    0.416  121.984
  273.500    5.035    0.213    0.401  121.378
  273.750    6.311    0.223    0.405  110.978
  274.000    7.618    0.236    0.395  103.636
  274.250    9.914    0.247    0.373   88.337
  274.500   12.662    0.256    0.354   80.996
  274.750   17.111    0.226    0.344   73.656
  275.000   20.268    0.203    0.359   71.826
  275.250   18.441    0.216    0.344   73.670
  275.500   17.757    0.263    0.338   76.127
  275.750   16.779    0.237    0.361   79.195
  276.000   15.853    0.233    0.383   77.976
  276.250   14.423    0.235    0.383   82.881
  276.500   13.628    0.238    0.373   90.236
  276.750   13.121    0.231    0.362   91.465
  277.000   12.874    0.226    0.368   89.635
  277.250   12.633    0.215    0.377   84.744
  277.500   12.395    0.211    0.360   82.914
  277.750   12.392    0.227    0.352   84.759
  278.000   12.625    0.209    0.346   85.989
  278.250   12.863    0.200    0.357   90.282
  278.500   13.607    0.168    0.373   93.350
  278.750   14.127    0.156    0.361   92.745
  279.000   16.115    0.197    0.360   94.587
  279.250   20.196    0.248    0.350   93.981
  279.500   23.038    0.275    0.346   90.927
  279.750   26.778    0.303    0.336   85.423
  280.000   29.417    0.318    0.319   81.757
  280.250   31.123    0.313    0.313   94.010
  280.500   29.964    0.307    0.334  101.363
  280.750   29.401    0.304    0.352  102.594
  281.000   27.261    0.302    0.357   92.807
  281.250   23.886    0.287    0.359   86.689
  281.500   22.570    0.274    0.363   86.694
  281.750   20.928    0.256    0.378   87.927
  282.000   19.405    0.244    0.375   87.320
  282.250   18.335    0.266    0.361   94.677
  282.500   17.654    0.271    0.362   93.457
  282.750   17.650    0.267    0.369   91.628
  283.000   17.983    0.266    0.379   88.571
  283.250   19.753    0.259    0.361   84.906
  283.500   21.295    0.261    0.346   77.566
  283.750   22.956    0.276    0.335   68.389
  284.000   23.834    0.275    0.342   61.048
  284.250   24.744    0.265    0.354   54.320
  284.500   21.682    0.262    0.362   58.613
  284.750   17.293    0.273    0.364   62.292
  285.000   11.002    0.275    0.369   65.362
  285.250    8.775    0.281    0.383   73.328
  285.500    7.546    0.279    0.392   80.068
  285.750    6.612    0.235    0.405   88.034
  286.000    6.248    0.164    0.402   97.224
  286.250    5.903    0.177    0.374  106.414
  286.500    5.902    0.175    0.379  107.646
  286.750    5.901    0.172    0.385  106.427
  287.000    5.900    0.183    0.403  105.825
  287.250    6.241    0.188    0.386  105.217
  287.500    6.728    0.180    0.403  105.223
  287.750    7.118    0.167    0.393  102.782
  288.000    7.530    0.162    0.390   99.726
  288.250    8.118    0.163    0.382   97.284
