~VERSION INFORMATION
 VERS.                 2.0:   CWLS LOG ASCII STANDARD -VERSION 2.0
 WRAP.                  NO:   ONE LINE PER DEPTH STEP
~WELL INFORMATION BLOCK
#MNEM.UNIT           DATA                    DESCRIPTION OF MNEMONIC
#---------    -------------------            -------------------------------
# Generated from Intellog Unique Number	CS_77_79/WELL/3298
WELL.         NOVALTA RESOURCES LTD.         : Well_name    - WELL
LOC .         00/07-29-078-03W4/0            : Location     - LOCATION
UWI .         00/07-29-078-03W4/0            : Uwi          - UNIQUE WELL ID
ENTR.         JOETTE                         : Entered      - ENTERED BY
SRVC.         SCHLUMBERGER                   : Scn          - SERVICE COMPANY
DATE.         08-26-92                       : Date         - LOG DATE
STRT.M        140                            : top_depth    - START DEPTH
STOP.M        325                            : bot_depth    - STOP DEPTH
STEP.M        0.25                           : increment    - STEP LENGTH
 NULL. -999.2500:NULL Value
~CURVE INFORMATION BLOCK
#MNEM UNIT       ERCB CURVE CODE    CURVE DESCRIPTION
#-----------   ------------------   ----------------------------------
DEPT.M        00 001 00 00         : DEPTH        - DEPTH
ILD .OHMM     00 120 00 00         : RESD         - DEEP RESISTIVITY (DIL)
GR  .API      00 310 00 00         : GR           - GAMMA RAY
NPHI.V/V      00 330 00 00         : PHIN         - NEUTRON POROSITY (SANDSTONE)
DPHI.V/V      00 890 00 00         : PHID         - DENSITY POROSITY (SANDSTONE)
~PARAMETER INFORMATION
#MNEM.UNIT           DATA             DESCRIPTION OF MNEMONIC
#---------         -----------     ------------------------------
GL  .M        551.2                : gl           - GROUND LEVEL ELEVATION
EREF.M        555.2                : kb           - ELEVATION OF DEPTH REFERENCE
DATM.M        555.2                : datum        - DATUM ELEVATION
TDD .M        330.8                : tdd          - TOTAL DEPTH DRILLER
RUN .         ONE                  : Run          - RUN NUMBER
ENG .         BILL                 : Engineer     - RECORDING ENGINEER
WIT .         JIM                  : Witness      - WITNESSED BY
MUD .         GEL                  : Mud_type     - MUD TYPE
MATR.         SANDSTONE            : Logunit      - NEUTRON MATRIX
TMAX.C        22                   : BHT          - MAXIMUM RECORDED TEMPERATURE
BHTD.M        330.8                : BHTDEP       - MAXIMUM RECORDED TEMPERATURE
RMT .C        8                    : MDTP         - TEMPERATURE OF MUD
MUDD.KG/M     1050                 : MWT          - MUD DENSITY
NEUT.         1                    : NEUTRON      - NEUTRON TYPE
RESI.         0                    : RESIST       - RESISTIVITY TYPE
RM  .OHMM     1.27                 : RM           - RESISTIVITY OF MUD
RMC .OHMM     1.27                 : RMC          - RESISTIVITY OF MUD CAKE
RMF .OHMM     1.17                 : RMF          - RESISTIVITY OF MUD FILTRATE
SUFT.C        15                   : SUFT         - SURFACE TEMPERATURE
~A  DEPTH     RESD       GR     PHIN     PHID
# ...
  227.000    9.058   75.217    0.489    0.341
  227.250    7.687   81.515    0.452    0.327
  227.500    6.769   82.856    0.429    0.303
  227.750    6.187   86.727    0.417    0.262
  228.000    5.658   89.902    0.451    0.266
  228.250    5.370   96.251    0.460    0.267
  228.500    5.181   94.495    0.454    0.268
  228.750    5.006   95.217    0.446    0.268
  229.000    5.019   98.391    0.452    0.266
  229.250    5.127  104.070    0.451    0.264
  229.500    5.438  106.676    0.456    0.264
  229.750    5.982   98.078    0.456    0.266
  230.000    6.459   89.506    0.437    0.270
  230.250    7.105   84.032    0.443    0.273
  230.500    7.962   80.391    0.453    0.279
  230.750    8.922   73.678    0.459    0.292
  231.000   10.004   65.700    0.441    0.298
  231.250   10.612   67.661    0.410    0.306
  231.500   11.248   66.549    0.415    0.306
  231.750   11.481   63.553    0.412    0.310
  232.000    9.223   64.250    0.407    0.315
  232.250    8.899   74.291    0.430    0.321
  232.500    7.703   79.350    0.435    0.314
  232.750    7.438   84.434    0.425    0.297
  233.000    6.925   86.395    0.437    0.278
  233.250    6.811   86.549    0.451    0.266
  233.500    6.829   86.600    0.466    0.267
  233.750    6.847   86.082    0.435    0.268
  234.000    6.994   81.847    0.417    0.267
  234.250    7.144   81.356    0.428    0.263
  234.500    7.177   83.911    0.431    0.262
  234.750    7.186   82.799    0.424    0.259
  235.000    7.206   79.158    0.412    0.262
  235.250    7.230   79.880    0.414    0.266
  235.500    7.668   81.247    0.429    0.283
  235.750    8.123   78.226    0.439    0.292
  236.000    8.765   73.371    0.435    0.302
  236.250   10.013   74.119    0.430    0.309
  236.500   11.021   74.195    0.434    0.316
  236.750   11.682   71.251    0.433    0.323
  237.000   11.706   70.088    0.426    0.329
  237.250   12.196   70.784    0.422    0.325
  237.500   12.212   75.843    0.430    0.316
  237.750   12.945   75.326    0.443    0.312
  238.000   13.469   70.471    0.438    0.318
  238.250   14.015   67.476    0.435    0.335
  238.500   14.876   67.578    0.443    0.334
  238.750   14.905   66.441    0.455    0.333
  239.000   14.945   67.163    0.466    0.334
  239.250   14.449   74.700    0.460    0.336
  239.500   13.951   70.465    0.440    0.340
  239.750   13.479   66.875    0.427    0.321
  240.000   12.784   70.075    0.432    0.301
  240.250   11.902   74.540    0.432    0.295
  240.500   11.081   74.023    0.436    0.285
  240.750   10.317   70.976    0.416    0.278
  241.000    9.429   76.086    0.413    0.275
  241.250    8.772   80.500    0.422    0.270
  241.500    8.017   83.700    0.429    0.269
  241.750    7.193   81.944    0.424    0.273
  242.000    6.457   78.948    0.423    0.275
  242.250    6.120   79.670    0.431    0.277
  242.500    5.913   84.780    0.447    0.273
  242.750    5.717   87.335    0.463    0.268
  243.000    5.736   89.321    0.475    0.265
  243.250    5.744   88.804    0.487    0.258
  243.500    6.092   92.004    0.501    0.252
  243.750    6.453   91.461    0.514    0.252
  244.000    7.231   75.428    0.512    0.254
  244.250    8.733   68.095    0.514    0.272
  244.500   11.998   64.480    0.515    0.320
  244.750   12.744   65.227    0.513    0.360
  245.000   13.490   65.924    0.466    0.357
  245.250   14.869   66.026    0.444    0.354
  245.500   15.461   65.534    0.443    0.356
  245.750   15.492   65.611    0.450    0.368
  246.000   15.523   63.880    0.453    0.375
  246.250   15.585   62.123    0.442    0.378
  246.500   15.329   59.153    0.432    0.373
  246.750   15.360   57.965    0.450    0.366
  247.000   14.860   56.208    0.466    0.363
  247.250   14.616   55.691    0.475    0.363
  247.500   14.645   57.677    0.432    0.353
  247.750   14.424   58.374    0.406    0.300
  248.000   14.453   57.882    0.422    0.317
  248.250   14.520   56.719    0.454    0.341
  248.500   14.539   54.963    0.466    0.348
  248.750   14.578   56.924    0.463    0.356
  249.000   14.377   60.795    0.454    0.357
  249.250   14.141   62.781    0.441    0.353
  249.500   13.909   64.072    0.437    0.352
  249.750   13.430   66.652    0.436    0.350
  250.000   12.746   70.497    0.426    0.350
  250.250   12.306   72.458    0.426    0.350
  250.500   11.679   71.941    0.439    0.351
  250.750   11.503   68.945    0.453    0.351
  251.000   11.526   67.163    0.454    0.353
  251.250   11.985   63.573    0.448    0.354
  251.500   12.250   61.197    0.445    0.357
  251.750   12.282   61.299    0.440    0.353
  252.000   12.307   64.499    0.445    0.346
  252.250   11.891   66.460    0.474    0.343
  252.500   11.070   65.943    0.467    0.343
  252.750    9.749   66.045    0.438    0.333
  253.000    8.580   82.928    0.424    0.323
  253.250    7.418   91.679    0.457    0.302
  253.500    5.954   94.285    0.472    0.277
  253.750    5.342   95.007    0.492    0.267
  254.000    4.882   96.968    0.502    0.261
  254.250    4.630  105.770    0.515    0.261
  254.500    4.474  104.013    0.512    0.263
  254.750    4.403  101.043    0.508    0.264
  255.000    3.950   99.880    0.509    0.265
  255.250    3.477   99.338    0.567    0.267
  255.500    3.064  100.085    0.578    0.268
  255.750    2.958  102.691    0.570    0.271
  256.000    2.860  105.272    0.563    0.272
  256.250    2.868  108.472    0.564    0.275
  256.500    3.042  109.194    0.562    0.276
  256.750    3.161  106.172    0.549    0.275
  257.000    3.289  104.416    0.534    0.270
  257.250    3.424  103.279    0.523    0.258
  257.500    3.436  102.142    0.520    0.256
  257.750    3.443  101.005    0.549    0.256
  258.000    3.456  102.966    0.565    0.251
  258.250    3.528  103.068    0.552    0.250
  258.500    3.601  106.913    0.521    0.259
  258.750    3.891  106.396    0.513    0.266
  259.000    4.122  103.375    0.505    0.274
  259.250    4.886   99.785    0.499    0.272
  259.500    5.475   96.169    0.491    0.267
  259.750    6.259   90.670    0.473    0.267
  260.000    6.504   85.196    0.495    0.273
  260.250    7.168   79.696    0.507    0.278
  260.500    7.312   78.585    0.519    0.285
  260.750    7.761   81.139    0.513    0.296
  261.000    8.070   86.224    0.490    0.301
  261.250    8.237   89.450    0.474    0.297
  261.500    8.743   88.907    0.464    0.292
  261.750    9.085   85.291    0.453    0.287
  262.000    9.460   78.578    0.438    0.286
  262.250    9.843   74.318    0.453    0.288
  262.500   10.440   71.322    0.461    0.294
  262.750   11.274   73.283    0.463    0.293
  263.000   11.942   76.534    0.466    0.287
  263.250   13.136   74.107    0.475    0.282
  263.500   16.171   66.774    0.407    0.031
  263.750   18.121   58.176    0.271    0.032
  264.000   19.195   64.525    0.259    0.061
  264.250   20.360   62.743    0.273    0.086
  264.500   20.026   46.091    0.260    0.083
  264.750   17.312   42.476    0.218    0.036
  265.000   15.531   49.393    0.242    0.043
  265.250   13.934   73.117    0.300    0.072
  265.500   12.509   73.219    0.404    0.119
  265.750   11.856   73.296    0.416    0.329
  266.000   11.470   74.017    0.425    0.324
  266.250   11.275   75.978    0.425    0.293
  266.500   11.312   74.222    0.418    0.291
  266.750   11.335   71.846    0.431    0.300
  267.000   11.577   70.089    0.435    0.301
  267.250   12.055   69.572    0.422    0.264
  267.500   12.313   69.674    0.434    0.234
  267.750   12.568   71.015    0.480    0.215
  268.000   12.837   74.216    0.489    0.263
  268.250   12.880   75.608    0.481    0.274
  268.500   12.436   73.852    0.428    0.309
  268.750   11.794   72.663    0.411    0.284
  269.000   11.194   75.915    0.410    0.273
  269.250   10.415   79.734    0.438    0.224
  269.500    9.709   80.456    0.442    0.302
  269.750    9.544   79.939    0.432    0.314
  270.000    9.227   83.139    0.418    0.286
  270.250    9.245   88.843    0.425    0.281
