~VERSION INFORMATION
 VERS.                 2.0:   CWLS LOG ASCII STANDARD -VERSION 2.0
 WRAP.                  NO:   ONE LINE PER DEPTH STEP
~WELL INFORMATION BLOCK
#MNEM.UNIT           DATA                    DESCRIPTION OF MNEMONIC
#---------    -------------------            -------------------------------
# Generated from Intellog Unique Number	CW_76_78/WELL/2574
WELL.         NOVALTA BOVINE                 : Well_name    - WELL
LOC .         00/08-28-078-20W4/0            : Location     - LOCATION
UWI .         00/08-28-078-20W4/0            : Uwi          - UNIQUE WELL ID
ENTR.         MAX                            : Entered      - ENTERED BY
SRVC.         WESTERN ATLAS                  : Scn          - SERVICE COMPANY
STRT.M        200                            : top_depth    - START DEPTH
STOP.M        390                            : bot_depth    - STOP DEPTH
STEP.M        0.25                           : increment    - STEP LENGTH
 NULL. -999.2500:NULL Value
~CURVE INFORMATION BLOCK
#MNEM UNIT       ERCB CURVE CODE    CURVE DESCRIPTION
#-----------   ------------------   ----------------------------------
DEPT.M        00 001 00 00         : DEPTH        - DEPTH
ILD .OHMM     00 120 00 00         : RESD         - DEEP RESISTIVITY (DIL)
NPHI.V/V      00 330 00 00         : PHIN         - NEUTRON POROSITY (SANDSTONE)
DPHI.V/V      00 890 00 00         : PHID         - DENSITY POROSITY (SANDSTONE)
CALI.MM       00 280 01 00         : CAL          - CALIPER
GR  .API      00 310 00 00         : GR           - GAMMA RAY
~PARAMETER INFORMATION
#MNEM.UNIT           DATA             DESCRIPTION OF MNEMONIC
#---------         -----------     ------------------------------
GL  .M        568                  : gl           - GROUND LEVEL ELEVATION
EREF.M        572                  : kb           - ELEVATION OF DEPTH REFERENCE
DATM.M        568                  : datum        - DATUM ELEVATION
TDD .M        389.6                : tdd          - TOTAL DEPTH DRILLER
RUN .         ONE                  : Run          - RUN NUMBER
ENG .         BILL                 : Engineer     - RECORDING ENGINEER
WIT .         JIM                  : Witness      - WITNESSED BY
MUD .         GEL                  : Mud_type     - MUD TYPE
MATR.         SANDSTONE            : Logunit      - NEUTRON MATRIX
TMAX.C        17                   : BHT          - MAXIMUM RECORDED TEMPERATURE
BHTD.M        389.6                : BHTDEP       - MAXIMUM RECORDED TEMPERATURE
RMT .C        21                   : MDTP         - TEMPERATURE OF MUD
MUDD.KG/M     1170                 : MWT          - MUD DENSITY
NEUT.         1                    : NEUTRON      - NEUTRON TYPE
RESI.         0                    : RESIST       - RESISTIVITY TYPE
RM  .OHMM     3.5                  : RM           - RESISTIVITY OF MUD
RMC .OHMM     3.5                  : RMC          - RESISTIVITY OF MUD CAKE
RMF .OHMM     3.8                  : RMF          - RESISTIVITY OF MUD FILTRATE
SUFT.C        -20                  : SUFT         - SURFACE TEMPERATURE
~A  DEPTH     RESD     PHIN     PHID      CAL       GR
# ...
  273.000   15.034    0.324    0.323  161.953   61.249
  273.250   15.038    0.332    0.341  161.952   64.231
  273.500   15.041    0.362    0.354  161.951   63.038
  273.750   15.045    0.360    0.357  162.447   63.037
  274.000   15.049    0.362    0.359  162.943   67.511
  274.250   15.053    0.366    0.362  163.936   65.422
  274.500   15.056    0.377    0.360  163.935   60.350
  274.750   14.922    0.376    0.356  163.436   56.770
  275.000   14.926    0.376    0.353  162.938   56.471
  275.250   14.793    0.379    0.350  162.938   56.769
  275.500   14.262    0.379    0.349  162.935   57.663
  275.750   13.624    0.372    0.347  162.438   59.452
  276.000   12.779    0.374    0.343  162.436   63.329
  276.250   12.320    0.386    0.337  162.435   64.820
  276.500   11.988    0.390    0.329  162.434   66.012
  276.750   12.440    0.368    0.313  162.433   67.503
  277.000   14.682    0.317    0.288  162.432   70.486
  277.250   23.256    0.193    0.263  162.430   69.888
  277.500   41.897    0.134    0.223  162.430   60.939
  277.750   52.257    0.133    0.047  162.428   56.762
  278.000   49.920    0.155    0.042  162.924   53.778
  278.250   37.897    0.182    0.067  162.923   52.584
  278.500   28.768    0.222    0.103  163.419   53.478
  278.750   19.739    0.268    0.178  163.417   57.057
  279.000   17.043    0.291    0.214  163.417   65.111
  279.250   15.127    0.326    0.301  163.416   69.584
  279.500   14.318    0.362    0.335  163.415   71.672
  279.750   13.932    0.403    0.335  162.916   70.776
  280.000   13.682    0.419    0.333  162.418   69.284
  280.250   13.685    0.414    0.332  161.920   68.985
  280.500   13.689    0.391    0.333  161.919   71.371
  280.750   13.692    0.367    0.335  161.917   72.265
  281.000   13.695    0.359    0.334  161.916   72.861
  281.250   13.699    0.379    0.330  161.915   74.053
  281.500   13.702    0.377    0.326  163.406   77.036
  281.750   13.705    0.378    0.320  164.896   80.317
  282.000   13.709    0.382    0.308  164.397   81.509
  282.250   13.586    0.392    0.307  162.905   81.210
  282.500   13.342    0.395    0.304  162.904   82.701
  282.750   13.223    0.381    0.298  162.903   83.595
  283.000   13.106    0.368    0.292  163.398   81.506
  283.250   12.989    0.355    0.287  163.895   80.312
  283.500   12.873    0.349    0.283  165.385   82.101
  283.750   12.877    0.347    0.283  165.384   85.382
  284.000   12.761    0.372    0.287  164.886   91.347
  284.250   12.532    0.381    0.298  163.393   92.838
  284.500   12.421    0.385    0.315  162.895   91.346
  284.750   12.310    0.379    0.324  162.893   85.677
  285.000   12.313    0.372    0.324  162.395   84.484
  285.250   12.316    0.382    0.321  161.897   84.483
  285.500   12.547    0.399    0.308  161.896   84.184
  285.750   12.783    0.404    0.301  161.397   82.990
  286.000   13.024    0.403    0.297  160.899   83.884
  286.250   13.269    0.391    0.297  160.401   84.480
  286.500   13.518    0.380    0.302  159.902   82.391
  286.750   13.900    0.376    0.309  158.907   78.811
  287.000   14.964    0.369    0.315  158.409   77.617
  287.250   15.817    0.365    0.318  157.910   76.125
  287.500   16.114    0.364    0.320  157.412   74.036
  287.750   16.119    0.368    0.317  157.412   74.035
  288.000   15.976    0.371    0.313  157.410   76.123
  288.250   15.688    0.367    0.308  157.410   79.702
  288.500   15.405    0.360    0.303  157.407   83.281
  288.750   14.853    0.354    0.301  157.406   83.280
  289.000   14.320    0.353    0.299  157.406   79.402
  289.250   14.195    0.350    0.299  157.901   76.418
  289.500   13.937    0.345    0.297  157.901   76.716
  289.750   13.437    0.345    0.294  158.395   76.715
  290.000   13.075    0.354    0.297  158.892   76.714
  290.250   12.723    0.371    0.300  159.387   78.802
  290.500   12.380    0.379    0.297  159.387   79.696
  290.750   12.157    0.377    0.290  159.387   80.590
  291.000   12.049    0.361    0.285  159.882   82.379
  291.250   12.052    0.349    0.281  159.881   86.853
  291.500   12.166    0.352    0.277  159.881   93.117
  291.750   12.171    0.356    0.275  159.878   92.221
  292.000   12.172    0.351    0.270  160.374   89.536
  292.250   11.953    0.351    0.263  160.870   89.237
  292.500   11.314    0.361    0.256  161.366   94.009
  292.750   10.418    0.375    0.249  162.360   96.693
  293.000    9.771    0.386    0.249  164.347   94.902
  293.250    8.998    0.384    0.249  166.335   91.919
  293.500    8.439    0.381    0.244  167.825   91.620
  293.750    7.915    0.384    0.232  167.824   95.795
  294.000    7.288    0.394    0.226  167.326  105.340
  294.250    6.962    0.394    0.223  166.330  110.410
  294.500    6.713    0.395    0.220  164.837  111.006
  294.750    6.714    0.394    0.218  163.842  109.216
  295.000    6.716    0.391    0.219  162.846  102.056
  295.250    7.034    0.382    0.226  162.348   99.669
  295.500    7.572    0.371    0.242  162.347   98.475
  295.750    9.272    0.371    0.254  162.346   96.684
  296.000    9.982    0.390    0.252  162.344   97.579
  296.250   11.356    0.395    0.256  161.846  100.561
  296.500   13.039    0.382    0.269  161.845   91.910
  296.750   14.167    0.356    0.294  161.845   83.258
  297.000   14.566    0.353    0.310  161.345   79.379
  297.250   14.437    0.376    0.312  161.345   80.274
  297.500   14.177    0.387    0.310  161.343   78.781
  297.750   13.669    0.397    0.308  161.342   74.903
  298.000   13.669    0.398    0.306  161.838   71.323
  298.250   13.427    0.391    0.305  161.837   68.339
  298.500   12.709    0.365    0.304  161.836   66.549
  298.750   12.366    0.357    0.299  161.835   66.846
  299.000   12.256    0.377    0.292  160.342   76.689
  299.250   12.035    0.381    0.284  159.844   78.777
  299.500   11.711    0.357    0.276  159.346   78.776
  299.750   11.291    0.353    0.275  158.847   80.267
  300.000   10.986    0.349    0.283  159.841   82.056
  300.250   10.989    0.357    0.293  160.834   83.845
  300.500   11.616    0.365    0.295  161.827   85.634
  300.750   12.277    0.371    0.292  162.322   87.423
  301.000   12.507    0.374    0.283  162.322   86.528
  301.250   12.626    0.373    0.289  162.321   82.649
  301.500   12.173    0.374    0.301  162.321   78.174
  301.750   11.524    0.370    0.289  162.318   75.787
  302.000   10.417    0.359    0.283  161.323   78.471
  302.250    7.764    0.356    0.268  161.323   87.419
  302.500    6.228    0.379    0.262  161.321   94.578
  302.750    5.279    0.406    0.267  161.321   96.665
  303.000    3.622    0.462    0.275  160.821   95.173
  303.250    2.960    0.464    0.285  160.323   93.979
  303.500    2.751    0.460    0.287  160.323   95.172
  303.750    2.726    0.448    0.287  160.320   97.259
  304.000    2.727    0.451    0.288  160.816  100.241
  304.250    2.804    0.456    0.291  161.810  105.610
  304.500    2.883    0.454    0.294  162.306  106.803
  304.750    3.104    0.457    0.292  162.802  108.592
  305.000    3.372    0.490    0.289  163.298  110.679
  305.250    3.732    0.478    0.285  163.794  108.292
  305.500    4.245    0.444    0.277  164.787  106.501
  305.750    4.920    0.427    0.273  165.780  107.396
  306.000    5.701    0.410    0.247  167.768  110.975
  306.250    6.485    0.385    0.225  168.761  108.289
  306.500    7.446    0.385    0.215  169.257  100.831
  306.750    7.870    0.367    0.216  168.759  102.023
  307.000    8.018    0.361    0.216  167.763  103.514
  307.250    8.169    0.352    0.212  165.773  100.232
  307.500    8.477    0.350    0.204  165.275   99.039
  307.750    8.960    0.353    0.201  164.777  101.126
  308.000    9.826    0.353    0.198  164.776  106.793
  308.250   10.290    0.343    0.194  164.774  107.985
  308.500   10.198    0.338    0.192  165.270   99.931
  308.750    9.654    0.344    0.198  165.767   93.367
  309.000    9.393    0.360    0.212  166.262   92.472
  309.250    8.891    0.364    0.229  166.759   96.349
