~VERSION INFORMATION
 VERS.                 2.0:   CWLS LOG ASCII STANDARD -VERSION 2.0
 WRAP.                  NO:   ONE LINE PER DEPTH STEP
~WELL INFORMATION BLOCK
#MNEM.UNIT           DATA                    DESCRIPTION OF MNEMONIC
#---------    -------------------            -------------------------------
# Generated from Intellog Unique Number	CS_73_76/WELL/737
WELL.         MAYNARD EXPLORATION            : Well_name    - WELL
LOC .         00/07-10-073-12W4/0            : Location     - LOCATION
UWI .         00/07-10-073-12W4/0            : Uwi          - UNIQUE WELL ID
ENTR.         SP                             : Entered      - ENTERED BY
SRVC.         SCHLUMBERGER                   : Scn          - SERVICE COMPANY
STRT.M        285                            : top_depth    - START DEPTH
STOP.M        520                            : bot_depth    - STOP DEPTH
STEP.M        0.25                           : increment    - STEP LENGTH
 NULL. -999.2500:NULL Value
~CURVE INFORMATION BLOCK
#MNEM UNIT       ERCB CURVE CODE    CURVE DESCRIPTION
#-----------   ------------------   ----------------------------------
DEPT.M        00 001 00 00         : DEPTH        - DEPTH
ILD .OHMM     00 120 00 00         : RESD         - DEEP RESISTIVITY (DIL)
DPHI.V/V      00 890 00 00         : PHID         - DENSITY POROSITY (LIMESTONE)
NPHI.V/V      00 330 00 00         : PHIN         - NEUTRON POROSITY (LIMESTONE)
GR  .API      00 310 00 00         : GR           - GAMMA RAY
~PARAMETER INFORMATION
#MNEM.UNIT           DATA             DESCRIPTION OF MNEMONIC
#---------         -----------     ------------------------------
GL  .M        638.29               : gl           - GROUND LEVEL ELEVATION
EREF.M        641.49               : kb           - ELEVATION OF DEPTH REFERENCE
DATM.M        638.29               : datum        - DATUM ELEVATION
TDD .M        535                  : tdd          - TOTAL DEPTH DRILLER
RUN .         ONE                  : Run          - RUN NUMBER
ENG .         BILL                 : Engineer     - RECORDING ENGINEER
WIT .         JIM                  : Witness      - WITNESSED BY
MUD .         GEL                  : Mud_type     - MUD TYPE
MATR.         LIMESTONE            : Logunit      - NEUTRON MATRIX
TMAX.C        23                   : BHT          - MAXIMUM RECORDED TEMPERATURE
BHTD.M        535                  : BHTDEP       - MAXIMUM RECORDED TEMPERATURE
MATR.         1                    : LOGUNIT      - NEUTRON MATRIX
RMT .C        25                   : MDTP         - TEMPERATURE OF MUD
NEUT.         1                    : NEUTRON      - NEUTRON TYPE
RESI.         0                    : RESIST       - RESISTIVITY TYPE
RMC .OHMM     0.25                 : RMC          - RESISTIVITY OF MUD CAKE
RMF .OHMM     0.25                 : RMF          - RESISTIVITY OF MUD FILTRATE
SUFT.C        15                   : SUFT         - SURFACE TEMPERATURE
~A  DEPTH     RESD     PHID     PHIN       GR
# ...
  372.000    9.501    0.316    0.397   57.472
  372.250    9.826    0.319    0.403   55.043
  372.500   10.559    0.324    0.409   57.494
  372.750   11.128    0.328    0.401   59.329
  373.000   11.535    0.316    0.400   59.950
  373.250   11.942    0.307    0.406   58.130
  373.500   12.024    0.308    0.409   57.530
  373.750   11.943    0.320    0.418   57.537
  374.000   11.374    0.325    0.406   58.156
  374.250   10.399    0.309    0.412   64.265
  374.500    9.343    0.291    0.422   69.150
  374.750    7.961    0.279    0.427   77.698
  375.000    6.823    0.279    0.416   82.584
  375.250    5.441    0.298    0.414   89.912
  375.500    4.466    0.314    0.438   93.579
  375.750    3.897    0.351    0.457   95.418
  376.000    3.492    0.373    0.482   93.595
  376.250    3.817    0.347    0.507   88.118
  376.500    4.468    0.321    0.451   83.250
  376.750    4.875    0.319    0.416   80.211
  377.000    5.851    0.312    0.391   78.392
  377.250    7.071    0.316    0.375   77.179
  377.500   10.161    0.310    0.367   75.969
  377.750   11.299    0.299    0.380   75.977
  378.000   12.601    0.293    0.384   75.986
  378.250   13.414    0.291    0.402   75.998
  378.500   14.146    0.289    0.403   76.008
  378.750   14.797    0.293    0.402   76.624
  379.000   15.123    0.307    0.395   76.633
  379.250   15.530    0.322    0.384   76.642
  379.500   16.018    0.319    0.382   75.432
  379.750   16.506    0.314    0.395   76.663
  380.000   17.157    0.309    0.386   76.671
  380.250   17.970    0.311    0.356   76.072
  380.500   18.540    0.295    0.339   73.035
  380.750   19.272    0.272    0.324   70.601
  381.000   20.167    0.114    0.309   66.953
  381.250   20.736    0.098    0.267   64.521
  381.500   20.818    0.114    0.254   63.922
  381.750   20.168    0.137    0.261   68.199
  382.000   17.729    0.190    0.283   74.307
  382.250   14.559    0.243    0.329   77.972
  382.500   12.608    0.284    0.367   81.031
  382.750   11.227    0.293    0.393   83.479
  383.000    9.845    0.288    0.412   85.926
  383.250    9.276    0.294    0.423   82.888
  383.500    8.626    0.304    0.433   80.462
  383.750    8.139    0.311    0.418   80.468
  384.000    7.896    0.325    0.412   79.866
  384.250    7.571    0.315    0.417   80.486
  384.500    7.409    0.300    0.427   81.715
  384.750    7.165    0.291    0.423   81.114
  385.000    7.166    0.305    0.417   76.856
  385.250    7.085    0.320    0.427   75.643
  385.500    7.085    0.331    0.409   77.482
  385.750    7.248    0.331    0.393   76.881
  386.000    7.574    0.294    0.372   70.793
  386.250    8.631    0.113    0.346   62.876
  386.500   11.477    0.024    0.176   58.007
  386.750   13.917    0.002    0.162   54.357
  387.000   16.600    0.000    0.152   52.537
  387.250   18.714    0.000    0.146   56.209
  387.500   19.934    0.000    0.140   61.707
  387.750   20.341    0.000    0.134   64.761
  388.000   20.341    0.000    0.148   72.697
  388.250   19.204    0.043    0.208   80.022
  388.500   14.489    0.117    0.279   79.424
  388.750    8.473    0.187    0.349   77.602
  389.000    7.416    0.235    0.387   80.660
  389.250    7.336    0.236    0.410   84.941
  389.500    7.580    0.218    0.410   86.775
  389.750    7.743    0.221    0.407   88.004
  390.000    7.906    0.224    0.416   86.188
  390.250    8.069    0.226    0.409   85.584
  390.500    8.314    0.230    0.399   86.816
  390.750    8.476    0.235    0.404   87.432
  391.000    8.639    0.243    0.415   86.833
  391.250    8.884    0.251    0.425   85.014
  391.500    8.966    0.246    0.420   85.021
  391.750    9.129    0.247    0.405   85.640
  392.000    9.210    0.260    0.401   87.481
  392.250    9.374    0.258    0.401   88.706
  392.500    9.374    0.238    0.404   89.934
  392.750    9.374    0.230    0.404   87.507
  393.000    9.375    0.220    0.401   84.466
  393.250    9.294    0.245    0.401   83.255
  393.500    9.213    0.264    0.411   86.317
  393.750    8.969    0.283    0.417   88.151
  394.000    8.563    0.274    0.423   89.991
  394.250    8.076    0.260    0.423   90.000
  394.500    7.670    0.258    0.422   89.400
  394.750    7.426    0.251    0.425   88.189
  395.000    7.346    0.258    0.427   85.150
  395.250    7.265    0.269    0.434   85.159
  395.500    7.265    0.253    0.443   86.999
  395.750    7.184    0.239    0.436   88.837
  396.000    7.185    0.237    0.420   89.456
  396.250    7.185    0.232    0.410   89.463
  396.500    7.186    0.232    0.406   88.864
  396.750    7.105    0.243    0.433   90.092
  397.000    7.187    0.239    0.436   90.713
  397.250    7.187    0.237    0.433   90.110
  397.500    7.187    0.235    0.443   89.512
  397.750    7.188    0.233    0.437   88.910
  398.000    7.270    0.233    0.432   89.531
  398.250    7.270    0.233    0.425   90.150
  398.500    7.352    0.234    0.420   90.158
  398.750    7.352    0.228    0.425   90.776
  399.000    7.434    0.218    0.426   90.175
  399.250    7.434    0.167    0.410   86.525
  399.500    7.435    0.153    0.392   81.047
  399.750    7.273    0.159    0.381   84.716
  400.000    7.192    0.217    0.360   92.655
  400.250    7.111    0.223    0.387   95.099
  400.500    6.949    0.227    0.414   92.671
  400.750    6.868    0.228    0.443   88.414
  401.000    6.868    0.228    0.452   86.591
  401.250    6.869    0.227    0.435   84.770
  401.500    6.869    0.225    0.426   88.437
  401.750    6.951    0.228    0.432   90.277
  402.000    6.951    0.226    0.431   91.505
  402.250    6.952    0.223    0.424   93.953
  402.500    6.871    0.228    0.416   94.572
  402.750    6.302    0.231    0.414   93.361
  403.000    5.490    0.247    0.408   90.323
  403.250    4.596    0.261    0.410   87.284
  403.500    3.783    0.272    0.435   85.464
  403.750    3.540    0.288    0.449   87.910
  404.000    3.052    0.297    0.447   95.239
  404.250    2.727    0.283    0.442  101.348
  404.500    2.403    0.301    0.453  103.792
  404.750    2.403    0.325    0.471  108.068
  405.000    2.485    0.335    0.489  107.468
  405.250    2.729    0.341    0.501  104.429
  405.500    2.974    0.316    0.504   98.952
  405.750    3.543    0.327    0.508   96.522
  406.000    4.194    0.350    0.495   94.700
  406.250    4.764    0.361    0.464   94.710
  406.500    5.252    0.265    0.435   93.499
  406.750    5.496    0.251    0.421   91.679
  407.000    5.822    0.244    0.419   90.472
  407.250    5.904    0.253    0.419   91.090
  407.500    5.904    0.263    0.418   91.097
  407.750    5.986    0.265    0.417   91.107
  408.000    5.986    0.275    0.415   90.508
  408.250    5.987    0.264    0.425   89.300
  408.500    5.987    0.258    0.425   89.304
  408.750    6.069    0.252    0.417   89.924
  409.000    6.069    0.244    0.426   91.763
  409.250    6.151    0.258    0.423   94.211
  409.500    6.232    0.269    0.415   93.612
  409.750    6.233    0.282    0.425   91.181
  410.000    6.152    0.296    0.424   86.923
  410.250    5.909    0.302    0.423   85.102
  410.500    5.665    0.292    0.425   85.720
  410.750    5.503    0.281    0.420   87.559
  411.000    5.016    0.286    0.417   88.178
  411.250    4.772    0.292    0.403   86.358
  411.500    4.447    0.294    0.400   82.708
  411.750    4.367    0.304    0.414   77.841
  412.000    4.692    0.324    0.433   76.019
  412.250    5.343    0.330    0.439   76.639
  412.500    5.587    0.311    0.437   79.698
  412.750    6.401    0.311    0.422   80.926
  413.000    7.133    0.303    0.409   79.106
  413.250    8.190    0.191    0.398   74.239
  413.500    9.004    0.123    0.385   69.976
  413.750   10.630    0.075    0.370   63.279
  414.000   10.143    0.050    0.282   57.191
  414.250    9.086    0.038    0.181   62.080
  414.500    7.786    0.164    0.154   71.846
  414.750    6.486    0.197    0.192   77.340
  415.000    5.836    0.217    0.315   85.886
  415.250    5.430    0.238    0.359   88.334
