~VERSION INFORMATION
 VERS.                 2.0:   CWLS LOG ASCII STANDARD -VERSION 2.0
 WRAP.                  NO:   ONE LINE PER DEPTH STEP
~WELL INFORMATION BLOCK
#MNEM.UNIT           DATA                    DESCRIPTION OF MNEMONIC
#---------    -------------------            -------------------------------
# Generated from Intellog Unique Number	CW_73_75/WELL/3522
WELL.         ALLIED ROXANA MINERALS LTD.    : Well_name    - WELL
LOC .         00/08-14-073-26W4/0            : Location     - LOCATION
UWI .         00/08-14-073-26W4/0            : Uwi          - UNIQUE WELL ID
ENTR.         JOETTE                         : Entered      - ENTERED BY
SRVC.         SCHLUMBERGER                   : Scn          - SERVICE COMPANY
DATE.         08-27-92                       : Date         - LOG DATE
STRT.M        381                            : top_depth    - START DEPTH
STOP.M        640                            : bot_depth    - STOP DEPTH
STEP.M        0.25                           : increment    - STEP LENGTH
 NULL. -999.2500:NULL Value
~CURVE INFORMATION BLOCK
#MNEM UNIT       ERCB CURVE CODE    CURVE DESCRIPTION
#-----------   ------------------   ----------------------------------
DEPT.M        00 001 00 00         : DEPTH        - DEPTH
GR  .API      00 310 00 00         : GR           - GAMMA RAY
DELT.US/F     00 520 00 00         : DELT         - SONIC TRAVEL TIME
ILD .OHMM     00 120 00 00         : RESD         - DEEP RESISTIVITY (DIL)
~PARAMETER INFORMATION
#MNEM.UNIT           DATA             DESCRIPTION OF MNEMONIC
#---------         -----------     ------------------------------
GL  .M        624.84               : gl           - GROUND LEVEL ELEVATION
EREF.M        628.498              : kb           - ELEVATION OF DEPTH REFERENCE
DATM.M        628.498              : datum        - DATUM ELEVATION
TDD .M        655.625              : tdd          - TOTAL DEPTH DRILLER
RUN .         ONE                  : Run          - RUN NUMBER
ENG .         BILL                 : Engineer     - RECORDING ENGINEER
WIT .         JIM                  : Witness      - WITNESSED BY
MUD .         GEL                  : Mud_type     - MUD TYPE
MATR.         SANDSTONE            : Logunit      - NEUTRON MATRIX
TMAX.C        26.6667              : BHT          - MAXIMUM RECORDED TEMPERATURE
BHTD.M        655.625              : BHTDEP       - MAXIMUM RECORDED TEMPERATURE
RMT .C        15.5556              : MDTP         - TEMPERATURE OF MUD
MUDD.KG/M     10300                : MWT          - MUD DENSITY
NEUT.         1                    : NEUTRON      - NEUTRON TYPE
RESI.         0                    : RESIST       - RESISTIVITY TYPE
RM  .OHMM     2.96                 : RM           - RESISTIVITY OF MUD
RMC .OHMM     2.96                 : RMC          - RESISTIVITY OF MUD CAKE
RMF .OHMM     2.96                 : RMF          - RESISTIVITY OF MUD FILTRATE
SUFT.C        15                   : SUFT         - SURFACE TEMPERATURE
~A  DEPTH       GR     DELT     RESD
# ...
  489.500   70.109  403.011    5.116
  489.750   76.575  401.676    4.917
  490.000   79.527  401.663    4.716
  490.250   77.195  401.657    4.720
  490.500   78.381  398.990    4.928
  490.750   80.150  383.031    5.136
  491.000   77.813  377.041    5.138
  491.250   71.959  377.697    5.346
  491.500   75.494  380.345    5.351
  491.750   80.206  381.001    5.354
  492.000   80.212  381.657    5.358
  492.250   79.054  380.984    5.361
  492.500   76.720  380.974    5.365
  492.750   76.729  380.967    5.370
  493.000   82.028  380.959    5.577
  493.250   84.384  381.615    5.581
  493.500   83.223  384.263    5.788
  493.750   84.409  387.580    5.792
  494.000   83.834  396.209    5.796
  494.250   78.570  400.851    5.597
  494.500   75.059  388.882    5.396
  494.750   70.381  386.213    4.993
  495.000   66.286  383.546    4.995
  495.250   61.605  381.542    4.592
  495.500   63.380  383.529    4.188
  495.750   66.913  388.838    4.192
  496.000   65.752  394.144    3.992
  496.250   62.828  396.796    3.996
  496.500   58.153  399.444    3.999
  496.750   57.578  398.771    4.209
  497.000   59.934  378.824    4.415
  497.250   65.233  360.871    4.623
  497.500   67.003  345.576    4.830
  497.750   69.954  358.860    5.038
  498.000   71.137  393.410    5.041
  498.250   71.739  390.743    5.045
  498.500   72.332  377.444    5.050
  498.750   74.105  363.477    4.849
  499.000   74.120  359.479    4.651
  499.250   73.546  357.479    4.653
  499.500   75.905  354.812    4.454
  499.750   78.264  354.801    4.458
  500.000   75.929  354.128    4.665
  500.250   74.768  351.459    4.669
  500.500   75.374  350.786    4.671
  500.750   75.380  353.438    4.880
  501.000   77.155  357.415    4.885
  501.250   77.757  360.065    5.092
  501.500   77.770  363.380    5.095
  501.750   78.366  367.357    5.304
  502.000   82.485  371.339    5.307
  502.250   85.431  376.645    5.310
  502.500   84.279  380.627    5.314
  502.750   84.285  379.951    5.320
  503.000   84.297  377.287    5.322
  503.250   83.136  380.597    5.121
  503.500   82.565  384.578    5.125
  503.750   85.508  390.552    4.925
  504.000   91.390  397.189    4.930
  504.250   90.229  398.508    4.729
  504.500   86.721  405.813    4.732
  504.750   83.800  407.798    4.738
  505.000   80.879  387.184    4.741
  505.250   77.371  388.505    4.744
  505.500   73.277  415.082    4.749
  505.750   69.772  414.404    4.753
  506.000   70.961  411.740    4.755
  506.250   72.147  410.404    4.761
  506.500   72.156  409.062    4.763
  506.750   73.345  407.060    4.767
  507.000   74.528  401.734    4.773
  507.250   76.890  399.070    4.775
  507.500   78.668  395.734    4.780
  507.750   78.678  395.063    4.783
  508.000   77.517  393.723    4.787
  508.250   74.592  390.394    4.789
  508.500   70.498  373.770    4.998
  508.750   66.993  356.482    5.205
  509.000   64.656  341.187    5.413
  509.250   71.712  327.884    5.824
  509.500   79.937  321.894    6.237
  509.750   84.060  353.787    6.240
  510.000   82.312  371.059    6.244
  510.250   79.975  377.695    6.247
  510.500   79.403  379.682    6.048
  510.750   77.656  378.340    5.848
  511.000   78.255  377.671    5.648
  511.250   78.267  377.659    5.448
  511.500   78.279  377.650    5.452
  511.750   80.638  376.975    5.250
  512.000   83.001  376.306    5.255
  512.250   82.429  375.631    5.055
  512.500   83.028  374.292    5.059
  512.750   84.217  372.289    5.064
  513.000   84.223  370.287    4.862
  513.250   83.065  367.622    4.867
  513.500   80.144  362.961    4.871
  513.750   77.223  358.301    4.873
  514.000   76.652  356.296    4.878
  514.250   76.078  360.276    5.086
  514.500   74.330  364.255    5.090
  514.750   73.169  366.901    5.297
  515.000   71.424  367.561    5.709
  515.250   69.087  364.230    6.119
  515.500   65.582  342.289    6.735
  515.750   63.248  315.029    8.166
  516.000   59.740  297.076    9.392
  516.250   55.642  269.154   11.841
  516.500   48.615  261.834   14.290
  516.750   45.107  234.574   15.720
  517.000   50.986  263.809   17.559
  517.250   62.735  236.551   17.971
  517.500   70.964  211.952   17.160
  517.750   68.630  213.273   15.940
  518.000   63.359  357.487   14.925
  518.250   58.681  330.229   12.483
  518.500   63.970  315.595    8.818
  518.750   69.856  312.265    6.987
  519.000   71.628  300.958    6.178
  519.250   68.704  294.304    5.976
  519.500   62.849  316.228    5.776
  519.750   62.865  336.158    5.780
  520.000   67.568  326.845    5.582
  520.250   72.863  312.213    5.585
  520.500   71.702  329.484    5.588
  520.750   67.608  358.719    5.593
  521.000   68.207  332.122    5.596
  521.250   72.913  329.459    5.599
  521.500   76.448  330.115    5.604
  521.750   81.157  346.722    5.607
  522.000   84.686  360.006    5.612
  522.250   85.875  365.973    5.615
  522.500   85.298  367.298    5.618
  522.750   83.550  367.954    5.623
  523.000   82.389  369.273    5.626
  523.250   82.405  369.929    5.631
  523.500   83.590  370.583    5.633
  523.750   85.363  371.242    5.434
  524.000   83.028  371.898    5.438
  524.250   77.177  371.890    5.442
  524.500   76.603  370.550    5.243
  524.750   78.965  368.550    5.244
  525.000   81.907  365.881    5.248
  525.250   83.096  364.543    5.253
  525.500   81.938  364.535    5.255
  525.750   80.774  365.191    5.260
  526.000   79.026  365.182    5.061
  526.250   77.865  363.178    5.064
  526.500   77.291  361.842    5.068
  526.750   80.240  364.493    5.073
  527.000   83.772  362.486    5.076
  527.250   85.545  354.504    5.079
  527.500   84.968  348.512    5.082
  527.750   82.053  351.829    5.087
  528.000   82.065  359.796    5.090
  528.250   80.904  365.105    5.094
  528.500   78.570  365.759    5.302
  528.750   76.819  365.750    5.305
  529.000   79.764  369.065    5.309
  529.250   86.820  371.713    5.313
  529.500   90.939  368.383    5.319
  529.750   88.018  362.393    5.117
  530.000   80.990  359.722    5.123
  530.250   76.309  367.691    5.126
  530.500   68.695  371.669    5.128
  530.750   64.013  352.388    5.133
  531.000   63.439  319.149    5.136
  531.250   62.281  311.828    5.548
  531.500   59.950  296.533    5.755
  531.750   56.442  280.574    6.166
  532.000   54.105  267.938    6.782
  532.250   57.637  285.874    7.805
  532.500   62.930  319.097    8.827
  532.750   69.982  304.464   10.461
  533.000   76.454  297.145   11.688
  533.250   79.984  294.478   12.305
  533.500   82.933  310.421   12.104
  533.750   80.008  342.314   11.496
  534.000   78.261  351.610   10.684
  534.250   80.033  359.577    9.261
  534.500   84.745  364.886    7.431
  534.750   87.104  370.190    6.009
  535.000   86.530  370.844    5.604
  535.250   83.609  370.840    5.201
  535.500   80.101  369.502    5.205
  535.750   78.943  365.504    5.005
  536.000   79.545  362.837    5.008
  536.250   78.968  366.150    5.013
  536.500   79.564  368.135    5.016
  536.750   80.163  367.462    5.019
  537.000   79.592  368.783    5.023
  537.250   78.431  369.439    5.029
  537.500   74.923  366.770    5.235
  537.750   71.415  365.437    5.442
  538.000   66.147  361.434    5.855
  538.250   60.879  358.770    6.470
  538.500   61.481  356.105    7.289
  538.750   64.424  313.561    8.107
  539.000   67.373  278.323    9.742
  539.250   69.732  261.702   11.173
  539.500   71.511  271.662   11.380
  539.750   72.693  290.928   11.179
  540.000   75.639  318.834    9.961
  540.250   79.168  354.715    8.945
  540.500   83.877  348.058    7.524
  540.750   83.303  354.698    7.120
  541.000   80.969  361.998    6.716
  541.250   79.221  362.652    6.515
  541.500   79.823  361.979    5.909
  541.750   83.359  362.637    5.709
  542.000   85.125  361.300    5.508
  542.250   85.727  356.639    5.510
  542.500   81.636  355.297    5.310
  542.750   76.955  357.278    5.315
  543.000   76.967  357.939    5.319
  543.250   79.913  359.260    5.119
  543.500   82.272  359.914    5.123
