~VERSION INFORMATION
 VERS.                 2.0:   CWLS LOG ASCII STANDARD -VERSION 2.0
 WRAP.                  NO:   ONE LINE PER DEPTH STEP
~WELL INFORMATION BLOCK
#MNEM.UNIT           DATA                    DESCRIPTION OF MNEMONIC
#---------    -------------------            -------------------------------
# Generated from Intellog Unique Number	CX_WELLS/WELL/2872
WELL.         07-08-081-18W4                 : Well_name    - WELL
LOC .         00/07-08-081-18W4/0            : Location     - LOCATION
UWI .         00/07-08-081-18W4/0            : Uwi          - UNIQUE WELL ID
ENTR.         T                              : Entered      - ENTERED BY
SRVC.         SCHLUMBERGER                   : Scn          - SERVICE COMPANY
STRT.F        550                            : top_depth    - START DEPTH
STOP.F        1220.11                        : bot_depth    - STOP DEPTH
STEP.F        0.82                           : increment    - STEP LENGTH
 NULL. -999.2500:NULL Value
~CURVE INFORMATION BLOCK
#MNEM UNIT       ERCB CURVE CODE    CURVE DESCRIPTION
#-----------   ------------------   ----------------------------------
DEPT.F        00 001 00 00         : DEPTH        - DEPTH
GR  .API      00 310 00 00         : GR           - GAMMA RAY
NPHI.V/V      00 330 00 00         : PHIN         - NEUTRON POROSITY (SANDSTONE)
ILD .OHMM     00 120 00 00         : RESD         - DEEP RESISTIVITY (OTHER)
~PARAMETER INFORMATION
#MNEM.UNIT           DATA             DESCRIPTION OF MNEMONIC
#---------         -----------     ------------------------------
GL  .F        1854                 : gl           - GROUND LEVEL ELEVATION
EREF.F        1865                 : kb           - ELEVATION OF DEPTH REFERENCE
DATM.F        1865                 : datum        - DATUM ELEVATION
TDD .F        1227                 : tdd          - TOTAL DEPTH DRILLER
RUN .         ONE                  : Run          - RUN NUMBER
ENG .         BILL                 : Engineer     - RECORDING ENGINEER
WIT .         JIM                  : Witness      - WITNESSED BY
MUD .         GEL                  : Mud_type     - MUD TYPE
MATR.         SANDSTONE            : Logunit      - NEUTRON MATRIX
TMAX.F        73                   : BHT          - MAXIMUM RECORDED TEMPERATURE
BHTD.F        1227                 : BHTDEP       - MAXIMUM RECORDED TEMPERATURE
MATR.         1                    : LOGUNIT      - NEUTRON MATRIX
RMT .F        65                   : MDTP         - TEMPERATURE OF MUD
NEUT.         1                    : NEUTRON      - NEUTRON TYPE
RESI.         7.1                  : RESIST       - RESISTIVITY TYPE
RMC .OHMM     6.5                  : RMC          - RESISTIVITY OF MUD CAKE
RMF .OHMM     5                    : RMF          - RESISTIVITY OF MUD FILTRATE
SUFT.F        35                   : SUFT         - SURFACE TEMPERATURE
~A  DEPTH       GR     PHIN     RESD
# ...
 1083.960   69.378    0.408    7.335
 1084.780   70.024    0.407    7.254
 1085.600   69.435    0.403    7.173
 1086.420   69.466    0.401    7.261
 1087.240   68.249    0.407    7.346
 1088.060   67.653    0.414    7.769
 1088.880   67.051    0.419    8.022
 1089.700   64.605    0.423    8.779
 1090.520   63.375    0.410    9.619
 1091.340   58.432    0.376   10.628
 1092.160   59.705    0.348   11.469
 1092.980   60.351    0.342   11.724
 1093.800   60.377    0.348   11.643
 1094.620   60.395    0.356   11.562
 1095.440   58.570    0.363   11.481
 1096.260   57.353    0.367   11.569
 1097.080   56.123    0.360   11.655
 1097.900   54.913    0.345   11.826
 1098.720   53.702    0.331   12.080
 1099.540   53.094    0.312   12.669
 1100.360   51.877    0.297   14.012
 1101.180   53.144    0.301   14.183
 1102.000   60.000    0.325   14.102
 1102.820   58.796    0.338   13.771
 1103.640   56.952    0.345   13.355
 1104.460   54.492    0.333   12.940
 1105.280   54.524    0.313   13.111
 1106.100   56.418    0.265   13.699
 1106.920   57.673    0.235   14.874
 1107.740   60.188    0.260   14.794
 1108.560   62.698    0.268   13.876
 1109.380   63.344    0.292   12.874
 1110.200   62.133    0.328   11.621
 1111.020   60.283    0.347   10.703
 1111.840   56.581    0.368    9.954
 1112.660   49.775    0.383    9.454
 1113.480   42.969    0.390    8.788
 1114.300   35.542    0.380    8.623
 1115.120   30.599    0.377    8.626
 1115.940   25.656    0.369    9.047
 1116.770   24.439    0.357    9.889
 1117.590   25.712    0.365   11.483
 1118.410   27.600    0.376   12.574
 1119.230   28.861    0.383   13.666
 1120.050   32.625    0.392   14.925
 1120.870   33.886    0.386   14.509
 1121.690   36.395    0.380   13.843
 1122.510   38.917    0.374   13.260
 1123.330   40.171    0.366   12.258
 1124.150   42.681    0.356   10.670
 1124.970   45.811    0.361    9.920
 1125.790   48.941    0.367    9.085
 1126.610   54.562    0.362    8.251
 1127.430   58.307    0.355    7.501
 1128.250   61.437    0.357    6.750
 1129.070   64.586    0.360    5.832
 1129.890   64.599    0.362    5.082
 1130.710   62.767    0.366    4.666
 1131.530   60.308    0.370    4.753
 1132.350   57.221    0.368    5.427
 1133.170   54.763    0.361    6.100
 1133.990   52.925    0.343    6.354
 1134.810   55.434    0.330    5.940
 1135.630   58.564    0.336    5.691
 1136.450   61.694    0.362    5.276
 1137.270   67.321    0.391    5.027
 1138.090   67.955    0.394    4.612
 1138.910   70.464    0.400    4.364
 1139.730   72.352    0.407    4.200
 1140.550   72.377    0.410    4.118
 1141.370   70.552    0.412    4.123
 1142.190   68.707    0.410    4.041
 1143.010   66.255    0.406    4.044
 1143.830   63.789    0.389    4.382
 1144.650   61.331    0.364    5.473
 1145.470   58.871    0.343    7.236
 1146.290   57.654    0.319    8.746
 1147.110   57.065    0.302    9.670
 1147.930   58.332    0.311   10.008
 1148.750   60.841    0.338    9.593
 1149.570   60.252    0.350    8.842
 1150.390   59.643    0.364    8.427
 1151.210   57.805    0.352    8.597
 1152.030   55.967    0.350    8.851
 1152.850   55.371    0.357    9.191
 1153.670   58.514    0.378    9.026
 1154.490   59.769    0.399    8.276
 1155.310   62.278    0.403    7.609
 1156.140   62.303    0.409    6.691
 1156.960   62.962    0.414    5.605
 1157.780   62.980    0.422    5.692
 1158.600   63.639    0.431    5.863
 1159.420   63.652    0.435    6.370
 1160.240   63.689    0.437    6.623
 1161.060   63.708    0.432    7.045
 1161.880   63.112    0.411    7.382
 1162.700   60.653    0.409    7.972
 1163.520   57.567    0.404    8.979
 1164.340   50.140    0.399    9.821
 1165.160   42.091    0.401    9.825
 1165.980   34.049    0.391    9.576
 1166.800   29.100    0.369    9.244
 1167.620   21.673    0.366    9.163
 1168.440   16.109    0.366    9.335
 1169.260   12.420    0.362   10.258
 1170.080   11.191    0.370   19.221
 1170.900    9.353    0.376   20.481
 1171.720    8.763    0.372   20.902
 1172.540    8.167    0.364   21.828
 1173.360    8.192    0.359   21.664
 1174.180   10.087    0.363   21.583
 1175.000   10.720    0.366   21.334
 1175.820   11.987    0.367   21.003
 1176.640   12.640    0.366   20.922
 1177.460   12.050    0.373   20.925
 1178.280   12.069    0.377   21.012
 1179.100   11.473    0.378   21.098
 1179.920   10.871    0.373   21.269
 1180.740   12.765    0.368   21.356
 1181.560   15.896    0.359   21.108
 1182.380   19.026    0.362   20.608
 1183.200   24.640    0.365   20.109
 1184.020   31.497    0.367   19.442
 1184.840   43.321    0.362   17.855
 1185.660   62.604    0.368   16.685
 1186.480   80.639    0.389   15.265
 1187.300   86.887    0.394   13.342
 1188.120   83.813    0.400   12.257
 1188.940   82.578    0.410   11.841
 1189.760   77.634    0.403   12.096
 1190.580   70.207    0.348   12.434
 1191.400   70.860    0.355   12.939
 1192.220   63.426    0.355   13.863
 1193.040   46.684    0.349   15.207
 1193.860   33.052    0.338   16.382
 1194.690   36.176    0.345   17.224
 1195.510   38.685    0.354   16.976
 1196.330   38.711    0.360   16.643
 1197.150   39.990    0.354   15.892
 1197.970   40.624    0.352   14.974
 1198.790   43.133    0.373   14.559
 1199.610   48.747    0.395   14.312
 1200.430   55.610    0.400   14.231
 1201.250   59.368    0.405   14.150
 1202.070   60.014    0.374   14.152
 1202.890   58.803    0.369   14.407
 1203.710   56.953    0.378   14.661
 1204.530   52.637    0.388   15.754
 1205.350   47.687    0.390   16.594
 1206.170   40.260    0.390   17.686
 1206.990   34.075    0.379   19.866
 1207.810   30.374    0.371   22.214
 1208.630   27.921    0.357   22.803
 1209.450   31.045    0.349   23.225
 1210.270   35.417    0.348   23.648
 1211.090   42.274    0.347   23.734
 1211.910   42.920    0.345   23.904
 1212.730   36.735    0.334   24.076
 1213.550   31.792    0.325   23.911
 1214.370   34.301    0.323   23.580
 1215.190   41.157    0.322   23.414
 1216.010   69.135    0.319   23.335
 1216.830   79.717    0.313   23.505
 1217.650   82.847    0.302   23.425
 1218.470   82.879    0.291   23.344
 1219.290   83.531    0.220   23.014
 1220.110   84.165    0.213   22.931
