~VERSION INFORMATION
 VERS.                 2.0:   CWLS LOG ASCII STANDARD -VERSION 2.0
 WRAP.                  NO:   ONE LINE PER DEPTH STEP
~WELL INFORMATION BLOCK
#MNEM.UNIT           DATA                    DESCRIPTION OF MNEMONIC
#---------    -------------------            -------------------------------
# Generated from Intellog Unique Number	CW_79_81/WELL/2457
WELL.         SHELL MISTEHAE                 : Well_name    - WELL
LOC .         00/07-09-081-02W5/0            : Location     - LOCATION
UWI .         00/07-09-081-02W5/0            : Uwi          - UNIQUE WELL ID
ENTR.         MAX                            : Entered      - ENTERED BY
SRVC.         SCHLUMBERGER                   : Scn          - SERVICE COMPANY
STRT.M        243.84                         : top_depth    - START DEPTH
STOP.M        490.59                         : bot_depth    - STOP DEPTH
STEP.M        0.25                           : increment    - STEP LENGTH
 NULL. -999.2500:NULL Value
~CURVE INFORMATION BLOCK
#MNEM UNIT       ERCB CURVE CODE    CURVE DESCRIPTION
#-----------   ------------------   ----------------------------------
DEPT.M        00 001 00 00         : DEPTH        - DEPTH
ILD .OHMM     00 120 00 00         : RESD         - DEEP RESISTIVITY (DIL)
NPHI.V/V      00 330 00 00         : PHIN         - NEUTRON POROSITY (SANDSTONE)
DPHI.V/V      00 890 00 00         : PHID         - DENSITY POROSITY (SANDSTONE)
GR  .API      00 310 00 00         : GR           - GAMMA RAY
CALI.MM       00 280 01 00         : CAL          - CALIPER
~PARAMETER INFORMATION
#MNEM.UNIT           DATA             DESCRIPTION OF MNEMONIC
#---------         -----------     ------------------------------
GL  .M        607.771              : gl           - GROUND LEVEL ELEVATION
EREF.M        612.023              : kb           - ELEVATION OF DEPTH REFERENCE
DATM.M        607.771              : datum        - DATUM ELEVATION
TDD .M        492.557              : tdd          - TOTAL DEPTH DRILLER
RUN .         ONE                  : Run          - RUN NUMBER
ENG .         BILL                 : Engineer     - RECORDING ENGINEER
WIT .         JIM                  : Witness      - WITNESSED BY
MUD .         GEL                  : Mud_type     - MUD TYPE
MATR.         SANDSTONE            : Logunit      - NEUTRON MATRIX
TMAX.C        25.5556              : BHT          - MAXIMUM RECORDED TEMPERATURE
BHTD.M        492.557              : BHTDEP       - MAXIMUM RECORDED TEMPERATURE
MATR.         1                    : LOGUNIT      - NEUTRON MATRIX
RMT .C        21.1111              : MDTP         - TEMPERATURE OF MUD
NEUT.         1                    : NEUTRON      - NEUTRON TYPE
RESI.         0                    : RESIST       - RESISTIVITY TYPE
RMC .OHMM     3.28                 : RMC          - RESISTIVITY OF MUD CAKE
RMF .OHMM     4.9                  : RMF          - RESISTIVITY OF MUD FILTRATE
SUFT.C        -18.3333             : SUFT         - SURFACE TEMPERATURE
~A  DEPTH     RESD     PHIN     PHID       GR      CAL
  243.840    3.596    0.576    0.345   93.711  283.174
  244.090    3.765    0.557    0.369   90.023  261.440
  244.340    3.992    0.517    0.387   88.404  248.072
  244.590    4.207    0.507    0.396   87.706  236.245
  244.840    4.336    0.528    0.397   87.780  228.437
  245.090    4.371    0.529    0.393   88.499  235.432
  245.340    4.373    0.529    0.364   87.278  252.197
  245.590    4.188    0.552    0.339   87.057  263.871
  245.840    4.077    0.564    0.336   86.122  266.204
  246.090    4.050    0.570    0.316   84.238  265.425
  246.340    4.126    0.567    0.277   82.118  264.446
  246.590    4.418    0.540    0.247   81.425  263.289
  246.840    4.811    0.499    0.228   81.437  265.402
  247.090    5.101    0.521    0.238   82.877  268.239
  247.340    5.041    0.537    0.255   83.779  269.568
  247.590    4.863    0.546    0.274   84.742  269.391
  247.840    4.682    0.553    0.299   85.766  267.809
  248.090    4.465    0.560    0.348   86.603  263.186
  248.340    4.368    0.547    0.372   88.348  254.007
  248.590    4.307    0.547    0.378   89.786  235.951
  248.840    4.247    0.536    0.342   90.691  228.745
  249.090    4.172    0.519    0.297   90.586  229.573
  249.340    4.069    0.512    0.266   89.532  236.728
  249.590    3.896    0.539    0.263   88.177  251.205
  249.840    3.753    0.570    0.259   88.438  259.177
  250.090    3.647    0.571    0.255   89.639  263.222
  250.340    3.623    0.568    0.255   89.238  264.553
  250.590    3.678    0.558    0.257   88.659  264.376
  250.840    3.770    0.544    0.255   88.971  264.199
  251.090    3.800    0.525    0.241   90.938  265.084
  251.340    3.802    0.501    0.243   91.199  261.339
  251.590    3.805    0.506    0.254   89.316  260.560
  251.840    3.786    0.522    0.261   89.032  262.493
  252.090    3.761    0.530    0.263   89.994  263.725
  252.340    3.736    0.524    0.265   91.433  263.349
  252.590    3.706    0.510    0.270   92.261  262.052
  252.840    3.680    0.505    0.255   92.771  257.475
  253.090    3.629    0.518    0.239   92.548  261.115
  253.340    3.618    0.524    0.236   91.435  265.057
  253.590    3.673    0.527    0.238   89.314  267.092
  253.840    3.811    0.527    0.240   85.651  266.716
  254.090    4.134    0.516    0.239   76.485  264.217
  254.340    4.643    0.500    0.253   61.425  259.639
  254.590    5.709    0.477    0.275   42.223  255.243
  254.840    8.148    0.426    0.324   28.535  262.599
  255.090   12.771    0.376    0.326   19.773  269.855
  255.340   19.815    0.339    0.269   16.052  268.774
  255.590   27.644    0.304    0.208   18.205  253.152
  255.840   27.451    0.308    0.205   18.219  245.230
  256.090   26.872    0.317    0.240   17.285  243.246
  256.340   26.450    0.309    0.251   17.953  246.081
  256.590   25.889    0.311    0.257   19.866  250.925
  256.840   24.968    0.327    0.268   22.846  256.471
  257.090   22.934    0.339    0.281   27.241  263.515
  257.340   20.195    0.354    0.297   28.985  266.473
  257.590   15.890    0.378    0.305   33.506  266.895
  257.840   12.309    0.419    0.284   41.941  263.705
  258.090    9.072    0.465    0.274   50.853  256.702
  258.340    6.885    0.505    0.279   57.747  249.600
  258.590    5.686    0.516    0.263   61.236  251.117
  258.840    5.008    0.495    0.252   61.993  256.580
  259.090    4.974    0.482    0.264   58.686  255.397
  259.340    5.050    0.481    0.243   57.872  255.725
  259.590    5.294    0.484    0.234   58.717  255.751
  259.840    5.767    0.484    0.245   60.271  254.972
  260.090    6.578    0.473    0.247   61.721  253.859
  260.340    6.735    0.457    0.254   62.973  252.211
  260.590    6.592    0.442    0.263   64.173  253.441
  260.840    6.346    0.442    0.274   65.195  258.889
  261.090    6.031    0.452    0.274   64.498  263.132
  261.340    5.780    0.466    0.259   61.962  262.454
  261.590    5.793    0.493    0.238   57.857  254.597
  261.840    5.841    0.528    0.265   52.683  253.368
  262.090    5.930    0.550    0.359   50.801  273.882
  262.340    5.989    0.454    0.450   51.230  314.580
  262.590    6.015    0.401    0.514   53.379  351.767
  262.840    5.963    0.429    0.526   56.419  365.953
  263.090    5.663    0.454    0.450   59.629  335.349
  263.340    5.254    0.461    0.363   61.373  302.734
  263.590    4.848    0.473    0.311   63.284  277.853
  263.840    4.576    0.493    0.260   66.619  274.058
  264.090    4.384    0.507    0.240   70.430  277.095
  264.340    4.213    0.511    0.244   73.292  277.822
  264.590    3.944    0.507    0.239   73.361  271.642
  264.840    3.660    0.504    0.266   73.623  268.738
  265.090    3.530    0.516    0.263   74.821  269.567
  265.340    3.424    0.523    0.268   75.843  276.119
  265.590    3.352    0.528    0.271   75.622  280.563
  265.840    3.330    0.534    0.268   74.155  282.596
  266.090    3.417    0.550    0.261   71.869  289.955
  266.340    3.607    0.569    0.274   68.668  292.492
  266.590    3.853    0.560    0.297   63.465  294.526
  266.840    4.095    0.544    0.359   61.640  298.067
  267.090    4.344    0.529    0.397   62.486  303.717
  267.340    4.617    0.512    0.390   65.585  303.941
  267.590    4.930    0.479    0.342   71.661  280.652
  267.840    4.896    0.460    0.257   75.876  268.542
  268.090    4.417    0.497    0.243   82.060  276.598
  268.340    3.895    0.542    0.257   84.864  278.331
  268.590    3.320    0.571    0.264   86.302  272.935
  268.840    2.808    0.579    0.258   87.501  265.126
  269.090    2.389    0.586    0.261   88.654  265.322
  269.340    2.120    0.595    0.274   88.421  266.188
  269.590    2.060    0.588    0.276   87.250  264.601
  269.840    2.035    0.585    0.281   85.190  262.716
  270.090    2.029    0.588    0.279   82.595  266.357
  270.340    2.045    0.588    0.269   79.940  274.117
  270.590    2.117    0.569    0.253   77.971  275.099
  270.840    2.167    0.564    0.246   78.727  263.824
  271.090    2.217    0.569    0.253   79.215  274.292
  271.340    2.280    0.586    0.249   78.461  273.920
  271.590    2.332    0.595    0.245   77.764  271.737
  271.840    2.367    0.594    0.246   77.776  271.559
  272.090    2.412    0.593    0.253   78.751  271.821
  272.340    2.450    0.580    0.262   80.004  271.010
  272.590    2.470    0.578    0.266   80.729  270.630
  272.840    2.503    0.586    0.273   81.635  271.460
  273.090    2.532    0.584    0.272   82.480  271.486
  273.340    2.557    0.573    0.257   82.907  270.807
  273.590    2.601    0.587    0.234   82.647  272.138
  273.840    2.622    0.597    0.263   83.653  274.675
  274.090    2.663    0.591    0.252   84.379  275.910
  274.340    2.703    0.587    0.250   85.105  276.535
  274.590    2.755    0.585    0.241   84.880  276.154
  274.840    2.812    0.586    0.233   83.708  274.369
  275.090    2.852    0.585    0.256   82.442  270.450
  275.340    2.832    0.577    0.256   81.962  268.805
  275.590    2.793    0.578    0.282   81.501  266.819
  275.840    2.754    0.581    0.280   80.152  268.149
  276.090    2.736    0.584    0.265   78.388  272.794
  276.340    2.743    0.586    0.251   76.090  277.840
  276.590    2.854    0.587    0.256   71.213  275.545
  276.840    3.413    0.583    0.263   64.554  265.939
  277.090    4.139    0.522    0.241   58.638  255.518
  277.340    4.836    0.520    0.245   55.391  244.798
  277.590    5.207    0.542    0.278   53.744  242.413
  277.840    5.102    0.554    0.316   52.750  246.857
  278.090    4.686    0.523    0.320   51.582  247.656
  278.340    4.549    0.503    0.326   51.599  253.538
  278.590    4.755    0.522    0.331   51.375  262.000
  278.840    5.620    0.528    0.328   49.727  262.327
  279.090    6.786    0.524    0.329   47.133  261.549
  279.340    7.895    0.521    0.335   44.894  262.476
  279.590    9.884    0.541    0.333   45.444  263.878
  279.840   14.315    0.573    0.337   46.941  264.738
  280.090   15.399    0.526    0.331   48.380  267.977
