~VERSION INFORMATION
 VERS.                 2.0:   CWLS LOG ASCII STANDARD -VERSION 2.0
 WRAP.                  NO:   ONE LINE PER DEPTH STEP
~WELL INFORMATION BLOCK
#MNEM.UNIT           DATA                    DESCRIPTION OF MNEMONIC
#---------    -------------------            -------------------------------
# Generated from Intellog Unique Number	CS_71_72/WELL/774
WELL.         SUN OIL COMPANY                : Well_name    - WELL
LOC .         00/06-22-072-16W4/0            : Location     - LOCATION
UWI .         00/06-22-072-16W4/0            : Uwi          - UNIQUE WELL ID
ENTR.         SP                             : Entered      - ENTERED BY
SRVC.         SCHLUMBERGER                   : Scn          - SERVICE COMPANY
STRT.M        256.032                        : top_depth    - START DEPTH
STOP.M        435.532                        : bot_depth    - STOP DEPTH
STEP.M        0.25                           : increment    - STEP LENGTH
 NULL. -999.2500:NULL Value
~CURVE INFORMATION BLOCK
#MNEM UNIT       ERCB CURVE CODE    CURVE DESCRIPTION
#-----------   ------------------   ----------------------------------
DEPT.M        00 001 00 00         : DEPTH        - DEPTH
GR  .API      00 310 00 00         : GR           - GAMMA RAY
DPHI.V/V      00 890 00 00         : PHID         - DENSITY POROSITY (SANDSTONE)
NPHI.V/V      00 330 00 00         : PHIN         - NEUTRON POROSITY (SANDSTONE)
ILD .OHMM     00 120 00 00         : RESD         - DEEP RESISTIVITY (DIL)
~PARAMETER INFORMATION
#MNEM.UNIT           DATA             DESCRIPTION OF MNEMONIC
#---------         -----------     ------------------------------
GL  .M        579.577              : gl           - GROUND LEVEL ELEVATION
EREF.M        582.473              : kb           - ELEVATION OF DEPTH REFERENCE
DATM.M        579.577              : datum        - DATUM ELEVATION
TDD .M        437.388              : tdd          - TOTAL DEPTH DRILLER
RUN .         ONE                  : Run          - RUN NUMBER
ENG .         BILL                 : Engineer     - RECORDING ENGINEER
WIT .         JIM                  : Witness      - WITNESSED BY
MUD .         GEL                  : Mud_type     - MUD TYPE
MATR.         SANDSTONE            : Logunit      - NEUTRON MATRIX
TMAX.C        18.3333              : BHT          - MAXIMUM RECORDED TEMPERATURE
BHTD.M        437.388              : BHTDEP       - MAXIMUM RECORDED TEMPERATURE
MATR.         1                    : LOGUNIT      - NEUTRON MATRIX
RMT .C        25                   : MDTP         - TEMPERATURE OF MUD
NEUT.         1                    : NEUTRON      - NEUTRON TYPE
RESI.         0                    : RESIST       - RESISTIVITY TYPE
RMC .OHMM     0.25                 : RMC          - RESISTIVITY OF MUD CAKE
RMF .OHMM     0.25                 : RMF          - RESISTIVITY OF MUD FILTRATE
SUFT.C        15                   : SUFT         - SURFACE TEMPERATURE
~A  DEPTH       GR     PHID     PHIN     RESD
# ...
  299.532   93.876    0.240    0.468    6.657
  299.782   96.286    0.225    0.463    6.332
  300.032   99.667    0.213    0.460    6.157
  300.282  101.388    0.217    0.468    6.004
  300.532  100.461    0.213    0.474    6.018
  300.782   96.863    0.220    0.476    6.013
  301.032   95.221    0.239    0.473    6.166
  301.282   96.338    0.258    0.456    6.480
  301.532   91.820    0.282    0.440    6.760
  301.782   87.699    0.283    0.432    7.032
  302.032   84.209    0.283    0.429    7.257
  302.282   79.646    0.274    0.436    7.423
  302.532   79.172    0.261    0.451    7.579
  302.782   84.918    0.250    0.466    7.569
  303.032   89.941    0.240    0.477    7.478
  303.282   91.716    0.244    0.475    7.312
  303.532   92.116    0.247    0.470    6.902
  303.782   95.331    0.242    0.468    6.221
  304.032   96.630    0.231    0.472    5.890
  304.282   95.679    0.230    0.480    5.461
  304.532   94.712    0.233    0.480    5.731
  304.782   94.300    0.249    0.461    5.983
  305.032   94.437    0.240    0.463    6.359
  305.282   93.011    0.235    0.466    6.772
  305.532   89.492    0.249    0.474    7.328
  305.782   86.980    0.276    0.487    7.815
  306.032   85.336    0.339    0.502    8.753
  306.282   83.097    0.405    0.534    9.404
  306.532   72.100    0.426    0.567    9.878
  306.782   62.423    0.415    0.519   10.346
  307.032   53.726    0.349    0.450   10.155
  307.282   55.390    0.312    0.429    9.851
  307.532   56.391    0.301    0.425    9.134
  307.782   56.795    0.306    0.437    8.902
  308.032   57.170    0.310    0.449    8.297
  308.282   57.683    0.316    0.420    8.068
  308.532   58.375    0.316    0.407    7.970
  308.782   59.083    0.314    0.414    7.883
  309.032   60.023    0.316    0.419    7.745
  309.282   61.724    0.314    0.415    7.707
  309.532   63.366    0.312    0.414    7.629
  309.782   63.923    0.314    0.425    7.634
  310.032   61.475    0.319    0.439    7.641
  310.282   59.809    0.317    0.441    7.649
  310.532   59.205    0.311    0.431    7.656
  310.782   59.478    0.309    0.429    7.663
  311.032   61.009    0.312    0.435    7.671
  311.282   62.719    0.321    0.434    7.678
  311.532   63.630    0.315    0.445    7.686
  311.782   63.673    0.308    0.455    7.692
  312.032   62.991    0.314    0.435    7.699
  312.282   63.092    0.318    0.423    7.706
  312.532   63.133    0.324    0.430    7.714
  312.782   63.306    0.321    0.432    7.720
  313.032   64.401    0.318    0.431    7.728
  313.282   64.401    0.314    0.429    7.718
  313.532   64.310    0.311    0.426    7.902
  313.782   63.859    0.315    0.429    7.894
  314.032   64.864    0.322    0.417    7.899
  314.282   65.814    0.319    0.412    7.909
  314.532   65.793    0.316    0.427    7.915
  314.782   65.603    0.320    0.438    7.936
  315.032   64.635    0.318    0.442    7.776
  315.282   64.204    0.315    0.437    7.794
  315.532   64.180    0.312    0.441    7.812
  315.782   63.520    0.312    0.439    7.659
  316.032   63.564    0.321    0.432    7.670
  316.282   63.446    0.324    0.428    7.664
  316.532   62.440    0.322    0.454    7.827
  316.782   61.411    0.323    0.470    7.676
  317.032   61.251    0.321    0.479    7.696
  317.282   61.832    0.316    0.469    7.705
  317.532   62.980    0.310    0.453    7.714
  317.782   62.531    0.321    0.443    7.724
  318.032   59.504    0.319    0.435    7.610
  318.282   57.409    0.319    0.429    7.659
  318.532   57.845    0.322    0.428    7.741
  318.782   58.301    0.321    0.428    7.750
  319.032   58.465    0.321    0.435    7.756
  319.282   58.517    0.322    0.440    7.762
  319.532   58.616    0.321    0.451    7.769
  319.782   57.951    0.326    0.456    7.778
  320.032   57.437    0.332    0.462    7.785
  320.282   57.821    0.326    0.461    7.790
  320.532   58.128    0.321    0.457    7.791
  320.782   59.740    0.312    0.452    7.936
  321.032   61.527    0.309    0.448    7.959
  321.282   62.510    0.306    0.446    7.982
  321.532   63.541    0.308    0.443    8.130
  321.782   64.620    0.311    0.443    8.132
  322.032   64.960    0.314    0.446    8.138
  322.282   65.687    0.316    0.447    8.146
  322.532   64.983    0.320    0.444    8.154
  322.782   64.444    0.320    0.455    8.160
  323.032   63.834    0.319    0.464    8.183
  323.282   64.001    0.316    0.471    8.014
  323.532   65.082    0.313    0.475    8.035
  323.782   66.102    0.310    0.474    8.036
  324.032   67.121    0.306    0.472    8.022
  324.282   68.207    0.302    0.468    8.030
  324.532   68.276    0.301    0.464    8.069
  324.782   68.286    0.308    0.460    7.906
  325.032   67.732    0.310    0.456    7.691
  325.282   67.957    0.309    0.452    7.304
  325.532   69.042    0.310    0.448    7.107
  325.782   70.957    0.316    0.444    6.889
  326.032   72.638    0.323    0.440    6.858
  326.282   74.533    0.333    0.450    6.989
  326.532   72.482    0.319    0.467    7.214
  326.782   64.427    0.301    0.476    7.450
  327.032   63.684    0.284    0.465    7.550
  327.282   65.546    0.258    0.448    7.719
  327.532   69.041    0.239    0.432    7.700
  327.782   73.538    0.235    0.425    7.468
  328.032   77.401    0.250    0.418    7.252
  328.282   81.064    0.248    0.443    6.886
  328.532   84.349    0.245    0.464    6.048
  328.782   88.759    0.245    0.473    5.454
  329.032   91.933    0.245    0.480    4.709
  329.282   93.406    0.234    0.476    3.976
  329.532   94.033    0.218    0.472    3.376
  329.782   96.194    0.206    0.486    3.038
  330.032   98.198    0.211    0.500    3.203
  330.282  100.157    0.207    0.502    3.615
  330.532  101.208    0.219    0.500    4.101
  330.782  100.128    0.223    0.497    4.384
  331.032   98.156    0.218    0.496    4.666
  331.282   96.091    0.215    0.492    4.814
  331.532   95.812    0.222    0.485    4.814
  331.782   94.110    0.229    0.475    5.127
  332.032   91.937    0.232    0.478    5.446
  332.282   88.279    0.239    0.481    5.774
  332.532   83.958    0.263    0.475    5.943
  332.782   79.890    0.283    0.471    6.270
  333.032   76.105    0.292    0.462    6.301
  333.282   70.983    0.301    0.455    6.308
  333.532   67.140    0.308    0.448    6.273
  333.782   66.562    0.314    0.445    5.943
  334.032   69.667    0.306    0.454    5.609
  334.282   73.263    0.297    0.469    4.935
  334.532   76.995    0.290    0.484    4.107
  334.782   80.449    0.279    0.490    3.565
  335.032   84.592    0.261    0.489    3.435
  335.282   89.710    0.245    0.505    3.645
  335.532   90.736    0.261    0.503    4.068
  335.782   90.811    0.269    0.496    4.556
  336.032   87.092    0.267    0.488    4.990
  336.282   79.783    0.283    0.482    5.322
  336.532   73.477    0.326    0.475    5.541
  336.782   68.911    0.338    0.482    5.811
  337.032   67.250    0.337    0.460    5.939
  337.282   65.659    0.339    0.440    6.064
  337.532   64.123    0.340    0.466    6.061
  337.782   63.953    0.342    0.468    6.068
  338.032   63.956    0.346    0.460    6.073
  338.282   64.434    0.347    0.446    6.092
  338.532   64.650    0.344    0.469    5.961
  338.782   64.091    0.335    0.467    5.981
  339.032   63.441    0.326    0.449    6.056
  339.282   63.477    0.321    0.439    6.119
  339.532   64.116    0.322    0.437    6.324
  339.782   64.764    0.325    0.440    6.530
  340.032   66.133    0.326    0.447    6.749
  340.282   67.100    0.317    0.456    7.083
  340.532   68.590    0.302    0.450    7.313
  340.782   69.212    0.278    0.431    7.383
  341.032   69.181    0.277    0.411    7.407
  341.282   69.031    0.303    0.439    6.963
  341.532   68.668    0.333    0.456    6.749
  341.782   68.329    0.327    0.463    6.344
  342.032   67.311    0.319    0.448    6.162
  342.282   66.930    0.318    0.442    6.068
  342.532   67.036    0.323    0.435    5.943
  342.782   66.339    0.330    0.444    5.957
