~VERSION INFORMATION
 VERS.                 2.0:   CWLS LOG ASCII STANDARD -VERSION 2.0
 WRAP.                  NO:   ONE LINE PER DEPTH STEP
~WELL INFORMATION BLOCK
#MNEM.UNIT           DATA                    DESCRIPTION OF MNEMONIC
#---------    -------------------            -------------------------------
# Generated from Intellog Unique Number	CN_94_101/WELL/2572
WELL.         PARAMOUNT RESOURCES LTD.       : Well_name    - WELL
LOC .         00/07-24-094-19W4/0            : Location     - LOCATION
UWI .         00/07-24-094-19W4/0            : Uwi          - UNIQUE WELL ID
ENTR.         JOETTE                         : Entered      - ENTERED BY
SRVC.         COMPUTALOG                     : Scn          - SERVICE COMPANY
DATE.         06\12\92                       : Date         - LOG DATE
STRT.M        90                             : top_depth    - START DEPTH
STOP.M        277                            : bot_depth    - STOP DEPTH
STEP.M        0.25                           : increment    - STEP LENGTH
 NULL. -999.2500:NULL Value
~CURVE INFORMATION BLOCK
#MNEM UNIT       ERCB CURVE CODE    CURVE DESCRIPTION
#-----------   ------------------   ----------------------------------
DEPT.M        00 001 00 00         : DEPTH        - DEPTH
CALI.MM       00 280 01 00         : CAL          - CALIPER
GR  .API      00 310 00 00         : GR           - GAMMA RAY
NPHI.V/V      00 330 00 00         : PHIN         - NEUTRON POROSITY (SANDSTONE)
DPHI.V/V      00 890 00 00         : PHID         - DENSITY POROSITY (SANDSTONE)
ILD .OHMM     00 120 00 00         : RESD         - DEEP RESISTIVITY (DIL)
~PARAMETER INFORMATION
#MNEM.UNIT           DATA             DESCRIPTION OF MNEMONIC
#---------         -----------     ------------------------------
GL  .M        557.4                : gl           - GROUND LEVEL ELEVATION
EREF.M        560.8                : kb           - ELEVATION OF DEPTH REFERENCE
DATM.M        560.8                : datum        - DATUM ELEVATION
TDD .M        280.1                : tdd          - TOTAL DEPTH DRILLER
RUN .         ONE                  : Run          - RUN NUMBER
ENG .         JO                   : Engineer     - RECORDING ENGINEER
WIT .         TIM                  : Witness      - WITNESSED BY
MUD .         GEL                  : Mud_type     - MUD TYPE
MATR.         SANDSTONE            : Logunit      - NEUTRON MATRIX
TMAX.C        32                   : BHT          - MAXIMUM RECORDED TEMPERATURE
BHTD.M        280.1                : BHTDEP       - MAXIMUM RECORDED TEMPERATURE
RMT .C        19                   : MDTP         - TEMPERATURE OF MUD
MUDD.KG/M     1130                 : MWT          - MUD DENSITY
NEUT.         1                    : NEUTRON      - NEUTRON TYPE
RESI.         0                    : RESIST       - RESISTIVITY TYPE
RM  .OHMM     5.3                  : RM           - RESISTIVITY OF MUD
RMC .OHMM     5.3                  : RMC          - RESISTIVITY OF MUD CAKE
RMF .OHMM     5.3                  : RMF          - RESISTIVITY OF MUD FILTRATE
SUFT.C        4                    : SUFT         - SURFACE TEMPERATURE
~A  DEPTH      CAL       GR     PHIN     PHID     RESD
   90.000  170.267   86.420    0.436    0.212    4.794
   90.250  168.210   82.716    0.425    0.251    4.701
   90.500  166.152   80.247    0.430    0.267    4.610
   90.750  166.152   80.864    0.417    0.261    4.607
   91.000  170.267   83.951    0.414    0.257    4.604
   91.250  172.325   90.124    0.443    0.253    4.603
   91.500  175.412   91.975    0.457    0.251    4.870
   91.750  176.440   96.296    0.454    0.252    5.456
   92.000  175.412   95.062    0.440    0.257    5.998
   92.250  174.383   88.272    0.414    0.267    9.285
   92.500  172.325   82.099    0.411    0.301    9.824
   92.750  168.210   76.543    0.417    0.314   10.010
   93.000  165.123   74.691    0.428    0.321   10.591
   93.250  159.979   71.605    0.419    0.307   11.640
   93.500  159.979   69.136    0.399    0.304   11.859
   93.750  159.979   64.815    0.375    0.310   12.082
   94.000  163.066   62.346    0.368    0.330   12.540
   94.250  164.095   61.111    0.365    0.326   12.775
   94.500  166.152   61.111    0.369    0.323   12.770
   94.750  167.181   61.111    0.375    0.323   12.763
   95.000  167.181   59.877    0.379    0.317   12.999
   95.250  167.181   57.407    0.375    0.310   12.996
   95.500  166.152   54.938    0.375    0.304   13.237
   95.750  166.152   54.321    0.372    0.312   13.230
   96.000  166.152   54.938    0.365    0.327   13.736
   96.250  168.210   56.790    0.363    0.326   14.261
   96.500  169.239   58.025    0.370    0.319   14.807
   96.750  169.239   59.259    0.379    0.317   16.271
   97.000  168.210   59.259    0.381    0.332   16.577
   97.250  166.152   58.025    0.383    0.342   17.209
   97.500  169.239   55.556    0.386    0.346   17.205
   97.750  178.498   53.086    0.385    0.346   16.240
   98.000  184.671   46.296    0.363    0.353   15.627
   98.250  180.556   48.765    0.352    0.343   14.200
   98.500  175.412   51.852    0.362    0.331   13.663
   98.750  198.045   54.938    0.381    0.348   13.654
   99.000  201.132   57.407    0.388    0.374   13.913
   99.250  180.556   52.469    0.386    0.378   13.902
   99.500  184.671   53.086    0.368    0.363   13.895
   99.750  185.700   58.642    0.358    0.364   14.426
  100.000  177.469   57.407    0.360    0.406   15.855
  100.250  175.412   54.321    0.375    0.448   16.155
  100.500  178.498   57.407    0.391    0.460   16.773
  100.750  178.498   58.025    0.385    0.422   16.446
  101.000  173.354   48.765    0.372    0.369   15.524
  101.250  178.498   47.531    0.364    0.358   15.227
  101.500  185.700   48.148    0.367    0.367   14.647
  101.750  188.786   52.469    0.373    0.380   14.368
  102.000  187.757   54.321    0.373    0.391   14.634
  102.250  181.584   53.704    0.370    0.409   14.909
  102.500  176.440   53.704    0.390    0.402   15.774
  102.750  185.700   51.235    0.375    0.402   16.071
  103.000  184.671   50.000    0.372    0.433   16.371
  103.250  179.527   48.765    0.381    0.449   15.158
  103.500  176.440   48.765    0.385    0.464   14.313
  103.750  179.527   53.704    0.390    0.428   12.759
  104.000  184.671   58.025    0.401    0.378   12.278
  104.250  190.844   57.407    0.395    0.380   12.272
  104.500  191.872   57.407    0.399    0.422   13.235
  104.750  192.901   58.642    0.395    0.406   14.828
  105.000  192.901   59.259    0.370    0.358   15.397
  105.250  186.728   55.556    0.360    0.362   16.293
  105.500  191.872   50.617    0.346    0.418   16.913
  105.750  195.988   48.765    0.332    0.415   17.897
  106.000  199.074   49.383    0.341    0.368   18.941
  106.250  193.930   52.469    0.351    0.354   20.428
  106.500  183.642   51.235    0.336    0.346   22.029
  106.750  193.930   40.741    0.321    0.363   23.310
  107.000  202.160   45.062    0.313    0.372   23.301
  107.250  212.449   51.235    0.307    0.362   21.994
  107.500  220.679   22.840    0.316    0.355   19.988
  107.750  218.621   22.840    0.330    0.431   17.823
  108.000  194.959   22.840    0.347    0.476   15.892
  108.250  184.671   25.926    0.357    0.495   13.642
  108.500  178.498   41.358    0.357    0.505   12.164
  108.750  181.584   45.062    0.363    0.473   11.267
  109.000  186.728   46.914    0.372    0.448   10.840
  109.250  188.786   55.556    0.385    0.442   11.468
  109.500  183.642   66.049    0.373    0.436   11.910
  109.750  185.700   63.580    0.348    0.331   12.365
  110.000  191.872   54.938    0.305    0.316   11.896
  110.250  199.074   44.444    0.318    0.360   10.019
  110.500  205.247   38.272    0.334    0.383    8.123
  110.750  205.247   54.321    0.368    0.318    6.462
  111.000  202.160   74.691    0.421    0.263    5.547
  111.250  188.786   97.531    0.450    0.244    4.671
  111.500  187.757  108.642    0.480    0.241    4.086
  111.750  190.844  109.259    0.492    0.247    3.932
  112.000  190.844  106.790    0.512    0.263    3.856
  112.250  187.757  104.321    0.528    0.279    3.780
  112.500  184.671  107.407    0.522    0.274    3.707
  112.750  179.527  111.111    0.515    0.267    3.706
  113.000  174.383  115.432    0.516    0.265    3.634
  113.250  174.383  119.136    0.506    0.259    3.632
  113.500  175.412  119.753    0.479    0.252    3.630
  113.750  179.527  116.667    0.460    0.247    3.698
  114.000  184.671  114.815    0.467    0.247    3.840
  114.250  186.728  114.815    0.483    0.254    3.986
  114.500  189.815  116.667    0.506    0.250    4.298
  114.750  187.757  116.667    0.512    0.244    4.464
  115.000  186.728  113.580    0.506    0.238    4.461
  115.250  186.728  109.259    0.496    0.239    4.374
  115.500  188.786  109.877    0.486    0.241    4.209
  115.750  184.671  112.346    0.480    0.242    4.049
  116.000  180.556  111.111    0.476    0.243    3.971
  116.250  179.527  108.025    0.484    0.249    3.968
  116.500  178.498  109.259    0.505    0.253    3.967
  116.750  176.440  111.728    0.520    0.254    3.965
  117.000  187.757  111.111    0.497    0.273    4.039
  117.250  188.786  109.259    0.480    0.273    4.274
  117.500  188.786  112.346    0.476    0.259    4.609
  117.750  185.700  114.815    0.476    0.249    4.970
  118.000  180.556  109.259    0.448    0.246    5.261
  118.250  175.412  105.556    0.413    0.249    5.783
  118.500  175.412  104.938    0.394    0.248    6.119
  118.750  185.700  103.086    0.385    0.248    6.475
  119.000  188.786  100.000    0.396    0.242    6.349
  119.250  189.815  100.000    0.415    0.238    5.994
  119.500  178.498  102.469    0.429    0.239    5.768
  119.750  176.440  103.086    0.439    0.243    5.875
  120.000  173.354   98.765    0.441    0.246    6.457
  120.250  172.325   95.062    0.437    0.247    7.098
  120.500  174.383   96.296    0.422    0.248    8.104
  120.750  172.325   94.444    0.399    0.252    8.255
  121.000  167.181   91.358    0.381    0.255    8.095
  121.250  164.095   83.951    0.360    0.250    7.641
  121.500  167.181   83.333    0.357    0.243    7.353
  121.750  172.325   84.568    0.368    0.238    7.073
  122.000  180.556   85.802    0.390    0.223    6.806
  122.250  182.613   88.889    0.383    0.206    6.550
  122.500  177.469   93.210    0.379    0.274    6.303
  122.750  171.296   82.099    0.383    0.263    5.838
  123.000  171.296   75.309    0.417    0.252    5.107
  123.250  180.556   80.864    0.463    0.244    4.554
  123.500  189.815   96.914    0.496    0.244    4.060
  123.750  189.815  105.556    0.482    0.242    3.832
  124.000  189.815  103.086    0.453    0.232    3.759
  124.250  188.786  100.000    0.444    0.232    3.548
  124.500  184.671  101.852    0.463    0.247    3.349
  124.750  177.469  103.086    0.481    0.252    3.612
  125.000  175.412  107.407    0.492    0.250    4.451
  125.250  177.469  104.938    0.474    0.244    5.180
  125.500  178.498   97.531    0.457    0.243    5.803
  125.750  176.440   96.914    0.448    0.221    6.259
  126.000  170.267   93.827    0.438    0.186    6.879
  126.250  167.181   86.420    0.415    0.196    7.418
