~VERSION INFORMATION
 VERS.                 2.0:   CWLS LOG ASCII STANDARD -VERSION 2.0
 WRAP.                  NO:   ONE LINE PER DEPTH STEP
~WELL INFORMATION BLOCK
#MNEM.UNIT           DATA                    DESCRIPTION OF MNEMONIC
#---------    -------------------            -------------------------------
# Generated from Intellog Unique Number	CW_76_78/WELL/773
WELL.         GULF ET AL MANNY 08-26         : Well_name    - WELL
LOC .         00/08-26-076-21W4/0            : Location     - LOCATION
UWI .         00/08-26-076-21W4/0            : Uwi          - UNIQUE WELL ID
ENTR.         JAYE                           : Entered      - ENTERED BY
SRVC.         SCHLUMBERGER                   : Scn          - SERVICE COMPANY
DATE.         5 MAR 81                       : Date         - LOG DATE
STRT.M        395                            : top_depth    - START DEPTH
STOP.M        587                            : bot_depth    - STOP DEPTH
STEP.M        0.25                           : increment    - STEP LENGTH
 NULL. -999.2500:NULL Value
~CURVE INFORMATION BLOCK
#MNEM UNIT       ERCB CURVE CODE    CURVE DESCRIPTION
#-----------   ------------------   ----------------------------------
DEPT.M        00 001 00 00         : DEPTH        - DEPTH
ILD .OHMM     00 120 00 00         : RESD         - DEEP RESISTIVITY (DIL)
NPHI.V/V      00 330 00 00         : PHIN         - NEUTRON POROSITY (SANDSTONE)
DPHI.V/V      00 890 00 00         : PHID         - DENSITY POROSITY (SANDSTONE)
GR  .API      00 310 00 00         : GR           - GAMMA RAY
CALI.MM       00 280 01 00         : CAL          - CALIPER
~PARAMETER INFORMATION
#MNEM.UNIT           DATA             DESCRIPTION OF MNEMONIC
#---------         -----------     ------------------------------
GL  .M        723.85               : gl           - GROUND LEVEL ELEVATION
EREF.M        728.35               : kb           - ELEVATION OF DEPTH REFERENCE
DATM.M        723.85               : datum        - DATUM ELEVATION
TDD .M        612                  : tdd          - TOTAL DEPTH DRILLER
RUN .         ONE                  : Run          - RUN NUMBER
ENG .         MCEWAN               : Engineer     - RECORDING ENGINEER
WIT .         WOOD                 : Witness      - WITNESSED BY
BASE.         EDM                  : Branch       - HOME BASE OF LOGGING UNIT
MUD .         GEL                  : Mud_type     - MUD TYPE
MATR.         SANDSTONE            : Logunit      - NEUTRON MATRIX
TMAX.C        22.2                 : BHT          - MAXIMUM RECORDED TEMPERATURE
BHTD.M        609                  : BHTDEP       - MAXIMUM RECORDED TEMPERATURE
RMT .C        14.4                 : MDTP         - TEMPERATURE OF MUD
MUDD.KG/M     9.5                  : MWT          - MUD DENSITY
NEUT.         1                    : NEUTRON      - NEUTRON TYPE
RESI.         0                    : RESIST       - RESISTIVITY TYPE
RM  .OHMM     6.35                 : RM           - RESISTIVITY OF MUD
RMC .OHMM     0                    : RMC          - RESISTIVITY OF MUD CAKE
RMF .OHMM     8.17                 : RMF          - RESISTIVITY OF MUD FILTRATE
SUFT.C        0                    : SUFT         - SURFACE TEMPERATURE
~A  DEPTH     RESD     PHIN     PHID       GR      CAL
# ...
  468.000    5.836    0.422    0.247   74.878  168.086
  468.250    5.900    0.420    0.233   75.953  168.638
  468.500    5.986    0.440    0.245   72.001  167.427
  468.750    6.050    0.464    0.265   62.898  163.738
  469.000    6.092    0.443    0.283   60.374  157.049
  469.250    6.192    0.440    0.293   61.076  154.702
  469.500    6.308    0.469    0.290   70.840  157.943
  469.750    6.376    0.464    0.290   76.444  160.977
  470.000    6.347    0.457    0.293   71.748  160.492
  470.250    6.308    0.460    0.286   69.162  158.765
  470.500    6.259    0.454    0.279   67.133  158.281
  470.750    6.220    0.468    0.282   64.423  158.833
  471.000    6.124    0.463    0.276   67.421  158.762
  471.250    5.996    0.441    0.254   69.241  155.794
  471.500    5.771    0.471    0.294   82.293  155.107
  471.750    5.492    0.465    0.287   76.169  155.968
  472.000    5.082    0.430    0.240   72.093  157.862
  472.250    4.792    0.427    0.218   75.837  160.274
  472.500    4.553    0.447    0.207   87.028  162.892
  472.750    4.457    0.472    0.206   85.743  164.889
  473.000    4.373    0.458    0.218   72.483  165.956
  473.250    4.379    0.434    0.218   72.875  166.302
  473.500    4.442    0.436    0.210   61.848  167.265
  473.750    4.558    0.438    0.223   57.153  168.848
  474.000    4.884    0.422    0.260   59.344  158.642
  474.250    5.475    0.430    0.241   58.433  151.745
  474.500    6.241    0.487    0.198   59.696  151.674
  474.750    7.009    0.488    0.246   61.576  155.847
  475.000    8.142    0.473    0.314   59.051  159.913
  475.250    9.352    0.458    0.315   56.280  160.980
  475.500    9.983    0.462    0.312   55.119  161.117
  475.750   10.361    0.462    0.310   51.043  160.941
  476.000   10.572    0.446    0.321   47.587  161.185
  476.250   10.565    0.467    0.330   54.310  161.219
  476.500   10.324    0.461    0.326   57.805  161.252
  476.750    9.589    0.448    0.306   66.823  161.085
  477.000    8.434    0.445    0.318   60.327  160.900
  477.250    7.603    0.455    0.318   50.108  160.830
  477.500    7.512    0.466    0.309   45.907  160.656
  477.750    8.111    0.466    0.296   42.824  160.793
  478.000    9.056    0.444    0.253   42.472  161.353
  478.250   11.385    0.412    0.186   49.569  161.793
  478.500   13.301    0.330    0.145   56.474  162.245
  478.750   13.854    0.297    0.152   62.762  162.067
  479.000   12.210    0.279    0.153   68.492  161.999
  479.250    9.923    0.288    0.131   71.366  161.927
  479.500    7.652    0.440    0.249   65.615  161.854
  479.750    6.781    0.467    0.289   62.097  161.993
  480.000    6.310    0.454    0.309   63.607  161.919
  480.250    6.040    0.421    0.322   59.593  161.440
  480.500    5.914    0.411    0.313   50.615  161.056
  480.750    5.866    0.437    0.305   42.008  160.368
  481.000    5.875    0.452    0.302   41.097  159.984
  481.250    5.882    0.438    0.300   45.399  159.606
  481.500    5.889    0.440    0.319   47.406  159.333
  481.750    5.876    0.441    0.326   59.650  159.569
  482.000    5.885    0.444    0.304   58.056  159.608
  482.250    5.880    0.459    0.293   59.256  159.636
  482.500    5.790    0.452    0.325   60.952  159.774
  482.750    5.680    0.425    0.300   62.026  159.805
  483.000    5.571    0.442    0.301   64.652  159.734
  483.250    5.484    0.463    0.301   68.955  159.456
  483.500    5.410    0.450    0.295   64.382  159.383
  483.750    5.307    0.454    0.293   60.429  159.106
  484.000    5.244    0.434    0.301   61.257  158.939
  484.250    5.172    0.447    0.306   76.418  158.866
  484.500    5.112    0.449    0.307   72.343  158.588
  484.750    5.061    0.426    0.301   73.914  158.619
  485.000    5.031    0.415    0.268   75.485  156.066
  485.250    5.018    0.431    0.242   71.844  153.616
  485.500    5.016    0.435    0.225   72.236  156.135
  485.750    4.994    0.422    0.209   69.029  158.235
  486.000    4.965    0.436    0.252   69.483  157.856
  486.250    4.933    0.433    0.257   71.550  157.787
  486.500    4.867    0.406    0.263   68.654  158.542
  486.750    4.818    0.447    0.277   71.528  159.919
  487.000    4.752    0.472    0.286   81.044  161.192
  487.250    4.662    0.436    0.294   85.719  162.574
  487.500    4.555    0.428    0.271   87.723  164.569
  487.750    4.460    0.455    0.240   90.350  166.048
  488.000    4.358    0.476    0.228   89.252  166.602
  488.250    4.148    0.478    0.204   92.065  166.843
  488.500    3.759    0.447    0.218   89.788  167.290
  488.750    3.209    0.453    0.220   90.803  167.629
  489.000    2.698    0.488    0.204   93.430  168.078
  489.250    2.355    0.477    0.208   93.944  169.145
  489.500    2.481    0.477    0.213   88.255  170.937
  489.750    2.802    0.480    0.201   80.953  171.176
  490.000    3.171    0.487    0.225   75.821  164.278
  490.250    3.547    0.460    0.258   82.234  158.003
  490.500    4.120    0.443    0.263   89.017  157.522
  490.750    4.448    0.479    0.247   83.265  157.764
  491.000    4.480    0.479    0.231   93.215  157.795
  491.250    4.460    0.472    0.224   97.144  157.726
  491.500    4.612    0.465    0.233   86.738  157.653
  491.750    4.821    0.443    0.233   84.462  157.897
  492.000    4.939    0.441    0.212   87.833  157.723
  492.250    4.899    0.440    0.215   84.626  158.061
  492.500    4.842    0.450    0.224   85.949  158.199
  492.750    4.777    0.466    0.242   98.939  158.131
  493.000    4.746    0.449    0.235   96.725  158.680
  493.250    4.699    0.455    0.221   96.187  160.471
  493.500    4.636    0.459    0.206   93.786  161.952
  493.750    4.581    0.437    0.203   90.020  163.535
  494.000    4.485    0.449    0.214   98.294  165.018
  494.250    4.408    0.476    0.226   99.617  163.188
  494.500    4.557    0.482    0.249   89.273  158.774
  494.750    4.874    0.472    0.266   79.115  157.049
  495.000    5.262    0.462    0.280   85.652  156.668
  495.250    5.532    0.453    0.236   95.229  157.118
  495.500    5.939    0.444    0.215   92.396  157.978
  495.750    6.340    0.431    0.196   86.828  158.939
  496.000    6.432    0.418    0.203   90.199  160.526
  496.250    6.332    0.407    0.201   85.814  161.388
  496.500    6.130    0.414    0.206   95.578  162.039
  496.750    5.911    0.442    0.210   99.942  163.002
  497.000    5.822    0.463    0.207   96.175  163.042
  497.250    5.786    0.472    0.208   88.747  162.966
  497.500    5.761    0.455    0.196   76.914  163.621
  497.750    5.747    0.448    0.186   86.678  164.790
  498.000    5.701    0.449    0.194   86.573  165.552
  498.250    5.645    0.456    0.216   79.332  165.993
  498.500    5.598    0.436    0.213   83.759  165.822
  498.750    5.502    0.457    0.220   88.867  166.267
  499.000    5.427    0.488    0.209   80.633  166.927
  499.250    5.375    0.455    0.180   84.005  167.058
  499.500    5.340    0.464    0.200   87.933  166.158
  499.750    5.309    0.453    0.212   84.540  165.367
  500.000    5.256    0.459    0.216   93.186  164.983
  500.250    5.215    0.448    0.209   93.329  164.606
  500.500    5.191    0.433    0.211   81.745  163.811
  500.750    5.150    0.434    0.215   80.276  162.610
  501.000    5.118    0.422    0.196   79.365  162.017
  501.250    5.049    0.427    0.201   73.552  161.430
  501.500    5.008    0.427    0.225   69.847  160.741
  501.750    4.987    0.421    0.226   76.073  159.941
  502.000    4.993    0.419    0.241   79.878  159.045
  502.250    5.000    0.482    0.262   77.416  158.355
  502.500    4.997    0.475    0.253   74.333  157.458
  502.750    5.013    0.444    0.244   76.462  156.453
  503.000    5.087    0.415    0.256   83.930  155.245
  503.250    5.269    0.457    0.246   81.283  154.762
  503.500    5.417    0.443    0.239   76.214  154.177
  503.750    5.706    0.413    0.243   72.757  154.415
  504.000    6.361    0.392    0.254   70.917  156.004
  504.250    6.970    0.422    0.280   71.494  157.485
