~VERSION INFORMATION
 VERS.                 2.0:   CWLS LOG ASCII STANDARD -VERSION 2.0
 WRAP.                  NO:   ONE LINE PER DEPTH STEP
~WELL INFORMATION BLOCK
#MNEM.UNIT           DATA                    DESCRIPTION OF MNEMONIC
#---------    -------------------            -------------------------------
# Generated from Intellog Unique Number	CW_73_75/WELL/901
WELL.         08-05-075-25W4                 : Well_name    - WELL
LOC .         00/08-05-075-25W4/0            : Location     - LOCATION
UWI .         00/08-05-075-25W4/0            : Uwi          - UNIQUE WELL ID
ENTR.         JAYE                           : Entered      - ENTERED BY
SRVC.         SCHLUMBERGER                   : Scn          - SERVICE COMPANY
DATE.         16 NOV 74                      : Date         - LOG DATE
STRT.M        423.672                        : top_depth    - START DEPTH
STOP.M        621.672                        : bot_depth    - STOP DEPTH
STEP.M        0.25                           : increment    - STEP LENGTH
 NULL. -999.2500:NULL Value
~CURVE INFORMATION BLOCK
#MNEM UNIT       ERCB CURVE CODE    CURVE DESCRIPTION
#-----------   ------------------   ----------------------------------
DEPT.M        00 001 00 00         : DEPTH        - DEPTH
ILD .OHMM     00 120 00 00         : RESD         - DEEP RESISTIVITY (DIL)
NPHI.V/V      00 330 00 00         : PHIN         - NEUTRON POROSITY (SANDSTONE)
DPHI.V/V      00 890 00 00         : PHID         - DENSITY POROSITY (SANDSTONE)
GR  .API      00 310 00 00         : GR           - GAMMA RAY
CALI.MM       00 280 01 00         : CAL          - CALIPER
~PARAMETER INFORMATION
#MNEM.UNIT           DATA             DESCRIPTION OF MNEMONIC
#---------         -----------     ------------------------------
GL  .M        700.126              : gl           - GROUND LEVEL ELEVATION
EREF.M        704.088              : kb           - ELEVATION OF DEPTH REFERENCE
DATM.M        700.126              : datum        - DATUM ELEVATION
TDD .M        622.402              : tdd          - TOTAL DEPTH DRILLER
RUN .         ONE                  : Run          - RUN NUMBER
ENG .         SIMPSON              : Engineer     - RECORDING ENGINEER
WIT .         OXTOBY               : Witness      - WITNESSED BY
BASE.         EDM                  : Branch       - HOME BASE OF LOGGING UNIT
MUD .         GEL                  : Mud_type     - MUD TYPE
MATR.         SANDSTONE            : Logunit      - NEUTRON MATRIX
TMAX.C        23.3333              : BHT          - MAXIMUM RECORDED TEMPERATURE
BHTD.M        623.011              : BHTDEP       - MAXIMUM RECORDED TEMPERATURE
RMT .C        15                   : MDTP         - TEMPERATURE OF MUD
MUDD.KG/M     1080                 : MWT          - MUD DENSITY
NEUT.         1                    : NEUTRON      - NEUTRON TYPE
RESI.         0                    : RESIST       - RESISTIVITY TYPE
RM  .OHMM     1.8                  : RM           - RESISTIVITY OF MUD
RMC .OHMM     0                    : RMC          - RESISTIVITY OF MUD CAKE
RMF .OHMM     2.27                 : RMF          - RESISTIVITY OF MUD FILTRATE
SUFT.C        -17.7778             : SUFT         - SURFACE TEMPERATURE
~A  DEPTH     RESD     PHIN     PHID       GR      CAL
# ...
  496.672    6.130    0.460    0.172   67.107  230.059
  496.922    5.353    0.505    0.197   71.354  227.806
  497.172    4.931    0.504    0.242   75.239  227.300
  497.422    4.844    0.476    0.224   78.214  228.744
  497.672    4.716    0.500    0.203   81.552  230.906
  497.922    4.328    0.515    0.214   86.346  233.789
  498.172    3.900    0.494    0.199   90.776  235.745
  498.422    3.527    0.474    0.180   94.357  237.600
  498.672    3.315    0.512    0.162   96.180  238.633
  498.922    3.076    0.532    0.184   97.397  238.640
  499.172    2.886    0.539    0.183   97.703  236.901
  499.422    2.673    0.556    0.192   97.707  238.345
  499.672    2.550    0.567    0.205   96.862  239.994
  499.922    2.529    0.577    0.206   93.713  245.031
  500.172    2.689    0.583    0.189   92.202  237.133
  500.422    3.040    0.564    0.220   92.327  232.519
  500.672    3.293    0.565    0.219   93.301  243.819
  500.922    3.708    0.576    0.197   92.577  249.472
  501.172    4.372    0.533    0.213   88.640  242.806
  501.422    4.753    0.491    0.224   84.521  229.568
  501.672    4.551    0.484    0.187   82.827  230.294
  501.922    4.350    0.486    0.191   85.863  232.456
  502.172    4.418    0.501    0.202   89.929  235.543
  502.422    4.612    0.538    0.198   93.085  239.451
  502.672    4.914    0.517    0.204   94.969  244.899
  502.922    5.255    0.541    0.181   97.216  250.963
  503.172    5.328    0.557    0.196   96.978  240.702
  503.422    5.129    0.519    0.186   87.887  234.037
  503.672    4.830    0.486    0.142   82.313  231.579
  503.922    4.600    0.495    0.171   81.528  230.456
  504.172    4.486    0.537    0.178   86.868  229.641
  504.422    4.481    0.521    0.185   87.175  229.032
  504.672    4.551    0.500    0.183   86.391  229.038
  504.922    4.606    0.521    0.187   88.517  229.866
  505.172    4.626    0.534    0.186   89.066  231.619
  505.422    4.579    0.544    0.184   86.524  232.652
  505.672    4.548    0.512    0.183   85.558  233.274
  505.922    4.494    0.502    0.170   86.592  231.227
  506.172    4.489    0.534    0.176   89.749  226.819
  506.422    4.670    0.558    0.228   87.934  224.875
  506.672    4.849    0.539    0.206   88.423  224.574
  506.922    5.147    0.527    0.213   90.731  225.607
  507.172    5.565    0.534    0.209   92.493  227.051
  507.422    6.383    0.572    0.197   89.222  227.570
  507.672    7.999    0.590    0.193   82.981  224.600
  507.922    9.362    0.587    0.215   76.498  222.143
  508.172   10.123    0.572    0.240   70.984  221.636
  508.422    9.658    0.548    0.241   65.228  221.335
  508.672    9.162    0.439    0.232   63.231  221.137
  508.922    8.030    0.409    0.217   60.264  220.321
  509.172    6.833    0.413    0.227   57.904  219.917
  509.422    5.804    0.452    0.252   56.270  219.512
  509.672    5.040    0.493    0.285   55.366  219.417
  509.922    4.289    0.513    0.280   55.854  219.218
  510.172    4.099    0.518    0.278   57.010  219.534
  510.422    3.947    0.512    0.283   57.924  219.642
  510.672    3.835    0.504    0.279   58.776  219.957
  510.922    3.817    0.495    0.277   59.022  220.066
  511.172    3.827    0.483    0.265   57.208  220.278
  511.422    3.739    0.503    0.266   57.272  220.388
  511.672    3.613    0.515    0.272   57.943  220.393
  511.922    3.511    0.505    0.286   59.462  220.400
  512.172    3.430    0.520    0.289   60.558  220.202
  512.422    3.459    0.532    0.290   61.835  220.208
  512.672    3.665    0.548    0.293   64.385  220.317
  512.922    4.000    0.540    0.284   67.724  220.735
  513.172    4.284    0.528    0.282   70.153  221.460
  513.422    4.860    0.525    0.277   72.279  222.185
  513.672    6.865    0.544    0.261   69.009  223.527
  513.922    7.859    0.450    0.211   62.767  224.560
  514.172    8.011    0.383    0.119   59.498  226.312
  514.422    7.756    0.326    0.078   57.743  228.885
  514.672    6.898    0.281    0.057   57.626  228.892
  514.922    5.679    0.323    0.110   60.176  225.921
  515.172    4.968    0.400    0.190   65.879  222.847
  515.422    4.485    0.499    0.269   73.220  221.827
  515.672    4.333    0.511    0.277   76.194  221.526
  515.922    4.242    0.534    0.278   75.410  221.841
  516.172    4.207    0.521    0.288   75.050  222.258
  516.422    4.179    0.506    0.296   77.055  222.778
  516.672    4.129    0.497    0.287   79.363  223.709
  516.922    4.056    0.497    0.280   81.429  224.948
  517.172    4.029    0.507    0.277   83.797  226.802
  517.422    4.063    0.528    0.265   87.075  228.965
  517.672    4.172    0.561    0.240   90.899  232.667
  517.922    4.276    0.560    0.203   95.510  239.245
  518.172    4.523    0.537    0.186   99.637  240.072
  518.422    4.644    0.555    0.193  102.673  238.128
  518.672    4.743    0.557    0.185  102.555  231.154
  518.922    4.782    0.553    0.142   96.860  229.312
  519.172    4.830    0.559    0.141   90.922  229.217
  519.422    4.969    0.550    0.167   89.774  229.531
  519.672    5.075    0.534    0.192   89.293  230.052
  519.922    5.051    0.502    0.175   87.296  230.160
  520.172    4.990    0.465    0.169   84.025  230.475
  520.422    4.975    0.441    0.167   80.756  230.893
  520.672    4.970    0.504    0.165   82.154  231.001
  520.922    4.956    0.532    0.183   89.434  231.213
  521.172    4.941    0.506    0.195   94.591  231.425
  521.422    4.936    0.511    0.200   94.231  231.638
  521.672    4.939    0.529    0.193   91.688  231.233
  521.922    4.944    0.516    0.216   90.783  230.008
  522.172    4.948    0.513    0.199   94.485  228.372
  522.422    4.942    0.510    0.170   97.096  224.169
  522.672    4.909    0.484    0.176   96.918  224.175
  522.922    4.824    0.470    0.160   94.436  227.262
  523.172    4.696    0.444    0.203   94.319  230.246
  523.422    4.547    0.469    0.178   94.080  232.716
  523.672    4.442    0.529    0.197   90.931  236.111
  523.922    4.308    0.562    0.188   88.814  238.581
  524.172    4.140    0.577    0.171   91.909  241.566
  524.422    4.016    0.544    0.186   95.066  244.242
  524.672    3.989    0.513    0.181   94.464  242.503
  524.922    4.022    0.501    0.180   92.345  238.300
  525.172    4.130    0.556    0.179   94.290  234.919
  525.422    4.490    0.555    0.190   94.960  232.256
  525.672    5.285    0.527    0.212   89.871  227.232
  525.922    5.757    0.507    0.213   82.903  221.489
  526.172    6.000    0.476    0.194   75.873  219.648
  526.422    5.906    0.439    0.171   72.179  218.935
  526.672    5.728    0.403    0.156   69.697  218.634
  526.922    5.546    0.442    0.173   67.518  218.539
  527.172    5.591    0.479    0.193   66.127  219.161
  527.422    5.784    0.485    0.195   64.495  219.476
  527.672    6.219    0.480    0.182   63.285  219.687
  527.922    6.774    0.488    0.182   64.502  220.104
  528.172    7.973    0.461    0.195   68.144  220.830
  528.422    9.061    0.467    0.192   71.118  222.172
  528.672    9.566    0.351    0.172   67.181  223.102
  528.922    9.330    0.315    0.133   61.062  223.622
  529.172    8.298    0.248    0.045   53.002  224.245
  529.422    6.933    0.234    0.046   56.522  224.149
  529.672    6.235    0.260    0.066   62.104  222.717
  529.922    5.839    0.378    0.095   67.565  220.568
  530.172    5.790    0.441    0.138   73.632  218.932
  530.422    5.979    0.463    0.186   77.395  218.220
  530.672    6.277    0.461    0.205   76.186  218.945
  530.922    6.399    0.422    0.179   76.008  221.621
  531.172    6.403    0.386    0.154   75.769  224.400
  531.422    6.222    0.334    0.090   74.682  224.612
  531.672    5.980    0.342    0.031   74.869  222.154
  531.922    5.652    0.375    0.069   76.266  218.978
  532.172    5.412    0.418    0.189   77.725  217.342
  532.422    5.182    0.468    0.208   75.486  217.349
  532.672    5.045    0.460    0.194   74.217  218.074
  532.922    4.983    0.489    0.171   74.888  219.312
