~VERSION INFORMATION
 VERS.                 2.0:   CWLS LOG ASCII STANDARD -VERSION 2.0
 WRAP.                  NO:   ONE LINE PER DEPTH STEP
~WELL INFORMATION BLOCK
#MNEM.UNIT           DATA                    DESCRIPTION OF MNEMONIC
#---------    -------------------            -------------------------------
# Generated from Intellog Unique Number	CS_77_79/WELL/926
WELL.         NOVALTA PORTAGE                : Well_name    - WELL
LOC .         00/09-25-078-16W4/0            : Location     - LOCATION
UWI .         00/09-25-078-16W4/0            : Uwi          - UNIQUE WELL ID
ENTR.         JHS                            : Entered      - ENTERED BY
SRVC.         SCHLUMBERGER                   : Scn          - SERVICE COMPANY
STRT.M        220                            : top_depth    - START DEPTH
STOP.M        435                            : bot_depth    - STOP DEPTH
STEP.M        0.25                           : increment    - STEP LENGTH
 NULL. -999.2500:NULL Value
~CURVE INFORMATION BLOCK
#MNEM UNIT       ERCB CURVE CODE    CURVE DESCRIPTION
#-----------   ------------------   ----------------------------------
DEPT.M        00 001 00 00         : DEPTH        - DEPTH
DPHI.V/V      00 890 00 00         : PHID         - DENSITY POROSITY (LIMESTONE)
NPHI.V/V      00 330 00 00         : PHIN         - NEUTRON POROSITY (LIMESTONE)
GR  .API      00 310 00 00         : GR           - GAMMA RAY
ILD .OHMM     00 120 00 00         : RESD         - DEEP RESISTIVITY (DIL)
~PARAMETER INFORMATION
#MNEM.UNIT           DATA             DESCRIPTION OF MNEMONIC
#---------         -----------     ------------------------------
GL  .M        624.14               : gl           - GROUND LEVEL ELEVATION
EREF.M        627.6                : kb           - ELEVATION OF DEPTH REFERENCE
DATM.M        627.6                : datum        - DATUM ELEVATION
TDD .M        442                  : tdd          - TOTAL DEPTH DRILLER
RUN .         ONE                  : Run          - RUN NUMBER
ENG .         BILL                 : Engineer     - RECORDING ENGINEER
WIT .         JIM                  : Witness      - WITNESSED BY
MUD .         GEL                  : Mud_type     - MUD TYPE
MATR.         LIMESTONE            : Logunit      - NEUTRON MATRIX
TMAX.C        26                   : BHT          - MAXIMUM RECORDED TEMPERATURE
BHTD.M        442                  : BHTDEP       - MAXIMUM RECORDED TEMPERATURE
MATR.         1                    : LOGUNIT      - NEUTRON MATRIX
RMT .C        25                   : MDTP         - TEMPERATURE OF MUD
NEUT.         1                    : NEUTRON      - NEUTRON TYPE
RESI.         0                    : RESIST       - RESISTIVITY TYPE
RMC .OHMM     0.25                 : RMC          - RESISTIVITY OF MUD CAKE
RMF .OHMM     0.25                 : RMF          - RESISTIVITY OF MUD FILTRATE
SUFT.C        15                   : SUFT         - SURFACE TEMPERATURE
~A  DEPTH     PHID     PHIN       GR     RESD
# ...
  307.000    0.313    0.390   53.464    5.760
  307.250    0.314    0.377   52.853    7.088
  307.500    0.319    0.368   56.583    7.938
  307.750    0.324    0.375   57.214    8.888
  308.000    0.327    0.368   56.602    9.583
  308.250    0.327    0.368   56.612    9.762
  308.500    0.330    0.396   57.862    9.756
  308.750    0.330    0.421   57.248    9.752
  309.000    0.325    0.393   55.400    9.566
  309.250    0.326    0.383   52.929    9.382
  309.500    0.327    0.388   51.699    9.376
  309.750    0.326    0.402   52.328    9.373
  310.000    0.325    0.404   54.815    9.547
  310.250    0.327    0.381   57.305    9.725
  310.500    0.326    0.384   57.934    9.721
  310.750    0.321    0.401   58.564    9.900
  311.000    0.315    0.399   58.573    9.896
  311.250    0.309    0.396   59.205    9.893
  311.500    0.312    0.397   59.210    9.888
  311.750    0.323    0.394   59.841    9.884
  312.000    0.332    0.395   59.231    9.695
  312.250    0.329    0.397   58.000    9.688
  312.500    0.318    0.397   59.870    9.685
  312.750    0.316    0.407   61.117    9.321
  313.000    0.313    0.412   58.648    9.317
  313.250    0.311    0.401   55.557    9.489
  313.500    0.306    0.392   57.426    9.667
  313.750    0.301    0.412   59.296    9.662
  314.000    0.302    0.402   59.306    9.299
  314.250    0.296    0.387   61.794    8.782
  314.500    0.281    0.379   67.381    7.986
  314.750    0.265    0.371   79.788    6.992
  315.000    0.252    0.393   84.137    6.358
  315.250    0.258    0.412   89.105    5.673
  315.500    0.274    0.422   94.693    5.159
  315.750    0.284    0.420   96.566    4.516
  316.000    0.291    0.417   94.713    4.265
  316.250    0.298    0.428   89.763    4.183
  316.500    0.307    0.425   82.954    4.596
  316.750    0.313    0.408   79.865    5.050
  317.000    0.317    0.396   79.874    5.549
  317.250    0.317    0.402   78.642    6.331
  317.500    0.316    0.412   76.792    7.363
  317.750    0.314    0.397   73.701    7.938
  318.000    0.311    0.366   74.331    8.086
  318.250    0.288    0.367   80.541    7.931
  318.500    0.270    0.420   87.368    7.349
  318.750    0.260    0.437   89.855    6.683
  319.000    0.259    0.420   90.485    5.963
  319.250    0.256    0.408   91.737    5.738
  319.500    0.250    0.411   92.983    5.736
  319.750    0.243    0.424   94.232    5.626
  320.000    0.238    0.424   91.764    5.623
  320.250    0.236    0.424   90.532    5.621
  320.500    0.236    0.408   93.645    5.409
  320.750    0.238    0.390   95.510    5.305
  321.000    0.235    0.393   96.760    5.203
  321.250    0.230    0.406   95.529    5.104
  321.500    0.224    0.406   96.156    5.005
  321.750    0.220    0.400   95.551    4.818
  322.000    0.222    0.404   94.939    4.637
  322.250    0.231    0.420   95.569    4.379
  322.500    0.247    0.456   96.815    4.058
  322.750    0.252    0.425   96.206    3.760
  323.000    0.255    0.395   96.833    3.688
  323.250    0.260    0.410   98.701    3.617
  323.500    0.266    0.432  100.573    3.616
  323.750    0.267    0.447   99.341    3.753
  324.000    0.267    0.431   97.491    3.970
  324.250    0.262    0.420   97.500    4.122
  324.500    0.261    0.439   95.650    4.279
  324.750    0.263    0.467   93.181    4.358
  325.000    0.267    0.473   93.809    4.440
  325.250    0.263    0.418   93.821    4.523
  325.500    0.257    0.394   91.348    4.784
  325.750    0.258    0.404   85.780    5.159
  326.000    0.255    0.416   83.308    5.668
  326.250    0.245    0.393   77.119    6.468
  326.500    0.229    0.373   69.070    6.972
  326.750    0.247    0.380   66.599    6.839
  327.000    0.277    0.407   74.667    6.582
  327.250    0.291    0.432   80.255    5.763
  327.500    0.296    0.439   82.124    5.045
  327.750    0.299    0.444   82.756    4.588
  328.000    0.298    0.421   83.384    4.251
  328.250    0.293    0.399   84.632    4.249
  328.500    0.284    0.406   88.361    4.329
  328.750    0.286    0.432   95.808    4.011
  329.000    0.302    0.472  102.018    3.579
  329.250    0.306    0.499  102.646    2.961
  329.500    0.301    0.559  101.416    2.403
  329.750    0.296    0.544  102.044    2.026
  330.000    0.292    0.530  103.913    1.808
  330.250    0.290    0.540  103.925    1.675
  330.500    0.285    0.512  101.453    1.706
  330.750    0.279    0.472  100.843    1.738
  331.000    0.266    0.435  102.713    1.804
  331.250    0.255    0.424  105.200    1.945
  331.500    0.249    0.424  102.732    2.262
  331.750    0.255    0.435   99.021    2.486
  332.000    0.261    0.446   95.930    2.783
  332.250    0.261    0.454   92.841    3.058
  332.500    0.264    0.465   95.330    3.235
  332.750    0.266    0.486  102.776    3.295
  333.000    0.272    0.472  102.787    3.232
  333.250    0.280    0.443   97.836    3.231
  333.500    0.297    0.408   89.168    3.418
  333.750    0.307    0.392   80.500    3.900
  334.000    0.317    0.387   69.970    4.285
  334.250    0.318    0.373   64.401    4.798
  334.500    0.319    0.366   64.410    5.475
  334.750    0.320    0.364   65.041    6.247
  335.000    0.324    0.364   61.329    6.865
  335.250    0.328    0.371   59.480    7.401
  335.500    0.327    0.375   60.110    7.683
  335.750    0.322    0.372   60.740    7.678
  336.000    0.320    0.377   61.367    7.676
  336.250    0.323    0.386   63.236    7.672
  336.500    0.324    0.394   63.865    7.669
  336.750    0.328    0.376   63.876    7.665
  337.000    0.330    0.354   60.166    7.808
  337.250    0.335    0.383   57.697    7.953
  337.500    0.337    0.397   58.324    8.101
  337.750    0.336    0.378   60.194    8.097
  338.000    0.334    0.381   60.202    8.094
  338.250    0.326    0.399   58.353    8.091
  338.500    0.316    0.399   59.602    8.242
  338.750    0.311    0.403   59.611    8.237
  339.000    0.318    0.394   57.759    8.390
  339.250    0.324    0.384   58.392    8.387
  339.500    0.329    0.372   59.641    8.383
  339.750    0.327    0.368   59.648    8.379
  340.000    0.318    0.366   60.277    8.375
  340.250    0.313    0.364   61.525    8.371
  340.500    0.309    0.373   62.155    8.367
  340.750    0.305    0.377   61.547    8.523
  341.000    0.299    0.368   62.794    8.682
  341.250    0.285    0.346   64.045    9.011
  341.500    0.210    0.316   63.434    9.008
  341.750    0.188    0.294   63.442    9.177
  342.000    0.183    0.273   64.072    9.894
  342.250    0.213    0.293   64.703   10.871
  342.500    0.300    0.337   65.330   11.501
  342.750    0.315    0.400   65.340   11.495
  343.000    0.311    0.411   67.209   10.652
  343.250    0.282    0.320   67.216    9.871
  343.500    0.209    0.263   62.888    9.148
  343.750    0.185    0.264   59.796    8.477
  344.000    0.209    0.288   61.046    8.158
  344.250    0.286    0.327   68.495    8.310
  344.500    0.311    0.380   74.083    8.150
  344.750    0.316    0.399   77.812    7.844
  345.000    0.317    0.427   79.061    6.999
  345.250    0.320    0.417   78.453    6.610
  345.500    0.323    0.398   77.220    6.242
  345.750    0.323    0.391   76.608    6.123
  346.000    0.317    0.391   76.618    6.120
  346.250    0.315    0.391   76.009    6.002
  346.500    0.317    0.387   79.118    5.999
  346.750    0.316    0.374   80.364    5.884
  347.000    0.313    0.390   80.994    5.881
  347.250    0.313    0.411   80.386    5.879
  347.500    0.316    0.395   81.013    5.876
  347.750    0.312    0.380   81.643    5.874
  348.000    0.308    0.380   82.271    6.097
  348.250    0.303    0.375   82.901    6.210
  348.500    0.302    0.374   80.431    6.448
  348.750    0.305    0.369   76.721    6.821
  349.000    0.306    0.361   76.732    7.354
  349.250    0.302    0.366   77.980    7.928
  349.500    0.296    0.367   78.609    8.230
  349.750    0.292    0.360   79.237    8.543
  350.000    0.292    0.359   78.631    8.380
  350.250    0.292    0.366   78.636    8.219
