~VERSION INFORMATION
 VERS.                 2.0:   CWLS LOG ASCII STANDARD -VERSION 2.0
 WRAP.                  NO:   ONE LINE PER DEPTH STEP
~WELL INFORMATION BLOCK
#MNEM.UNIT           DATA                    DESCRIPTION OF MNEMONIC
#---------    -------------------            -------------------------------
# Generated from Intellog Unique Number	CW_82_90/WELL/3054
WELL.         TEXEX WOODEN                   : Well_name    - WELL
LOC .         00/06-11-087-22W4/0            : Location     - LOCATION
UWI .         00/06-11-087-22W4/0            : Uwi          - UNIQUE WELL ID
ENTR.         MAX                            : Entered      - ENTERED BY
SRVC.         SCHLUMBERGER                   : Scn          - SERVICE COMPANY
STRT.M        106.68                         : top_depth    - START DEPTH
STOP.M        335.18                         : bot_depth    - STOP DEPTH
STEP.M        0.25                           : increment    - STEP LENGTH
 NULL. -999.2500:NULL Value
~CURVE INFORMATION BLOCK
#MNEM UNIT       ERCB CURVE CODE    CURVE DESCRIPTION
#-----------   ------------------   ----------------------------------
DEPT.M        00 001 00 00         : DEPTH        - DEPTH
GR  .API      00 310 00 00         : GR           - GAMMA RAY
CALI.MM       00 280 01 00         : CAL          - CALIPER
DPHI.V/V      00 890 00 00         : PHID         - DENSITY POROSITY (SANDSTONE)
NPHI.V/V      00 330 00 00         : PHIN         - NEUTRON POROSITY (SANDSTONE)
ILD .OHMM     00 120 00 00         : RESD         - DEEP RESISTIVITY (DIL)
~PARAMETER INFORMATION
#MNEM.UNIT           DATA             DESCRIPTION OF MNEMONIC
#---------         -----------     ------------------------------
GL  .M        559.613              : gl           - GROUND LEVEL ELEVATION
EREF.M        563.27               : kb           - ELEVATION OF DEPTH REFERENCE
DATM.M        559.613              : datum        - DATUM ELEVATION
TDD .M        338.633              : tdd          - TOTAL DEPTH DRILLER
RUN .         ONE                  : Run          - RUN NUMBER
ENG .         BILL                 : Engineer     - RECORDING ENGINEER
WIT .         JIM                  : Witness      - WITNESSED BY
MUD .         GEL                  : Mud_type     - MUD TYPE
MATR.         SANDSTONE            : Logunit      - NEUTRON MATRIX
TMAX.C        22.2222              : BHT          - MAXIMUM RECORDED TEMPERATURE
BHTD.M        338.633              : BHTDEP       - MAXIMUM RECORDED TEMPERATURE
MATR.         1                    : LOGUNIT      - NEUTRON MATRIX
RMT .C        14.4444              : MDTP         - TEMPERATURE OF MUD
NEUT.         1                    : NEUTRON      - NEUTRON TYPE
RESI.         0                    : RESIST       - RESISTIVITY TYPE
RMC .OHMM     5.92                 : RMC          - RESISTIVITY OF MUD CAKE
RMF .OHMM     5.92                 : RMF          - RESISTIVITY OF MUD FILTRATE
SUFT.C        -20.5556             : SUFT         - SURFACE TEMPERATURE
~A  DEPTH       GR      CAL     PHID     PHIN     RESD
# ...
  179.680   88.770  213.139    0.243    0.484    8.878
  179.930   77.221  213.177    0.253    0.476    8.564
  180.180   68.557  214.187    0.252    0.461    8.882
  180.430   59.896  214.218    0.241    0.446   10.946
  180.680   53.550  213.272    0.241    0.437   13.861
  180.930   45.467  212.809    0.242    0.427   16.622
  181.180   43.173  212.843    0.275    0.426   21.629
  181.430   46.954  212.387    0.319    0.450   24.122
  181.680   51.020  212.421    0.325    0.475   25.479
  181.930   53.065  212.452    0.322    0.482   25.717
  182.180   53.662  212.482    0.315    0.468   25.493
  182.430   54.547  212.516    0.328    0.463   25.268
  182.680   54.276  212.539    0.337    0.467   25.047
  182.930   53.720  212.087    0.333    0.472   25.055
  183.180   53.740  212.117    0.331    0.472   25.290
  183.430   52.888  211.658    0.327    0.472   25.296
  183.680   51.172  211.688    0.331    0.471   25.533
  183.930   49.163  211.719    0.339    0.470   25.773
  184.180   45.714  211.749    0.335    0.468   26.252
  184.430   44.570  211.783    0.327    0.468   26.260
  184.680   44.879  211.324    0.315    0.469   26.267
  184.930   47.790  211.358    0.316    0.468   26.275
  185.180   51.576  211.384    0.326    0.466   26.280
  185.430   51.302  210.446    0.333    0.471   26.288
  185.680   49.293  210.469    0.339    0.472   26.295
  185.930   46.128  210.499    0.339    0.482   26.302
  186.180   45.864  210.047    0.339    0.471   26.073
  186.430   46.458  209.584    0.337    0.460   26.079
  186.680   47.057  209.622    0.334    0.456   26.087
  186.930   47.656  209.159    0.328    0.473   25.859
  187.180   47.958  209.197    0.323    0.487   25.631
  187.430   48.266  209.219    0.319    0.483   25.638
  187.680   48.575  209.261    0.322    0.473   25.414
  187.930   49.174  209.774    0.323    0.467   25.190
  188.180   50.062  209.804    0.325    0.479   24.971
  188.430   50.371  209.838    0.334    0.479   24.751
  188.680   50.385  209.876    0.325    0.477   24.534
  188.930   50.694  209.899    0.337    0.490   24.544
  189.180   50.425  209.933    0.337    0.485   24.548
  189.430   50.441  209.963    0.336    0.467   24.554
  189.680   50.459  209.994    0.331    0.460   24.561
  189.930   50.483  209.542    0.336    0.449   24.791
  190.180   50.788  209.568    0.328    0.438   24.798
  190.430   51.385  209.603    0.321    0.463   24.807
  190.680   52.562  210.127    0.318    0.478   24.813
  190.930   53.446  210.157    0.324    0.471   24.818
  191.180   54.621  210.184    0.335    0.464   24.601
  191.430   56.381  210.222    0.336    0.468   24.386
  191.680   58.711  207.313    0.321    0.479   24.172
  191.930   61.044  206.857    0.301    0.474   23.962
  192.180   61.353  206.880    0.291    0.469   23.966
  192.430   59.927  207.894    0.325    0.470   23.758
  192.680   59.072  208.904    0.338    0.487   23.549
  192.930   58.808  209.921    0.350    0.502   23.342
  193.180   58.821  209.948    0.344    0.519   23.138
  193.430   59.131  209.488    0.329    0.505   22.935
  193.680   60.308  208.539    0.324    0.500   22.529
  193.930   60.039  209.067    0.333    0.495   21.930
  194.180   59.476  209.591    0.326    0.485   21.542
  194.430   60.940  210.103    0.314    0.500   20.781
  194.680   64.141  210.145    0.303    0.505   20.045
  194.930   70.525  210.168    0.280    0.503   18.147
  195.180   76.329  209.708    0.278    0.494   15.987
  195.430   83.582  209.743    0.315    0.489   11.855
  195.680   88.229  209.773    0.291    0.483    8.791
  195.930   94.035  210.297    0.276    0.510    7.073
  196.180  103.310  210.327    0.259    0.560    5.488
  196.430  111.431  210.851    0.154    0.569    4.579
  196.680  115.210  210.878    0.179    0.564    3.890
  196.930  119.861  215.811    0.202    0.578    3.822
  197.180  120.457  216.335    0.205    0.574    3.823
  197.430  120.473  215.875    0.201    0.565    3.824
  197.680  120.496  212.966    0.195    0.556    3.825
  197.930  120.511  213.001    0.188    0.568    3.861
  198.180  121.112  214.501    0.181    0.572    3.827
  198.430  121.420  215.515    0.191    0.572    3.793
  198.680  121.435  216.035    0.209    0.570    3.760
  198.930  121.453  217.045    0.213    0.567    3.761
  199.180  121.478  220.018    0.202    0.573    3.762
  199.430  120.623  221.025    0.196    0.567    3.763
  199.680  119.773  219.585    0.196    0.556    3.798
  199.930  119.502  218.150    0.196    0.543    3.799
  200.180  118.076  218.670    0.197    0.537    3.800
  200.430  115.779  219.190    0.202    0.558    3.802
  200.680  114.351  221.188    0.195    0.552    3.768
  200.930  113.216  221.214    0.191    0.538    3.769
  201.180  111.785  219.783    0.184    0.530    3.770
  201.430  110.646  219.323    0.176    0.528    3.806
  201.680  110.374  219.350    0.183    0.526    3.876
  201.930  109.527  218.890    0.193    0.543    3.949
  202.180  108.098  217.455    0.200    0.575    4.022
  202.430  104.644  216.019    0.207    0.580    4.134
  202.680  100.036  214.090    0.224    0.578    4.249
  202.930   98.318  212.655    0.242    0.572    4.328
  203.180   99.782  212.191    0.241    0.557    4.408
  203.430  104.433  212.719    0.214    0.539    4.490
  203.680  102.135  213.722    0.197    0.529    4.615
  203.930   98.970  214.739    0.204    0.518    4.744
  204.180   95.808  215.256    0.225    0.542    4.965
  204.430   93.801  215.784    0.231    0.548    5.389
  204.680   91.796  215.324    0.240    0.524    5.796
  204.930   88.629  214.375    0.249    0.511    6.348
  205.180   85.178  213.911    0.251    0.498    6.890
  205.430   83.173  213.456    0.248    0.516    7.546
  205.680   83.767  213.490    0.262    0.490    7.687
  205.930   88.995  213.026    0.280    0.472    7.348
  206.180   95.667  213.061    0.291    0.490    6.532
  206.430  100.024  214.071    0.267    0.546    5.755
  206.680  107.277  219.493    0.223    0.524    5.024
  206.930  106.716  219.528    0.128    0.509    4.631
  207.180  106.447  220.052    0.159    0.548    4.231
  207.430  109.363  220.082    0.178    0.568    4.119
  207.680  107.645  219.133    0.188    0.575    3.937
  207.930  105.059  218.183    0.194    0.580    3.832
  208.180  104.496  217.234    0.214    0.583    3.731
  208.430  105.673  215.798    0.227    0.596    3.698
  208.680  102.796  215.829    0.236    0.595    3.801
  208.930   98.768  215.855    0.238    0.593    4.051
  209.180   96.180  215.403    0.238    0.589    4.357
  209.430   94.173  215.430    0.239    0.573    4.602
  209.680   91.300  214.480    0.237    0.498    5.041
  209.930   89.004  212.563    0.225    0.491    5.622
  210.180   86.129  212.099    0.212    0.494    6.213
  210.430   83.832  212.130    0.215    0.494    6.993
  210.680   82.695  211.670    0.232    0.500    7.589
  210.930   80.109  210.725    0.228    0.507    8.237
  211.180   76.366  210.265    0.218    0.500    9.187
  211.430   74.070  209.805    0.183    0.480   10.433
  211.680   73.222  209.350    0.137    0.435   12.176
  211.930   70.636  209.376    0.090    0.331   14.082
  212.180   66.315  209.900    0.017    0.246   14.473
  212.430   61.996  210.424    0.050    0.274   14.611
  212.680   63.462  210.455    0.102    0.372   14.481
  212.930   71.004  210.481    0.216    0.426   13.230
  213.180   75.070  211.005    0.270    0.439   11.446
  213.430   79.717  211.036    0.256    0.453   10.268
  213.680   82.917  211.070    0.253    0.463    9.381
  213.930   85.835  211.594    0.248    0.462    8.886
  214.180   87.586  211.624    0.246    0.468    8.341
  214.430   88.470  211.655    0.208    0.486    7.690
  214.680   86.178  211.689    0.208    0.498    6.836
  214.930   87.066  211.723    0.215    0.508    6.078
  215.180   88.526  211.746    0.242    0.525    5.705
  215.430   88.546  212.270    0.260    0.541    5.356
  215.680   89.145  212.300    0.250    0.539    5.213
  215.930   90.609  211.840    0.213    0.533    5.215
