~VERSION INFORMATION
 VERS.                 2.0:   CWLS LOG ASCII STANDARD -VERSION 2.0
 WRAP.                  NO:   ONE LINE PER DEPTH STEP
~WELL INFORMATION BLOCK
#MNEM.UNIT           DATA                    DESCRIPTION OF MNEMONIC
#---------    -------------------            -------------------------------
# Generated from Intellog Unique Number	CS_67_68/WELL/2187
WELL.         08-29-067-07W4                 : Well_name    - WELL
LOC .         00/08-29-067-07W4/0            : Location     - LOCATION
UWI .         00/08-29-067-07W4/0            : Uwi          - UNIQUE WELL ID
ENTR.         SP                             : Entered      - ENTERED BY
SRVC.         SCHLUMBERGER                   : Scn          - SERVICE COMPANY
STRT.M        365                            : top_depth    - START DEPTH
STOP.M        595                            : bot_depth    - STOP DEPTH
STEP.M        0.25                           : increment    - STEP LENGTH
 NULL. -999.2500:NULL Value
~CURVE INFORMATION BLOCK
#MNEM UNIT       ERCB CURVE CODE    CURVE DESCRIPTION
#-----------   ------------------   ----------------------------------
DEPT.M        00 001 00 00         : DEPTH        - DEPTH
ILD .OHMM     00 120 00 00         : RESD         - DEEP RESISTIVITY (DIL)
DPHI.V/V      00 890 00 00         : PHID         - DENSITY POROSITY (LIMESTONE)
NPHI.V/V      00 330 00 00         : PHIN         - NEUTRON POROSITY (LIMESTONE)
GR  .API      00 310 00 00         : GR           - GAMMA RAY
CALI.MM       00 280 01 00         : CAL          - CALIPER
~PARAMETER INFORMATION
#MNEM.UNIT           DATA             DESCRIPTION OF MNEMONIC
#---------         -----------     ------------------------------
GL  .M        686.24               : gl           - GROUND LEVEL ELEVATION
EREF.M        690.14               : kb           - ELEVATION OF DEPTH REFERENCE
DATM.M        690.14               : datum        - DATUM ELEVATION
TDD .M        612                  : tdd          - TOTAL DEPTH DRILLER
RUN .         ONE                  : Run          - RUN NUMBER
ENG .         BILL                 : Engineer     - RECORDING ENGINEER
WIT .         JIM                  : Witness      - WITNESSED BY
MUD .         GEL                  : Mud_type     - MUD TYPE
MATR.         LIMESTONE            : Logunit      - NEUTRON MATRIX
TMAX.C        25                   : BHT          - MAXIMUM RECORDED TEMPERATURE
BHTD.M        612                  : BHTDEP       - MAXIMUM RECORDED TEMPERATURE
MATR.         1                    : LOGUNIT      - NEUTRON MATRIX
RMT .C        25                   : MDTP         - TEMPERATURE OF MUD
NEUT.         1                    : NEUTRON      - NEUTRON TYPE
RESI.         0                    : RESIST       - RESISTIVITY TYPE
RMC .OHMM     0.25                 : RMC          - RESISTIVITY OF MUD CAKE
RMF .OHMM     0.25                 : RMF          - RESISTIVITY OF MUD FILTRATE
SUFT.C        15                   : SUFT         - SURFACE TEMPERATURE
~A  DEPTH     RESD     PHID     PHIN       GR      CAL
# ...
  474.500    3.873    0.336    0.448   80.901  165.893
  474.750    3.873    0.337    0.464   81.593  165.914
  475.000    3.895    0.330    0.448   82.781  165.727
  475.250    3.872    0.325    0.448   84.834  165.542
  475.500    3.894    0.322    0.454   87.502  165.461
  475.750    3.908    0.322    0.454   86.526  165.069
  476.000    3.922    0.322    0.449   85.919  164.782
  476.250    3.952    0.324    0.443   85.499  164.801
  476.500    3.936    0.327    0.438   82.175  164.823
  476.750    3.914    0.330    0.430   76.935  165.153
  477.000    3.847    0.335    0.422   78.924  165.583
  477.250    3.739    0.329    0.433   83.879  166.021
  477.500    3.675    0.323    0.446   88.838  166.347
  477.750    3.606    0.321    0.439   92.062  166.882
  478.000    3.565    0.330    0.418   87.254  167.005
  478.250    3.571    0.338    0.399   78.120  167.024
  478.500    3.605    0.335    0.388   76.709  167.353
  478.750    3.639    0.323    0.382   76.970  167.787
  479.000    3.666    0.327    0.389   77.293  168.016
  479.250    3.686    0.336    0.398   77.489  168.137
  479.500    3.714    0.338    0.412   77.563  168.161
  479.750    3.770    0.333    0.426   77.574  168.384
  480.000    3.813    0.326    0.413   77.526  168.817
  480.250    3.863    0.321    0.409   77.168  168.938
  480.500    3.944    0.320    0.437   76.747  169.375
  480.750    4.527    0.310    0.465   76.450  169.597
  481.000    6.684    0.158    0.457   75.906  170.030
  481.250   11.698    0.054    0.342   67.513  170.875
  481.500   15.330    0.000    0.202   61.159  171.409
  481.750   16.564    0.000    0.138   56.844  172.462
  482.000   13.001    0.000    0.151   56.115  173.614
  482.250    8.477    0.000    0.297   74.854  173.223
  482.500    5.435    0.000    0.367   87.227  173.140
  482.750    4.697    0.028    0.425   96.510  174.912
  483.000    4.488    0.256    0.502  101.837  178.435
  483.250    4.281    0.270    0.512  103.766  181.339
  483.500    4.232    0.265    0.492  102.727  179.714
  483.750    4.271    0.276    0.483  100.949  177.364
  484.000    4.207    0.289    0.474   98.921  175.325
  484.250    3.657    0.288    0.458   98.191  174.725
  484.500    2.486    0.286    0.436   99.995  175.776
  484.750    1.795    0.260    0.419  102.048  179.299
  485.000    1.558    0.228    0.443  104.843  184.060
  485.250    1.409    0.220    0.456  107.078  194.071
  485.500    1.488    0.252    0.441  110.551  207.687
  485.750    1.903    0.269    0.441  114.086  215.743
  486.000    2.452    0.248    0.438  115.213  206.289
  486.250    3.018    0.241    0.429  112.690  204.454
  486.500    3.498    0.238    0.414  109.611  204.476
  486.750    3.962    0.233    0.407  112.592  204.802
  487.000    4.472    0.226    0.425  114.518  206.474
  487.250    4.804    0.225    0.438  112.367  208.965
  487.500    4.923    0.236    0.444  112.567  211.254
  487.750    4.923    0.230    0.426  113.197  212.918
  488.000    4.803    0.221    0.417  111.601  215.103
  488.250    4.402    0.230    0.470  113.717  216.874
  488.500    3.455    0.251    0.490  116.384  218.543
  488.750    2.681    0.258    0.496  120.167  219.695
  489.000    2.348    0.243    0.526  117.397  218.996
  489.250    2.214    0.245    0.525  117.039  217.677
  489.500    2.177    0.253    0.523  120.821  216.048
  489.750    2.152    0.258    0.525  124.419  214.318
  490.000    2.127    0.258    0.523  126.223  212.794
  490.250    2.164    0.257    0.515  125.371  211.784
  490.500    2.226    0.258    0.512  121.798  210.470
  490.750    2.276    0.267    0.540  115.259  209.558
  491.000    2.311    0.278    0.553  112.613  208.447
  491.250    2.315    0.285    0.557  114.603  207.024
  491.500    2.293    0.290    0.583  117.273  205.397
  491.750    2.258    0.287    0.601  118.769  203.357
  492.000    2.241    0.281    0.565  117.545  201.422
  492.250    2.301    0.277    0.548  114.529  199.999
  492.500    2.477    0.282    0.541  109.844  198.269
  492.750    2.722    0.294    0.531  108.744  196.743
  493.000    3.095    0.283    0.504  110.672  194.704
  493.250    3.533    0.270    0.474  105.247  192.460
  493.500    4.157    0.260    0.457  100.747  191.448
  493.750    4.534    0.252    0.446   97.854  192.601
  494.000    4.835    0.247    0.436  102.193  197.466
  494.250    4.936    0.251    0.433  104.985  202.531
  494.500    4.954    0.270    0.435  102.341  209.043
  494.750    4.907    0.290    0.453  106.988  215.346
  495.000    4.823    0.329    0.453  110.400  215.057
  495.250    4.670    0.279    0.446  109.670  198.905
  495.500    4.479    0.250    0.437  108.569  186.358
  495.750    4.232    0.231    0.425  111.428  180.921
  496.000    4.345    0.223    0.419  113.230  177.952
  496.250    4.668    0.213    0.416  115.283  175.400
  496.500    4.996    0.200    0.422  104.418  175.111
  496.750    5.945    0.189    0.433   95.776  175.749
  497.000    7.142    0.178    0.240   84.293  176.491
  497.250    8.450    0.009    0.209   75.776  177.026
  497.500    9.340    0.000    0.190   64.107  178.282
  497.750    9.791    0.113    0.247   78.211  182.011
  498.000    9.285    0.142    0.355   94.601  187.388
  498.250    8.041    0.154    0.403  105.182  191.631
  498.500    6.287    0.163    0.415  110.942  195.981
  498.750    5.623    0.156    0.439  111.757  199.397
  499.000    5.332    0.170    0.456  113.068  203.128
  499.250    5.241    0.193    0.440  108.756  204.794
  499.500    5.152    0.211    0.448  110.127  206.464
  499.750    5.084    0.211    0.455  112.982  207.616
  500.000    5.035    0.224    0.437  115.280  210.728
  500.250    5.063    0.241    0.426  115.170  214.972
  500.500    5.111    0.241    0.423  111.535  216.950
  500.750    5.208    0.230    0.429  106.172  209.658
  501.000    5.257    0.221    0.439  104.081  203.292
  501.250    5.187    0.231    0.424  100.756  198.986
  501.500    5.118    0.239    0.405   97.493  196.120
  501.750    5.060    0.243    0.410   94.909  193.464
  502.000    5.059    0.230    0.442   94.180  191.732
  502.250    5.155    0.206    0.430   96.109  191.444
  502.500    5.333    0.181    0.433   99.273  191.980
  502.750    5.497    0.197    0.454  101.943  191.899
  503.000    5.665    0.226    0.462  103.932  191.815
  503.250    5.805    0.243    0.447  100.360  191.321
  503.500    6.344    0.233    0.445   93.327  190.207
  503.750    7.436    0.226    0.444   88.641  189.507
  504.000    8.666    0.251    0.443   84.265  187.777
  504.250    9.688    0.266    0.434   81.620  185.534
  504.500   10.627    0.279    0.428   79.654  183.184
  504.750   11.246    0.275    0.418   75.775  180.732
  505.000   11.701    0.281    0.412   79.309  177.970
  505.250   11.811    0.120    0.411   82.783  175.519
  505.500   11.831    0.080    0.301   85.452  173.894
  505.750   11.786    0.063    0.252   72.732  173.604
  506.000   11.563    0.194    0.381   70.890  173.313
  506.250   11.388    0.236    0.432   82.336  174.260
  506.500   11.089    0.248    0.460   90.383  174.692
  506.750   10.901    0.138    0.318   90.581  174.922
  507.000   10.535    0.085    0.277   85.031  175.250
  507.250    9.953    0.069    0.255   90.545  176.300
  507.500    8.750    0.191    0.319   96.862  177.349
  507.750    7.679    0.224    0.388  101.447  178.605
  508.000    6.550    0.248    0.402  104.364  180.481
  508.250    5.524    0.237    0.391  109.196  181.942
  508.500    4.894    0.224    0.397  113.843  183.716
  508.750    4.494    0.231    0.418  107.924  184.972
  509.000    4.229    0.254    0.433  102.994  186.744
  509.250    3.966    0.269    0.450  100.655  189.028
  509.500    3.718    0.266    0.467  100.172  191.523
  509.750    3.460    0.266    0.468  100.246  193.602
  510.000    3.219    0.269    0.468  100.443  195.785
  510.250    2.879    0.269    0.472  100.707  197.763
  510.500    2.470    0.267    0.480  100.468  199.432
  510.750    2.234    0.269    0.491   97.452  200.586
