~VERSION INFORMATION
 VERS.                 2.0:   CWLS LOG ASCII STANDARD -VERSION 2.0
 WRAP.                  NO:   ONE LINE PER DEPTH STEP
~WELL INFORMATION BLOCK
#MNEM.UNIT           DATA                    DESCRIPTION OF MNEMONIC
#---------    -------------------            -------------------------------
# Generated from Intellog Unique Number	CW_79_81/WELL/2441
WELL.         01-32-080-22W4                 : Well_name    - WELL
LOC .         AA/01-32-080-22W4/0            : Location     - LOCATION
UWI .         AA/01-32-080-22W4/0            : Uwi          - UNIQUE WELL ID
ENTR.         MAX                            : Entered      - ENTERED BY
SRVC.         SCHLUMBERGER                   : Scn          - SERVICE COMPANY
STRT.M        220                            : top_depth    - START DEPTH
STOP.M        439.75                         : bot_depth    - STOP DEPTH
STEP.M        0.25                           : increment    - STEP LENGTH
 NULL. -999.2500:NULL Value
~CURVE INFORMATION BLOCK
#MNEM UNIT       ERCB CURVE CODE    CURVE DESCRIPTION
#-----------   ------------------   ----------------------------------
DEPT.M        00 001 00 00         : DEPTH        - DEPTH
ILD .OHMM     00 120 00 00         : RESD         - DEEP RESISTIVITY (DIL)
NPHI.V/V      00 330 00 00         : PHIN         - NEUTRON POROSITY (SANDSTONE)
DPHI.V/V      00 890 00 00         : PHID         - DENSITY POROSITY (SANDSTONE)
GR  .API      00 310 00 00         : GR           - GAMMA RAY
CALI.MM       00 280 01 00         : CAL          - CALIPER
~PARAMETER INFORMATION
#MNEM.UNIT           DATA             DESCRIPTION OF MNEMONIC
#---------         -----------     ------------------------------
GL  .M        588.6                : gl           - GROUND LEVEL ELEVATION
EREF.M        592.9                : kb           - ELEVATION OF DEPTH REFERENCE
DATM.M        588.6                : datum        - DATUM ELEVATION
TDD .M        443                  : tdd          - TOTAL DEPTH DRILLER
RUN .         ONE                  : Run          - RUN NUMBER
ENG .         BILL                 : Engineer     - RECORDING ENGINEER
WIT .         JIM                  : Witness      - WITNESSED BY
MUD .         GEL                  : Mud_type     - MUD TYPE
MATR.         SANDSTONE            : Logunit      - NEUTRON MATRIX
TMAX.C        27                   : BHT          - MAXIMUM RECORDED TEMPERATURE
BHTD.M        443                  : BHTDEP       - MAXIMUM RECORDED TEMPERATURE
MATR.         1                    : LOGUNIT      - NEUTRON MATRIX
RMT .C        15.6                 : MDTP         - TEMPERATURE OF MUD
NEUT.         1                    : NEUTRON      - NEUTRON TYPE
RESI.         0                    : RESIST       - RESISTIVITY TYPE
RMC .OHMM     3.23                 : RMC          - RESISTIVITY OF MUD CAKE
RMF .OHMM     4.36                 : RMF          - RESISTIVITY OF MUD FILTRATE
SUFT.C        -5                   : SUFT         - SURFACE TEMPERATURE
~A  DEPTH     RESD     PHIN     PHID       GR      CAL
  220.000    3.047    0.533    0.253  104.716  220.953
  220.250    3.067    0.529    0.257  104.667  220.887
  220.500    3.069    0.523    0.258  103.195  220.827
  220.750    3.066    0.516    0.259  100.053  220.760
  221.000    3.063    0.509    0.258   95.182  220.688
  221.250    3.092    0.497    0.254   87.446  220.430
  221.500    3.260    0.480    0.255   81.189  219.529
  221.750    3.683    0.466    0.253   75.898  219.068
  222.000    3.825    0.488    0.250   73.645  218.607
  222.250    3.864    0.507    0.255   73.963  217.943
  222.500    3.967    0.505    0.269   74.463  217.176
  222.750    4.334    0.473    0.291   69.687  216.523
  223.000    4.903    0.444    0.305   63.931  215.636
  223.250    6.283    0.425    0.302   58.874  214.771
  223.500    8.287    0.423    0.314   55.613  213.905
  223.750   12.567    0.432    0.332   54.378  213.441
  224.000   24.169    0.446    0.347   54.453  213.471
  224.250   40.815    0.459    0.350   54.018  213.854
  224.500   59.656    0.463    0.357   53.229  214.203
  224.750   73.860    0.463    0.356   52.471  214.140
  225.000   79.344    0.461    0.354   52.608  214.375
  225.250   77.181    0.461    0.355   53.403  214.500
  225.500   71.313    0.459    0.357   54.795  214.719
  225.750   60.779    0.449    0.352   57.440  215.835
  226.000   48.860    0.433    0.354   60.139  215.769
  226.250   40.121    0.434    0.350   63.194  214.904
  226.500   37.736    0.455    0.352   64.284  214.645
  226.750   37.423    0.474    0.359   63.648  214.383
  227.000   37.799    0.482    0.368   61.999  214.015
  227.250   39.122    0.483    0.369   60.619  213.931
  227.500   41.903    0.486    0.365   61.063  213.865
  227.750   47.349    0.494    0.362   61.268  213.383
  228.000   48.625    0.496    0.365   60.575  213.216
  228.250   48.575    0.497    0.364   58.862  212.953
  228.500   49.157    0.500    0.359   57.148  212.592
  228.750   50.720    0.508    0.352   57.580  212.428
  229.000   51.462    0.509    0.347   57.540  211.926
  229.250   53.719    0.487    0.348   56.539  211.870
  229.500   54.578    0.473    0.354   55.545  211.500
  229.750   53.713    0.469    0.361   54.667  211.234
  230.000   51.219    0.474    0.364   54.207  211.075
  230.250   47.258    0.484    0.362   54.740  210.511
  230.500   45.790    0.479    0.364   55.189  210.031
  230.750   44.735    0.472    0.363   54.661  209.556
  231.000   43.714    0.469    0.361   53.973  209.081
  231.250   42.396    0.469    0.358   52.866  208.815
  231.500   40.747    0.469    0.354   51.631  208.758
  231.750   38.334    0.467    0.351   51.251  209.092
  232.000   35.483    0.461    0.349   51.948  211.083
  232.250   31.934    0.452    0.352   53.584  213.796
  232.500   28.752    0.448    0.358   54.850  214.725
  232.750   26.520    0.451    0.360   55.403  214.666
  233.000   25.129    0.459    0.360   55.305  214.107
  233.250   23.975    0.467    0.365   54.921  213.220
  233.500   22.877    0.457    0.365   54.385  213.147
  233.750   22.851    0.451    0.360   54.104  213.879
  234.000   23.080    0.434    0.352   53.823  214.014
  234.250   23.907    0.418    0.344   53.783  213.941
  234.500   25.469    0.386    0.336   53.804  213.863
  234.750   28.217    0.293    0.317   53.027  213.960
  235.000   31.672    0.264    0.269   51.740  214.722
  235.250   33.790    0.266    0.172   51.460  216.236
  235.500   33.201    0.295    0.171   51.888  216.561
  235.750   31.610    0.369    0.237   52.566  216.494
  236.000   29.882    0.451    0.322   53.312  216.431
  236.250   27.416    0.458    0.357   54.365  216.436
  236.500   25.002    0.464    0.357   55.066  216.777
  236.750   21.330    0.465    0.349   55.267  216.714
  237.000   20.109    0.463    0.343   55.107  216.347
  237.250   19.871    0.456    0.342   54.706  215.478
  237.500   19.958    0.448    0.347   54.127  214.511
  237.750   19.936    0.444    0.352   53.560  214.356
  238.000   19.917    0.447    0.353   54.515  213.861
  238.250   20.046    0.447    0.359   54.703  213.394
  238.500   20.396    0.446    0.350   54.367  213.234
  238.750   20.831    0.442    0.337   53.971  213.168
  239.000   21.275    0.438    0.328   53.987  213.092
  239.250   21.727    0.440    0.329   55.137  213.176
  239.500   21.704    0.454    0.337   56.345  213.946
  239.750   21.520    0.449    0.345   57.261  214.273
  240.000   21.105    0.451    0.351   58.350  214.600
  240.250   20.623    0.453    0.350   59.620  215.127
  240.500   20.152    0.451    0.347   61.131  215.752
  240.750   19.113    0.439    0.346   63.483  216.149
  241.000   16.666    0.431    0.340   65.934  216.498
  241.250   13.793    0.433    0.331   70.195  217.627
  241.500   11.298    0.439    0.308   78.210  218.443
  241.750    9.130    0.459    0.264   88.790  219.360
  242.000    7.399    0.489    0.219   98.532  220.486
  242.250    6.005    0.510    0.215  101.322  221.774
  242.500    5.434    0.507    0.203   98.802  222.529
  242.750    5.115    0.495    0.201   98.517  222.864
  243.000    4.983    0.489    0.206   99.312  222.900
  243.250    4.942    0.482    0.214  100.348  222.830
  243.500    4.955    0.473    0.221  100.965  222.656
  243.750    5.052    0.466    0.222  100.377  222.265
  244.000    5.205    0.459    0.216   98.842  222.614
  244.250    5.554    0.439    0.210   96.414  222.529
  244.500    6.439    0.438    0.208   92.017  222.466
  244.750    7.585    0.443    0.216   83.027  222.009
  245.000    8.597    0.447    0.237   73.263  220.949
  245.250    9.263    0.439    0.274   74.861  219.274
  245.500    9.325    0.436    0.294   84.257  219.201
  245.750    8.329    0.454    0.266   88.284  220.714
  246.000    6.235    0.466    0.237   92.831  222.536
  246.250    5.360    0.467    0.222   94.937  223.865
  246.500    5.335    0.460    0.222   94.064  224.494
  246.750    5.698    0.458    0.221   91.551  224.718
  247.000    7.031    0.459    0.220   88.787  224.238
  247.250    9.705    0.455    0.225   83.257  223.373
  247.500   13.272    0.442    0.247   77.548  223.114
  247.750   16.956    0.429    0.271   72.257  221.847
  248.000   19.316    0.422    0.288   68.693  219.872
  248.250   19.977    0.428    0.293   69.321  219.394
  248.500   19.062    0.432    0.293   71.518  219.343
  248.750   15.897    0.408    0.287   76.968  219.280
  249.000   13.602    0.396    0.278   79.196  219.211
  249.250   11.870    0.395    0.269   82.022  219.137
  249.500   10.537    0.401    0.262   86.157  219.065
  249.750    9.340    0.407    0.259   89.603  219.159
  250.000    8.581    0.407    0.251   91.556  219.907
  250.250    7.839    0.413    0.240   94.143  221.036
  250.500    6.597    0.421    0.240   98.334  222.166
  250.750    5.646    0.434    0.229  102.230  223.484
  251.000    5.002    0.450    0.203  105.177  224.898
  251.250    4.453    0.471    0.173  108.198  226.434
  251.500    4.314    0.484    0.163  110.391  228.432
  251.750    4.278    0.503    0.194  111.065  230.343
  252.000    4.360    0.501    0.196  110.847  231.375
  252.250    4.389    0.498    0.192  110.210  231.909
  252.500    4.270    0.501    0.193  109.154  232.138
  252.750    3.998    0.512    0.195  107.642  232.311
  253.000    3.874    0.514    0.209  109.834  233.487
  253.250    4.044    0.511    0.223  110.516  234.205
  253.500    4.498    0.503    0.243  107.792  229.560
  253.750    4.976    0.480    0.265  102.501  224.121
  254.000    5.588    0.446    0.282   96.493  219.977
  254.250    7.992    0.414    0.293   92.419  216.552
  254.500    9.941    0.416    0.290   91.373  215.651
  254.750   10.150    0.430    0.281   89.665  215.580
  255.000   10.084    0.443    0.278   87.602  215.813
  255.250    9.928    0.458    0.280   85.180  215.946
  255.500    9.969    0.471    0.285   82.278  215.874
  255.750   11.132    0.472    0.291   76.808  215.783
  256.000   14.410    0.468    0.296   67.564  215.717
  256.250   17.720    0.462    0.302   59.170  215.256
