~VERSION INFORMATION
 VERS.                 2.0:   CWLS LOG ASCII STANDARD -VERSION 2.0
 WRAP.                  NO:   ONE LINE PER DEPTH STEP
~WELL INFORMATION BLOCK
#MNEM.UNIT           DATA                    DESCRIPTION OF MNEMONIC
#---------    -------------------            -------------------------------
# Generated from Intellog Unique Number	CS_73_76/WELL/2176
WELL.         DOME ET AL KIRBY               : Well_name    - WELL
LOC .         00/07-26-074-05W4/0            : Location     - LOCATION
UWI .         00/07-26-074-05W4/0            : Uwi          - UNIQUE WELL ID
ENTR.         SP                             : Entered      - ENTERED BY
SRVC.         SCHLUMBERGER                   : Scn          - SERVICE COMPANY
STRT.M        260                            : top_depth    - START DEPTH
STOP.M        470                            : bot_depth    - STOP DEPTH
STEP.M        0.25                           : increment    - STEP LENGTH
 NULL. -999.2500:NULL Value
~CURVE INFORMATION BLOCK
#MNEM UNIT       ERCB CURVE CODE    CURVE DESCRIPTION
#-----------   ------------------   ----------------------------------
DEPT.M        00 001 00 00         : DEPTH        - DEPTH
ILD .OHMM     00 120 00 00         : RESD         - DEEP RESISTIVITY (DIL)
DPHI.V/V      00 890 00 00         : PHID         - DENSITY POROSITY (LIMESTONE)
NPHI.V/V      00 330 00 00         : PHIN         - NEUTRON POROSITY (LIMESTONE)
GR  .API      00 310 00 00         : GR           - GAMMA RAY
~PARAMETER INFORMATION
#MNEM.UNIT           DATA             DESCRIPTION OF MNEMONIC
#---------         -----------     ------------------------------
GL  .M        659.1                : gl           - GROUND LEVEL ELEVATION
EREF.M        663.6                : kb           - ELEVATION OF DEPTH REFERENCE
DATM.M        659.1                : datum        - DATUM ELEVATION
TDD .M        475                  : tdd          - TOTAL DEPTH DRILLER
RUN .         ONE                  : Run          - RUN NUMBER
ENG .         BILL                 : Engineer     - RECORDING ENGINEER
WIT .         JIM                  : Witness      - WITNESSED BY
MUD .         GEL                  : Mud_type     - MUD TYPE
MATR.         LIMESTONE            : Logunit      - NEUTRON MATRIX
TMAX.C        20                   : BHT          - MAXIMUM RECORDED TEMPERATURE
BHTD.M        475                  : BHTDEP       - MAXIMUM RECORDED TEMPERATURE
MATR.         1                    : LOGUNIT      - NEUTRON MATRIX
RMT .C        25                   : MDTP         - TEMPERATURE OF MUD
NEUT.         1                    : NEUTRON      - NEUTRON TYPE
RESI.         0                    : RESIST       - RESISTIVITY TYPE
RMC .OHMM     0.25                 : RMC          - RESISTIVITY OF MUD CAKE
RMF .OHMM     0.25                 : RMF          - RESISTIVITY OF MUD FILTRATE
SUFT.C        15                   : SUFT         - SURFACE TEMPERATURE
~A  DEPTH     RESD     PHID     PHIN       GR
# ...
  347.000    0.985    0.350    0.468   65.420
  347.250    1.004    0.346    0.469   63.605
  347.500    1.024    0.330    0.473   63.612
  347.750    1.005    0.337    0.474   63.620
  348.000    0.950    0.341    0.458   63.624
  348.250    0.916    0.341    0.458   64.847
  348.500    0.899    0.346    0.464   66.674
  348.750    0.916    0.332    0.465   69.109
  349.000    1.045    0.328    0.448   69.724
  349.250    1.192    0.321    0.443   72.767
  349.500    1.335    0.297    0.458   79.455
  349.750    1.467    0.282    0.490   85.534
  350.000    1.612    0.277    0.524   87.967
  350.250    1.705    0.284    0.513   89.191
  350.500    1.771    0.289    0.480   89.196
  350.750    1.772    0.282    0.457   84.345
  351.000    1.740    0.275    0.466   81.315
  351.250    1.708    0.279    0.477   77.071
  351.500    1.708    0.276    0.476   75.254
  351.750    1.677    0.246    0.473   73.438
  352.000    1.678    0.226    0.481   78.304
  352.250    1.678    0.253    0.492   81.954
  352.500    1.743    0.261    0.524   86.211
  352.750    1.810    0.275    0.552   85.003
  353.000    1.916    0.256    0.506   83.795
  353.250    1.990    0.245    0.490   84.409
  353.500    2.028    0.261    0.488   85.631
  353.750    2.029    0.264    0.492   86.246
  354.000    2.068    0.257    0.501   85.644
  354.250    2.108    0.276    0.513   86.257
  354.500    2.148    0.301    0.520   88.694
  354.750    2.190    0.279    0.486   91.130
  355.000    2.191    0.244    0.460   92.350
  355.250    2.151    0.235    0.477   92.963
  355.500    2.111    0.231    0.512   94.794
  355.750    2.035    0.270    0.529   96.014
  356.000    2.035    0.283    0.546   96.627
  356.250    1.998    0.292    0.558   98.457
  356.500    1.998    0.315    0.570   99.068
  356.750    1.999    0.329    0.580   96.039
  357.000    2.000    0.274    0.476   95.437
  357.250    2.001    0.228    0.475   93.623
  357.500    2.001    0.226    0.485   95.452
  357.750    2.002    0.222    0.488   97.278
  358.000    2.041    0.207    0.469   97.286
  358.250    2.042    0.201    0.483   97.292
  358.500    2.081    0.208    0.498  100.338
  358.750    2.121    0.201    0.492  101.556
  359.000    2.162    0.219    0.497  100.955
  359.250    2.162    0.224    0.510  100.963
  359.500    2.204    0.229    0.519  102.182
  359.750    2.247    0.232    0.527  104.618
  360.000    2.247    0.222    0.537  105.839
  360.250    2.206    0.239    0.536  104.632
  360.500    2.126    0.273    0.547  105.245
  360.750    2.048    0.285    0.555  109.503
  361.000    2.011    0.272    0.571  111.331
  361.250    1.974    0.256    0.586  108.909
  361.500    1.938    0.245    0.555  105.271
  361.750    1.902    0.240    0.537  107.099
  362.000    1.903    0.235    0.552  108.321
  362.250    1.868    0.221    0.564  107.112
  362.500    1.869    0.211    0.532  107.119
  362.750    1.835    0.222    0.536  110.161
  363.000    1.835    0.236    0.546  110.776
  363.250    1.836    0.256    0.553  105.924
  363.500    1.837    0.268    0.562  104.109
  363.750    1.803    0.266    0.568  102.900
  364.000    1.612    0.246    0.510   99.264
  364.250    1.524    0.261    0.469   96.233
  364.500    1.468    0.268    0.481   92.596
  364.750    1.441    0.245    0.491   90.173
  365.000    1.288    0.269    0.498   87.752
  365.250    1.218    0.290    0.500   87.149
  365.500    1.265    0.299    0.515   87.764
  365.750    1.314    0.305    0.514   85.948
  366.000    1.339    0.296    0.497   85.347
  366.250    1.340    0.279    0.489   88.998
  366.500    1.340    0.285    0.492   88.396
  366.750    1.291    0.301    0.500   81.722
  367.000    1.198    0.322    0.509   76.264
  367.250    1.051    0.343    0.461   75.057
  367.500    0.975    0.359    0.404   72.633
  367.750    0.840    0.337    0.403   61.101
  368.000    0.809    0.323    0.429   63.537
  368.250    0.751    0.317    0.470   63.545
  368.500    0.723    0.321    0.475   64.157
  368.750    0.710    0.323    0.458   65.379
  369.000    0.752    0.326    0.439   67.814
  369.250    0.781    0.324    0.431   63.569
  369.500    0.811    0.321    0.426   61.147
  369.750    0.997    0.311    0.418   69.048
  370.000    1.137    0.286    0.417   77.557
  370.250    1.322    0.249    0.437   83.028
  370.500    1.453    0.240    0.394   82.427
  370.750    1.426    0.255    0.373   80.007
  371.000    1.274    0.272    0.401   78.190
  371.250    1.118    0.293    0.425   77.589
  371.500    0.981    0.307    0.449   78.204
  371.750    0.910    0.319    0.456   79.424
  372.000    0.844    0.319    0.455   81.256
  372.250    0.845    0.308    0.473   82.476
  372.500    0.894    0.307    0.483   83.696
  372.750    0.929    0.306    0.478   86.132
  373.000    0.964    0.305    0.473   87.958
  373.250    1.021    0.299    0.489   90.395
  373.500    1.080    0.283    0.497   87.971
  373.750    1.143    0.267    0.498   84.942
  374.000    1.233    0.279    0.484   84.949
  374.250    1.304    0.290    0.475   87.383
  374.500    1.380    0.293    0.477   94.071
  374.750    1.461    0.266    0.479   97.113
  375.000    1.517    0.253    0.459   96.515
  375.250    1.667    0.248    0.450   97.127
  375.500    1.699    0.231    0.476   97.741
  375.750    1.798    0.234    0.475   95.926
  376.000    1.939    0.241    0.455   95.326
  376.250    1.976    0.234    0.455   95.941
  376.500    2.092    0.234    0.473   96.552
  376.750    2.132    0.239    0.460   98.380
  377.000    2.133    0.236    0.432   98.387
  377.250    2.133    0.233    0.424   97.787
  377.500    2.134    0.231    0.450   97.793
  377.750    2.095    0.231    0.473   97.799
  378.000    2.057    0.222    0.479   98.413
  378.250    2.019    0.213    0.486   99.028
  378.500    2.020    0.207    0.461   99.034
  378.750    2.021    0.217    0.482   99.040
  379.000    2.021    0.240    0.493   98.438
  379.250    1.984    0.262    0.521   92.980
  379.500    1.985    0.277    0.529   91.771
  379.750    1.986    0.280    0.538   95.422
  380.000    1.986    0.270    0.539   99.678
  380.250    2.025    0.262    0.533  101.508
  380.500    1.988    0.274    0.545   97.871
  380.750    1.989    0.284    0.551   97.271
  381.000    2.027    0.280    0.544   97.883
  381.250    2.028    0.264    0.565   96.067
  381.500    2.106    0.307    0.582   91.824
  381.750    2.146    0.334    0.595   88.793
  382.000    2.403    0.352    0.565   85.763
  382.250    2.690    0.319    0.510   86.377
  382.500    3.186    0.329    0.421   85.776
  382.750    4.146    0.353    0.369   79.710
  383.000    4.910    0.373    0.325   74.858
  383.250    5.602    0.395    0.291   72.436
  383.500    5.928    0.415    0.267   71.228
  383.750    6.157    0.411    0.270   70.629
  384.000    5.822    0.416    0.290   70.633
  384.250    5.302    0.412    0.302   70.641
  384.500    4.829    0.404    0.297   70.647
  384.750    4.566    0.404    0.298   70.653
  385.000    4.237    0.405    0.317   71.267
  385.250    4.159    0.400    0.341   71.880
  385.500    3.933    0.397    0.363   73.102
  385.750    3.862    0.391    0.355   73.108
  386.000    3.936    0.389    0.350   71.901
  386.250    4.407    0.385    0.362   70.085
  386.500    4.841    0.223    0.386   68.876
  386.750    6.067    0.164    0.396   67.061
  387.000    7.460    0.135    0.265   62.816
  387.250    9.891    0.097    0.210   58.572
  387.500   11.073    0.033    0.182   53.721
  387.750   10.669    0.000    0.162   50.083
  388.000    8.361    0.000    0.151   47.659
  388.250    3.594    0.008    0.149   45.237
  388.500    2.817    0.025    0.162   47.673
  388.750    2.335    0.050    0.181   51.931
  389.000    2.010    0.135    0.383   58.618
  389.250    1.866    0.240    0.444   65.913
  389.500    1.832    0.312    0.483   70.777
  389.750    1.798    0.330    0.509   75.642
  390.000    1.867    0.319    0.501   76.861
  390.250    2.091    0.311    0.485   76.261
