~VERSION INFORMATION
 VERS.                 2.0:   CWLS LOG ASCII STANDARD -VERSION 2.0
 WRAP.                  NO:   ONE LINE PER DEPTH STEP
~WELL INFORMATION BLOCK
#MNEM.UNIT           DATA                    DESCRIPTION OF MNEMONIC
#---------    -------------------            -------------------------------
# Generated from Intellog Unique Number	CN_94_101/WELL/2610
WELL.         PARAMOUNT RESOURCES LTD.       : Well_name    - WELL
LOC .         00/08-16-094-18W4/0            : Location     - LOCATION
UWI .         00/08-16-094-18W400            : Uwi          - UNIQUE WELL ID
ENTR.         JOETTE                         : Entered      - ENTERED BY
SRVC.         COMPUTALOG                     : Scn          - SERVICE COMPANY
DATE.         06/18/92                       : Date         - LOG DATE
STRT.M        90                             : top_depth    - START DEPTH
STOP.M        268                            : bot_depth    - STOP DEPTH
STEP.M        0.25                           : increment    - STEP LENGTH
 NULL. -999.2500:NULL Value
~CURVE INFORMATION BLOCK
#MNEM UNIT       ERCB CURVE CODE    CURVE DESCRIPTION
#-----------   ------------------   ----------------------------------
DEPT.M        00 001 00 00         : DEPTH        - DEPTH
CALI.MM       00 280 01 00         : CAL          - CALIPER
GR  .API      00 310 00 00         : GR           - GAMMA RAY
NPHI.V/V      00 330 00 00         : PHIN         - NEUTRON POROSITY (SANDSTONE)
DPHI.V/V      00 890 00 00         : PHID         - DENSITY POROSITY (SANDSTONE)
ILD .OHMM     00 120 00 00         : RESD         - DEEP RESISTIVITY (DIL)
~PARAMETER INFORMATION
#MNEM.UNIT           DATA             DESCRIPTION OF MNEMONIC
#---------         -----------     ------------------------------
GL  .M        537.5                : gl           - GROUND LEVEL ELEVATION
EREF.M        541.3                : kb           - ELEVATION OF DEPTH REFERENCE
DATM.M        541.3                : datum        - DATUM ELEVATION
TDD .M        269                  : tdd          - TOTAL DEPTH DRILLER
RUN .         ONE                  : Run          - RUN NUMBER
ENG .         JO                   : Engineer     - RECORDING ENGINEER
WIT .         TIM                  : Witness      - WITNESSED BY
MUD .         GEL                  : Mud_type     - MUD TYPE
MATR.         SANDSTONE            : Logunit      - NEUTRON MATRIX
TMAX.C        26                   : BHT          - MAXIMUM RECORDED TEMPERATURE
BHTD.M        269                  : BHTDEP       - MAXIMUM RECORDED TEMPERATURE
RMT .C        14.4                 : MDTP         - TEMPERATURE OF MUD
MUDD.KG/M     1080                 : MWT          - MUD DENSITY
NEUT.         1                    : NEUTRON      - NEUTRON TYPE
RESI.         0                    : RESIST       - RESISTIVITY TYPE
RM  .OHMM     3                    : RM           - RESISTIVITY OF MUD
RMC .OHMM     3                    : RMC          - RESISTIVITY OF MUD CAKE
RMF .OHMM     3                    : RMF          - RESISTIVITY OF MUD FILTRATE
SUFT.C        4                    : SUFT         - SURFACE TEMPERATURE
~A  DEPTH      CAL       GR     PHIN     PHID     RESD
   90.000  170.026   91.809    0.471    0.211    5.986
   90.250  164.159   92.503    0.486    0.236    6.222
   90.500  168.261   96.747    0.492    0.248    6.120
   90.750  173.362  101.607    0.482    0.253    6.122
   91.000  177.464  105.882    0.483    0.249    6.017
   91.250  178.541  107.144    0.504    0.233    5.804
   91.500  178.645  106.591    0.521    0.216    5.705
   91.750  177.750  100.057    0.497    0.224    5.505
   92.000  175.855   95.338    0.471    0.252    5.409
   92.250  166.964   98.383    0.497    0.274    5.218
   92.500  168.068  103.858    0.517    0.276    5.229
   92.750  178.192  107.549    0.530    0.270    5.331
   93.000  183.319  106.997    0.524    0.265    5.439
   93.250  184.396  108.258    0.516    0.266    5.654
   93.500  185.500  108.321    0.511    0.273    5.877
   93.750  183.605  105.969    0.493    0.260    6.227
   94.000  179.711   98.835    0.458    0.249    6.472
   94.250  176.843   94.700    0.431    0.255    6.728
   94.500  177.946   97.776    0.414    0.262    6.866
   94.750  182.074  100.237    0.424    0.265    7.008
   95.000  184.125  102.114    0.434    0.267    6.883
   95.250  183.229  101.546    0.429    0.269    6.399
   95.500  179.362   99.210    0.427    0.271    6.173
   95.750  176.493   98.672    0.438    0.265    6.298
   96.000  175.546  101.133    0.474    0.256    6.924
   96.250  178.648   98.213    0.467    0.263    7.468
   96.500  183.775   94.062    0.436    0.278    8.365
   96.750  187.877   86.345    0.416    0.274    9.029
   97.000  188.980   88.806    0.403    0.262    8.874
   97.250  188.111   90.052    0.416    0.260    8.095
   97.500  186.242   94.328    0.436    0.258    7.662
   97.750  184.295   96.773    0.455    0.254    7.123
   98.000  180.427   96.236    0.461    0.264    6.871
   98.250  180.531   89.702    0.448    0.273    6.751
   98.500  180.635   98.759    0.445    0.273    5.935
   98.750  179.740  104.849    0.506    0.265    5.513
   99.000  177.819  102.497    0.521    0.268    5.322
   99.250  174.925  100.161    0.496    0.273    5.326
   99.500  177.028  103.237    0.465    0.267    5.045
   99.750  181.129  106.282    0.460    0.260    4.777
  100.000  182.233  108.743    0.496    0.262    4.521
  100.250  183.362  106.407    0.503    0.264    4.205
  100.500  183.492  102.272    0.502    0.267    4.131
  100.750  183.570   96.938    0.465    0.267    4.375
  101.000  182.649   92.818    0.431    0.265    4.991
  101.250  180.754   88.052    0.423    0.255    7.265
  101.500  170.863   74.922    0.415    0.160    8.137
  101.750  165.970   75.600    0.403    0.152    9.460
  102.000  163.076   78.676    0.410    0.230   10.204
  102.250  163.180   80.522    0.439    0.270   10.807
  102.500  167.308   78.170    0.453    0.236   10.626
  102.750  167.412   72.251    0.435    0.223   10.251
  103.000  163.518   70.499    0.422    0.240    9.526
  103.250  162.597   72.960    0.428    0.257    8.368
  103.500  165.751   77.820    0.467    0.272    7.086
  103.750  167.802   85.094    0.501    0.288    6.342
  104.000  174.928   90.553    0.522    0.283    5.785
  104.250  180.055   90.615    0.501    0.272    5.279
  104.500  180.159   90.677    0.468    0.278    5.094
  104.750  180.237   93.738    0.493    0.278    5.098
  105.000  184.364   95.631    0.510    0.265    5.402
  105.250  186.467   92.679    0.497    0.263    5.612
  105.500  187.571   87.929    0.470    0.262    6.169
  105.750  186.649   86.208    0.462    0.264    6.415
  106.000  181.756   89.868    0.480    0.263    6.191
  106.250  177.888   94.728    0.493    0.262    5.860
  106.500  181.990  100.187    0.499    0.258    5.651
  106.750  184.093   97.267    0.495    0.256    5.558
  107.000  182.198   91.317    0.489    0.254    5.564
  107.250  178.304   79.371    0.470    0.243    5.892
  107.500  178.434   76.435    0.453    0.224    6.238
  107.750  179.486   72.899    0.432    0.183    7.394
  108.000  180.589   76.560    0.427    0.163    8.129
  108.250  177.721   83.834    0.443    0.250    8.140
  108.500  173.801   89.293    0.458    0.267    7.425
  108.750  168.934   94.752    0.472    0.271    6.645
  109.000  172.036  100.842    0.477    0.269    5.840
  109.250  177.137   97.891    0.484    0.265    5.325
  109.500  180.265   96.138    0.485    0.263    5.138
  109.750  180.343   92.603    0.472    0.266    5.444
  110.000  179.448   88.483    0.453    0.274    5.767
  110.250  179.552   86.132    0.462    0.272    5.882
  110.500  179.656   87.993    0.477    0.266    6.001
  110.750  176.762   88.071    0.481    0.273    5.577
  111.000  179.864   84.535    0.490    0.284    5.181
  111.250  181.967   87.580    0.506    0.287    4.728
  111.500  180.072   92.456    0.501    0.275    4.559
  111.750  170.182   90.735    0.490    0.268    4.483
  112.000  164.315   95.579    0.486    0.259    4.489
  112.250  165.418  100.454    0.497    0.257    4.666
  112.500  166.522  102.315    0.505    0.264    4.849
  112.750  167.599  100.579    0.500    0.271    5.135
  113.000  166.704   94.029    0.477    0.262    5.541
  113.250  164.809   80.915    0.457    0.252    5.979
  113.500  163.914   78.563    0.453    0.257    6.699
  113.750  164.018   77.426    0.474    0.255    7.228
  114.000  165.173   79.287    0.463    0.244    7.802
  114.250  166.224   79.350    0.436    0.241    7.810
  114.500  170.352   78.213    0.425    0.253    7.681
  114.750  173.454   77.076    0.430    0.266    7.271
  115.000  174.558   76.539    0.447    0.272    6.755
  115.250  176.686   77.816    0.466    0.285    6.045
  115.500  175.791   80.877    0.473    0.282    5.514
  115.750  175.921   83.922    0.487    0.268    5.422
  116.000  174.974   87.582    0.502    0.252    5.636
  116.250  174.078   90.658    0.505    0.240    5.750
  116.500  173.183   88.306    0.490    0.240    5.981
  116.750  174.312   87.170    0.471    0.257    5.987
  117.000  177.414   92.644    0.477    0.252    5.993
  117.250  179.491   95.705    0.477    0.249    6.004
  117.500  179.647   93.385    0.461    0.250    5.899
  117.750  177.700   92.248    0.439    0.261    5.907
  118.000  176.805   92.910    0.445    0.271    5.917
  118.250  180.933   91.757    0.456    0.284    6.505
  118.500  174.015   79.211    0.445    0.289    7.421
  118.750  165.150   55.272    0.409    0.271    8.314
  119.000  163.255   51.736    0.400    0.266    9.140
  119.250  160.361   57.211    0.395    0.297   10.045
  119.500  157.466   64.469    0.395    0.314    9.880
  119.750  163.541   72.927    0.388    0.311    9.527
  120.000  168.668   81.400    0.383    0.293    9.024
  120.250  172.796   89.889    0.443    0.278    8.381
  120.500  174.924   90.520    0.445    0.264    6.963
  120.750  176.002   89.398    0.449    0.267    6.121
  121.000  176.132   87.046    0.455    0.272    6.018
  121.250  175.184   82.927    0.464    0.277    6.136
  121.500  170.291   82.974    0.459    0.278    6.262
  121.750  163.399   87.833    0.446    0.279    6.391
  122.000  167.501   89.710    0.443    0.281    6.398
  122.250  170.603   84.960    0.456    0.295    6.405
  122.500  171.733   79.625    0.470    0.288    6.297
  122.750  167.839   79.104    0.481    0.287    6.306
  123.000  167.943   81.565    0.498    0.305    6.319
  123.250  172.019   84.041    0.482    0.330    6.445
  123.500  175.121   81.090    0.453    0.333    6.828
  123.750  173.226   75.740    0.448    0.327    7.229
  124.000  170.332   72.204    0.454    0.316    7.947
  124.250  168.437   74.066    0.447    0.325    8.736
  124.500  168.567   71.130    0.454    0.330    9.604
  124.750  167.671   65.195    0.464    0.266   10.363
  125.000  165.776   55.663    0.402    0.223   10.775
  125.250  161.857   55.126    0.401    0.207   10.783
  125.500  157.963   57.587    0.418    0.316   10.028
  125.750  158.067   61.847    0.447    0.316    9.671
  126.000  159.170   67.906    0.455    0.291    9.326
  126.250  162.299   81.192    0.464    0.285    8.833
