~VERSION INFORMATION
 VERS.                 2.0:   CWLS LOG ASCII STANDARD -VERSION 2.0
 WRAP.                  NO:   ONE LINE PER DEPTH STEP
~WELL INFORMATION BLOCK
#MNEM.UNIT           DATA                    DESCRIPTION OF MNEMONIC
#---------    -------------------            -------------------------------
# Generated from Intellog Unique Number	CS_67_68/WELL/769
WELL.         FISHER CREEK                   : Well_name    - WELL
LOC .         00/07-08-068-05W4/0            : Location     - LOCATION
UWI .         00/07-08-068-05W4/0            : Uwi          - UNIQUE WELL ID
ENTR.         SP                             : Entered      - ENTERED BY
SRVC.         SCHLUMBERGER                   : Scn          - SERVICE COMPANY
STRT.M        350                            : top_depth    - START DEPTH
STOP.M        560                            : bot_depth    - STOP DEPTH
STEP.M        0.25                           : increment    - STEP LENGTH
 NULL. -999.2500:NULL Value
~CURVE INFORMATION BLOCK
#MNEM UNIT       ERCB CURVE CODE    CURVE DESCRIPTION
#-----------   ------------------   ----------------------------------
DEPT.M        00 001 00 00         : DEPTH        - DEPTH
ILD .OHMM     00 120 00 00         : RESD         - DEEP RESISTIVITY (DIL)
DPHI.V/V      00 890 00 00         : PHID         - DENSITY POROSITY (LIMESTONE)
NPHI.V/V      00 330 00 00         : PHIN         - NEUTRON POROSITY (LIMESTONE)
GR  .API      00 310 00 00         : GR           - GAMMA RAY
~PARAMETER INFORMATION
#MNEM.UNIT           DATA             DESCRIPTION OF MNEMONIC
#---------         -----------     ------------------------------
GL  .M        690.6                : gl           - GROUND LEVEL ELEVATION
EREF.M        694.1                : kb           - ELEVATION OF DEPTH REFERENCE
DATM.M        690.6                : datum        - DATUM ELEVATION
TDD .M        570                  : tdd          - TOTAL DEPTH DRILLER
RUN .         ONE                  : Run          - RUN NUMBER
ENG .         BILL                 : Engineer     - RECORDING ENGINEER
WIT .         JIM                  : Witness      - WITNESSED BY
MUD .         GEL                  : Mud_type     - MUD TYPE
MATR.         LIMESTONE            : Logunit      - NEUTRON MATRIX
TMAX.C        25                   : BHT          - MAXIMUM RECORDED TEMPERATURE
BHTD.M        570                  : BHTDEP       - MAXIMUM RECORDED TEMPERATURE
MATR.         1                    : LOGUNIT      - NEUTRON MATRIX
RMT .C        25                   : MDTP         - TEMPERATURE OF MUD
NEUT.         1                    : NEUTRON      - NEUTRON TYPE
RESI.         0                    : RESIST       - RESISTIVITY TYPE
RMC .OHMM     0.25                 : RMC          - RESISTIVITY OF MUD CAKE
RMF .OHMM     0.25                 : RMF          - RESISTIVITY OF MUD FILTRATE
SUFT.C        15                   : SUFT         - SURFACE TEMPERATURE
~A  DEPTH     RESD     PHID     PHIN       GR
  350.000    3.793    0.245    0.513  112.073
  350.250    3.829    0.242    0.545  109.434
  350.500    3.822    0.238    0.567  104.800
  350.750    3.765    0.234    0.499  100.708
  351.000    3.696    0.227    0.495  114.321
  351.250    3.474    0.200    0.479  126.603
  351.500    3.278    0.203    0.461  118.344
  351.750    3.266    0.245    0.490  108.514
  352.000    3.254    0.252    0.491  104.485
  352.250    3.417    0.250    0.472  100.274
  352.500    3.696    0.247    0.486   94.914
  352.750    4.375    0.245    0.523   85.507
  353.000    4.978    0.224    0.465   72.234
  353.250    5.654    0.188    0.388   71.104
  353.500    5.892    0.166    0.365   77.707
  353.750    6.175    0.140    0.352   80.625
  354.000    6.210    0.277    0.342   71.824
  354.250    6.141    0.309    0.348   53.958
  354.500    6.016    0.301    0.365   51.195
  354.750    5.871    0.313    0.361   57.800
  355.000    5.307    0.321    0.356   61.321
  355.250    5.277    0.315    0.372   58.080
  355.500    5.337    0.319    0.385   55.980
  355.750    5.397    0.333    0.391   61.798
  356.000    5.428    0.337    0.384   68.040
  356.250    5.438    0.332    0.368   71.078
  356.500    5.408    0.309    0.386   70.796
  356.750    5.398    0.298    0.398   70.027
  357.000    5.388    0.316    0.405   70.286
  357.250    5.408    0.328    0.405   72.238
  357.500    5.429    0.336    0.396   75.340
  357.750    5.449    0.318    0.388   77.892
  358.000    5.470    0.296    0.393   79.481
  358.250    5.490    0.283    0.390   81.130
  358.500    5.522    0.305    0.385   89.062
  358.750    5.553    0.311    0.394   91.075
  359.000    5.595    0.306    0.405   91.638
  359.250    5.626    0.303    0.410   90.931
  359.500    5.669    0.300    0.418   91.068
  359.750    5.712    0.298    0.430   96.404
  360.000    5.733    0.299    0.432  101.375
  360.250    5.744    0.304    0.420  101.151
  360.500    5.712    0.306    0.412  100.749
  360.750    5.702    0.304    0.408  102.517
  361.000    5.691    0.283    0.438   98.367
  361.250    5.659    0.276    0.460   87.448
  361.500    5.638    0.274    0.426   68.375
  361.750    5.638    0.282    0.419   63.076
  362.000    5.670    0.300    0.409   65.875
  362.250    5.767    0.309    0.403   68.067
  362.500    5.876    0.303    0.388   73.645
  362.750    5.998    0.274    0.376   84.415
  363.000    6.204    0.240    0.381   94.582
  363.250    6.357    0.227    0.397   96.716
  363.500    6.490    0.231    0.407   94.981
  363.750    6.588    0.235    0.412   96.209
  364.000    6.663    0.250    0.421  102.089
  364.250    6.067    0.269    0.414  110.200
  364.500    5.494    0.280    0.404  118.074
  364.750    5.041    0.269    0.406  125.281
  365.000    4.625    0.239    0.444  124.455
  365.250    4.397    0.220    0.462  112.449
  365.500    4.373    0.191    0.487   97.785
  365.750    4.582    0.152    0.502   84.933
  366.000    4.893    0.203    0.449   71.540
  366.250    5.176    0.268    0.431   68.596
  366.500    5.495    0.310    0.425   74.115
  366.750    5.737    0.336    0.434   77.392
  367.000    6.069    0.329    0.437   85.268
  367.250    6.207    0.322    0.424   90.419
  367.500    6.313    0.298    0.410   97.870
  367.750    6.231    0.280    0.402  102.960
  368.000    6.104    0.263    0.400   91.380
  368.250    6.185    0.252    0.412   77.985
  368.500    6.231    0.261    0.401   69.846
  368.750    6.220    0.303    0.393   70.471
  369.000    6.082    0.321    0.397   70.789
  369.250    5.880    0.332    0.409   68.512
  369.500    5.654    0.343    0.427   61.041
  369.750    5.497    0.350    0.456   57.309
  370.000    5.355    0.348    0.444   55.816
  370.250    5.246    0.351    0.409   56.744
  370.500    5.168    0.355    0.422   57.123
  370.750    5.091    0.360    0.430   57.020
  371.000    5.007    0.363    0.425   56.494
  371.250    4.969    0.365    0.417   55.423
  371.500    4.914    0.366    0.406   59.671
  371.750    4.905    0.365    0.396   59.023
  372.000    4.878    0.359    0.391   54.329
  372.250    4.841    0.353    0.416   50.300
  372.500    4.841    0.352    0.423   51.708
  372.750    4.842    0.354    0.426   55.111
  373.000    4.896    0.351    0.428   58.453
  373.250    4.961    0.352    0.425   60.462
  373.500    5.074    0.357    0.418   62.837
  373.750    5.199    0.359    0.411   64.913
  374.000    5.388    0.352    0.421   66.438
  374.250    5.479    0.339    0.430   69.536
  374.500    5.636    0.324    0.427   75.234
  374.750    5.884    0.311    0.415   80.748
  375.000    6.189    0.303    0.410   76.236
  375.250    6.547    0.300    0.425   70.699
  375.500    6.759    0.301    0.404   67.754
  375.750    6.810    0.291    0.374   73.389
  376.000    6.709    0.279    0.383   88.572
  376.250    6.584    0.269    0.412   99.767
  376.500    6.450    0.264    0.428   92.235
  376.750    6.343    0.269    0.415   84.884
  377.000    6.260    0.297    0.404   79.460
  377.250    6.156    0.326    0.414   71.262
  377.500    6.087    0.338    0.422   65.238
  377.750    6.008    0.330    0.415   64.471
  378.000    5.963    0.324    0.404   72.405
  378.250    5.997    0.321    0.397   77.799
  378.500    6.215    0.317    0.399   76.610
  378.750    6.500    0.313    0.409   72.520
  379.000    6.749    0.324    0.405   70.784
  379.250    6.902    0.313    0.400   81.617
  379.500    6.851    0.284    0.395   89.127
  379.750    6.774    0.267    0.420   95.370
  380.000    6.762    0.262    0.448   97.439
  380.250    6.762    0.269    0.473   95.043
  380.500    6.852    0.309    0.488   93.006
  380.750    6.955    0.332    0.506   93.022
  381.000    7.074    0.243    0.493   94.672
  381.250    7.234    0.208    0.484   94.810
  381.500    7.441    0.241    0.474   95.795
  381.750    7.596    0.255    0.462   90.860
  382.000    7.827    0.246    0.446   86.167
  382.250    7.945    0.248    0.443   83.645
  382.500    7.975    0.271    0.451   81.911
  382.750    7.697    0.282    0.444   82.473
  383.000    7.498    0.270    0.432   83.760
  383.250    7.222    0.272    0.425   85.834
  383.500    6.957    0.285    0.431   88.085
  383.750    6.828    0.282    0.447   93.300
  384.000    6.740    0.279    0.453   97.971
  384.250    6.677    0.278    0.461   99.195
  384.500    6.590    0.280    0.479  104.532
  384.750    6.541    0.273    0.488  108.112
  385.000    6.468    0.284    0.472  107.707
  385.250    6.408    0.282    0.449  105.793
  385.500    6.313    0.272    0.470  103.998
  385.750    6.208    0.271    0.500  103.835
  386.000    6.139    0.264    0.511  104.336
  386.250    6.104    0.253    0.500  103.388
  386.500    6.048    0.244    0.490  100.869
  386.750    6.048    0.243    0.500  105.842
  387.000    6.048    0.256    0.491  108.939
  387.250    6.059    0.263    0.478  107.509
  387.500    6.163    0.274    0.485   99.915
  387.750    6.386    0.289    0.463   94.917
  388.000    6.593    0.285    0.440   90.826
  388.250    6.730    0.286    0.406   94.531
  388.500    6.819    0.290    0.384   98.838
  388.750    6.896    0.293    0.413  102.178
  389.000    6.896    0.285    0.418  100.625
  389.250    6.910    0.276    0.418   98.951
  389.500    6.884    0.273    0.415   98.729
  389.750    6.871    0.272    0.434   98.263
  390.000    6.897    0.264    0.452   93.149
  390.250    6.962    0.264    0.465   89.720
  390.500    7.028    0.275    0.441   87.442
  390.750    7.148    0.285    0.438   86.014
  391.000    7.242    0.292    0.463   84.701
  391.250    7.283    0.291    0.439   83.750
  391.500    7.242    0.298    0.410   87.937
  391.750    7.175    0.310    0.427   90.190
  392.000    7.095    0.306    0.448   89.846
  392.250    7.056    0.302    0.456   88.657
  392.500    7.029    0.302    0.470   88.069
  392.750    6.977    0.309    0.483   87.970
  393.000    6.951    0.307    0.465   88.109
  393.250    6.964    0.305    0.451   88.366
