~VERSION INFORMATION
 VERS.                 2.0:   CWLS LOG ASCII STANDARD -VERSION 2.0
 WRAP.                  NO:   ONE LINE PER DEPTH STEP
~WELL INFORMATION BLOCK
#MNEM.UNIT           DATA                    DESCRIPTION OF MNEMONIC
#---------    -------------------            -------------------------------
# Generated from Intellog Unique Number	CW_82_90/WELL/3420
WELL.         TEXACO CORN LAKE               : Well_name    - WELL
LOC .         00/06-11-089-25W4/0            : Location     - LOCATION
UWI .         00/06-11-089-25W4/0            : Uwi          - UNIQUE WELL ID
ENTR.         MAX                            : Entered      - ENTERED BY
SRVC.         COMPUTALOG                     : Scn          - SERVICE COMPANY
STRT.M        200                            : top_depth    - START DEPTH
STOP.M        413                            : bot_depth    - STOP DEPTH
STEP.M        0.25                           : increment    - STEP LENGTH
 NULL. -999.2500:NULL Value
~CURVE INFORMATION BLOCK
#MNEM UNIT       ERCB CURVE CODE    CURVE DESCRIPTION
#-----------   ------------------   ----------------------------------
DEPT.M        00 001 00 00         : DEPTH        - DEPTH
GR  .API      00 310 00 00         : GR           - GAMMA RAY
CALI.MM       00 280 01 00         : CAL          - CALIPER
DPHI.V/V      00 890 00 00         : PHID         - DENSITY POROSITY (SANDSTONE)
NPHI.V/V      00 330 00 00         : PHIN         - NEUTRON POROSITY (SANDSTONE)
ILD .OHMM     00 120 00 00         : RESD         - DEEP RESISTIVITY (DIL)
~PARAMETER INFORMATION
#MNEM.UNIT           DATA             DESCRIPTION OF MNEMONIC
#---------         -----------     ------------------------------
GL  .M        617.98               : gl           - GROUND LEVEL ELEVATION
EREF.M        621.5                : kb           - ELEVATION OF DEPTH REFERENCE
DATM.M        617.98               : datum        - DATUM ELEVATION
TDD .M        415                  : tdd          - TOTAL DEPTH DRILLER
RUN .         ONE                  : Run          - RUN NUMBER
ENG .         BILL                 : Engineer     - RECORDING ENGINEER
WIT .         JIM                  : Witness      - WITNESSED BY
MUD .         GEL                  : Mud_type     - MUD TYPE
MATR.         SANDSTONE            : Logunit      - NEUTRON MATRIX
TMAX.C        16.6                 : BHT          - MAXIMUM RECORDED TEMPERATURE
BHTD.M        415                  : BHTDEP       - MAXIMUM RECORDED TEMPERATURE
MATR.         1                    : LOGUNIT      - NEUTRON MATRIX
RMT .C        15.6                 : MDTP         - TEMPERATURE OF MUD
NEUT.         1                    : NEUTRON      - NEUTRON TYPE
RESI.         0                    : RESIST       - RESISTIVITY TYPE
RMC .OHMM     4                    : RMC          - RESISTIVITY OF MUD CAKE
RMF .OHMM     5.5                  : RMF          - RESISTIVITY OF MUD FILTRATE
SUFT.C        -13.7                : SUFT         - SURFACE TEMPERATURE
~A  DEPTH       GR      CAL     PHID     PHIN     RESD
# ...
  273.000   82.058  218.997    0.239    0.426    4.121
  273.250   79.020  219.020    0.240    0.444    4.653
  273.500   76.897  215.481    0.233    0.386    4.923
  273.750   76.910  217.031    0.235    0.375    4.927
  274.000   80.288  229.276    0.243    0.392    4.931
  274.250   84.273  224.210    0.220    0.387    4.844
  274.500   81.541  218.126    0.129    0.342    4.586
  274.750   83.697  216.624    0.133    0.337    4.262
  275.000   87.679  217.671    0.170    0.400    3.960
  275.250   91.361  219.221    0.193    0.437    3.819
  275.500   92.598  219.246    0.199    0.449    3.787
  275.750   92.002  218.763    0.195    0.443    3.789
  276.000   95.684  219.301    0.193    0.430    3.793
  276.250   99.674  220.341    0.198    0.407    3.795
  276.500   98.160  221.385    0.202    0.343    3.799
  276.750   96.646  221.411    0.194    0.393    3.766
  277.000   93.301  220.418    0.173    0.411    3.770
  277.250   95.149  219.935    0.188    0.382    3.773
  277.500   97.914  219.963    0.207    0.388    3.811
  277.750   99.151  219.480    0.203    0.390    3.815
  278.000   97.945  219.502    0.207    0.413    3.714
  278.250  100.099  219.531    0.211    0.432    3.856
  278.500  101.949  219.560    0.211    0.458    3.859
  278.750  101.353  219.585    0.210    0.505    3.862
  279.000  100.147  220.117    0.205    0.543    3.865
  279.250   99.549  220.142    0.204    0.516    3.868
  279.500   98.342  220.677    0.205    0.512    3.871
  279.750   94.997  220.699    0.212    0.534    3.875
  280.000   93.180  219.704    0.213    0.507    3.951
  280.250   93.193  218.714    0.216    0.472    3.990
  280.500   93.208  218.227    0.224    0.472    4.106
  280.750   90.169  217.747    0.230    0.411    4.265
  281.000   85.907  217.260    0.230    0.348    4.513
  281.250   82.870  217.289    0.228    0.327    4.775
  281.500   80.439  217.311    0.216    0.322    4.913
  281.750   78.318  217.337    0.220    0.300    4.871
  282.000   79.859  217.365    0.223    0.287    4.570
  282.250   83.846  217.388    0.231    0.326    4.325
  282.500   88.751  217.923    0.232    0.412    3.767
  282.750   89.986  218.457    0.229    0.410    3.468
  283.000   89.089  218.486    0.229    0.398    3.253
  283.250   87.878  218.508    0.234    0.407    3.195
  283.500   87.284  218.537    0.237    0.435    3.228
  283.750   86.993  219.069    0.235    0.441    3.384
  284.000   85.788  219.603    0.231    0.424    3.580
  284.250   82.441  219.629    0.229    0.414    3.931
  284.500   78.788  220.164    0.215    0.451    4.316
  284.750   72.999  220.193    0.188    0.412    4.828
  285.000   69.351  219.715    0.162    0.357    5.451
  285.250   69.669  218.207    0.159    0.340    6.211
  285.500   72.742  218.229    0.183    0.355    6.451
  285.750   75.810  218.255    0.209    0.339    6.107
  286.000   80.104  218.284    0.220    0.335    5.571
  286.250   84.394  218.309    0.213    0.363    5.373
  286.500   88.078  218.328    0.209    0.343    5.477
  286.750   83.509  218.866    0.214    0.329    5.849
  287.000   76.803  218.892    0.214    0.358    6.247
  287.250   78.957  218.405    0.213    0.372    6.487
  287.500   78.667  217.922    0.213    0.348    6.738
  287.750   75.016  217.438    0.207    0.330    6.870
  288.000   73.508  216.954    0.209    0.348    6.940
  288.250   73.216  215.962    0.218    0.358    7.010
  288.500   73.840  215.990    0.233    0.378    7.016
  288.750   74.772  216.016    0.238    0.381    7.021
  289.000   75.400  216.042    0.238    0.363    6.771
  289.250   75.106  216.067    0.235    0.344    6.529
  289.500   77.871  215.587    0.222    0.326    6.069
  289.750   81.247  215.606    0.228    0.351    5.691
  290.000   84.930  216.144    0.230    0.363    5.288
  290.250   84.945  216.679    0.227    0.374    4.824
  290.500   84.044  217.722    0.226    0.408    4.483
  290.750   84.058  218.257    0.225    0.437    4.204
  291.000   83.466  218.280    0.223    0.420    4.093
  291.250   82.561  218.821    0.224    0.403    4.134
  291.500   81.051  218.334    0.182    0.386    4.099
  291.750   80.150  217.341    0.084    0.324    3.809
  292.000   82.914  218.382    0.052    0.333    3.539
  292.250   86.596  218.411    0.095    0.469    3.111
  292.500   90.581  216.909    0.157    0.571    2.760
  292.750   90.901  217.946    0.235    0.532    2.541
  293.000   93.055  219.502    0.242    0.454    2.428
  293.250   93.987  219.016    0.246    0.399    2.385
  293.500   94.004  218.023    0.242    0.459    2.387
  293.750   94.018  218.055    0.232    0.503    2.411
  294.000   94.340  218.077    0.226    0.582    2.481
  294.250   95.883  217.590    0.224    0.575    2.625
  294.500   95.897  217.110    0.221    0.521    2.778
  294.750   90.719  217.136    0.212    0.440    3.022
  295.000   82.180  217.161    0.191    0.498    3.349
  295.250   74.862  217.184    0.126    0.369    4.187
  295.500   66.022  217.722    0.143    0.268    4.861
  295.750   68.174  217.744    0.181    0.295    5.437
  296.000   71.547  217.769    0.210    0.344    5.860
  296.250   77.062  218.304    0.232    0.378    5.865
  296.500   78.606  217.824    0.236    0.342    5.763
  296.750   81.675  217.340    0.233    0.310    5.506
  297.000   85.356  217.366    0.235    0.336    5.116
  297.250   83.844  217.391    0.236    0.396    4.755
  297.500   81.721  217.414    0.238    0.383    4.542
  297.750   83.569  217.955    0.239    0.373    4.380
  298.000   86.334  217.974    0.243    0.453    4.109
  298.250   90.015  218.000    0.241    0.503    3.889
  298.500   89.114  217.516    0.236    0.515    3.682
  298.750   88.824  217.548    0.231    0.415    3.517
  299.000   92.505  217.570    0.229    0.403    3.392
  299.250   92.217  217.590    0.227    0.420    3.333
  299.500   91.619  217.618    0.222    0.434    3.335
  299.750   92.856  217.644    0.218    0.402    3.370
  300.000   92.874  217.669    0.215    0.441    3.403
  300.250   90.749  217.692    0.214    0.431    3.470
  300.500   88.931  217.721    0.216    0.417    3.538
  300.750   88.948  217.746    0.217    0.398    3.675
  301.000   90.493  217.775    0.217    0.403    3.781
  301.250   91.728  217.797    0.217    0.389    4.038
  301.500   91.131  217.314    0.217    0.382    4.272
  301.750   82.287  217.339    0.216    0.387    4.520
  302.000   81.997  216.852    0.220    0.370    4.565
  302.250   87.511  216.878    0.224    0.337    4.527
  302.500   92.414  216.907    0.242    0.358    4.207
  302.750   96.707  216.932    0.253    0.331    3.664
  303.000  100.390  216.958    0.248    0.329    3.405
  303.250   98.265  216.987    0.244    0.460    3.223
  303.500  104.390  217.006    0.244    0.480    3.137
  303.750  107.462  216.529    0.244    0.449    3.082
  304.000  105.033  216.551    0.241    0.388    3.056
  304.250   95.577  216.580    0.234    0.415    3.086
  304.500   83.676  216.602    0.229    0.449    3.266
  304.750   83.082  216.631    0.227    0.493    3.521
  305.000   79.431  216.144    0.229    0.511    3.830
  305.250   78.836  215.664    0.245    0.488    4.205
  305.500   79.768  215.683    0.257    0.390    4.491
  305.750   79.783  215.705    0.238    0.376    4.291
  306.000   81.018  214.716    0.179    0.375    4.024
  306.250   84.398  214.738    0.112    0.399    3.809
  306.500   87.466  214.255    0.155    0.405    3.573
  306.750   92.062  214.283    0.183    0.413    3.351
  307.000   96.660  214.309    0.200    0.424    3.172
  307.250   99.428  214.338    0.211    0.434    3.031
  307.500  100.357  213.851    0.205    0.437    2.923
  307.750   99.455  213.873    0.197    0.429    2.872
  308.000   95.501  213.902    0.201    0.406    2.874
  308.250   99.181  213.928    0.211    0.378    2.931
  308.500  104.084  213.953    0.216    0.384    3.016
  308.750  103.183  213.976    0.219    0.444    3.132
  309.000   97.394  213.495    0.225    0.424    3.283
  309.250   90.383  214.027    0.228    0.421    3.539
