~VERSION INFORMATION
 VERS.                 2.0:   CWLS LOG ASCII STANDARD -VERSION 2.0
 WRAP.                  NO:   ONE LINE PER DEPTH STEP
~WELL INFORMATION BLOCK
#MNEM.UNIT           DATA                    DESCRIPTION OF MNEMONIC
#---------    -------------------            -------------------------------
# Generated from Intellog Unique Number	CX_WELLS/WELL/2711
WELL.         MAYNARD THORTANY               : Well_name    - WELL
LOC .         00/06-03-080-12W4/0            : Location     - LOCATION
UWI .         00/06-03-080-12W4/0            : Uwi          - UNIQUE WELL ID
ENTR.         T                              : Entered      - ENTERED BY
SRVC.         SCHLUMBERGER                   : Scn          - SERVICE COMPANY
STRT.M        250                            : top_depth    - START DEPTH
STOP.M        495                            : bot_depth    - STOP DEPTH
STEP.M        0.25                           : increment    - STEP LENGTH
 NULL. -999.2500:NULL Value
~CURVE INFORMATION BLOCK
#MNEM UNIT       ERCB CURVE CODE    CURVE DESCRIPTION
#-----------   ------------------   ----------------------------------
DEPT.M        00 001 00 00         : DEPTH        - DEPTH
GR  .API      00 310 00 00         : GR           - GAMMA RAY
NPHI.V/V      00 330 00 00         : PHIN         - NEUTRON POROSITY (SANDSTONE)
DPHI.V/V      00 890 00 00         : PHID         - DENSITY POROSITY (SANDSTONE)
ILD .OHMM     00 120 00 00         : RESD         - DEEP RESISTIVITY (DIL)
~PARAMETER INFORMATION
#MNEM.UNIT           DATA             DESCRIPTION OF MNEMONIC
#---------         -----------     ------------------------------
GL  .M        687                  : gl           - GROUND LEVEL ELEVATION
EREF.M        690                  : kb           - ELEVATION OF DEPTH REFERENCE
DATM.M        690                  : datum        - DATUM ELEVATION
TDD .M        505                  : tdd          - TOTAL DEPTH DRILLER
RUN .         ONE                  : Run          - RUN NUMBER
ENG .         BILL                 : Engineer     - RECORDING ENGINEER
WIT .         JIM                  : Witness      - WITNESSED BY
MUD .         GEL                  : Mud_type     - MUD TYPE
MATR.         SANDSTONE            : Logunit      - NEUTRON MATRIX
TMAX.C        21                   : BHT          - MAXIMUM RECORDED TEMPERATURE
BHTD.M        505                  : BHTDEP       - MAXIMUM RECORDED TEMPERATURE
MATR.         1                    : LOGUNIT      - NEUTRON MATRIX
RMT .C        20                   : MDTP         - TEMPERATURE OF MUD
NEUT.         1                    : NEUTRON      - NEUTRON TYPE
RESI.         3.2                  : RESIST       - RESISTIVITY TYPE
RMC .OHMM     3                    : RMC          - RESISTIVITY OF MUD CAKE
RMF .OHMM     2.1                  : RMF          - RESISTIVITY OF MUD FILTRATE
SUFT.C        3                    : SUFT         - SURFACE TEMPERATURE
~A  DEPTH       GR     PHIN     PHID     RESD
# ...
  337.000   44.183    0.366    0.325   19.965
  337.250   43.605    0.367    0.326   19.971
  337.500   43.654    0.367    0.326   20.056
  337.750   43.076    0.368    0.326   20.143
  338.000   41.910    0.369    0.314   20.229
  338.250   40.734    0.371    0.308   20.235
  338.500   40.166    0.373    0.305   20.160
  338.750   40.822    0.376    0.307   20.168
  339.000   41.468    0.380    0.311   20.173
  339.250   42.095    0.382    0.318   20.182
  339.500   43.348    0.385    0.327   20.187
  339.750   43.994    0.386    0.342   20.192
  340.000   45.248    0.385    0.354   20.200
  340.250   46.521    0.382    0.361   20.204
  340.500   47.167    0.381    0.361   20.053
  340.750   47.803    0.385    0.358   19.983
  341.000   49.057    0.386    0.358   19.907
  341.250   49.703    0.388    0.354   19.755
  341.500   50.976    0.390    0.353   19.682
  341.750   51.603    0.392    0.353   19.688
  342.000   52.249    0.393    0.353   19.615
  342.250   49.878    0.395    0.353   19.542
  342.500   48.683    0.397    0.352   19.549
  342.750   48.722    0.398    0.352   19.553
  343.000   49.388    0.401    0.350   19.640
  343.250   49.407    0.402    0.349   19.726
  343.500   50.690    0.403    0.348   19.813
  343.750   51.326    0.403    0.348   19.896
  344.000   52.580    0.402    0.347   19.982
  344.250   52.609    0.401    0.347   20.147
  344.500   53.255    0.400    0.347   20.233
  344.750   54.538    0.400    0.348   20.398
  345.000   55.164    0.399    0.348   20.564
  345.250   55.801    0.399    0.348   20.733
  345.500   56.457    0.397    0.348   20.898
  345.750   56.486    0.396    0.348   21.065
  346.000   56.535    0.396    0.348   21.068
  346.250   55.976    0.396    0.347   21.074
  346.500   56.015    0.396    0.344   21.081
  346.750   56.064    0.396    0.343   21.007
  347.000   56.083    0.398    0.340   20.855
  347.250   56.122    0.399    0.338   20.703
  347.500   56.778    0.401    0.335   20.550
  347.750   56.817    0.405    0.334   20.398
  348.000   56.856    0.410    0.334   20.165
  348.250   56.895    0.417    0.340   19.933
  348.500   56.934    0.420    0.345   19.619
  348.750   56.973    0.420    0.336   18.352
  349.000   58.226    0.418    0.328   17.402
  349.250   58.872    0.412    0.313   16.613
  349.500   59.519    0.407    0.299   14.789
  349.750   59.567    0.404    0.272   13.841
  350.000   59.596    0.405    0.261   12.892
  350.250   59.635    0.408    0.253   12.499
  350.500   59.684    0.410    0.261   11.710
  350.750   60.320    0.414    0.273   11.079
  351.000   61.584    0.416    0.291   11.085
  351.250   62.827    0.418    0.305   11.095
  351.500   64.091    0.418    0.322   11.257
  351.750   64.727    0.417    0.333   11.582
  352.000   65.383    0.415    0.335   12.385
  352.250   66.029    0.413    0.335   13.346
  352.500   64.863    0.412    0.335   14.387
  352.750   64.305    0.410    0.335   15.509
  353.000   63.119    0.409    0.335   15.992
  353.250   62.561    0.409    0.331   16.319
  353.500   61.973    0.410    0.326   16.482
  353.750   62.619    0.412    0.324   16.570
  354.000   63.275    0.414    0.321   16.497
  354.250   64.538    0.415    0.319   16.264
  354.500   66.399    0.416    0.311   16.030
  354.750   67.633    0.417    0.302   15.402
  355.000   69.493    0.423    0.300   15.011
  355.250   71.962    0.425    0.303   14.617
  355.500   75.654    0.432    0.299   14.066
  355.750   78.729    0.439    0.280   13.597
  356.000   81.197    0.442    0.269   13.044
  356.250   84.282    0.445    0.258   12.175
  356.500   84.330    0.445    0.249   11.623
  356.750   84.360    0.445    0.250   10.754
  357.000   84.389    0.441    0.256    9.965
  357.250   83.830    0.440    0.265    8.938
  357.500   82.655    0.441    0.272    8.626
  357.750   82.086    0.443    0.276    8.394
  358.000   83.350    0.452    0.274    8.480
  358.250   86.415    0.460    0.264    8.645
  358.500   90.097    0.472    0.253    8.653
  358.750   95.611    0.484    0.246    8.338
  359.000   99.901    0.495    0.241    7.548
  359.250  102.967    0.503    0.236    6.520
  359.500  106.659    0.503    0.234    5.731
  359.750  108.519    0.502    0.236    5.179
  360.000  109.773    0.500    0.238    4.469
  360.250  110.419    0.503    0.242    4.157
  360.500  111.682    0.507    0.248    4.006
  360.750  112.328    0.518    0.249    3.931
  361.000  114.189    0.525    0.245    3.861
  361.250  116.040    0.526    0.243    3.865
  361.500  116.089    0.525    0.240    3.870
  361.750  114.316    0.524    0.239    3.879
  362.000  113.140    0.522    0.238    3.884
  362.250  111.965    0.521    0.236    3.890
  362.500  111.396    0.521    0.238    3.898
  362.750  110.818    0.521    0.242    3.905
  363.000  110.269    0.523    0.248    3.989
  363.250  109.682    0.524    0.253    4.075
  363.500  107.899    0.523    0.256    4.321
  363.750  106.116    0.518    0.256    4.487
  364.000  103.735    0.511    0.256    4.652
  364.250  101.355    0.504    0.255    4.817
  364.500  100.160    0.496    0.255    4.981
  364.750   97.780    0.487    0.255    5.307
  365.000   95.390    0.478    0.257    5.632
  365.250   94.821    0.474    0.259    5.957
  365.500   95.468    0.471    0.260    6.364
  365.750   95.497    0.467    0.265    6.609
  366.000   94.331    0.458    0.270    6.852
  366.250   92.548    0.455    0.278    7.258
  366.500   90.765    0.456    0.284    7.501
  366.750   91.411    0.476    0.291    7.746
  367.000   93.879    0.481    0.289    7.751
  367.250   96.347    0.500    0.275    7.439
  367.500   98.825    0.504    0.259    7.047
  367.750  100.686    0.507    0.252    6.417
  368.000  101.929    0.513    0.251    5.866
  368.250  103.183    0.523    0.251    5.397
  368.500  104.456    0.524    0.251    5.085
  368.750  105.082    0.526    0.252    4.853
  369.000  105.141    0.528    0.253    4.620
  369.250  105.160    0.529    0.254    4.467
  369.500  105.209    0.530    0.255    4.392
  369.750  105.258    0.530    0.259    4.160
  370.000  105.297    0.530    0.264    4.009
  370.250  105.335    0.531    0.268    3.778
  370.500  105.384    0.531    0.271    3.701
  370.750  104.806    0.530    0.272    3.469
  371.000  104.238    0.525    0.264    3.316
  371.250  104.277    0.519    0.255    3.006
  371.500  107.352    0.512    0.251    2.851
  371.750  107.391    0.503    0.251    2.541
  372.000  106.822    0.496    0.251    2.466
  372.250  106.254    0.493    0.252    2.474
  372.500  105.686    0.490    0.252    2.558
  372.750  105.715    0.486    0.252    2.806
  373.000  104.549    0.484    0.252    3.048
  373.250  103.364    0.481    0.254    3.772
  373.500  100.974    0.480    0.258    4.494
  373.750   97.976    0.477    0.261    4.902
  374.000   96.213    0.474    0.263    5.064
  374.250   98.074    0.470    0.263    5.231
  374.500  100.532    0.481    0.262    5.158
  374.750  102.402    0.485    0.262    5.084
  375.000  103.666    0.490    0.262    4.932
  375.250  103.695    0.495    0.261    4.857
  375.500  103.734    0.501    0.259    4.785
  375.750  104.380    0.505    0.259    4.790
  376.000  105.016    0.501    0.261    4.796
  376.250  106.270    0.494    0.259    4.802
  376.500  106.916    0.486    0.253    4.809
  376.750  106.965    0.477    0.248    4.896
  377.000  105.799    0.463    0.241    5.061
  377.250  105.828    0.458    0.236    5.149
  377.500  104.662    0.460    0.233    5.395
  377.750  103.487    0.464    0.232    5.400
  378.000  101.704    0.469    0.231    5.484
  378.250  101.126    0.472    0.241    5.494
  378.500   98.148    0.464    0.250    5.497
  378.750   97.560    0.456    0.258    5.506
  379.000   95.777    0.448    0.266    5.591
  379.250   93.994    0.442    0.258    5.837
  379.500   92.221    0.438    0.249    5.999
  379.750   90.438    0.440    0.239    6.246
  380.000   89.263    0.439    0.229    6.330
  380.250   89.302    0.434    0.230    6.419
