~VERSION INFORMATION
 VERS.                 2.0:   CWLS LOG ASCII STANDARD -VERSION 2.0
 WRAP.                  NO:   ONE LINE PER DEPTH STEP
~WELL INFORMATION BLOCK
#MNEM.UNIT           DATA                    DESCRIPTION OF MNEMONIC
#---------    -------------------            -------------------------------
# Generated from Intellog Unique Number	CX_WELLS/WELL/3141
WELL.         PARA ET AL RESDELEN            : Well_name    - WELL
LOC .         00/08-02-083-06W4/0            : Location     - LOCATION
UWI .         00/08-02-083-06W4/0            : Uwi          - UNIQUE WELL ID
ENTR.         TIM                            : Entered      - ENTERED BY
SRVC.         SCHLUMBERGER                   : Scn          - SERVICE COMPANY
STRT.M        80                             : top_depth    - START DEPTH
STOP.M        295                            : bot_depth    - STOP DEPTH
STEP.M        0.25                           : increment    - STEP LENGTH
 NULL. -999.2500:NULL Value
~CURVE INFORMATION BLOCK
#MNEM UNIT       ERCB CURVE CODE    CURVE DESCRIPTION
#-----------   ------------------   ----------------------------------
DEPT.M        00 001 00 00         : DEPTH        - DEPTH
GR  .API      00 310 00 00         : GR           - GAMMA RAY
NPHI.V/V      00 330 00 00         : PHIN         - NEUTRON POROSITY (SANDSTONE)
DPHI.V/V      00 890 00 00         : PHID         - DENSITY POROSITY (SANDSTONE)
ILD .OHMM     00 120 00 00         : RESD         - DEEP RESISTIVITY (OTHER)
~PARAMETER INFORMATION
#MNEM.UNIT           DATA             DESCRIPTION OF MNEMONIC
#---------         -----------     ------------------------------
GL  .M        494                  : gl           - GROUND LEVEL ELEVATION
EREF.M        497.7                : kb           - ELEVATION OF DEPTH REFERENCE
DATM.M        497.7                : datum        - DATUM ELEVATION
TDD .M        294                  : tdd          - TOTAL DEPTH DRILLER
RUN .         ONE                  : Run          - RUN NUMBER
ENG .         BILL                 : Engineer     - RECORDING ENGINEER
WIT .         JIM                  : Witness      - WITNESSED BY
MUD .         GEL                  : Mud_type     - MUD TYPE
MATR.         SANDSTONE            : Logunit      - NEUTRON MATRIX
TMAX.C        25                   : BHT          - MAXIMUM RECORDED TEMPERATURE
BHTD.M        294                  : BHTDEP       - MAXIMUM RECORDED TEMPERATURE
MATR.         1                    : LOGUNIT      - NEUTRON MATRIX
RMT .C        18                   : MDTP         - TEMPERATURE OF MUD
NEUT.         1                    : NEUTRON      - NEUTRON TYPE
RESI.         4.2                  : RESIST       - RESISTIVITY TYPE
RMC .OHMM     3.1                  : RMC          - RESISTIVITY OF MUD CAKE
RMF .OHMM     4.2                  : RMF          - RESISTIVITY OF MUD FILTRATE
SUFT.C        4                    : SUFT         - SURFACE TEMPERATURE
~A  DEPTH       GR     PHIN     PHID     RESD
# ...
  123.500   56.090    0.424    0.360   15.426
  123.750   53.845    0.414    0.357   14.087
  124.000   48.715    0.406    0.357   13.859
  124.250   49.373    0.410    0.357   13.383
  124.500   54.077    0.421    0.357   13.174
  124.750   58.239    0.422    0.357   13.452
  125.000   58.335    0.410    0.355   14.534
  125.250   56.670    0.407    0.355   14.559
  125.500   54.425    0.412    0.355   14.332
  125.750   56.806    0.418    0.360   14.626
  126.000   61.529    0.432    0.362   15.502
  126.250   63.949    0.431    0.366   16.441
  126.500   62.284    0.430    0.360   16.779
  126.750   62.361    0.435    0.356   17.143
  127.000   62.439    0.448    0.356   17.183
  127.250   62.497    0.444    0.356   15.986
  127.500   62.574    0.418    0.355   15.727
  127.750   64.413    0.410    0.355   16.361
  128.000   65.071    0.407    0.357   17.657
  128.250   62.826    0.415    0.358   18.062
  128.500   61.180    0.426    0.358   18.093
  128.750   62.419    0.422    0.358   17.461
  129.000   63.658    0.416    0.357   16.871
  129.250   62.574    0.411    0.356   16.608
  129.500   61.470    0.409    0.353   16.320
  129.750   60.386    0.410    0.351   16.357
  130.000   60.464    0.411    0.348   16.395
  130.250   60.580    0.415    0.344   16.433
  130.500   60.618    0.426    0.339   16.176
  130.750   60.715    0.435    0.338   16.223
  131.000   61.373    0.433    0.344   16.241
  131.250   61.470    0.426    0.350   15.978
  131.500   61.509    0.419    0.350   15.719
  131.750   62.186    0.418    0.343   15.465
  132.000   62.264    0.414    0.339   14.942
  132.250   62.902    0.411    0.337   14.692
  132.500   63.560    0.417    0.337   14.454
  132.750   64.238    0.423    0.338   14.495
  133.000   65.516    0.438    0.337   14.006
  133.250   65.573    0.448    0.336   13.779
  133.500   66.212    0.440    0.333   13.298
  133.750   67.471    0.429    0.332   13.075
  134.000   68.129    0.418    0.332   12.178
  134.250   68.206    0.407    0.332   11.746
  134.500   64.780    0.397    0.331   10.935
  134.750   57.888    0.397    0.332   10.358
  135.000   57.404    0.427    0.334    8.780
  135.250   60.985    0.448    0.332    7.305
  135.500   62.766    0.471    0.327    6.304
  135.750   66.909    0.475    0.323    5.757
  136.000   73.974    0.494    0.319    5.260
  136.250   79.859    0.500    0.314    5.275
  136.500   88.667    0.514    0.306    5.281
  136.750   93.990    0.503    0.304    5.498
  137.000   96.971    0.485    0.300    6.162
  137.250   98.790    0.474    0.331    8.476
  137.500   98.287    0.466    0.347   11.458
  137.750   93.119    0.457    0.358   12.835
  138.000   81.581    0.452    0.356   14.665
  138.250   71.767    0.423    0.355   15.543
  138.500   67.779    0.413    0.345   16.784
  138.750   65.553    0.380    0.327   19.892
  139.000   62.727    0.346    0.271   23.576
  139.250   61.043    0.146   -0.010   29.037
  139.500   57.055    0.142   -0.006   30.794
  139.750   53.048    0.147    0.003   30.829
  140.000   49.660    0.158    0.014   30.900
  140.250   52.060    0.189    0.061   28.217
  140.500   55.642    0.265    0.201   24.825
  140.750   58.042    0.314    0.239   21.030
  141.000   59.261    0.342    0.270   17.174
  141.250   61.120    0.380    0.300   16.287
  141.500   62.339    0.440    0.336   15.719
  141.750   62.978    0.438    0.358   15.464
  142.000   63.055    0.432    0.358   15.214
  142.250   62.591    0.424    0.357   14.976
  142.500   62.649    0.438    0.357   14.742
  142.750   62.745    0.455    0.356   14.759
  143.000   62.203    0.448    0.354   14.793
  143.250   61.158    0.424    0.354   14.836
  143.500   60.616    0.412    0.354   14.326
  143.750   61.313    0.410    0.353   14.094
  144.000   65.436    0.418    0.352   13.866
  144.250   70.740    0.422    0.357   13.898
  144.500   73.140    0.448    0.367   14.200
  144.750   69.153    0.451    0.374   14.224
  145.000   66.326    0.438    0.370   14.525
  145.250   64.100    0.425    0.369   14.849
  145.500   63.597    0.426    0.366   14.866
  145.750   63.074    0.428    0.365   14.900
  146.000   63.151    0.438    0.362   14.659
  146.250   63.809    0.444    0.361   14.693
  146.500   63.887    0.435    0.359   14.735
  146.750   64.545    0.421    0.359   14.777
  147.000   64.622    0.423    0.359   14.803
  147.250   65.300    0.424    0.359   14.837
  147.500   65.377    0.421    0.360   15.142
  147.750   64.874    0.421    0.361   15.186
  148.000   63.790    0.431    0.361   15.516
  148.250   62.125    0.440    0.361   15.835
  148.500   61.641    0.448    0.362   16.492
  148.750   61.157    0.447    0.362   16.822
  149.000   60.654    0.447    0.362   17.187
  149.250   60.712    0.446    0.361   17.561
  149.500   60.770    0.452    0.361   17.256
  149.750   60.847    0.459    0.361   16.987
  150.000   60.963    0.453    0.361   16.712
  150.250   61.002    0.448    0.361   16.128
  150.500   61.099    0.441    0.358   15.583
  150.750   61.157    0.432    0.358   15.048
  151.000   61.834    0.430    0.357   14.805
  151.250   62.511    0.440    0.356   14.830
  151.500   62.550    0.446    0.356   14.598
  151.750   62.628    0.444    0.356   14.632
  152.000   63.305    0.417    0.355   14.665
  152.250   63.363    0.407    0.353   15.257
  152.500   63.460    0.406    0.355   15.571
  152.750   63.557    0.424    0.355   16.833
  153.000   63.653    0.441    0.356   18.518
  153.250   63.711    0.440    0.356   19.985
  153.500   63.769    0.436    0.355   21.194
  153.750   63.866    0.433    0.351   22.037
  154.000   63.924    0.425    0.345   22.515
  154.250   64.021    0.415    0.331   22.567
  154.500   64.698    0.406    0.061   21.390
  154.750   64.737    0.294    0.083   19.889
  155.000   60.749    0.266    0.107   17.175
  155.250   57.342    0.313    0.138   15.684
  155.500   53.916    0.365    0.171   14.339
  155.750   57.516    0.399    0.250   14.090
  156.000   61.659    0.456    0.327   13.363
  156.250   65.801    0.471    0.354   13.139
  156.500   67.040    0.473    0.359   12.941
  156.750   66.537    0.469    0.359   12.963
  157.000   66.034    0.463    0.359   12.993
  157.250   67.272    0.454    0.355   13.268
  157.500   67.350    0.434    0.352   13.298
  157.750   66.846    0.444    0.347   13.587
  158.000   66.362    0.454    0.341   13.603
  158.250   66.440    0.465    0.332   13.634
  158.500   66.517    0.470    0.323   13.674
  158.750   65.433    0.471    0.320   13.444
  159.000   64.349    0.461    0.326   13.491
  159.250   64.407    0.449    0.332   13.522
  159.500   65.065    0.451    0.336   13.553
  159.750   65.162    0.459    0.336   13.576
  160.000   64.659    0.456    0.333   13.608
  160.250   64.155    0.446    0.330   13.895
  160.500   63.652    0.440    0.324   13.927
  160.750   64.349    0.441    0.316   14.222
  161.000   64.987    0.454    0.309   14.255
  161.250   65.607    0.463    0.304   14.287
  161.500   65.704    0.471    0.300   14.328
  161.750   65.800    0.460    0.308   14.096
  162.000   65.878    0.450    0.322   13.860
  162.250   65.936    0.453    0.333   13.651
  162.500   67.175    0.459    0.344   13.423
  162.750   67.252    0.468    0.349   13.446
  163.000   65.587    0.459    0.349   13.243
  163.250   62.800    0.448    0.350   13.266
  163.500   62.858    0.439    0.349   13.289
  163.750   64.116    0.446    0.349   13.578
  164.000   64.154    0.461    0.348   13.865
  164.250   64.813    0.464    0.345   13.897
  164.500   66.052    0.458    0.339   13.672
  164.750   66.129    0.458    0.332   13.703
  165.000   66.206    0.470    0.325   13.481
  165.250   66.884    0.477    0.314   12.785
  165.500   68.723    0.471    0.291   12.339
  165.750   69.342    0.464    0.276   11.702
  166.000   71.200    0.452    0.272   11.513
  166.250   71.858    0.445    0.278   11.756
  166.500   71.955    0.439    0.285   11.998
  166.750   71.994    0.447    0.304   12.258
