~VERSION INFORMATION
 VERS.                 2.0:   CWLS LOG ASCII STANDARD -VERSION 2.0
 WRAP.                  NO:   ONE LINE PER DEPTH STEP
~WELL INFORMATION BLOCK
#MNEM.UNIT           DATA                    DESCRIPTION OF MNEMONIC
#---------    -------------------            -------------------------------
# Generated from Intellog Unique Number	CW_79_81/WELL/532
WELL.         HB AMOCO PELICAN               : Well_name    - WELL
LOC .         00/07-01-079-24W4/0            : Location     - LOCATION
UWI .         00/07-01-079-24W4/0            : Uwi          - UNIQUE WELL ID
ENTR.         MAX                            : Entered      - ENTERED BY
SRVC.         WESTERN ATLAS                  : Scn          - SERVICE COMPANY
STRT.M        304.8                          : top_depth    - START DEPTH
STOP.M        524.3                          : bot_depth    - STOP DEPTH
STEP.M        0.25                           : increment    - STEP LENGTH
 NULL. -999.2500:NULL Value
~CURVE INFORMATION BLOCK
#MNEM UNIT       ERCB CURVE CODE    CURVE DESCRIPTION
#-----------   ------------------   ----------------------------------
DEPT.M        00 001 00 00         : DEPTH        - DEPTH
ILD .OHMM     00 120 00 00         : RESD         - DEEP RESISTIVITY (DIL)
NPHI.V/V      00 330 00 00         : PHIN         - NEUTRON POROSITY (SANDSTONE)
DPHI.V/V      00 890 00 00         : PHID         - DENSITY POROSITY (SANDSTONE)
CALI.MM       00 280 01 00         : CAL          - CALIPER
GR  .API      00 310 00 00         : GR           - GAMMA RAY
~PARAMETER INFORMATION
#MNEM.UNIT           DATA             DESCRIPTION OF MNEMONIC
#---------         -----------     ------------------------------
GL  .M        583.387              : gl           - GROUND LEVEL ELEVATION
EREF.M        587.045              : kb           - ELEVATION OF DEPTH REFERENCE
DATM.M        583.387              : datum        - DATUM ELEVATION
TDD .M        484.937              : tdd          - TOTAL DEPTH DRILLER
RUN .         ONE                  : Run          - RUN NUMBER
ENG .         BILL                 : Engineer     - RECORDING ENGINEER
WIT .         JIM                  : Witness      - WITNESSED BY
MUD .         GEL                  : Mud_type     - MUD TYPE
MATR.         SANDSTONE            : Logunit      - NEUTRON MATRIX
TMAX.C        43.3333              : BHT          - MAXIMUM RECORDED TEMPERATURE
BHTD.M        484.937              : BHTDEP       - MAXIMUM RECORDED TEMPERATURE
RMT .C        20                   : MDTP         - TEMPERATURE OF MUD
MUDD.KG/M     9200                 : MWT          - MUD DENSITY
NEUT.         1                    : NEUTRON      - NEUTRON TYPE
RESI.         0                    : RESIST       - RESISTIVITY TYPE
RM  .OHMM     1.6                  : RM           - RESISTIVITY OF MUD
RMC .OHMM     0.25                 : RMC          - RESISTIVITY OF MUD CAKE
RMF .OHMM     1.6                  : RMF          - RESISTIVITY OF MUD FILTRATE
SUFT.C        -20.5556             : SUFT         - SURFACE TEMPERATURE
~A  DEPTH     RESD     PHIN     PHID      CAL       GR
  304.800    7.127    0.394    0.222  184.653   95.012
  305.050    8.401    0.379    0.212  184.631   98.904
  305.300    8.026    0.376    0.206  185.104   99.487
  305.550    7.461    0.387    0.203  185.580   97.363
  305.800    6.810    0.397    0.204  186.562   94.042
  306.050    6.216    0.403    0.209  187.042   89.515
  306.300    5.885    0.414    0.195  186.503   84.087
  306.550    5.885    0.419    0.202  184.953   78.356
  306.800    7.396    0.408    0.261  183.915   73.529
  307.050    9.293    0.392    0.271  183.882   70.205
  307.300   12.449    0.393    0.282  183.350   66.276
  307.550   14.541    0.391    0.291  183.317   64.758
  307.800   15.084    0.391    0.289  182.782   65.644
  308.050   14.021    0.403    0.278  182.753   68.035
  308.300   12.116    0.398    0.274  182.719   70.722
  308.550   10.374    0.407    0.265  182.697   73.714
  308.800    8.802    0.409    0.264  182.668   74.297
  309.050    8.802    0.408    0.289  183.140   70.672
  309.300   10.960    0.399    0.305  183.617   65.543
  309.550   14.285    0.390    0.308  184.595   66.729
  309.800   23.395    0.392    0.314  185.581   67.316
  310.050   30.493    0.385    0.313  187.065   65.796
  310.300   35.944    0.384    0.308  188.553   64.875
  310.550   38.320    0.375    0.314  189.539   69.669
  310.800   39.386    0.382    0.318  191.525   67.548
  311.050   39.751    0.379    0.323  192.001   68.737
  311.300   39.754    0.379    0.326  191.976   69.622
  311.550   38.329    0.390    0.325  191.440   67.499
  311.800   35.306    0.392    0.323  190.392   67.180
  312.050   31.355    0.399    0.318  189.354   67.766
  312.300   27.846    0.405    0.304  188.317   68.652
  312.550   25.885    0.396    0.303  188.317   68.633
  312.800   24.959    0.416    0.313  187.752   67.114
  313.050   25.420    0.425    0.318  186.205   65.892
  313.300   27.100    0.401    0.320  185.164   66.481
  313.550   27.601    0.390    0.321  184.625   66.164
  313.800   27.603    0.384    0.319  183.577   66.743
  314.050   26.614    0.414    0.314  183.049   65.828
  314.300   25.428    0.441    0.310  182.004   64.607
  314.550   23.854    0.438    0.315  181.473   65.194
  314.800   22.378    0.438    0.318  179.926   64.576
  315.050   20.993    0.420    0.315  177.363   68.468
  315.300   20.427    0.410    0.313  175.311   70.254
  315.550   20.058    0.402    0.313  172.749   70.239
  315.800   20.244    0.398    0.314  171.198   69.621
  316.050   20.807    0.394    0.318  169.651   67.500
  316.300   21.981    0.394    0.322  169.116   65.076
  316.550   22.593    0.400    0.326  168.581   67.163
  316.800   22.802    0.398    0.327  168.049   67.146
  317.050   22.803    0.401    0.326  168.023   69.537
  317.300   22.597    0.404    0.324  167.488   68.618
  317.550   22.189    0.394    0.327  167.961   66.796
  317.800   21.395    0.386    0.326  168.429   67.383
  318.050   20.441    0.382    0.317  168.404   67.066
  318.300   19.352    0.397    0.318  168.378   66.444
  318.550   18.321    0.399    0.326  168.850   66.126
  318.800   17.665    0.396    0.336  169.330   65.811
  319.050   16.877    0.392    0.338  169.807   65.494
  319.300   16.422    0.387    0.327  170.279   65.175
  319.550   16.125    0.377    0.328  169.744   64.559
  319.800   15.980    0.368    0.331  168.703   63.336
  320.050   15.981    0.356    0.325  167.152   63.925
  320.300   15.693    0.368    0.326  166.115   69.018
  320.550   15.269    0.376    0.331  166.115   68.101
  320.800   14.456    0.391    0.332  165.030   66.581
  321.050   13.438    0.391    0.326  164.509   69.269
  321.300   12.043    0.400    0.219  165.488   70.758
  321.550   10.502    0.394    0.206  165.488   72.242
  321.800    8.591    0.396    0.202  166.433   73.128
  322.050    7.841    0.396    0.192  168.936   74.612
  322.300    7.424    0.386    0.187  170.926   75.498
  322.550    7.424    0.395    0.194  171.912   76.684
  322.800    7.224    0.395    0.193  172.894   77.271
  323.050    7.029    0.382    0.190  173.876   75.749
  323.300    7.225    0.387    0.203  173.846   72.728
  323.550    7.844    0.400    0.242  173.315   70.603
  323.800    9.767    0.394    0.270  172.270   68.185
  324.050   11.409    0.408    0.278  171.233   66.659
  324.300   12.732    0.410    0.294  169.686   68.150
  324.550   13.086    0.393    0.298  168.135   70.535
  324.800   13.207    0.397    0.304  167.094   70.821
  325.050   13.451    0.394    0.311  167.094   70.506
  325.300   13.700    0.382    0.312  166.020   68.686
  325.550   13.953    0.389    0.309  164.975   65.660
  325.800   14.211    0.400    0.294  165.451   64.141
  326.050   14.343    0.394    0.282  165.928   64.425
  326.300   14.475    0.378    0.267  166.913   67.413
  326.550   14.085    0.367    0.262  167.892   69.501
  326.800   13.705    0.374    0.252  168.368   69.480
  327.050   13.094    0.379    0.233  168.844   67.664
  327.300   12.625    0.393    0.252  169.321   64.042
  327.550   12.626    0.398    0.274  169.288   59.816
  327.800   12.859    0.384    0.298  169.764   58.597
  328.050   12.860    0.388    0.293  170.240   60.981
  328.300   12.513    0.395    0.281  170.211   63.673
  328.550   12.176    0.385    0.278  170.181   63.656
  328.800   12.177    0.382    0.276  170.152   63.335
  329.050   12.066    0.377    0.279  170.624   64.223
  329.300   12.178    0.374    0.285  170.602   63.905
  329.550   12.865    0.369    0.291  170.551   63.891
  329.800   14.620    0.366    0.293  170.543   65.077
  330.050   15.445    0.364    0.295  170.510   67.163
  330.300   15.731    0.366    0.297  170.481   68.650
  330.550   15.876    0.367    0.301  170.957   68.034
  330.800   16.170    0.374    0.303  171.433   68.316
  331.050   16.469    0.380    0.303  171.887   70.104
  331.300   16.621    0.387    0.300  171.876   72.194
  331.550   16.622    0.392    0.294  171.876   72.779
  331.800   16.776    0.393    0.284  171.817   71.253
  332.050   16.776    0.392    0.282  171.784   71.838
  332.300   16.625    0.392    0.282  171.784   73.026
  332.550   15.884    0.389    0.282  171.732   72.107
  332.800   15.315    0.388    0.277  170.684   72.391
  333.050   14.902    0.387    0.279  169.650   72.074
  333.300   14.767    0.389    0.286  169.111   68.753
  333.550   15.318    0.396    0.295  169.082   61.218
  333.800   16.181    0.376    0.298  169.045   58.193
  334.050   17.094    0.363    0.292  170.027   58.178
  334.300   17.570    0.367    0.297  171.013   57.258
  334.550   18.225    0.366    0.300  171.489   54.838
  334.800   18.733    0.366    0.296  171.463   54.220
  335.050   19.079    0.378    0.294  171.434   56.308
  335.300   19.432    0.386    0.288  170.899   56.590
  335.550   19.611    0.379    0.284  170.363   55.369
  335.800   19.434    0.368    0.287  170.323   57.457
  336.050   19.084    0.363    0.293  170.803   56.541
  336.300   18.739    0.354    0.309  171.283   57.126
  336.550   18.068    0.365    0.310  172.767   55.606
  336.800   17.581    0.377    0.307  175.266   54.084
  337.050   16.644    0.374    0.297  176.758   55.873
  337.300   15.614    0.374    0.299  177.740   56.757
  337.550   14.918    0.375    0.300  177.711   57.344
  337.800   14.384    0.380    0.299  176.669   57.626
  338.050   14.124    0.387    0.297  174.111   57.311
  338.300   13.997    0.385    0.295  170.537   57.893
  338.550   13.998    0.385    0.296  168.987   60.583
  338.800   13.871    0.387    0.305  168.954   59.963
  339.050   13.497    0.371    0.309  169.437   56.339
  339.300   12.547    0.375    0.306  169.910   55.721
  339.550   11.348    0.378    0.294  170.390   55.704
  339.800   10.743    0.375    0.284  170.862   53.585
  340.050   11.043    0.358    0.259  171.848   51.163
  340.300   11.665    0.338    0.212  173.336   50.842
  340.550   12.436    0.296    0.219  175.322   49.625
  340.800   13.503    0.300    0.235  176.301   47.800
  341.050   15.917    0.283    0.198  176.781   47.187
