~VERSION INFORMATION
 VERS.                 2.0:   CWLS LOG ASCII STANDARD -VERSION 2.0
 WRAP.                  NO:   ONE LINE PER DEPTH STEP
~WELL INFORMATION BLOCK
#MNEM.UNIT           DATA                    DESCRIPTION OF MNEMONIC
#---------    -------------------            -------------------------------
# Generated from Intellog Unique Number	CW_73_75/WELL/532
WELL.         NORCEN POR MARTIN HILLS 06-10  : Well_name    - WELL
LOC .         00/06-10-074-25W4/0            : Location     - LOCATION
UWI .         00/06-10-074-25W4/0            : Uwi          - UNIQUE WELL ID
ENTR.         JAYE                           : Entered      - ENTERED BY
SRVC.         COMPUTALOG                     : Scn          - SERVICE COMPANY
DATE.         18 FEB 83                      : Date         - LOG DATE
STRT.M        420                            : top_depth    - START DEPTH
STOP.M        642                            : bot_depth    - STOP DEPTH
STEP.M        0.25                           : increment    - STEP LENGTH
 NULL. -999.2500:NULL Value
~CURVE INFORMATION BLOCK
#MNEM UNIT       ERCB CURVE CODE    CURVE DESCRIPTION
#-----------   ------------------   ----------------------------------
DEPT.M        00 001 00 00         : DEPTH        - DEPTH
ILD .OHMM     00 120 00 00         : RESD         - DEEP RESISTIVITY (DIL)
CALI.MM       00 280 01 00         : CAL          - CALIPER
GR  .API      00 310 00 00         : GR           - GAMMA RAY
NPHI.V/V      00 330 00 00         : PHIN         - NEUTRON POROSITY (SANDSTONE)
DPHI.V/V      00 890 00 00         : PHID         - DENSITY POROSITY (SANDSTONE)
~PARAMETER INFORMATION
#MNEM.UNIT           DATA             DESCRIPTION OF MNEMONIC
#---------         -----------     ------------------------------
GL  .M        677.67               : gl           - GROUND LEVEL ELEVATION
EREF.M        680.97               : kb           - ELEVATION OF DEPTH REFERENCE
DATM.M        677.67               : datum        - DATUM ELEVATION
TDD .M        650                  : tdd          - TOTAL DEPTH DRILLER
RUN .         ONE                  : Run          - RUN NUMBER
ENG .         BOGNER               : Engineer     - RECORDING ENGINEER
BASE.         EDM                  : Branch       - HOME BASE OF LOGGING UNIT
MUD .         GEL CHEM             : Mud_type     - MUD TYPE
MATR.         SANDSTONE            : Logunit      - NEUTRON MATRIX
TMAX.C        35                   : BHT          - MAXIMUM RECORDED TEMPERATURE
BHTD.M        647.2                : BHTDEP       - MAXIMUM RECORDED TEMPERATURE
RMT .C        17.8                 : MDTP         - TEMPERATURE OF MUD
MUDD.KG/M     1140                 : MWT          - MUD DENSITY
NEUT.         1                    : NEUTRON      - NEUTRON TYPE
RESI.         0                    : RESIST       - RESISTIVITY TYPE
RM  .OHMM     3.3                  : RM           - RESISTIVITY OF MUD
RMC .OHMM     3                    : RMC          - RESISTIVITY OF MUD CAKE
RMF .OHMM     5.9                  : RMF          - RESISTIVITY OF MUD FILTRATE
SUFT.C        0                    : SUFT         - SURFACE TEMPERATURE
~A  DEPTH     RESD      CAL       GR     PHIN     PHID
# ...
  566.000   17.194  202.263   69.453    0.402    0.271
  566.250   14.915  199.798   70.111    0.411    0.283
  566.500   12.503  197.653   68.134    0.409    0.294
  566.750   10.461  199.704   68.354    0.404    0.298
  567.000   10.543  202.589   69.959    0.387    0.296
  567.250   12.184  203.270   67.791    0.395    0.282
  567.500   14.212  198.503   64.425    0.399    0.270
  567.750   16.268  192.687   62.008    0.379    0.270
  568.000   15.576  190.329   61.034    0.369    0.278
  568.250   14.357  194.893   60.686    0.367    0.271
  568.500   12.597  200.294   62.041    0.359    0.268
  568.750   11.459  201.819   63.837    0.366    0.277
  569.000   10.930  197.787   65.569    0.382    0.274
  569.250   10.829  194.804   65.726    0.399    0.276
  569.500   10.729  195.167   63.057    0.409    0.290
  569.750   10.751  196.798   61.831    0.400    0.291
  570.000   11.023  199.055   61.364    0.389    0.288
  570.250   12.123  201.525   61.265    0.393    0.276
  570.500   13.512  203.674   61.867    0.390    0.255
  570.750   15.175  201.633   62.151    0.357    0.239
  571.000   16.914  198.227   65.204    0.355    0.221
  571.250   17.406  198.912   67.754    0.399    0.231
  571.500   16.603  201.483   69.864    0.395    0.256
  571.750   15.392  196.189   71.535    0.379    0.261
  572.000   14.055  194.570   72.449    0.365    0.249
  572.250   14.084  199.029   69.459    0.360    0.242
  572.500   14.276  201.914   66.415    0.370    0.257
  572.750   14.333  201.548   66.510    0.391    0.262
  573.000   14.255  201.189   69.308    0.402    0.255
  573.250   14.070  201.554   73.369    0.396    0.245
  573.500   13.472  203.291   73.779    0.389    0.239
  573.750   13.146  203.344   69.281    0.389    0.235
  574.000   12.683  201.196   68.057    0.397    0.246
  574.250   11.983  199.052   72.682    0.398    0.246
  574.500   11.850  200.363   72.716    0.377    0.238
  574.750   12.172  202.416   69.100    0.354    0.231
  575.000   12.840  202.677   67.812    0.349    0.230
  575.250   13.467  200.319   68.289    0.366    0.234
  575.500   13.702  198.381   69.513    0.376    0.230
  575.750   13.396  199.695   68.728    0.363    0.223
  576.000   13.273  202.268   64.420    0.327    0.213
  576.250   13.377  203.900   64.581    0.329    0.217
  576.500   13.559  204.266   66.253    0.351    0.229
  576.750   13.954  204.219   67.668    0.379    0.240
  577.000   14.144  203.433   68.768    0.385    0.250
  577.250   14.066  201.706   69.178    0.389    0.253
  577.500   13.910  201.971   65.942    0.378    0.242
  577.750   13.600  202.551   64.527    0.365    0.232
  578.000   13.271  201.032   65.070    0.365    0.238
  578.250   12.804  198.884   66.355    0.371    0.257
  578.500   12.376  198.000   67.647    0.373    0.253
  578.750   12.239  198.473   64.785    0.368    0.240
  579.000   12.571  199.155   63.811    0.357    0.232
  579.250   12.937  200.155   65.293    0.370    0.239
  579.500   13.544  201.369   67.086    0.384    0.251
  579.750   14.588  201.529   69.825    0.374    0.246
  580.000   15.388  201.684   67.910    0.365    0.224
  580.250   15.957  201.533   63.097    0.370    0.200
  580.500   16.359  201.904   59.608    0.365    0.190
  580.750   16.804  202.270   60.080    0.353    0.178
  581.000   16.460  202.748   61.999    0.343    0.171
  581.250   15.087  202.909   65.746    0.338    0.164
  581.500   12.988  203.490   72.510    0.348    0.152
  581.750   10.908  203.963   80.409    0.355    0.137
  582.000    9.092  204.435   87.239    0.353    0.118
  582.250    8.023  204.910   90.858    0.355    0.112
  582.500    7.066  204.965   92.715    0.362    0.125
  582.750    6.778  205.234   94.197    0.358    0.139
  583.000    6.652  205.599   93.793    0.355    0.145
  583.250    6.654  205.977   94.326    0.356    0.141
  583.500    6.693  206.137   96.877    0.358    0.132
  583.750    6.759  206.289   99.805    0.363    0.129
  584.000    6.799  206.245   96.376    0.370    0.127
  584.250    6.944  206.300   94.837    0.371    0.121
  584.500    7.269  206.139   97.575    0.384    0.122
  584.750    7.950  205.670  105.853    0.399    0.133
  585.000    8.628  204.889  109.281    0.387    0.146
  585.250    9.364  203.789  101.512    0.353    0.147
  585.500   10.202  202.591   93.682    0.339    0.132
  585.750   11.436  202.222   86.290    0.316    0.093
  586.000   12.248  201.968   76.883    0.274    0.034
  586.250   12.367  201.701   73.644    0.302    0.063
  586.500   12.559  201.135   81.543    0.325    0.105
  586.750   12.279  201.086   87.868    0.310    0.134
  587.000   12.143  201.036   86.203    0.289    0.118
  587.250   12.008  201.087   82.146    0.311    0.100
  587.500   12.033  200.930   80.543    0.322    0.126
  587.750   11.990  200.463   81.902    0.330    0.157
  588.000   11.880  199.785   84.950    0.329    0.163
  588.250   11.659  199.314   90.332    0.334    0.168
  588.500   11.058  198.849   90.554    0.348    0.165
  588.750   10.271  197.745   91.847    0.340    0.150
  589.000    9.612  196.858   95.718    0.334    0.145
  589.250    9.434  196.282  103.870    0.333    0.165
  589.500    9.932  195.400  100.127    0.338    0.173
  589.750   11.197  195.038   93.047    0.341    0.151
  590.000   12.599  194.668   83.516    0.323    0.134
  590.250   15.237  193.988   77.573    0.292    0.107
  590.500   17.540  193.308   70.119    0.242    0.065
  590.750   22.887  193.366   66.060    0.242    0.006
  591.000   24.280  194.260   71.317    0.237   -0.003
  591.250   23.828  195.259   75.880    0.215   -0.008
  591.500   20.397  196.362   69.120    0.193   -0.006
  591.750   17.131  198.095   63.425    0.242    0.034
  592.000   14.945  200.148   69.689    0.313    0.084
  592.250   12.964  201.459   79.725    0.316    0.100
  592.500   11.332  202.037   91.084    0.328    0.112
  592.750   10.425  201.672   85.517    0.371    0.123
  593.000    9.252  199.943   89.455    0.382    0.136
  593.250    8.875  197.480   93.073    0.372    0.134
  593.500    8.760  196.491   89.709    0.361    0.109
  593.750    8.812  198.854   88.232    0.368    0.102
  594.000    8.881  200.792   90.216    0.373    0.113
  594.250    8.833  202.423   92.388    0.364    0.128
  594.500    8.835  202.691   93.301    0.352    0.112
  594.750    8.887  202.531   90.565    0.345    0.103
  595.000    8.991  202.694   88.145    0.340    0.108
  595.250    9.027  202.956   89.498    0.338    0.118
  595.500    9.012  203.330   91.671    0.347    0.123
  595.750    9.083  203.072   92.839    0.358    0.129
  596.000    9.050  203.026   93.814    0.356    0.120
  596.250    9.087  203.180   93.029    0.351    0.115
  596.500    9.441  203.233   92.937    0.340    0.128
  596.750    9.864  203.292   95.488    0.333    0.134
  597.000   10.747  203.451   92.499    0.335    0.104
  597.250   10.914  203.618   85.423    0.323    0.047
  597.500   10.450  203.349   85.203    0.330    0.019
  597.750   10.005  202.994   87.379    0.346    0.059
  598.000    9.471  202.838   92.445    0.360    0.099
  598.250    8.681  202.472   93.112    0.352    0.114
  598.500    8.280  202.317   93.893    0.341    0.112
  598.750    7.779  202.157   96.508    0.332    0.124
  599.000    7.420  201.796   98.932    0.345    0.124
  599.250    7.064  201.749  101.609    0.323    0.110
  599.500    6.802  201.803   94.972    0.309    0.101
  599.750    6.294  201.755   92.109    0.309    0.113
  600.000    5.682  201.702   97.180    0.323    0.118
  600.250    4.007  201.650  100.481    0.338    0.125
  600.500    3.315  201.809  104.352    0.374    0.161
  600.750    2.859  202.182  108.603    0.455    0.235
  601.000    2.596  204.124  110.399    0.504    0.246
  601.250    2.547  208.372  109.612    0.513    0.217
  601.500    2.637  207.590  105.116    0.494    0.211
  601.750    2.883  205.132  102.569    0.489    0.206
  602.000    3.554  204.143  102.476    0.486    0.197
  602.250    4.448  203.983  104.272    0.479    0.187
