~VERSION INFORMATION
 VERS.                 2.0:   CWLS LOG ASCII STANDARD -VERSION 2.0
 WRAP.                  NO:   ONE LINE PER DEPTH STEP
~WELL INFORMATION BLOCK
#MNEM.UNIT           DATA                    DESCRIPTION OF MNEMONIC
#---------    -------------------            -------------------------------
# Generated from Intellog Unique Number	CS_73_76/WELL/1043
WELL.         BOW VALLEY EXPLORATION         : Well_name    - WELL
LOC .         00/06-18-076-13W4/0            : Location     - LOCATION
UWI .         00/06-18-076-13W4/0            : Uwi          - UNIQUE WELL ID
ENTR.         SP                             : Entered      - ENTERED BY
SRVC.         SCHLUMBERGER                   : Scn          - SERVICE COMPANY
STRT.M        300                            : top_depth    - START DEPTH
STOP.M        540                            : bot_depth    - STOP DEPTH
STEP.M        0.25                           : increment    - STEP LENGTH
 NULL. -999.2500:NULL Value
~CURVE INFORMATION BLOCK
#MNEM UNIT       ERCB CURVE CODE    CURVE DESCRIPTION
#-----------   ------------------   ----------------------------------
DEPT.M        00 001 00 00         : DEPTH        - DEPTH
ILD .OHMM     00 120 00 00         : RESD         - DEEP RESISTIVITY (DIL)
DPHI.V/V      00 890 00 00         : PHID         - DENSITY POROSITY (LIMESTONE)
NPHI.V/V      00 330 00 00         : PHIN         - NEUTRON POROSITY (LIMESTONE)
GR  .API      00 310 00 00         : GR           - GAMMA RAY
~PARAMETER INFORMATION
#MNEM.UNIT           DATA             DESCRIPTION OF MNEMONIC
#---------         -----------     ------------------------------
GL  .M        674.43               : gl           - GROUND LEVEL ELEVATION
EREF.M        677.88               : kb           - ELEVATION OF DEPTH REFERENCE
DATM.M        674.43               : datum        - DATUM ELEVATION
TDD .M        547                  : tdd          - TOTAL DEPTH DRILLER
RUN .         ONE                  : Run          - RUN NUMBER
ENG .         BILL                 : Engineer     - RECORDING ENGINEER
WIT .         JIM                  : Witness      - WITNESSED BY
MUD .         GEL                  : Mud_type     - MUD TYPE
MATR.         LIMESTONE            : Logunit      - NEUTRON MATRIX
TMAX.C        23                   : BHT          - MAXIMUM RECORDED TEMPERATURE
BHTD.M        547                  : BHTDEP       - MAXIMUM RECORDED TEMPERATURE
MATR.         1                    : LOGUNIT      - NEUTRON MATRIX
RMT .C        25                   : MDTP         - TEMPERATURE OF MUD
NEUT.         1                    : NEUTRON      - NEUTRON TYPE
RESI.         0                    : RESIST       - RESISTIVITY TYPE
RMC .OHMM     0.25                 : RMC          - RESISTIVITY OF MUD CAKE
RMF .OHMM     0.25                 : RMF          - RESISTIVITY OF MUD FILTRATE
SUFT.C        15                   : SUFT         - SURFACE TEMPERATURE
~A  DEPTH     RESD     PHID     PHIN       GR
# ...
  430.500    6.888    0.312    0.414   61.596
  430.750    6.760    0.301    0.421   63.436
  431.000    6.759    0.303    0.422   64.051
  431.250    6.886    0.307    0.416   61.605
  431.500    7.015    0.316    0.412   62.833
  431.750    7.146    0.316    0.409   65.899
  432.000    7.145    0.309    0.407   67.126
  432.250    7.011    0.303    0.418   69.577
  432.500    7.010    0.287    0.432   72.641
  432.750    7.010    0.293    0.440   73.257
  433.000    7.009    0.297    0.426   73.872
  433.250    6.878    0.297    0.404   75.713
  433.500    6.877    0.304    0.406   74.490
  433.750    6.748    0.289    0.411   70.820
  434.000    6.748    0.292    0.417   73.886
  434.250    6.621    0.291    0.423   74.501
  434.500    6.498    0.286    0.432   72.665
  434.750    6.497    0.290    0.435   70.221
  435.000    6.141    0.302    0.437   70.835
  435.250    6.140    0.315    0.429   73.900
  435.500    5.804    0.313    0.423   72.065
  435.750    5.696    0.303    0.420   72.069
  436.000    5.695    0.286    0.433   76.358
  436.250    6.023    0.266    0.445   72.075
  436.500    6.370    0.239    0.454   70.242
  436.750    6.369    0.242    0.444   69.633
  437.000    6.134    0.293    0.435   70.860
  437.250    5.798    0.309    0.449   69.026
  437.500    5.690    0.307    0.454   70.866
  437.750    5.584    0.306    0.454   72.705
  438.000    5.479    0.304    0.451   74.545
  438.250    5.478    0.303    0.449   75.160
  438.500    5.478    0.291    0.439   72.715
  438.750    5.477    0.287    0.435   71.493
  439.000    5.476    0.280    0.430   72.109
  439.250    5.475    0.281    0.445   73.336
  439.500    5.475    0.287    0.461   75.788
  439.750    5.474    0.290    0.459   78.852
  440.000    5.372    0.286    0.459   76.406
  440.250    5.371    0.290    0.461   79.472
  440.500    5.271    0.294    0.459   80.698
  440.750    5.270    0.293    0.451   79.477
  441.000    5.269    0.287    0.466   77.643
  441.250    5.171    0.292    0.470   76.421
  441.500    5.170    0.302    0.472   75.814
  441.750    5.169    0.297    0.476   76.429
  442.000    5.169    0.298    0.477   77.655
  442.250    5.168    0.293    0.471   78.883
  442.500    5.167    0.292    0.455   80.110
  442.750    5.166    0.293    0.454   76.442
  443.000    5.166    0.294    0.457   76.444
  443.250    5.165    0.296    0.458   77.671
  443.500    5.164    0.296    0.463   79.511
  443.750    5.068    0.294    0.476   78.902
  444.000    5.067    0.297    0.480   78.292
  444.250    5.066    0.303    0.471   78.909
  444.500    4.971    0.292    0.461   78.911
  444.750    4.971    0.280    0.454   78.302
  445.000    5.064    0.271    0.441   76.467
  445.250    5.159    0.296    0.431   73.410
  445.500    5.159    0.308    0.425   73.413
  445.750    5.255    0.291    0.405   72.805
  446.000    5.354    0.285    0.396   70.969
  446.250    5.353    0.302    0.403   69.748
  446.500    5.453    0.309    0.406   67.915
  446.750    5.555    0.314    0.402   69.142
  447.000    5.555    0.299    0.403   71.594
  447.250    5.659    0.288    0.407   69.149
  447.500    5.765    0.281    0.406   67.314
  447.750    5.984    0.256    0.402   65.482
  448.000    7.215    0.217    0.393   64.260
  448.250    8.225    0.128    0.222   61.815
  448.500    9.732    0.098    0.213   60.592
  448.750    9.915    0.100    0.207   58.759
  449.000   10.684    0.102    0.206   59.373
  449.250   11.513    0.115    0.215   61.214
  449.500   11.951    0.137    0.228   61.216
  449.750   12.640    0.130    0.226   59.384
  450.000   13.368    0.118    0.223   59.385
  450.250   13.118    0.102    0.226   61.225
  450.500   11.505    0.107    0.234   64.290
  450.750    9.189    0.146    0.267   67.354
  451.000    7.478    0.275    0.409   69.806
  451.250    6.318    0.301    0.412   66.749
  451.500    5.752    0.305    0.420   64.915
  451.750    5.860    0.308    0.425   67.366
  452.000    5.970    0.311    0.429   68.594
  452.250    5.969    0.303    0.430   67.373
  452.500    6.081    0.301    0.432   65.538
  452.750    6.080    0.308    0.434   64.930
  453.000    6.194    0.315    0.410   64.935
  453.250    6.193    0.319    0.409   65.549
  453.500    6.192    0.325    0.419   66.775
  453.750    6.077    0.328    0.425   69.840
  454.000    6.076    0.331    0.445   69.844
  454.250    5.962    0.319    0.454   70.459
  454.500    5.961    0.308    0.416   70.461
  454.750    5.850    0.314    0.419   71.077
  455.000    5.849    0.317    0.421   71.691
  455.250    5.740    0.322    0.446   69.245
  455.500    5.633    0.316    0.450   71.698
  455.750    5.632    0.301    0.461   75.987
  456.000    5.631    0.290    0.445   80.275
  456.250    5.631    0.284    0.445   83.340
  456.500    5.736    0.283    0.452   80.894
  456.750    5.954    0.294    0.452   78.448
  457.000    6.297    0.287    0.451   76.002
  457.250    6.537    0.276    0.448   76.619
  457.500    6.785    0.266    0.453   77.846
  457.750    6.912    0.257    0.456   79.072
  458.000    6.783    0.265    0.463   80.912
  458.250    6.533    0.255    0.446   85.814
  458.500    5.948    0.230    0.443   90.102
  458.750    5.316    0.214    0.445   93.779
  459.000    5.120    0.220    0.460   93.782
  459.250    5.024    0.230    0.468   90.724
  459.500    5.023    0.238    0.464   88.279
  459.750    5.117    0.222    0.468   87.668
  460.000    4.837    0.214    0.470   88.898
  460.250    5.212    0.206    0.480   90.125
  460.500    5.311    0.207    0.473   91.352
  460.750    5.512    0.212    0.470   91.967
  461.000    5.830    0.219    0.471   92.582
  461.250    6.051    0.218    0.441   90.749
  461.500    6.165    0.206    0.426   90.751
  461.750    6.520    0.201    0.416   88.918
  462.000    6.768    0.206    0.414   90.145
  462.250    7.158    0.203    0.409   90.760
  462.500    7.430    0.190    0.410   92.600
  462.750    7.712    0.179    0.425   93.828
  463.000    8.005    0.191    0.436   93.830
  463.250    8.467    0.175    0.427   91.997
  463.500    8.788    0.164    0.404   90.163
  463.750    8.787    0.152    0.379   82.208
  464.000    8.786    0.130    0.368   80.985
  464.250    8.305    0.100    0.357   88.336
  464.500    7.284    0.197    0.424   93.237
  464.750    7.148    0.197    0.433   96.913
  465.000    7.014    0.208    0.436  103.652
  465.250    7.013    0.197    0.431  107.940
  465.500    7.012    0.185    0.424  104.882
  465.750    7.011    0.196    0.420  106.722
  466.000    7.143    0.206    0.417  106.112
  466.250    7.142    0.204    0.425  104.279
  466.500    6.751    0.199    0.438  103.669
  466.750    6.263    0.193    0.465  101.224
  467.000    5.597    0.207    0.460   96.943
  467.250    5.390    0.210    0.454   95.109
  467.500    5.390    0.231    0.447   93.887
  467.750    5.289    0.215    0.453   92.665
  468.000    5.190    0.197    0.444   92.055
  468.250    4.906    0.182    0.426   92.671
  468.500    4.223    0.175    0.420   95.735
  468.750    3.437    0.218    0.437   98.798
  469.000    2.903    0.231    0.471  100.026
  469.250    2.453    0.273    0.501   97.581
  469.500    2.276    0.267    0.574   96.360
  469.750    2.233    0.281    0.570   95.750
  470.000    2.233    0.275    0.553   93.916
  470.250    2.232    0.270    0.529   95.757
  470.500    2.274    0.246    0.521   97.596
  470.750    2.317    0.241    0.545  100.047
  471.000    2.360    0.237    0.531  104.337
  471.250    2.405    0.242    0.523  108.014
  471.500    2.496    0.235    0.518  108.016
  471.750    2.741    0.237    0.521  107.407
  472.000    3.066    0.226    0.510  104.961
  472.250    3.561    0.216    0.475  102.515
  472.500    4.213    0.203    0.455   99.457
  472.750    4.626    0.178    0.434  100.072
  473.000    5.176    0.194    0.420  101.300
  473.250    5.577    0.178    0.431   99.467
  473.500    5.789    0.158    0.434   95.795
  473.750    5.898    0.138    0.420   90.288
