~VERSION INFORMATION
 VERS.                 2.0:   CWLS LOG ASCII STANDARD -VERSION 2.0
 WRAP.                  NO:   ONE LINE PER DEPTH STEP
~WELL INFORMATION BLOCK
#MNEM.UNIT           DATA                    DESCRIPTION OF MNEMONIC
#---------    -------------------            -------------------------------
# Generated from Intellog Unique Number	CW_73_75/WELL/3524
WELL.         ULSTER MARTIN HILLS            : Well_name    - WELL
LOC .         00/09-09-074-02W5/0            : Location     - LOCATION
UWI .         00/09-09-074-02W5/0            : Uwi          - UNIQUE WELL ID
ENTR.         T                              : Entered      - ENTERED BY
SRVC.         SCHLUMBERGER                   : Scn          - SERVICE COMPANY
STRT.M        355                            : top_depth    - START DEPTH
STOP.M        615                            : bot_depth    - STOP DEPTH
STEP.M        0.25                           : increment    - STEP LENGTH
 NULL. -999.2500:NULL Value
~CURVE INFORMATION BLOCK
#MNEM UNIT       ERCB CURVE CODE    CURVE DESCRIPTION
#-----------   ------------------   ----------------------------------
DEPT.M        00 001 00 00         : DEPTH        - DEPTH
GR  .API      00 310 00 00         : GR           - GAMMA RAY
NPHI.V/V      00 330 00 00         : PHIN         - NEUTRON POROSITY (SANDSTONE)
DPHI.V/V      00 890 00 00         : PHID         - DENSITY POROSITY (SANDSTONE)
ILD .OHMM     00 120 00 00         : RESD         - DEEP RESISTIVITY (DIL)
~PARAMETER INFORMATION
#MNEM.UNIT           DATA             DESCRIPTION OF MNEMONIC
#---------         -----------     ------------------------------
GL  .M        636                  : gl           - GROUND LEVEL ELEVATION
EREF.M        639                  : kb           - ELEVATION OF DEPTH REFERENCE
DATM.M        639                  : datum        - DATUM ELEVATION
TDD .M        620                  : tdd          - TOTAL DEPTH DRILLER
RUN .         ONE                  : Run          - RUN NUMBER
ENG .         BILL                 : Engineer     - RECORDING ENGINEER
WIT .         JIM                  : Witness      - WITNESSED BY
MUD .         GEL                  : Mud_type     - MUD TYPE
MATR.         SANDSTONE            : Logunit      - NEUTRON MATRIX
TMAX.C        21                   : BHT          - MAXIMUM RECORDED TEMPERATURE
BHTD.M        620                  : BHTDEP       - MAXIMUM RECORDED TEMPERATURE
RMT .C        22                   : MDTP         - TEMPERATURE OF MUD
MUDD.KG/M     1130                 : MWT          - MUD DENSITY
NEUT.         1                    : NEUTRON      - NEUTRON TYPE
RESI.         0                    : RESIST       - RESISTIVITY TYPE
RM  .OHMM     3.2                  : RM           - RESISTIVITY OF MUD
RMC .OHMM     3.5                  : RMC          - RESISTIVITY OF MUD CAKE
RMF .OHMM     2.4                  : RMF          - RESISTIVITY OF MUD FILTRATE
SUFT.C        4                    : SUFT         - SURFACE TEMPERATURE
~A  DEPTH       GR     PHIN     PHID     RESD
  355.000  109.051    0.419    0.231    4.458
  355.250  110.223    0.426    0.222    4.463
  355.500  110.241    0.430    0.213    4.548
  355.750  109.683    0.424    0.205    4.722
  356.000  112.595    0.418    0.202    4.316
  356.250  112.604    0.424    0.204    4.240
  356.500  111.473    0.431    0.211    4.091
  356.750  109.760    0.435    0.219    4.095
  357.000  108.624    0.439    0.225    4.098
  357.250  106.335    0.434    0.228    4.102
  357.500  104.618    0.404    0.234    4.106
  357.750  109.828    0.404    0.239    4.035
  358.000  119.082    0.415    0.242    3.894
  358.250  125.446    0.426    0.250    3.828
  358.500  125.464    0.418    0.259    3.831
  358.750  120.290    0.382    0.261    3.977
  359.000  113.386    0.386    0.217    4.361
  359.250  108.793    0.395    0.209    4.782
  359.500  107.081    0.386    0.208    5.540
  359.750   95.556    0.358    0.211    6.189
  360.000   56.921    0.347    0.221    6.424
  360.250   45.401    0.332    0.243    6.546
  360.500   40.808    0.332    0.254    6.796
  360.750   42.557    0.332    0.263    7.185
  361.000   45.460    0.331    0.268    8.029
  361.250   46.632    0.328    0.266    8.331
  361.500   45.496    0.321    0.263    8.494
  361.750   42.630    0.319    0.260    8.502
  362.000   38.610    0.317    0.258    8.354
  362.250   34.013    0.315    0.256    8.361
  362.500   28.262    0.315    0.255    8.219
  362.750   28.285    0.315    0.256    7.932
  363.000   28.875    0.315    0.263    7.793
  363.250   33.513    0.315    0.265    7.386
  363.500   36.416    0.321    0.272    7.128
  363.750   38.747    0.334    0.278    6.754
  364.000   43.376    0.347    0.279    6.400
  364.250   55.509    0.358    0.257    6.064
  364.500   67.070    0.371    0.261    5.746
  364.750   82.665    0.378    0.263    5.545
  365.000   87.880    0.374    0.252    5.256
  365.250   85.586    0.366    0.242    5.165
  365.500   69.451    0.365    0.230    5.171
  365.750   60.243    0.352    0.221    5.173
  366.000   57.954    0.338    0.208    5.274
  366.250   54.506    0.334    0.218    5.890
  366.500   44.716    0.331    0.243    6.460
  366.750   40.119    0.330    0.254    7.086
  367.000   40.147    0.330    0.265    7.353
  367.250   41.323    0.330    0.264    7.638
  367.500   41.909    0.329    0.256    7.640
  367.750   42.505    0.329    0.250    7.652
  368.000   43.100    0.327    0.250    7.517
  368.250   44.276    0.329    0.251    7.389
  368.500   46.021    0.328    0.251    7.394
  368.750   51.236    0.331    0.248    7.138
  369.000   55.874    0.334    0.244    7.014
  369.250   58.777    0.338    0.238    6.892
  369.500   62.829    0.341    0.233    6.652
  369.750   69.193    0.350    0.227    6.418
  370.000   72.100    0.359    0.223    6.081
  370.250   72.696    0.375    0.216    5.869
  370.500   77.329    0.389    0.220    5.365
  370.750   85.424    0.404    0.228    5.176
  371.000   92.942    0.414    0.241    4.995
  371.250   95.273    0.404    0.247    4.820
  371.500   94.137    0.389    0.230    4.737
  371.750   85.502    0.378    0.221    4.656
  372.000   80.909    0.362    0.218    4.493
  372.250   82.654    0.357    0.217    4.497
  372.500   84.980    0.359    0.217    5.402
  372.750   85.575    0.365    0.217    5.308
  373.000   86.747    0.370    0.228    5.031
  373.250   90.236    0.381    0.243    4.855
  373.500   89.672    0.394    0.242    4.685
  373.750   86.806    0.401    0.237    4.521
  374.000   79.901    0.367    0.231    4.443
  374.250   82.804    0.362    0.227    4.367
  374.500   90.322    0.368    0.223    4.215
  374.750   94.383    0.372    0.220    4.144
  375.000   95.555    0.382    0.218    4.071
  375.250   94.429    0.394    0.214    4.002
  375.500   93.861    0.400    0.211    3.932
  375.750   95.033    0.403    0.219    3.866
  376.000   99.095    0.406    0.222    3.868
  376.250   99.113    0.414    0.228    3.734
  376.500   98.559    0.426    0.229    3.669
  376.750   97.995    0.438    0.228    3.606
  377.000   95.134    0.432    0.228    3.609
  377.250   92.263    0.427    0.233    3.421
  377.500   99.204    0.422    0.253    3.361
  377.750  102.107    0.418    0.264    3.304
  378.000  105.010    0.415    0.283    3.188
  378.250  100.413    0.424    0.304    3.076
  378.500   92.940    0.435    0.325    3.024
  378.750   94.694    0.444    0.362    2.919
  379.000   95.279    0.435    0.350    2.868
  379.250   96.461    0.428    0.338    2.818
  379.500   96.470    0.430    0.328    2.720
  379.750   99.954    0.438    0.328    2.625
  380.000  100.549    0.445    0.330    2.627
  380.250   98.264    0.443    0.332    2.629
  380.500   95.398    0.439    0.338    2.631
  380.750   94.835    0.432    0.344    2.634
  381.000  100.622    0.441    0.349    2.685
  381.250  100.064    0.514    0.318    2.738
  381.500  104.697    0.446    0.308    2.791
  381.750  105.292    0.440    0.294    2.793
  382.000  105.320    0.427    0.276    2.900
  382.250  106.492    0.409    0.265    2.903
  382.500  106.510    0.400    0.257    2.959
  382.750  105.947    0.404    0.310    3.015
  383.000  104.234    0.427    0.335    3.189
  383.250   98.483    0.442    0.308    3.250
  383.500   96.194    0.455    0.283    3.314
  383.750   95.635    0.466    0.284    3.317
  384.000   94.513    0.455    0.324    3.320
  384.250   93.950    0.440    0.314    3.323
  384.500   92.814    0.432    0.292    3.326
  384.750   95.717    0.448    0.285    3.328
  385.000   98.038    0.466    0.280    3.332
  385.250   99.797    0.475    0.280    3.335
  385.500  100.383    0.457    0.291    3.279
  385.750   99.256    0.438    0.319    3.222
  386.000   97.539    0.414    0.335    3.224
  386.250   99.870    0.410    0.268    3.226
  386.500  101.619    0.413    0.290    3.171
  386.750  101.637    0.414    0.313    3.293
  387.000  101.078    0.413    0.320    3.356
  387.250   97.630    0.400    0.336    3.421
  387.500   96.499    0.407    0.322    3.552
  387.750  103.440    0.414    0.297    3.555
  388.000  105.189    0.428    0.294    3.623
  388.250  104.635    0.431    0.290    3.628
  388.500  100.611    0.425    0.301    3.630
  388.750   91.980    0.428    0.338    3.634
  389.000   92.575    0.432    0.358    3.772
  389.250   93.747    0.435    0.327    3.988
  389.500   92.611    0.420    0.310    4.375
  389.750   90.326    0.402    0.211    4.625
  390.000   97.263    0.386    0.203    4.800
  390.250   97.286    0.394    0.229    5.266
  390.500   94.996    0.403    0.243    5.365
  390.750   91.549    0.400    0.269    5.572
  391.000   85.221    0.410    0.302    5.576
  391.250   80.051    0.424    0.328    5.686
  391.500   78.339    0.443    0.319    5.689
  391.750   82.972    0.438    0.307    5.694
  392.000   89.337    0.431    0.279    5.805
  392.250   93.393    0.427    0.250    6.027
  392.500   96.873    0.426    0.226    6.143
  392.750  107.853    0.424    0.216    6.261
  393.000  106.722    0.421    0.217    6.270
  393.250  100.398    0.420    0.220    6.273
  393.500   98.109    0.418    0.226    6.279
  393.750   99.281    0.404    0.236    6.285
  394.000  101.030    0.414    0.241    6.292
  394.250  103.351    0.422    0.214    6.299
  394.500  106.831    0.420    0.208    6.301
  394.750  103.392    0.402    0.203    6.193
  395.000  101.103    0.395    0.204    5.978
  395.250   98.814    0.391    0.207    5.874
  395.500   97.101    0.386    0.216    5.775
  395.750   96.542    0.383    0.239    5.674
  396.000   96.561    0.391    0.245    5.787
  396.250   96.002    0.402    0.253    5.791
  396.500   94.866    0.403    0.253    5.901
  396.750   97.769    0.399    0.223    6.128
  397.000  103.566    0.406    0.217    6.132
  397.250  101.853    0.413    0.230    6.140
  397.500   98.405    0.424    0.253    6.143
  397.750   99.577    0.422    0.268    6.151
  398.000  101.331    0.406    0.268    6.156
  398.250  101.921    0.406    0.255    6.162
