~VERSION INFORMATION
 VERS.                 2.0:   CWLS LOG ASCII STANDARD -VERSION 2.0
 WRAP.                  NO:   ONE LINE PER DEPTH STEP
~WELL INFORMATION BLOCK
#MNEM.UNIT           DATA                    DESCRIPTION OF MNEMONIC
#---------    -------------------            -------------------------------
# Generated from Intellog Unique Number	CW_79_81/WELL/288
WELL.         04-23-079-23W4                 : Well_name    - WELL
LOC .         00/04-23-079-23W4/0            : Location     - LOCATION
UWI .         00/04-23-079-23W4/0            : Uwi          - UNIQUE WELL ID
ENTR.         MAX                            : Entered      - ENTERED BY
SRVC.         COMPUTALOG                     : Scn          - SERVICE COMPANY
STRT.M        225                            : top_depth    - START DEPTH
STOP.M        477                            : bot_depth    - STOP DEPTH
STEP.M        0.25                           : increment    - STEP LENGTH
 NULL. -999.2500:NULL Value
~CURVE INFORMATION BLOCK
#MNEM UNIT       ERCB CURVE CODE    CURVE DESCRIPTION
#-----------   ------------------   ----------------------------------
DEPT.M        00 001 00 00         : DEPTH        - DEPTH
ILD .OHMM     00 120 00 00         : RESD         - DEEP RESISTIVITY (DIL)
NPHI.V/V      00 330 00 00         : PHIN         - NEUTRON POROSITY (SANDSTONE)
DPHI.V/V      00 890 00 00         : PHID         - DENSITY POROSITY (SANDSTONE)
CALI.MM       00 280 01 00         : CAL          - CALIPER
GR  .API      00 310 00 00         : GR           - GAMMA RAY
~PARAMETER INFORMATION
#MNEM.UNIT           DATA             DESCRIPTION OF MNEMONIC
#---------         -----------     ------------------------------
GL  .M        565.2                : gl           - GROUND LEVEL ELEVATION
EREF.M        570.2                : kb           - ELEVATION OF DEPTH REFERENCE
DATM.M        565.2                : datum        - DATUM ELEVATION
TDD .M        482                  : tdd          - TOTAL DEPTH DRILLER
RUN .         ONE                  : Run          - RUN NUMBER
ENG .         BILL                 : Engineer     - RECORDING ENGINEER
WIT .         JIM                  : Witness      - WITNESSED BY
MUD .         GEL                  : Mud_type     - MUD TYPE
MATR.         SANDSTONE            : Logunit      - NEUTRON MATRIX
TMAX.C        20                   : BHT          - MAXIMUM RECORDED TEMPERATURE
BHTD.M        482                  : BHTDEP       - MAXIMUM RECORDED TEMPERATURE
RMT .C        17.8                 : MDTP         - TEMPERATURE OF MUD
MUDD.KG/M     1080                 : MWT          - MUD DENSITY
NEUT.         1                    : NEUTRON      - NEUTRON TYPE
RESI.         0                    : RESIST       - RESISTIVITY TYPE
RM  .OHMM     7                    : RM           - RESISTIVITY OF MUD
RMC .OHMM     5.5                  : RMC          - RESISTIVITY OF MUD CAKE
RMF .OHMM     6                    : RMF          - RESISTIVITY OF MUD FILTRATE
SUFT.C        -5                   : SUFT         - SURFACE TEMPERATURE
~A  DEPTH     RESD     PHIN     PHID      CAL       GR
# ...
  444.000   32.765    0.387    0.267  237.825   70.648
  444.250   29.638    0.387    0.260  241.781   68.295
  444.500   25.150    0.383    0.246  244.262   69.783
  444.750   22.750    0.387    0.237  243.294   73.632
  445.000   21.937    0.397    0.228  242.814   74.827
  445.250   21.542    0.406    0.211  241.848   74.543
  445.500   22.142    0.415    0.201  239.406   72.779
  445.750   23.179    0.377    0.204  237.451   59.199
  446.000   24.486    0.340    0.196  225.159   43.257
  446.250   25.632    0.327    0.172  220.254   44.153
  446.500   27.078    0.312    0.149  228.149   52.141
  446.750   27.080    0.315    0.143  237.523   60.717
  447.000   24.948    0.332    0.133  239.513   68.113
  447.250   22.159    0.353    0.138  238.049   77.282
  447.500   18.976    0.378    0.166  237.571   80.245
  447.750   18.976    0.400    0.199  237.592   85.279
  448.000   16.251    0.426    0.259  238.097   88.243
  448.250   14.971    0.408    0.251  238.608   88.846
  448.500   14.971    0.392    0.222  239.118   90.331
  448.750   14.176    0.377    0.188  239.137   91.524
  449.000   12.941    0.375    0.160  239.154   90.351
  449.250   12.826    0.376    0.121  239.168   85.044
  449.500   12.709    0.380    0.093  238.200   76.193
  449.750   13.064    0.387    0.124  236.745   77.976
  450.000   12.712    0.404    0.225  234.300   85.962
  450.250   12.258    0.420    0.247  231.360   90.994
  450.500   11.712    0.436    0.268  229.410   84.800
  450.750   11.293    0.453    0.301  230.906   77.425
  451.000   10.595    0.467    0.306  235.352   75.663
  451.250   10.500    0.453    0.287  238.325   74.494
  451.500   10.992    0.424    0.265  238.342   78.934
  451.750   11.611    0.413    0.261  237.868   87.511
  452.000   12.839    0.411    0.261  233.450   86.339
  452.250   13.688    0.406    0.256  222.143   81.918
  452.500   13.815    0.392    0.252  222.654   82.522
  452.750   13.816    0.385    0.247  224.638   88.439
  453.000   13.322    0.435    0.252  223.672   92.289
  453.250   12.964    0.456    0.264  222.707   90.232
  453.500   12.387    0.441    0.269  222.233   81.970
  453.750   12.164    0.419    0.254  224.712   76.368
  454.000   12.055    0.399    0.248  229.158   71.651
  454.250   12.056    0.392    0.248  231.146   66.345
  454.500   11.839    0.388    0.253  231.163   64.584
  454.750   11.733    0.382    0.242  231.180   64.297
  455.000   11.733    0.381    0.220  231.195   67.557
  455.250   11.628    0.383    0.196  231.212   70.817
  455.500   11.628    0.390    0.150  230.736   75.258
  455.750   11.317    0.403    0.148  229.768   81.178
  456.000   11.215    0.410    0.171  228.312   87.982
  456.250   11.215    0.407    0.185  225.867   98.036
  456.500   11.014    0.408    0.194  220.466   98.048
  456.750   10.524    0.401    0.192  219.991   92.742
  457.000   10.335    0.404    0.196  224.439   90.978
  457.250    9.875    0.406    0.193  229.874   92.171
  457.500    9.435    0.405    0.177  234.324   94.840
  457.750    8.933    0.408    0.170  234.833   97.803
  458.000    8.458    0.417    0.167  234.850  102.835
  458.250    8.156    0.431    0.167  233.390  107.870
  458.500    8.156    0.456    0.166  231.932  109.061
  458.750    7.865    0.473    0.187  229.975  107.002
  459.000    7.379    0.487    0.216  224.086  102.581
  459.250    6.986    0.489    0.202  224.103  104.364
  459.500    6.495    0.480    0.162  226.091  109.396
  459.750    5.875    0.489    0.082  229.552  111.180
  460.000    5.314    0.474    0.057  229.571  102.328
  460.250    5.124    0.441    0.071  232.050   97.316
  460.500    5.125    0.399    0.127  241.914   96.144
  460.750    5.316    0.405    0.178  240.453   99.995
  461.000    5.616    0.412    0.188  233.580   97.642
  461.250    5.933    0.417    0.206  233.106   91.448
  461.500    6.154    0.420    0.260  231.644   79.642
  461.750    6.383    0.392    0.303  229.691   84.084
  462.000    6.443    0.379    0.242  237.586   90.003
  462.250    6.622    0.372    0.214  250.404   93.853
  462.500    6.684    0.380    0.201  251.410   90.023
  462.750    6.807    0.381    0.190  247.978   83.239
  463.000    6.871    0.376    0.195  244.054   79.114
  463.250    6.871    0.367    0.193  236.195   79.123
  463.500    6.872    0.362    0.179  230.798   84.156
  463.750    6.873    0.363    0.152  229.338   89.484
  464.000    6.688    0.365    0.131  226.891   91.562
  464.250    6.508    0.360    0.133  226.418   88.324
  464.500    6.508    0.357    0.160  226.433   84.788
  464.750    6.333    0.363    0.189  224.972   80.071
  465.000    5.888    0.371    0.207  221.543   72.402
  465.250    5.626    0.370    0.215  215.656   65.324
  465.500    5.375    0.373    0.233  217.644   64.153
  465.750    5.231    0.376    0.244  219.134   63.571
  466.000    5.044    0.372    0.238  219.643   61.512
  466.250    5.044    0.370    0.238  221.139   60.045
  466.500    4.999    0.372    0.224  220.664   59.761
  466.750    4.999    0.378    0.178  218.221   61.544
  467.000    5.186    0.380    0.164  207.900   64.511
  467.250    5.330    0.377    0.169  207.913   65.995
  467.500    5.380    0.376    0.169  210.392   66.596
  467.750    5.283    0.377    0.179  213.367   68.379
  468.000    5.048    0.389    0.202  211.907   69.867
  468.250    4.823    0.405    0.254  209.462   70.468
  468.500    4.651    0.409    0.290  207.999   66.638
  468.750    4.526    0.407    0.294  209.001   59.263
  469.000    4.485    0.381    0.288  209.510   51.297
  469.250    4.485    0.365    0.297  210.019   54.853
  469.500    4.610    0.356    0.300  214.960   55.453
  469.750    4.870    0.357    0.225  217.931   58.122
  470.000    5.192    0.355    0.187  221.398   62.564
  470.250    5.435    0.341    0.179  224.860   69.664
  470.500    5.742    0.330    0.195  226.848   73.221
  470.750    5.796    0.341    0.219  227.355   71.754
  471.000    5.903    0.367    0.225  228.851   72.058
  471.250    6.067    0.371    0.208  229.855   75.615
  471.500    6.123    0.362    0.207  226.915   80.942
  471.750    6.294    0.351    0.203  225.455   88.042
  472.000    6.529    0.355    0.185  228.426   92.781
  472.250    6.960    0.360    0.180  226.968   92.790
  472.500    7.557    0.361    0.210  219.598   83.051
  472.750    9.071    0.354    0.264  207.306   61.200
  473.000    9.671    0.330    0.298  203.384   48.212
  473.250   11.091    0.316    0.261  210.296   41.428
  473.500   12.954    0.307    0.236  213.761   37.897
  473.750   16.426    0.292    0.161  217.222   38.200
  474.000   18.329    0.286    0.109  219.701   40.573
  474.250   19.541    0.284    0.038  218.241   46.788
  474.500   18.842    0.287    0.038  219.247   57.728
  474.750   17.044    0.323    0.062  220.738   67.782
  475.000   13.444    0.383    0.162  223.709   86.108
  475.250   10.605    0.410    0.513  229.142   94.391
  475.500    8.917    0.408    0.436  252.792   97.061
  475.750    8.215    0.392    0.349  280.384   95.297
  476.000    8.521    0.352    0.146  265.136   82.311
  476.250    9.337    0.330    0.108  241.028   76.116
  476.500   11.208    0.315    0.072  223.322   70.218
  476.750   13.091    0.305    0.054  220.383   63.729
  477.000   14.213    0.343    0.076  219.908   59.308
