~VERSION INFORMATION
 VERS.                 2.0:   CWLS LOG ASCII STANDARD -VERSION 2.0
 WRAP.                  NO:   ONE LINE PER DEPTH STEP
~WELL INFORMATION BLOCK
#MNEM.UNIT           DATA                    DESCRIPTION OF MNEMONIC
#---------    -------------------            -------------------------------
# Generated from Intellog Unique Number	CW_79_81/WELL/619
WELL.         07-26-079-26W4                 : Well_name    - WELL
LOC .         00/07-26-079-26W4/0            : Location     - LOCATION
UWI .         00/07-26-079-26W4/0            : Uwi          - UNIQUE WELL ID
ENTR.         MAX                            : Entered      - ENTERED BY
SRVC.         SCHLUMBERGER                   : Scn          - SERVICE COMPANY
STRT.M        207.264                        : top_depth    - START DEPTH
STOP.M        487.764                        : bot_depth    - STOP DEPTH
STEP.M        0.25                           : increment    - STEP LENGTH
 NULL. -999.2500:NULL Value
~CURVE INFORMATION BLOCK
#MNEM UNIT       ERCB CURVE CODE    CURVE DESCRIPTION
#-----------   ------------------   ----------------------------------
DEPT.M        00 001 00 00         : DEPTH        - DEPTH
ILD .OHMM     00 120 00 00         : RESD         - DEEP RESISTIVITY (DIL)
NPHI.V/V      00 330 00 00         : PHIN         - NEUTRON POROSITY (SANDSTONE)
DPHI.V/V      00 890 00 00         : PHID         - DENSITY POROSITY (SANDSTONE)
CALI.MM       00 280 01 00         : CAL          - CALIPER
GR  .API      00 310 00 00         : GR           - GAMMA RAY
~PARAMETER INFORMATION
#MNEM.UNIT           DATA             DESCRIPTION OF MNEMONIC
#---------         -----------     ------------------------------
GL  .M        558.394              : gl           - GROUND LEVEL ELEVATION
EREF.M        562.051              : kb           - ELEVATION OF DEPTH REFERENCE
DATM.M        558.394              : datum        - DATUM ELEVATION
TDD .M        463.601              : tdd          - TOTAL DEPTH DRILLER
RUN .         ONE                  : Run          - RUN NUMBER
ENG .         BILL                 : Engineer     - RECORDING ENGINEER
WIT .         JIM                  : Witness      - WITNESSED BY
MUD .         GEL                  : Mud_type     - MUD TYPE
MATR.         SANDSTONE            : Logunit      - NEUTRON MATRIX
TMAX.C        22.2222              : BHT          - MAXIMUM RECORDED TEMPERATURE
BHTD.M        463.601              : BHTDEP       - MAXIMUM RECORDED TEMPERATURE
RMT .C        25.5556              : MDTP         - TEMPERATURE OF MUD
MUDD.KG/M     10200                : MWT          - MUD DENSITY
NEUT.         1                    : NEUTRON      - NEUTRON TYPE
RESI.         0                    : RESIST       - RESISTIVITY TYPE
RM  .OHMM     6.28                 : RM           - RESISTIVITY OF MUD
RMC .OHMM     0                    : RMC          - RESISTIVITY OF MUD CAKE
RMF .OHMM     0                    : RMF          - RESISTIVITY OF MUD FILTRATE
SUFT.C        -20.5556             : SUFT         - SURFACE TEMPERATURE
~A  DEPTH     RESD     PHIN     PHID      CAL       GR
# ...
  426.264   10.168    0.392    0.132  213.157  134.332
  426.514    9.385    0.398    0.145  213.231  134.070
  426.764    9.062    0.394    0.155  214.320  135.013
  427.014    8.749    0.387    0.158  215.419  137.774
  427.264    8.373    0.392    0.152  216.010  138.112
  427.514    8.373    0.419    0.152  217.090  137.555
  427.764    8.241    0.429    0.142  219.695  135.792
  428.014    7.959    0.416    0.150  223.834  131.634
  428.264    8.044    0.392    0.154  222.392  120.569
  428.514    8.136    0.381    0.126  216.359  117.912
  428.764    8.289    0.382    0.148  209.327  117.966
  429.014    8.847    0.389    0.151  206.860  118.004
  429.264    9.102    0.388    0.143  205.917  116.557
  429.514    9.540    0.383    0.148  206.498  114.795
  429.764    9.996    0.384    0.145  207.080  112.738
  430.014   11.791    0.394    0.129  206.654  108.885
  430.264   14.559    0.412    0.125  206.219  102.016
  430.514   18.974    0.398    0.159  205.775   86.149
  430.764   27.340    0.376    0.203  204.851   68.782
  431.014   91.804    0.373    0.269  204.924   56.822
  431.264  331.526    0.368    0.290  205.007   48.462
  431.514  341.155    0.369    0.293  205.062   45.505
  431.764  326.431    0.378    0.291  205.062   44.943
  432.014  270.049    0.392    0.300  204.737   44.991
  432.264  251.483    0.396    0.308  204.783   44.734
  432.514  184.819    0.378    0.310  204.856   43.277
  432.764  154.293    0.373    0.309  204.422   42.721
  433.014  126.466    0.380    0.304  204.504   43.670
  433.264  107.516    0.396    0.294  204.578   45.514
  433.514   61.813    0.399    0.301  205.150   47.057
  433.764   41.858    0.406    0.299  205.233   46.795
  434.014   32.204    0.408    0.304  205.306   45.649
  434.264   26.157    0.401    0.308  205.887   45.387
  434.514   21.844    0.389    0.293  207.485   46.336
  434.764   20.894    0.389    0.297  210.626   46.679
  435.014   19.282    0.388    0.302  211.697   46.422
  435.264   18.279    0.380    0.301  212.814   46.771
  435.514   17.181    0.379    0.302  212.879   48.010
  435.764   17.181    0.381    0.303  212.952   48.653
  436.014   16.931    0.384    0.303  213.035   48.996
  436.264   16.632    0.382    0.302  213.035   50.240
  436.514   16.360    0.380    0.296  213.181   52.684
  436.764   16.081    0.380    0.290  213.246   54.834
  437.014   15.672    0.373    0.291  213.328   56.083
  437.264   14.998    0.384    0.294  213.411   58.221
  437.514   14.477    0.398    0.277  213.475   62.471
  437.764   13.602    0.403    0.291  213.475   66.126
  438.014   12.550    0.407    0.289  213.658   68.270
  438.264   11.792    0.408    0.287  213.178   70.114
  438.514   11.183    0.399    0.283  213.269   74.059
  438.764   11.008    0.383    0.268  213.269   76.503
  439.014   10.717    0.380    0.265  213.425   76.846
  439.264   10.256    0.385    0.271  212.981   76.900
  439.514   10.083    0.396    0.277  213.046   77.538
  439.764    9.916    0.396    0.275  212.657   79.077
  440.014    9.926    0.392    0.272  212.703   81.232
  440.264    9.948    0.389    0.271  212.776   81.875
  440.514   10.046    0.391    0.269  212.904   82.213
  440.764   10.527    0.396    0.254  212.932   85.263
  441.014   11.443    0.403    0.238  213.005   85.601
  441.264   13.374    0.404    0.204  213.005   85.044
  441.514   15.351    0.384    0.157  213.161   82.998
  441.764   16.992    0.349    0.130  213.235   80.946
  442.014   17.486    0.333    0.103  213.308   80.678
  442.264   15.985    0.311    0.110  213.880   83.127
  442.514   10.631    0.332    0.143  213.945   90.073
  442.764    9.202    0.339    0.180  214.036   99.119
  443.014    7.753    0.378    0.195  214.609  136.089
  443.264    7.027    0.419    0.180  216.207  143.035
  443.514    6.908    0.441    0.149  218.839  140.077
  443.764    7.174    0.424    0.105  218.912  128.128
  444.014    7.725    0.411    0.064  218.478  122.153
  444.264    8.320    0.382    0.044  218.034  118.601
  444.514    8.183    0.378    0.070  217.608  122.245
  444.764    8.055    0.413    0.151  217.182  130.396
  445.014    7.842    0.420    0.164  216.729  124.138
  445.264    7.779    0.409    0.167  217.311  118.174
  445.514    8.303    0.396    0.180  217.902  110.415
  445.764   10.250    0.389    0.184  217.476   98.449
  446.014   10.838    0.384    0.236  217.531   97.893
  446.264   13.379    0.408    0.266  217.623  105.444
  446.514   14.809    0.416    0.258  217.742  109.099
  446.764   16.094    0.417    0.245  217.252  110.332
  447.014   16.115    0.416    0.236  216.836  112.781
  447.264   13.454    0.411    0.236  216.836  110.435
  447.514   12.995    0.410    0.237  216.992  112.868
  447.764   11.665    0.393    0.235  216.566  118.313
  448.014   10.379    0.402    0.230  216.566  119.567
  448.264    8.742    0.411    0.210  216.704  119.316
  448.514    7.994    0.416    0.210  216.704  119.949
  448.764    6.376    0.422    0.218  216.352  122.092
  449.014    5.226    0.431    0.195  215.898  125.142
  449.264    4.779    0.447    0.179  215.898  128.497
  449.514    4.531    0.449    0.163  215.066  128.530
  449.764    4.579    0.450    0.163  214.603  121.376
  450.014    5.602    0.438    0.126  214.169  113.912
  450.264    5.816    0.405    0.106  214.242  101.646
  450.514    7.181    0.386    0.082  214.315   97.188
  450.764    8.020    0.323    0.054  214.380   93.341
  451.014    8.482    0.307    0.063  214.471   94.274
  451.264    7.897    0.333    0.090  216.087  109.633
  451.514    7.695    0.391    0.156  216.087  119.885
  451.764    7.778    0.431    0.193  216.234  120.523
  452.014    8.150    0.443    0.228  217.315  119.076
  452.264    8.618    0.450    0.236  217.942  118.209
  452.514    9.284    0.473    0.265  218.478  114.356
  452.764    9.906    0.462    0.280  219.059  108.693
  453.014   10.573    0.419    0.245  219.059  108.741
  453.264   10.683    0.422    0.278  219.261  122.594
  453.514   10.037    0.442    0.326  218.771  135.541
  453.764    7.936    0.474    0.337  218.835  143.398
  454.014    6.624    0.510    0.341  218.419  144.347
  454.264    5.482    0.559    0.347  217.984  141.078
  454.514    5.482    0.536    0.364  218.113  138.432
  454.764    5.347    0.488    0.287  218.140  139.665
  455.014    4.465    0.460    0.284  218.195  142.114
  455.264    4.272    0.516    0.268  218.287  144.858
  455.514    4.272    0.533    0.247  218.351  144.307
  455.764    4.131    0.538    0.224  218.425  144.950
  456.014    3.951    0.527    0.193  218.498  146.194
  456.264    3.815    0.512    0.161  219.079  143.231
  456.514    3.822    0.489    0.134  219.153  124.663
  456.764    4.042    0.468    0.106  219.153  110.903
  457.014    4.854    0.430    0.131  219.336   97.437
  457.264    6.048    0.403    0.167  218.366   81.270
  457.514    6.631    0.379    0.203  218.366   75.011
  457.764    6.950    0.373    0.219  217.515   75.355
  458.014    6.898    0.403    0.241  216.553  100.916
  458.264    6.540    0.455    0.262  216.553  105.161
  458.514    5.460    0.460    0.236  216.192  106.110
  458.764    5.037    0.438    0.231  213.734   98.946
  459.014    4.245    0.403    0.224  210.250   83.679
  459.264    4.245    0.389    0.214  206.757   75.620
  459.514    4.257    0.385    0.231  196.668   67.261
  459.764    4.261    0.397    0.260  195.226   65.809
  460.014    4.307    0.414    0.281  192.241   72.454
  460.264    4.307    0.427    0.297  185.256   82.701
  460.514    4.321    0.439    0.318  183.759   86.351
  460.764    4.324    0.451    0.329  183.759   86.094
  461.014    4.324    0.454    0.304  181.410   84.942
  461.264    4.336    0.459    0.314  179.923   83.185
  461.514    4.383    0.448    0.315  178.472   79.922
  461.764    4.510    0.402    0.295  177.030   68.862
  462.014    4.640    0.318    0.216  175.570   66.205
  462.264    4.908    0.330    0.225  175.181   66.243
  462.514    4.908    0.367    0.271  174.183   72.899
