~VERSION INFORMATION
 VERS.                 2.0:   CWLS LOG ASCII STANDARD -VERSION 2.0
 WRAP.                  NO:   ONE LINE PER DEPTH STEP
~WELL INFORMATION BLOCK
#MNEM.UNIT           DATA                    DESCRIPTION OF MNEMONIC
#---------    -------------------            -------------------------------
# Generated from Intellog Unique Number	CS_77_79/WELL/889
WELL.         KANDEX HOMESTEAD THORNBURY     : Well_name    - WELL
LOC .         00/07-01-079-13W4/0            : Location     - LOCATION
UWI .         00/07-01-079-13W4/0            : Uwi          - UNIQUE WELL ID
ENTR.         JHS                            : Entered      - ENTERED BY
SRVC.         SCHLUMBERGER                   : Scn          - SERVICE COMPANY
STRT.M        259.08                         : top_depth    - START DEPTH
STOP.M        493.58                         : bot_depth    - STOP DEPTH
STEP.M        0.25                           : increment    - STEP LENGTH
 NULL. -999.2500:NULL Value
~CURVE INFORMATION BLOCK
#MNEM UNIT       ERCB CURVE CODE    CURVE DESCRIPTION
#-----------   ------------------   ----------------------------------
DEPT.M        00 001 00 00         : DEPTH        - DEPTH
RHOB.KG/M3    00 350 00 00         : DENS         - BULK DENSITY
GR  .API      00 310 00 00         : GR           - GAMMA RAY
DPHI.V/V      00 890 00 00         : PHID         - DENSITY POROSITY (SANDSTONE)
NPHI.V/V      00 330 00 00         : PHIN         - NEUTRON POROSITY (SANDSTONE)
ILD .OHMM     00 120 00 00         : RESD         - DEEP RESISTIVITY (DIL)
~PARAMETER INFORMATION
#MNEM.UNIT           DATA             DESCRIPTION OF MNEMONIC
#---------         -----------     ------------------------------
GL  .M        679.399              : gl           - GROUND LEVEL ELEVATION
EREF.M        683.057              : kb           - ELEVATION OF DEPTH REFERENCE
DATM.M        683.057              : datum        - DATUM ELEVATION
TDD .M        499.872              : tdd          - TOTAL DEPTH DRILLER
RUN .         ONE                  : Run          - RUN NUMBER
ENG .         BILL                 : Engineer     - RECORDING ENGINEER
WIT .         JIM                  : Witness      - WITNESSED BY
MUD .         GEL                  : Mud_type     - MUD TYPE
MATR.         SANDSTONE            : Logunit      - NEUTRON MATRIX
TMAX.C        21.6667              : BHT          - MAXIMUM RECORDED TEMPERATURE
BHTD.M        499.872              : BHTDEP       - MAXIMUM RECORDED TEMPERATURE
MATR.         1                    : LOGUNIT      - NEUTRON MATRIX
RMT .C        25                   : MDTP         - TEMPERATURE OF MUD
NEUT.         1                    : NEUTRON      - NEUTRON TYPE
RESI.         0                    : RESIST       - RESISTIVITY TYPE
RMC .OHMM     0.25                 : RMC          - RESISTIVITY OF MUD CAKE
RMF .OHMM     0.25                 : RMF          - RESISTIVITY OF MUD FILTRATE
SUFT.C        15                   : SUFT         - SURFACE TEMPERATURE
~A  DEPTH     DENS       GR     PHID     PHIN     RESD
# ...
  405.080    0.000   65.158    0.337    0.477    6.358
  405.330    0.000   64.498    0.339    0.485    6.160
  405.580    0.000   64.543    0.327    0.488    6.130
  405.830   -0.000   64.557    0.341    0.485    6.130
  406.080   -0.000   64.576    0.331    0.479    6.127
  406.330   -0.000   64.635    0.342    0.478    6.296
  406.580    0.000   65.735    0.354    0.467    6.497
  406.830    0.000   65.829    0.314    0.438    6.742
  407.080    0.000   65.108    0.289    0.376    7.028
  407.330   -0.000   62.766    0.126    0.339    7.355
  407.580   -0.000   58.032    0.071    0.258    8.281
  407.830   -0.000   56.092    0.052    0.248    9.855
  408.080    0.000   58.508    0.053    0.260   11.985
  408.330    0.000   61.585    0.065    0.287   14.051
  408.580   -0.000   66.373    0.122    0.316   14.323
  408.830   -0.000   68.529    0.227    0.375   13.375
  409.080   -0.000   69.407    0.306    0.464   11.483
  409.330    0.000   68.313    0.331    0.466    9.085
  409.580    0.000   70.126    0.327    0.466    7.731
  409.830    0.000   72.772    0.320    0.469    6.755
  410.080   -0.000   73.780    0.330    0.471    6.371
  410.330   -0.000   72.938    0.321    0.479    6.170
  410.580   -0.000   71.959    0.323    0.487    6.307
  410.830    0.000   70.342    0.310    0.478    6.302
  411.080    0.000   69.334    0.316    0.476    6.278
  411.330   -0.000   69.597    0.337    0.483    6.081
  411.580   -0.000   71.302    0.344    0.489    5.888
  411.830   -0.000   71.334    0.337    0.489    5.839
  412.080    0.000   70.304    0.344    0.489    5.755
  412.330    0.000   69.549    0.350    0.487    5.769
  412.580    0.000   70.384    0.351    0.489    5.645
  412.830   -0.000   71.392    0.341    0.482    5.656
  413.080   -0.000   72.576    0.326    0.475    5.621
  413.330   -0.000   75.346    0.326    0.480    5.450
  413.580    0.000   76.424    0.338    0.482    5.468
  413.830    0.000   76.195    0.317    0.478    5.348
  414.080    0.000   75.152    0.311    0.474    5.362
  414.330   -0.000   72.899    0.331    0.472    5.284
  414.580   -0.000   72.226    0.329    0.461    5.379
  414.830    0.000   73.377    0.333    0.457    5.368
  415.080    0.000   73.657    0.336    0.471    5.377
  415.330    0.000   75.544    0.334    0.484    5.413
  415.580   -0.000   76.992    0.336    0.482    5.587
  415.830   -0.000   77.770    0.323    0.479    5.596
  416.080   -0.000   77.824    0.335    0.482    5.477
  416.330    0.000   79.461    0.342    0.484    5.467
  416.580    0.000   79.211    0.325    0.477    5.720
  416.830    0.000   79.556    0.309    0.470    5.700
  417.080   -0.000   80.853    0.315    0.475    5.717
  417.330   -0.000   82.145    0.313    0.472    5.625
  417.580    0.000   83.833    0.293    0.463    5.708
  417.830    0.002   85.419    0.281    0.458    5.841
  418.080    0.013   87.093    0.287    0.460    5.715
  418.330   -0.039   88.680    0.275    0.464    5.522
  418.580   -1.238   89.000    0.260    0.462    5.308
  418.830   -6.709   89.999    0.245    0.458    4.992
  419.080   46.331   90.099    0.260    0.458    4.921
  419.330 1075.730   87.388    0.255    0.459    5.066
  419.580 2246.450   86.069    0.250    0.448    5.353
  419.830 2274.870   82.610    0.259    0.446    5.704
  420.080 2251.460   83.365    0.269    0.447    6.010
  420.330 2242.600   87.076    0.273    0.455    6.186
  420.580 2215.290   89.038    0.289    0.455    6.183
  420.830 2204.490   90.098    0.296    0.452    6.162
  421.080 2236.490   89.492    0.277    0.458    5.970
  421.330 2252.410   86.631    0.268    0.465    5.859
  421.580 2289.550   88.016    0.246    0.473    5.719
  421.830 2296.990   88.903    0.242    0.480    5.646
  422.080 2271.520   87.865    0.256    0.493    5.647
  422.330 2263.870   87.573    0.261    0.497    5.640
  422.580 2289.340   87.496    0.246    0.479    5.537
  422.830 2298.570   88.518    0.241    0.465    5.662
  423.080 2304.280   89.500    0.237    0.454    5.779
  423.330 2318.090   88.470    0.229    0.456    5.876
  423.580 2320.820   87.702    0.228    0.448    6.044
  423.830 2301.740   87.096    0.239    0.447    6.109
  424.080 2317.240   88.147    0.230    0.458    6.190
  424.330 2312.800   89.265    0.232    0.455    6.227
  424.580 2328.300   90.746    0.223    0.446    6.237
  424.830 2337.360   92.115    0.218    0.440    6.042
  425.080 2347.800   93.445    0.212    0.441    5.993
  425.330 2327.080   94.999    0.224    0.435    5.899
  425.580 2355.320   96.026    0.207    0.423    5.950
  425.830 2371.570   96.259    0.198    0.417    6.148
  426.080 2343.030   95.151    0.215    0.417    6.330
  426.330 2364.880   96.133    0.202    0.421    6.682
  426.580 2354.620   98.844    0.208    0.424    6.880
  426.830 2355.690  100.150    0.207    0.444    6.923
  427.080 2323.970  101.778    0.226    0.448    6.857
  427.330 2346.220  101.059    0.213    0.438    6.646
  427.580 2352.950   99.138    0.209    0.434    6.326
  427.830 2323.460   96.532    0.226    0.442    5.985
  428.080 2301.320   94.549    0.239    0.448    5.844
  428.330 2366.400   92.119    0.201    0.456    5.493
  428.580 2359.350   90.472    0.205    0.467    5.411
  428.830 2365.160   89.532    0.202    0.483    4.984
  429.080 2374.220   88.528    0.196    0.495    4.739
  429.330 2328.760   87.532    0.223    0.513    4.492
  429.580 2238.060   86.021    0.276    0.530    3.967
  429.830 2229.920   84.517    0.281    0.548    3.397
  430.080 2248.520   82.052    0.270    0.546    2.881
  430.330 2248.240   79.623    0.270    0.542    2.421
  430.580 2218.640   80.206    0.287    0.541    2.140
  430.830 2242.490   81.962    0.273    0.540    2.029
  431.080 2267.750   84.320    0.259    0.538    1.988
  431.330 2275.810   86.471    0.254    0.532    1.996
  431.580 2327.050   85.811    0.224    0.519    2.101
  431.830 2308.260   85.466    0.235    0.490    2.202
  432.080 2333.890   85.129    0.220    0.466    2.485
  432.330 2307.480   86.148    0.235    0.458    2.893
  432.580 2383.770   86.382    0.191    0.449    3.562
  432.830 2375.270   85.720    0.196    0.442    4.103
  433.080 2327.520   85.502    0.224    0.426    4.819
  433.330 2358.300   87.670    0.206    0.415    5.392
  433.580 2355.060   88.848    0.208    0.420    5.725
  433.830 2374.100   87.409    0.196    0.457    5.674
  434.080 2332.360   87.052    0.221    0.479    5.331
  434.330 2331.630   86.500    0.221    0.485    4.787
  434.580 2380.750   84.975    0.193    0.470    4.396
  434.830 2352.280   86.637    0.209    0.440    4.354
  435.080 2365.470   88.594    0.201    0.406    4.892
  435.330 2396.130   91.671    0.184    0.403    5.372
  435.580 2386.270   92.462    0.189    0.419    5.893
  435.830 2400.010   91.961    0.181    0.436    6.215
  436.080 2387.690   92.879    0.188    0.454    6.073
  436.330 2312.870   96.838    0.232    0.478    5.665
  436.580 2329.710   96.293    0.222    0.501    4.854
  436.830 2343.790   97.972    0.214    0.500    4.294
  437.080 2301.020  101.037    0.239    0.491    3.925
  437.330 2334.870  103.873    0.219    0.499    3.617
  437.580 2375.350  104.708    0.196    0.505    3.415
  437.830 2364.530  102.152    0.202    0.498    3.376
  438.080 2358.210   97.330    0.206    0.485    3.414
  438.330 2376.330   94.993    0.195    0.472    3.459
  438.580 2367.160   96.563    0.200    0.466    3.576
  438.830 2365.860   98.414    0.201    0.470    3.789
  439.080 2386.810   98.660    0.189    0.468    3.942
  439.330 2339.800   97.588    0.216    0.468    4.075
  439.580 2329.820   97.492    0.222    0.468    4.091
  439.830 2349.180   97.461    0.211    0.464    4.099
  440.080 2373.000   98.023    0.197    0.455    4.021
  440.330 2387.770   99.647    0.188    0.444    4.043
  440.580 2377.290  101.711    0.195    0.440    4.178
  440.830 2360.900  100.481    0.204    0.448    4.274
  441.080 2334.170   97.417    0.220    0.457    4.271
  441.330 2328.240   90.686    0.223    0.447    4.334
