~VERSION INFORMATION
 VERS.                 2.0:   CWLS LOG ASCII STANDARD -VERSION 2.0
 WRAP.                  NO:   ONE LINE PER DEPTH STEP
~WELL INFORMATION BLOCK
#MNEM.UNIT           DATA                    DESCRIPTION OF MNEMONIC
#---------    -------------------            -------------------------------
# Generated from Intellog Unique Number	CS_77_79/WELL/917
WELL.         ICGR GRAHAM                    : Well_name    - WELL
LOC .         00/08-09-079-05W4/0            : Location     - LOCATION
UWI .         00/08-09-079-05W4/0            : Uwi          - UNIQUE WELL ID
ENTR.         JHS                            : Entered      - ENTERED BY
SRVC.         SCHLUMBERGER                   : Scn          - SERVICE COMPANY
STRT.M        95                             : top_depth    - START DEPTH
STOP.M        330                            : bot_depth    - STOP DEPTH
STEP.M        0.25                           : increment    - STEP LENGTH
 NULL. -999.2500:NULL Value
~CURVE INFORMATION BLOCK
#MNEM UNIT       ERCB CURVE CODE    CURVE DESCRIPTION
#-----------   ------------------   ----------------------------------
DEPT.M        00 001 00 00         : DEPTH        - DEPTH
DPHI.V/V      00 890 00 00         : PHID         - DENSITY POROSITY (LIMESTONE)
NPHI.V/V      00 330 00 00         : PHIN         - NEUTRON POROSITY (LIMESTONE)
GR  .API      00 310 00 00         : GR           - GAMMA RAY
ILD .OHMM     00 120 00 00         : RESD         - DEEP RESISTIVITY (DIL)
RHOB.KG/M3    00 350 00 00         : DENS         - BULK DENSITY
~PARAMETER INFORMATION
#MNEM.UNIT           DATA             DESCRIPTION OF MNEMONIC
#---------         -----------     ------------------------------
GL  .M        510.2                : gl           - GROUND LEVEL ELEVATION
EREF.M        513.2                : kb           - ELEVATION OF DEPTH REFERENCE
DATM.M        513.2                : datum        - DATUM ELEVATION
TDD .M        339                  : tdd          - TOTAL DEPTH DRILLER
RUN .         ONE                  : Run          - RUN NUMBER
ENG .         BILL                 : Engineer     - RECORDING ENGINEER
WIT .         JIM                  : Witness      - WITNESSED BY
MUD .         GEL                  : Mud_type     - MUD TYPE
MATR.         LIMESTONE            : Logunit      - NEUTRON MATRIX
TMAX.C        24                   : BHT          - MAXIMUM RECORDED TEMPERATURE
BHTD.M        339                  : BHTDEP       - MAXIMUM RECORDED TEMPERATURE
MATR.         1                    : LOGUNIT      - NEUTRON MATRIX
RMT .C        25                   : MDTP         - TEMPERATURE OF MUD
NEUT.         1                    : NEUTRON      - NEUTRON TYPE
RESI.         0                    : RESIST       - RESISTIVITY TYPE
RMC .OHMM     0.25                 : RMC          - RESISTIVITY OF MUD CAKE
RMF .OHMM     0.25                 : RMF          - RESISTIVITY OF MUD FILTRATE
SUFT.C        15                   : SUFT         - SURFACE TEMPERATURE
~A  DEPTH     PHID     PHIN       GR     RESD     DENS
# ...
  241.000    0.257    0.414   83.307    5.960 2270.320
  241.250    0.236    0.439   79.075    6.194 2305.990
  241.500    0.226    0.428   75.456    5.541 2322.830
  241.750    0.232    0.446   87.082    4.862 2312.520
  242.000    0.259    0.511   92.607    4.347 2266.700
  242.250    0.254    0.494   93.258    4.113 2275.190
  242.500    0.242    0.483   86.597    3.892 2296.240
  242.750    0.249    0.517   82.374    3.753 2283.840
  243.000    0.255    0.506   87.277    3.619 2273.510
  243.250    0.241    0.492   94.643    3.554 2298.740
  243.500    0.245    0.495   94.068    3.492 2290.520
  243.750    0.253    0.504   91.055    3.432 2278.160
  244.000    0.252    0.498   91.719    3.435 2278.320
  244.250    0.251    0.498   93.582    3.375 2280.480
  244.500    0.250    0.511   94.228    3.315 2282.700
  244.750    0.251    0.522   96.704    3.257 2280.770
  245.000    0.257    0.526   97.357    3.262 2270.440
  245.250    0.259    0.534   93.734    3.264 2266.430
  245.500    0.258    0.523   89.509    3.393 2268.650
  245.750    0.260    0.511   86.490    3.733 2264.590
  246.000    0.265    0.484   84.700    4.183 2256.370
  246.250    0.273    0.447   84.742    4.868 2244.000
  246.500    0.275    0.424   81.731    5.666 2239.970
  246.750    0.266    0.424   81.159    5.889 2254.700
  247.000    0.250    0.470   87.909    5.678 2282.020
  247.250    0.248    0.484   89.773    5.174 2286.360
  247.500    0.244    0.464   89.205    4.989 2292.730
  247.750    0.221    0.464   89.862    4.996 2332.560
  248.000    0.166    0.456   86.850    5.193 2426.710
  248.250    0.114    0.428   79.576    6.157 2514.590
  248.500    0.040    0.376   68.629    7.032 2642.180
  248.750    0.013    0.358   58.915    7.448 2688.300
  249.000    0.097    0.373   72.371    7.457 2544.260
  249.250    0.217    0.421   80.948    7.056 2339.660
  249.500    0.245    0.435   79.769    6.932 2291.760
  249.750    0.257    0.407   75.553    7.208 2270.990
  250.000    0.305    0.329   67.350    7.594 2188.630
  250.250    0.317    0.334   65.519    6.787 2167.730
  250.500    0.307    0.351   66.141    5.734 2184.510
  250.750    0.293    0.383   69.208    4.754    0.000
  251.000    0.289    0.454   75.951    3.657 2215.990
  251.250    0.283    0.517   81.469    3.394 2226.480
  251.500    0.288    0.522   83.314    3.332 2218.140
  251.750    0.308    0.487   78.424    3.730 2182.580
  252.000    0.323    0.364   65.573    5.535 2157.480
  252.250    0.341    0.204   55.785    8.059 2126.110
  252.500    0.370    0.130   53.344   12.415 2077.980
  252.750    0.374    0.104   53.352   18.419 2069.640
  253.000    0.363    0.109   49.686   36.903 2088.520
  253.250    0.392    0.090   45.408   56.850 2040.390
  253.500    0.412    0.068   43.578   63.651 2004.820
  253.750    0.414    0.063   42.361   67.361 2002.770
  254.000    0.406    0.072   43.593   76.844 2015.360
  254.250    0.405    0.076   50.336   78.331 2017.490
  254.500    0.407    0.078   63.201   76.906 2013.330
  254.750    0.398    0.083   63.820   78.383 2030.120
  255.000    0.399    0.071   49.133   92.842 2028.060
  255.250    0.412    0.049   37.510  118.544 2005.050
  255.500    0.438    0.040   33.230  143.067 1961.120
  255.750    0.445    0.036   31.402  172.676 1948.580
  256.000    0.442    0.039   33.245  193.330 1954.900
  256.250    0.423    0.045   34.477  200.791 1986.340
  256.500    0.395    0.053   32.649  197.134 2034.530
  256.750    0.383    0.067   28.984  189.931 2055.500
  257.000    0.391    0.052   25.929  172.976 2040.880
  257.250    0.402    0.050   24.712  154.607 2022.070
  257.500    0.395    0.057   33.903  157.590 2034.660
  257.750    0.400    0.046   36.361  169.940 2026.320
  258.000    0.416    0.032   29.633  190.270 1999.130
  258.250    0.419    0.042   30.253  205.171 1992.880
  258.500    0.402    0.059   32.097  217.139 2022.230
  258.750    0.405    0.053   27.207  205.320 2018.080
  259.000    0.411    0.047   29.664  194.160 2007.640
  259.250    0.414    0.056   33.345  205.459 2001.390
  259.500    0.419    0.043   33.352  221.564 1993.050
  259.750    0.416    0.032   32.749  213.472 1999.360
  260.000    0.387    0.037   35.204  187.255 2047.550
  260.250    0.371    0.057   39.499  141.347 2074.800
  260.500    0.369    0.073   37.057  100.858 2079.020
  260.750    0.385    0.082   32.167   83.628 2051.830
  261.000    0.403    0.074   31.561   74.743 2020.460
  261.250    0.396    0.075   31.571   64.348 2033.050
  261.500    0.387    0.090   31.578   63.173 2047.750
  261.750    0.371    0.090   30.971   64.393 2075.000
  262.000    0.365    0.066   29.144   59.756 2085.500
  262.250    0.370    0.080   29.150   51.439 2077.160
  262.500    0.374    0.103   29.158   38.108 2070.910
  262.750    0.375    0.137   29.779   29.866 2068.860
  263.000    0.364    0.216   27.948   12.599 2087.730
  263.250    0.341    0.272   26.119    6.293 2127.540
  263.500    0.305    0.320   23.679    5.025 2188.300
  263.750    0.292    0.338   23.073    4.492 2211.370
  264.000    0.309    0.347   24.918    4.168 2182.090
  264.250    0.316    0.347   26.150    4.016 2169.550
  264.500    0.298    0.347   23.709    4.018 2200.990
  264.750    0.287    0.342   21.880    4.019 2219.870
  265.000    0.292    0.332   21.887    4.097 2211.520
  265.250    0.315    0.327   24.344    4.022 2171.770
  265.500    0.322    0.334   28.637    3.949 2159.250
  265.750    0.318    0.358   30.481    3.876 2165.560
  266.000    0.311    0.376   29.264    3.805 2178.160
  266.250    0.307    0.375   26.823    3.736 2184.470
  266.500    0.317    0.367   29.279    3.738 2167.750
  266.750    0.331    0.356   42.145    3.809 2144.750
  267.000    0.337    0.360   58.071    3.883 2134.310
  267.250    0.272    0.402   67.262    4.033 2245.320
  267.500    0.250    0.432   62.373    4.189 2283.040
  267.750    0.253    0.460   50.747    4.270 2276.800
  268.000    0.280    0.437   38.510    4.271 2230.760
  268.250    0.356    0.443   36.681    4.193 2100.970
  268.500    0.376    0.464   34.240    4.117 2067.500
  268.750    0.373    0.470   30.573    4.042 2071.740
  269.000    0.362    0.423   26.907    3.894 2090.610
  269.250    0.346    0.406   29.364    3.823 2117.860
  269.500    0.333    0.394   32.434    3.684 2140.920
  269.750    0.318    0.381   33.664    3.616 2166.080
  270.000    0.317    0.374   31.835    3.618 2168.210
  270.250    0.328    0.376   28.781    3.552 2149.400
  270.500    0.323    0.363   26.953    3.553 2157.800
  270.750    0.312    0.358   29.410    3.488 2176.680
  271.000    0.312    0.369   30.028    3.489 2176.710
  271.250    0.319    0.369   26.363    3.425 2164.190
  271.500    0.309    0.363   22.697    3.427 2180.960
  271.750    0.301    0.362   25.154    3.428 2195.660
  272.000    0.309    0.357   30.059    3.429 2181.040
  272.250    0.308    0.350   31.294    3.496 2183.160
  272.500    0.304    0.356   30.077    3.497 2189.480
  272.750    0.306    0.356   28.247    3.564 2187.420
  273.000    0.312    0.345   26.417    3.702 2176.970
  273.250    0.308    0.341   27.648    3.773 2183.290
  273.500    0.287    0.341   36.841    3.846 2218.920
  273.750    0.277    0.350   42.971    3.995 2235.700
  274.000    0.268    0.367   45.427    3.996 2252.490
  274.250    0.270    0.391   37.475    3.923 2248.330
  274.500    0.287    0.367   29.526    3.925 2219.050
  274.750    0.309    0.353   29.532    3.853 2181.390
  275.000    0.310    0.345   28.316    3.783 2179.330
  275.250    0.307    0.353   26.485    3.713 2185.650
  275.500    0.307    0.361   27.719    3.645 2185.670
  275.750    0.308    0.360   27.112    3.579 2183.610
  276.000    0.313    0.356   28.345    3.513 2175.270
  276.250    0.314    0.346   32.026    3.515 2173.210
  276.500    0.315    0.340   37.543    3.583 2171.150
  276.750    0.303    0.346   44.899    3.721 2192.120
  277.000    0.281    0.370   51.641    3.865 2229.850
  277.250    0.275    0.380   48.587    3.866 2240.350
