~VERSION INFORMATION
 VERS.                 2.0:   CWLS LOG ASCII STANDARD -VERSION 2.0
 WRAP.                  NO:   ONE LINE PER DEPTH STEP
~WELL INFORMATION BLOCK
#MNEM.UNIT           DATA                    DESCRIPTION OF MNEMONIC
#---------    -------------------            -------------------------------
# Generated from Intellog Unique Number	CW_79_81/WELL/185
WELL.         01-27-079-23W4                 : Well_name    - WELL
LOC .         00/01-27-079-23W4/0            : Location     - LOCATION
UWI .         00/01-27-079-23W4/0            : Uwi          - UNIQUE WELL ID
ENTR.         MAX                            : Entered      - ENTERED BY
SRVC.         COMPUTALOG                     : Scn          - SERVICE COMPANY
STRT.M        225                            : top_depth    - START DEPTH
STOP.M        465                            : bot_depth    - STOP DEPTH
STEP.M        0.25                           : increment    - STEP LENGTH
 NULL. -999.2500:NULL Value
~CURVE INFORMATION BLOCK
#MNEM UNIT       ERCB CURVE CODE    CURVE DESCRIPTION
#-----------   ------------------   ----------------------------------
DEPT.M        00 001 00 00         : DEPTH        - DEPTH
GR  .API      00 310 00 00         : GR           - GAMMA RAY
ILD .OHMM     00 120 00 00         : RESD         - DEEP RESISTIVITY (DIL)
NPHI.V/V      00 330 00 00         : PHIN         - NEUTRON POROSITY (SANDSTONE)
DPHI.V/V      00 890 00 00         : PHID         - DENSITY POROSITY (SANDSTONE)
CALI.MM       00 280 01 00         : CAL          - CALIPER
~PARAMETER INFORMATION
#MNEM.UNIT           DATA             DESCRIPTION OF MNEMONIC
#---------         -----------     ------------------------------
GL  .M        563.6                : gl           - GROUND LEVEL ELEVATION
EREF.M        568.6                : kb           - ELEVATION OF DEPTH REFERENCE
DATM.M        563.6                : datum        - DATUM ELEVATION
TDD .M        580                  : tdd          - TOTAL DEPTH DRILLER
RUN .         ONE                  : Run          - RUN NUMBER
ENG .         BILL                 : Engineer     - RECORDING ENGINEER
WIT .         JIM                  : Witness      - WITNESSED BY
MUD .         GEL                  : Mud_type     - MUD TYPE
MATR.         SANDSTONE            : Logunit      - NEUTRON MATRIX
TMAX.C        28                   : BHT          - MAXIMUM RECORDED TEMPERATURE
BHTD.M        580                  : BHTDEP       - MAXIMUM RECORDED TEMPERATURE
RMT .C        15.6                 : MDTP         - TEMPERATURE OF MUD
MUDD.KG/M     1180                 : MWT          - MUD DENSITY
NEUT.         1                    : NEUTRON      - NEUTRON TYPE
RESI.         0                    : RESIST       - RESISTIVITY TYPE
RM  .OHMM     6.3                  : RM           - RESISTIVITY OF MUD
RMC .OHMM     4.7                  : RMC          - RESISTIVITY OF MUD CAKE
RMF .OHMM     7                    : RMF          - RESISTIVITY OF MUD FILTRATE
SUFT.C        -10                  : SUFT         - SURFACE TEMPERATURE
~A  DEPTH       GR     RESD     PHIN     PHID      CAL
  225.000  100.719    3.080    0.493    0.244  223.710
  225.250  100.399    3.078    0.502    0.244  223.181
  225.500  100.079    3.105    0.507    0.243  223.642
  225.750   99.151    3.103    0.489    0.243  225.113
  226.000   98.232    3.130    0.473    0.242  226.584
  226.250   96.409    3.398    0.466    0.249  225.048
  226.500   93.383    4.084    0.472    0.257  226.018
  226.750   90.355    4.476    0.458    0.253  227.990
  227.000   87.332    5.581    0.443    0.256  227.457
  227.250   81.299    7.774    0.432    0.286  225.416
  227.500   70.755    9.693    0.426    0.304  222.883
  227.750   60.514   11.021    0.421    0.330  220.838
  228.000   55.680   11.642    0.422    0.343  219.804
  228.250   55.658   11.742    0.426    0.346  219.274
  228.500   56.242   11.521    0.427    0.345  219.739
  228.750   57.423   11.096    0.427    0.337  219.210
  229.000   58.005   10.787    0.430    0.330  219.174
  229.250   57.384   10.583    0.434    0.328  220.144
  229.500   57.666   10.674    0.435    0.321  220.103
  229.750   56.747   10.968    0.429    0.313  220.075
  230.000   55.823   10.661    0.422    0.304  220.039
  230.250   56.403    9.626    0.425    0.291  219.505
  230.500   55.484    9.445    0.427    0.285  219.477
  230.750   53.059    9.704    0.424    0.322  219.946
  231.000   50.933   10.833    0.422    0.338  221.417
  231.250   50.310   12.092    0.425    0.341  223.878
  231.500   50.591   13.252    0.436    0.342  224.351
  231.750   51.777   14.126    0.438    0.344  224.323
  232.000   53.557   14.248    0.424    0.345  224.286
  232.250   53.239   14.373    0.414    0.348  224.254
  232.500   52.318   14.363    0.412    0.350  224.719
  232.750   53.200   14.488    0.417    0.354  224.691
  233.000   51.375   14.478    0.416    0.355  224.153
  233.250   49.248   13.945    0.413    0.343  223.119
  233.500   49.227   12.708    0.412    0.315  223.083
  233.750   48.611   11.476    0.413    0.301  223.552
  234.000   50.395    9.987    0.402    0.298  223.523
  234.250   64.807    8.611    0.406    0.262  223.487
  234.500   91.544    7.564    0.431    0.232  223.948
  234.750  100.845    6.522    0.454    0.212  224.922
  235.000  106.533    5.521    0.460    0.195  225.892
  235.250  105.617    4.940    0.464    0.175  226.862
  235.500  100.486    4.460    0.464    0.166  226.324
  235.750   92.044    4.141    0.467    0.191  225.795
  236.000   94.432    3.739    0.473    0.236  225.759
  236.250   92.309    3.503    0.481    0.249  225.731
  236.500   90.781    3.282    0.486    0.247  226.199
  236.750   91.962    2.963    0.494    0.254  226.159
  237.000   91.642    2.751    0.499    0.262  226.119
  237.250   91.327    2.674    0.513    0.268  226.095
  237.500   91.305    2.697    0.511    0.274  225.553
  237.750   91.584    2.822    0.502    0.274  225.525
  238.000   91.565    2.982    0.493    0.280  224.992
  238.250   90.946    3.857    0.485    0.290  224.959
  238.500   88.820    4.900    0.472    0.297  224.430
  238.750   86.093    6.281    0.457    0.304  225.392
  239.000   82.167    8.126    0.438    0.316  226.867
  239.250   77.937    8.426    0.431    0.316  228.338
  239.500   78.218    7.968    0.432    0.291  231.308
  239.750   82.408    6.150    0.433    0.265  232.775
  240.000   87.198    5.503    0.431    0.254  232.246
  240.250   92.591    4.969    0.440    0.261  231.207
  240.500   95.876    4.920    0.453    0.286  227.668
  240.750   88.341    5.149    0.459    0.294  225.134
  241.000   80.803    5.964    0.459    0.281  224.096
  241.250   76.276    7.168    0.466    0.260  224.564
  241.500   70.542    8.614    0.467    0.241  223.029
  241.750   67.812   10.643    0.462    0.231  222.993
  242.000   68.998   12.791    0.447    0.238  224.464
  242.250   65.070   17.169    0.438    0.316  222.924
  242.500   62.641   20.446    0.441    0.323  221.886
  242.750   64.130   23.899    0.425    0.337  222.363
  243.000   64.409   25.711    0.420    0.338  223.329
  243.250   60.481   26.420    0.408    0.334  222.791
  243.500   57.155   26.402    0.401    0.324  222.763
  243.750   54.427   26.386    0.397    0.317  223.224
  244.000   53.499   26.861    0.396    0.320  223.200
  244.250   53.787   27.851    0.400    0.332  222.161
  244.500   55.572   28.617    0.408    0.339  222.125
  244.750   56.752   28.860    0.412    0.345  222.097
  245.000   55.531   28.318    0.407    0.352  223.568
  245.250   54.006   27.276    0.403    0.355  224.534
  245.500   54.888   26.513    0.408    0.351  223.992
  245.750   55.771   26.497    0.423    0.350  222.966
  246.000   56.355   28.242    0.418    0.351  221.932
  246.250   57.235   29.019    0.414    0.354  222.400
  246.500   57.512   29.272    0.425    0.354  222.865
  246.750   56.896   28.984    0.427    0.355  224.833
  247.000   55.070   28.171    0.414    0.355  229.311
  247.250   55.051   27.390    0.418    0.351  232.289
  247.500   55.032   25.657    0.425    0.343  237.760
  247.750   54.411   24.489    0.427    0.339  244.246
  248.000   53.187   23.372    0.427    0.341  253.229
  248.250   50.457   22.510    0.424    0.339  255.205
  248.500   50.743   20.898    0.418    0.344  255.169
  248.750   53.126   17.529    0.409    0.344  235.094
  249.000   56.416   13.407    0.394    0.317  229.550
  249.250   62.710   11.141    0.398    0.213  228.507
  249.500   72.011   10.931    0.399    0.243  228.483
  249.750   69.286   13.505    0.393    0.288  228.948
  250.000   59.343   16.381    0.387    0.307  229.914
  250.250   54.213   18.973    0.381    0.319  230.888
  250.500   49.080   20.224    0.389    0.323  231.853
  250.750   46.052   18.432    0.393    0.326  231.825
  251.000   44.828   16.952    0.385    0.324  229.276
  251.250   50.525   16.177    0.383    0.308  226.245
  251.500   52.911   15.440    0.367    0.279  222.697
  251.750   45.672   14.070    0.336    0.242  222.665
  252.000   47.759   12.474    0.347    0.178  224.136
  252.250   57.360   11.160    0.364    0.236  224.609
  252.500   63.654   10.950    0.385    0.258  226.076
  252.750   61.829   11.353    0.388    0.275  226.048
  253.000   51.888   13.395    0.386    0.303  227.510
  253.250   46.453   15.232    0.396    0.318  228.484
  253.500   45.231   19.707    0.407    0.318  231.459
  253.750   44.908   22.826    0.408    0.317  233.427
  254.000   45.192   24.557    0.400    0.319  234.897
  254.250   48.179   23.010    0.403    0.321  234.861
  254.500   49.663   20.776    0.404    0.318  234.833
  254.750   51.147   18.247    0.400    0.312  232.792
  255.000   54.429   15.882    0.400    0.305  231.257
  255.250   58.023   13.569    0.409    0.297  230.716
  255.500   62.212   11.380    0.424    0.279  230.691
  255.750   66.400   10.565    0.429    0.264  230.659
  256.000   70.291    9.989    0.413    0.254  230.619
  256.250   73.874    9.533    0.407    0.257  230.579
  256.500   72.956    9.014    0.411    0.255  230.554
  256.750   72.936    8.446    0.413    0.244  230.021
  257.000   77.427    7.768    0.412    0.239  228.987
  257.250   83.418    7.014    0.418    0.239  229.456
  257.500   86.708    6.632    0.422    0.242  231.428
  257.750   90.296    6.507    0.415    0.242  232.398
  258.000   92.381    6.625    0.406    0.232  232.866
  258.250   91.453    7.062    0.411    0.217  232.834
  258.500   92.037    7.459    0.409    0.209  232.798
  258.750   93.824    7.878    0.393    0.212  229.759
  259.000   92.903    8.169    0.375    0.220  231.222
  259.250   86.565    8.549    0.361    0.231  234.701
  259.500   79.934    8.948    0.360    0.249  232.661
  259.750   71.194    9.626    0.364    0.269  230.127
  260.000   68.469   10.549    0.370    0.275  229.093
  260.250   69.349   11.456    0.389    0.278  228.556
  260.500   72.035   11.988    0.415    0.285  227.521
  260.750   77.129   11.548    0.406    0.276  225.986
  261.000   83.120   10.426    0.404    0.255  223.949
  261.250   80.092    9.502    0.405    0.251  223.412
