~VERSION INFORMATION
 VERS.                 2.0:   CWLS LOG ASCII STANDARD -VERSION 2.0
 WRAP.                  NO:   ONE LINE PER DEPTH STEP
~WELL INFORMATION BLOCK
#MNEM.UNIT           DATA                    DESCRIPTION OF MNEMONIC
#---------    -------------------            -------------------------------
# Generated from Intellog Unique Number	CS_71_72/WELL/3324
WELL.         AEC FOSTER CREEK 7-12          : Well_name    - WELL
LOC .         07-12-071-03W4                 : Location     - LOCATION
UWI .         00/07-12-071-03W4/0            : Uwi          - UNIQUE WELL ID
ENTR.         ANDERSEN                       : Entered      - ENTERED BY
SRVC.         COMPUTALOG                     : Scn          - SERVICE COMPANY
STRT.M        345                            : top_depth    - START DEPTH
STOP.M        571.75                         : bot_depth    - STOP DEPTH
STEP.M        0.25                           : increment    - STEP LENGTH
 NULL. -999.2500:NULL Value
~CURVE INFORMATION BLOCK
#MNEM UNIT       ERCB CURVE CODE    CURVE DESCRIPTION
#-----------   ------------------   ----------------------------------
DEPT.M        00 001 00 00         : DEPTH        - DEPTH
ILD .OHMM     00 120 00 00         : RESD         - DEEP RESISTIVITY (DIL)
CALI.MM       00 280 01 00         : CAL          - CALIPER
DPHI.V/V      00 890 00 00         : PHID         - DENSITY POROSITY (SANDSTONE)
NPHI.V/V      00 330 00 00         : PHIN         - NEUTRON POROSITY (SANDSTONE)
GR  .API      00 310 00 00         : GR           - GAMMA RAY
~PARAMETER INFORMATION
#MNEM.UNIT           DATA             DESCRIPTION OF MNEMONIC
#---------         -----------     ------------------------------
GL  .M        697.61               : gl           - GROUND LEVEL ELEVATION
EREF.M        701.01               : kb           - ELEVATION OF DEPTH REFERENCE
DATM.M        701.01               : datum        - DATUM ELEVATION
TDD .M        585.5                : tdd          - TOTAL DEPTH DRILLER
RUN .         ONE                  : Run          - RUN NUMBER
ENG .         BILL                 : Engineer     - RECORDING ENGINEER
WIT .         JIM                  : Witness      - WITNESSED BY
MUD .         GEL                  : Mud_type     - MUD TYPE
MATR.         SANDSTONE            : Logunit      - NEUTRON MATRIX
TMAX.C        31                   : BHT          - MAXIMUM RECORDED TEMPERATURE
BHTD.M        585.5                : BHTDEP       - MAXIMUM RECORDED TEMPERATURE
RMT .C        15                   : MDTP         - TEMPERATURE OF MUD
MUDD.KG/M     1100                 : MWT          - MUD DENSITY
NEUT.         1                    : NEUTRON      - NEUTRON TYPE
RESI.         0                    : RESIST       - RESISTIVITY TYPE
RM  .OHMM     2.7                  : RM           - RESISTIVITY OF MUD
RMC .OHMM     2.1                  : RMC          - RESISTIVITY OF MUD CAKE
RMF .OHMM     3.5                  : RMF          - RESISTIVITY OF MUD FILTRATE
SUFT.C        15                   : SUFT         - SURFACE TEMPERATURE
~A  DEPTH     RESD      CAL     PHID     PHIN       GR
# ...
  381.500   16.721  163.015    0.211    0.400   80.118
  381.750   16.727  163.954    0.230    0.409   80.708
  382.000   16.733  163.925    0.271    0.416   74.898
  382.250   16.739  163.888    0.300    0.415   66.761
  382.500   16.747  163.874    0.317    0.412   60.370
  382.750   16.753  163.845    0.309    0.416   55.727
  383.000   16.759  163.808    0.293    0.410   59.809
  383.250   16.165  164.748    0.282    0.417   66.221
  383.500   15.311  164.733    0.278    0.432   70.887
  383.750   14.239  164.704    0.271    0.460   76.718
  384.000   12.540  164.675    0.258    0.504   82.548
  384.250   11.244  165.621    0.241    0.546   90.129
  384.500    9.547  165.592    0.228    0.561   94.211
  384.750    8.562  166.539    0.209    0.574   99.461
  385.000    7.540  167.485    0.203    0.555   98.308
  385.250    6.886  168.432    0.197    0.532  101.810
  385.500    6.404  169.371    0.200    0.519  104.148
  385.750    6.525  169.334    0.202    0.496  101.828
  386.000    6.648  169.298    0.206    0.482   98.932
  386.250    6.772  169.276    0.219    0.483   97.196
  386.500    6.775  169.240    0.237    0.486   94.876
  386.750    6.777  169.218    0.226    0.482   94.887
  387.000    6.780  168.221    0.219    0.475   97.809
  387.250    6.782  167.216    0.217    0.474  101.309
  387.500    6.785  166.204    0.207    0.473  100.156
  387.750    6.788  166.175    0.203    0.470  100.166
  388.000    6.789  166.139    0.204    0.463  104.250
  388.250    6.917  166.124    0.213    0.468  101.933
  388.500    7.308  166.095    0.223    0.468   96.706
  388.750    7.582  166.052    0.236    0.467   92.060
  389.000    7.866  166.037    0.243    0.474   85.672
  389.250    8.160  166.008    0.243    0.477   78.117
  389.500    8.466  166.947    0.232    0.482   80.455
  389.750    8.784  166.926    0.234    0.501   86.288
  390.000    8.950  167.872    0.240    0.499   82.224
  390.250    8.952  167.843    0.234    0.482   79.904
  390.500    9.121  167.807    0.222    0.465   82.243
  390.750    9.124  168.753    0.227    0.463   85.163
  391.000    9.129  168.724    0.222    0.452   86.337
  391.250    9.130  168.695    0.209    0.431   88.094
  391.500    9.302  168.666    0.216    0.417   89.268
  391.750    9.478  167.661    0.231    0.413   85.205
  392.000    9.654  165.674    0.237    0.407   78.814
  392.250   10.200  165.637    0.252    0.408   71.840
  392.500   10.777  165.616    0.250    0.411   63.703
  392.750   11.386  165.594    0.258    0.405   59.058
  393.000   12.031  164.575    0.266    0.405   60.232
  393.250   12.482  164.560    0.269    0.413   60.245
  393.500   12.950  164.524    0.267    0.411   58.510
  393.750   13.193  164.488    0.263    0.402   57.938
  394.000   13.440  164.466    0.260    0.395   59.113
  394.250   13.444  165.412    0.254    0.396   60.287
  394.500   13.449  165.390    0.256    0.403   59.131
  394.750   13.454  165.347    0.261    0.404   60.311
  395.000   13.960  164.349    0.267    0.403   59.736
  395.250   14.222  164.328    0.274    0.392   56.837
  395.500   14.489  164.284    0.276    0.398   53.358
  395.750   14.759  164.270    0.280    0.408   51.038
  396.000   14.765  164.226    0.300    0.407   49.887
  396.250   14.770  164.197    0.301    0.401   52.223
  396.500   14.248  164.168    0.284    0.408   56.892
  396.750   14.252  164.131    0.271    0.412   59.230
  397.000   14.001  164.117    0.266    0.410   62.730
  397.250   14.006  164.088    0.263    0.407   61.579
  397.500   14.268  165.034    0.272    0.402   59.259
  397.750   14.535  165.973    0.287    0.395   55.780
  398.000   15.359  165.952    0.291    0.406   55.788
  398.250   15.934  165.908    0.299    0.413   55.217
  398.500   16.532  165.879    0.314    0.410   49.992
  398.750   16.840  165.857    0.318    0.407   44.762
  399.000   17.156  165.814    0.322    0.410   41.865
  399.250   17.478  165.799    0.337    0.413   43.040
  399.500   18.136  165.770    0.338    0.410   42.468
  399.750   18.476  165.734    0.332    0.410   40.733
  400.000   18.821  165.712    0.340    0.416   40.161
  400.250   19.174  165.675    0.342    0.424   37.264
  400.500   19.534  165.661    0.342    0.421   36.111
  400.750   19.900  165.625    0.343    0.414   36.121
  401.000   19.909  165.595    0.342    0.418   33.801
  401.250   19.916  165.559    0.335    0.414   35.558
  401.500   19.923  165.523    0.323    0.400   40.224
  401.750   19.929  165.508    0.310    0.383   44.308
  402.000   19.936  165.479    0.315    0.378   48.977
  402.250   19.943  165.436    0.327    0.389   46.657
  402.500   19.952  165.414    0.328    0.403   43.758
  402.750   19.960  165.392    0.332    0.426   40.861
  403.000   19.967  165.356    0.334    0.438   37.961
  403.250   19.972  165.334    0.322    0.427   39.133
  403.500   19.980  165.298    0.291    0.431   42.635
  403.750   19.987  165.268    0.286    0.426   47.886
  404.000   19.994  165.239    0.312    0.421   49.058
  404.250   20.001  166.186    0.309    0.425   45.577
  404.500   20.010  166.164    0.316    0.427   43.259
  404.750   20.018  166.128    0.336    0.427   43.272
  405.000   20.025  166.099    0.337    0.421   41.539
  405.250   20.032  166.077    0.332    0.416   39.219
  405.500   20.410  166.048    0.337    0.413   38.066
  405.750   20.417  166.019    0.343    0.414   39.240
  406.000   20.802  165.982    0.348    0.416   41.581
  406.250   21.188  165.946    0.348    0.415   37.515
  406.500   21.196  165.931    0.332    0.413   34.036
  406.750   21.593  165.895    0.314    0.408   35.793
  407.000   21.998  165.859    0.301    0.415   32.311
  407.250   22.006  165.822    0.308    0.429   33.483
  407.500   22.014  165.808    0.314    0.427   38.731
  407.750   22.022  165.772    0.328    0.424   36.996
  408.000   22.030  165.750    0.337    0.413   34.096
  408.250   22.444  165.699    0.353    0.403   30.615
  408.500   22.452  165.692    0.365    0.427   30.044
  408.750   22.873  165.663    0.353    0.438   31.800
  409.000   22.881  165.633    0.336    0.437   34.138
  409.250   22.893  165.597    0.327    0.435   35.895
  409.500   22.902  165.568    0.332    0.421   35.905
  409.750   22.908  165.546    0.324    0.408   32.424
  410.000   22.918  165.517    0.321    0.411   30.114
  410.250   22.929  165.481    0.332    0.408   30.704
  410.500   22.933  165.452    0.344    0.399   31.294
  410.750   22.941  165.430    0.354    0.385   30.140
  411.000   22.950  165.394    0.356    0.377   27.823
  411.250   21.739  165.365    0.344    0.387   26.087
  411.500   21.354  165.343    0.319    0.397   26.098
  411.750   20.596  165.306    0.295    0.413   28.436
  412.000   20.231  165.270    0.337    0.419   31.939
  412.250   20.239  166.209    0.362    0.419   38.933
  412.500   20.246  166.187    0.375    0.420   43.599
  412.750   20.253  166.166    0.366    0.424   40.117
  413.000   19.897  166.137    0.361    0.427   31.980
  413.250   19.543  166.107    0.350    0.430   29.081
  413.500   18.850  166.071    0.344    0.433   33.747
  413.750   17.215  166.049    0.332    0.444   39.577
  414.000   15.724  166.013    0.306    0.456   48.320
  414.250   14.101  165.984    0.280    0.467   58.224
  414.500   12.644  165.948    0.257    0.485   66.964
  414.750   10.933  165.933    0.255    0.504   78.032
  415.000    9.806  165.889    0.258    0.498   80.370
  415.250    9.457  165.868    0.265    0.474   78.053
  415.500    9.461  165.831    0.271    0.457   72.243
  415.750   10.181  165.809    0.277    0.439   67.016
  416.000   10.563  165.780    0.295    0.433   65.281
  416.250   10.761  165.759    0.264    0.435   68.204
  416.500   10.962  165.730    0.250    0.438   73.449
  416.750   10.967  165.686    0.239    0.445   79.279
  417.000   10.971  165.657    0.229    0.455   82.781
  417.250   10.581  165.635    0.231    0.456   85.120
  417.500   10.394  165.606    0.242    0.460   89.207
  417.750   10.026  165.570    0.287    0.469   83.979
