~VERSION INFORMATION
 VERS.                 2.0:   CWLS LOG ASCII STANDARD -VERSION 2.0
 WRAP.                  NO:   ONE LINE PER DEPTH STEP
~WELL INFORMATION BLOCK
#MNEM.UNIT           DATA                    DESCRIPTION OF MNEMONIC
#---------    -------------------            -------------------------------
# Generated from Intellog Unique Number	CS_69_70/WELL/702
NULL.         -999.25                        : NULL_VALUE
WELL.         HUSKY OIL OPERATION LTD        : Well_name    - WELL              
LOC .         00/05-23-070-06W4/0            : Location     - LOCATION          
UWI .         00/05-23-070-06W4/0            : Uwi          - UNIQUE WELL ID    
ENTR.         SP                             : Entered      - ENTERED BY        
SRVC.         SCHLUMBERGER                   : Scn          - SERVICE COMPANY   
STRT.M        300                            : top_depth    - START DEPTH       
STOP.M        540                            : bot_depth    - STOP DEPTH        
STEP.M        0.25                           : increment    - STEP LENGTH       
~CURVE INFORMATION BLOCK
#MNEM UNIT       ERCB CURVE CODE    CURVE DESCRIPTION
#-----------   ------------------   ----------------------------------
DEPT.M        00 001 00 00         : DEPTH        - DEPTH                       
ILD .OHMM     00 120 00 00         : RESD         - DEEP RESISTIVITY (DIL)      
DPHI.V/V      00 890 00 00         : PHID         - DENSITY POROSITY (LIMESTONE)
NPHI.V/V      00 330 00 00         : PHIN         - NEUTRON POROSITY (LIMESTONE)
GR  .API      00 310 00 00         : GR           - GAMMA RAY                   
~PARAMETER INFORMATION       
#MNEM.UNIT           DATA             DESCRIPTION OF MNEMONIC
#---------         -----------     ------------------------------
GL  .M        657                  : gl           - GROUND LEVEL ELEVATION      
EREF.M        660.6                : kb           - ELEVATION OF DEPTH REFERENCE
DATM.M        657                  : datum        - DATUM ELEVATION             
TDD .M        545                  : tdd          - TOTAL DEPTH DRILLER         
RUN .         ONE                  : Run          - RUN NUMBER                  
ENG .         BILL                 : Engineer     - RECORDING ENGINEER          
WIT .         JIM                  : Witness      - WITNESSED BY                
MUD .         GEL                  : Mud_type     - MUD TYPE                    
MATR.         LIMESTONE            : Logunit      - NEUTRON MATRIX              
TMAX.C        25                   : BHT          - MAXIMUM RECORDED TEMPERATURE
BHTD.M        545                  : BHTDEP       - MAXIMUM RECORDED TEMPERATURE
MATR.         1                    : LOGUNIT      - NEUTRON MATRIX              
RMT .C        25                   : MDTP         - TEMPERATURE OF MUD          
NEUT.         1                    : NEUTRON      - NEUTRON TYPE                
RESI.         0                    : RESIST       - RESISTIVITY TYPE            
RMC .OHMM     0.25                 : RMC          - RESISTIVITY OF MUD CAKE     
RMF .OHMM     0.25                 : RMF          - RESISTIVITY OF MUD FILTRATE 
SUFT.C        15                   : SUFT         - SURFACE TEMPERATURE         
~A  DEPTH     RESD     PHID     PHIN       GR
# ...
  387.000    3.277    0.279    0.486   93.093
  387.250    2.932    0.281    0.488   96.730
  387.500    2.826    0.292    0.511   98.550
  387.750    2.723    0.302    0.527  101.581
  388.000    2.624    0.299    0.547  103.402
  388.250    2.625    0.288    0.477   97.361
  388.500    2.675    0.282    0.446   90.109
  388.750    2.828    0.288    0.428   84.672
  389.000    3.282    0.298    0.456   81.049
  389.250    3.670    0.305    0.478   82.871
  389.500    4.027    0.302    0.466   84.088
  389.750    4.339    0.303    0.461   85.305
  390.000    4.504    0.308    0.464   85.310
  390.250    4.589    0.307    0.461   83.502
  390.500    4.590    0.308    0.454   79.278
  390.750    4.766    0.309    0.447   78.073
  391.000    4.856    0.298    0.451   79.289
  391.250    4.856    0.294    0.457   78.691
  391.500    5.042    0.305    0.443   73.254
  391.750    5.137    0.320    0.449   67.213
  392.000    5.234    0.332    0.452   67.826
  392.250    5.334    0.342    0.446   67.832
  392.500    5.435    0.344    0.453   66.027
  392.750    5.538    0.342    0.457   66.031
  393.000    5.643    0.334    0.446   66.038
  393.250    5.750    0.326    0.447   66.649
  393.500    5.969    0.316    0.457   67.261
  393.750    6.081    0.308    0.472   67.872
  394.000    6.431    0.297    0.469   68.484
  394.250    7.058    0.129    0.243   67.886
  394.500    8.500    0.097    0.249   65.472
  394.750   10.625    0.134    0.281   63.059
  395.000    9.684    0.216    0.350   69.116
  395.250    7.897    0.266    0.419   73.358
  395.500    6.560    0.314    0.476   75.177
  395.750    5.979    0.323    0.481   77.002
  396.000    5.763    0.322    0.471   77.005
  396.250    5.658    0.329    0.461   75.802
  396.500    5.659    0.335    0.445   77.021
  396.750    5.661    0.335    0.436   80.051
  397.000    5.662    0.324    0.434   81.871
  397.250    5.663    0.317    0.442   82.484
  397.500    5.664    0.310    0.436   80.071
  397.750    5.665    0.296    0.432   81.892
  398.000    5.666    0.284    0.445   83.713
  398.250    5.668    0.277    0.466   82.511
  398.500    5.669    0.271    0.456   81.913
  398.750    5.565    0.272    0.462   83.129
  399.000    5.566    0.277    0.463   84.347
  399.250    5.364    0.262    0.456   84.957
  399.500    4.982    0.254    0.470   86.173
  399.750    4.713    0.249    0.465   86.784
  400.000    4.714    0.247    0.452   87.397
  400.250    4.803    0.251    0.454   85.589
  400.500    4.804    0.254    0.476   87.413
  400.750    4.987    0.256    0.486   88.626
  401.000    4.988    0.260    0.492   91.053
  401.250    5.178    0.257    0.498   90.455
  401.500    5.276    0.257    0.476   88.044
  401.750    5.376    0.250    0.463   88.654
  402.000    5.377    0.239    0.464   91.685
  402.250    5.378    0.233    0.481   91.692
  402.500    5.183    0.244    0.497   92.304
  402.750    4.995    0.256    0.484   97.151
  403.000    4.726    0.265    0.480  100.180
  403.250    4.639    0.260    0.484   99.582
  403.500    4.309    0.260    0.509   95.959
  403.750    4.230    0.266    0.538   92.943
  404.000    4.002    0.272    0.551   91.740
  404.250    3.648    0.271    0.562   96.585
  404.500    3.387    0.260    0.495   99.616
  404.750    3.264    0.252    0.477  100.227
  405.000    3.205    0.250    0.495  102.654
  405.250    3.327    0.249    0.520  103.869
  405.500    3.328    0.248    0.539   99.643
  405.750    3.328    0.252    0.470   98.440
  406.000    3.268    0.258    0.477  102.075
  406.250    3.208    0.262    0.498  103.897
  406.500    3.092    0.271    0.516  102.695
  406.750    2.980    0.286    0.526  101.492
  407.000    3.093    0.298    0.534   99.685
  407.250    3.211    0.309    0.549   97.271
  407.500    3.524    0.304    0.507   91.835
  407.750    3.868    0.286    0.455   93.051
  408.000    4.245    0.286    0.449   91.848
  408.250    4.407    0.295    0.447   88.830
  408.500    4.574    0.286    0.447   87.022
  408.750    4.575    0.273    0.445   91.263
  409.000    4.576    0.261    0.449   96.715
  409.250    4.493    0.256    0.464   97.327
  409.500    4.411    0.258    0.485   96.122
  409.750    4.412    0.296    0.517   94.920
  410.000    4.413    0.348    0.527   91.297
  410.250    4.414    0.317    0.476   85.862
  410.500    4.668    0.291    0.455   82.238
  410.750    5.219    0.289    0.448   79.221
  411.000    5.622    0.290    0.456   82.251
  411.250    6.287    0.247    0.466   78.630
  411.500    6.773    0.133    0.310   70.773
  411.750    6.901    0.105    0.303   61.707
  412.000    6.528    0.143    0.342   68.368
  412.250    5.324    0.293    0.382   75.029
  412.500    4.763    0.324    0.426   79.270
  412.750    4.506    0.333    0.446   77.462
  413.000    4.343    0.336    0.460   76.257
  413.250    4.767    0.335    0.474   72.031
  413.500    4.768    0.338    0.455   72.642
  413.750    4.768    0.342    0.446   73.255
  414.000    4.769    0.342    0.450   72.052
  414.250    4.770    0.338    0.441   69.639
  414.500    4.771    0.336    0.440   70.856
  414.750    4.772    0.333    0.451   70.258
  415.000    4.863    0.331    0.435   69.054
  415.250    4.864    0.330    0.427   73.295
  415.500    4.865    0.317    0.464   79.958
  415.750    4.866    0.302    0.490   83.592
  416.000    4.958    0.288    0.472   82.388
  416.250    5.052    0.283    0.452   85.418
  416.500    5.053    0.279    0.440   90.264
  416.750    5.245    0.289    0.447   94.505
  417.000    5.246    0.302    0.472   94.514
  417.250    5.346    0.292    0.453   92.707
  417.500    5.347    0.289    0.434   92.108
  417.750    5.348    0.292    0.456   91.508
  418.000    5.059    0.286    0.476   89.096
  418.250    4.786    0.282    0.457   84.868
  418.500    4.363    0.299    0.433   84.877
  418.750    4.127    0.306    0.422   85.490
  419.000    3.762    0.300    0.451   86.098
  419.250    3.626    0.295    0.495   82.478
  419.500    3.367    0.334    0.549   79.459
  419.750    2.957    0.359    0.504   85.517
  420.000    2.797    0.349    0.523   87.941
  420.250    2.550    0.316    0.540   92.787
  420.500    2.368    0.299    0.549   94.608
  420.750    2.240    0.286    0.529   95.825
  421.000    2.199    0.293    0.539   98.251
  421.250    2.159    0.301    0.565  100.071
  421.500    2.200    0.304    0.560   98.870
  421.750    2.201    0.289    0.543   97.665
  422.000    2.243    0.277    0.535   94.044
  422.250    2.285    0.276    0.555   91.025
  422.500    2.285    0.299    0.576   89.822
  422.750    2.329    0.318    0.569   94.066
  423.000    2.373    0.306    0.552   95.279
  423.250    2.463    0.287    0.536   95.286
  423.500    2.703    0.281    0.544   93.480
  423.750    3.137    0.276    0.547   91.070
  424.000    3.777    0.273    0.524   89.261
  424.250    4.635    0.283    0.497   87.453
  424.500    5.279    0.296    0.470   85.039
  424.750    6.013    0.310    0.459   80.811
  425.000    6.599    0.327    0.446   77.796
  425.250    7.802    0.343    0.481   77.196
  425.500    9.053    0.369    0.500   76.597
  425.750   10.903    0.386    0.468   71.766
  426.000   13.131    0.364    0.447   65.724
  426.250   14.145    0.338    0.471   61.498
  426.500   16.414    0.335    0.488   59.085
  426.750   18.697    0.332    0.487   56.069
  427.000   20.905    0.300    0.222   54.868
  427.250   22.520    0.227    0.180   54.268
  427.500   24.718    0.135    0.155   52.458
  427.750   26.628    0.106    0.141   50.045
  428.000   27.133    0.070    0.154   48.844
  428.250   20.163    0.062    0.248   52.483
  428.500   16.750    0.097    0.295   54.907
  428.750   17.069    0.157    0.461   56.727
  429.000   17.392    0.218    0.237   54.919
  429.250   18.052    0.116    0.210   48.272
  429.500   18.740    0.073    0.362   49.490
  429.750   18.061    0.144    0.395   56.757
  430.000   16.160    0.222    0.426   60.392
  430.250   15.287    0.275    0.437   62.210
