~VERSION INFORMATION
 VERS.                 2.0:   CWLS LOG ASCII STANDARD -VERSION 2.0
 WRAP.                  NO:   ONE LINE PER DEPTH STEP
~WELL INFORMATION BLOCK
#MNEM.UNIT           DATA                    DESCRIPTION OF MNEMONIC
#---------    -------------------            -------------------------------
# Generated from Intellog Unique Number	CS_73_76/WELL/2392
WELL.         07-26-076-12W4                 : Well_name    - WELL
LOC .         00/07-26-076-12W4/0            : Location     - LOCATION
UWI .         00/07-26-076-12W4/0            : Uwi          - UNIQUE WELL ID
ENTR.         SP                             : Entered      - ENTERED BY
SRVC.         SCHLUMBERGER                   : Scn          - SERVICE COMPANY
STRT.M        283.464                        : top_depth    - START DEPTH
STOP.M        523.964                        : bot_depth    - STOP DEPTH
STEP.M        0.25                           : increment    - STEP LENGTH
 NULL. -999.2500:NULL Value
~CURVE INFORMATION BLOCK
#MNEM UNIT       ERCB CURVE CODE    CURVE DESCRIPTION
#-----------   ------------------   ----------------------------------
DEPT.M        00 001 00 00         : DEPTH        - DEPTH
GR  .API      00 310 00 00         : GR           - GAMMA RAY
DPHI.V/V      00 890 00 00         : PHID         - DENSITY POROSITY (SANDSTONE)
NPHI.V/V      00 330 00 00         : PHIN         - NEUTRON POROSITY (SANDSTONE)
ILD .OHMM     00 120 00 00         : RESD         - DEEP RESISTIVITY (DIL)
~PARAMETER INFORMATION
#MNEM.UNIT           DATA             DESCRIPTION OF MNEMONIC
#---------         -----------     ------------------------------
GL  .M        669.95               : gl           - GROUND LEVEL ELEVATION
EREF.M        672.998              : kb           - ELEVATION OF DEPTH REFERENCE
DATM.M        669.95               : datum        - DATUM ELEVATION
TDD .M        528.523              : tdd          - TOTAL DEPTH DRILLER
RUN .         ONE                  : Run          - RUN NUMBER
ENG .         BILL                 : Engineer     - RECORDING ENGINEER
WIT .         JIM                  : Witness      - WITNESSED BY
MUD .         GEL                  : Mud_type     - MUD TYPE
MATR.         SANDSTONE            : Logunit      - NEUTRON MATRIX
TMAX.C        35                   : BHT          - MAXIMUM RECORDED TEMPERATURE
BHTD.M        528.523              : BHTDEP       - MAXIMUM RECORDED TEMPERATURE
MATR.         1                    : LOGUNIT      - NEUTRON MATRIX
RMT .C        25                   : MDTP         - TEMPERATURE OF MUD
NEUT.         1                    : NEUTRON      - NEUTRON TYPE
RESI.         0                    : RESIST       - RESISTIVITY TYPE
RMC .OHMM     0.25                 : RMC          - RESISTIVITY OF MUD CAKE
RMF .OHMM     0.25                 : RMF          - RESISTIVITY OF MUD FILTRATE
SUFT.C        15                   : SUFT         - SURFACE TEMPERATURE
~A  DEPTH       GR     PHID     PHIN     RESD
# ...
  326.964   98.069    0.249    0.512    6.494
  327.214  100.742    0.275    0.530    6.368
  327.464  102.674    0.279    0.542    6.337
  327.714  102.411    0.256    0.549    6.636
  327.964  100.009    0.278    0.540    7.088
  328.214   93.079    0.312    0.531    7.524
  328.464   86.333    0.338    0.539    8.011
  328.714   80.241    0.322    0.511    8.679
  328.964   83.312    0.316    0.494    7.428
  329.214   90.807    0.291    0.460    6.190
  329.464   96.761    0.275    0.469    5.097
  329.714   96.204    0.256    0.509    4.308
  329.964   91.829    0.257    0.562    4.217
  330.214   83.903    0.305    0.605    4.515
  330.464   75.910    0.339    0.645    5.045
  330.714   73.338    0.372    0.625    5.795
  330.964   71.333    0.353    0.557    7.498
  331.214   68.279    0.343    0.508    9.787
  331.464   66.161    0.335    0.473   12.355
  331.714   63.218    0.339    0.473   14.994
  331.964   61.652    0.339    0.496   16.549
  332.214   60.725    0.344    0.491   17.843
  332.464   59.682    0.339    0.488   17.532
  332.714   59.463    0.335    0.483   17.186
  332.964   61.016    0.331    0.475   16.323
  333.214   62.557    0.335    0.469   16.198
  333.464   64.227    0.332    0.462   15.684
  333.714   65.689    0.334    0.480   15.182
  333.964   66.874    0.332    0.472   15.055
  334.214   66.587    0.331    0.479   14.571
  334.464   66.577    0.340    0.487   14.103
  334.714   66.444    0.339    0.483   13.976
  334.964   65.398    0.347    0.490   13.762
  335.214   64.355    0.355    0.497   13.620
  335.464   64.167    0.349    0.485   13.512
  335.714   66.251    0.340    0.479   13.499
  335.964   68.641    0.339    0.479   13.492
  336.214   68.609    0.343    0.481   13.484
  336.464   64.781    0.339    0.483   13.477
  336.714   64.552    0.336    0.494   13.473
  336.964   66.535    0.337    0.497   13.467
  337.214   68.886    0.334    0.494   13.282
  337.464   69.601    0.324    0.501   13.209
  337.714   67.647    0.334    0.494   13.205
  337.964   67.528    0.334    0.488   12.934
  338.214   67.965    0.342    0.487   12.952
  338.464   65.310    0.347    0.483   12.894
  338.714   64.790    0.352    0.476   13.761
  338.964   66.691    0.346    0.474   13.392
  339.214   68.665    0.339    0.483   13.398
  339.464   70.362    0.329    0.496   13.290
  339.714   70.576    0.331    0.490   13.147
  339.964   70.241    0.336    0.481   13.137
  340.214   68.749    0.333    0.489   13.130
  340.464   71.165    0.329    0.504   13.122
  340.714   73.676    0.317    0.504   13.118
  340.964   74.618    0.308    0.490   13.111
  341.214   77.524    0.312    0.481   13.103
  341.464   85.462    0.322    0.488   13.095
  341.714   90.802    0.323    0.494   13.086
  341.964   95.274    0.315    0.495   13.099
  342.214   87.284    0.304    0.506   12.814
  342.464   78.993    0.300    0.509   12.825
  342.714   74.119    0.304    0.507   13.012
  342.964   71.298    0.298    0.507   13.602
  343.214   71.046    0.284    0.496   14.324
  343.464   70.205    0.276    0.444   15.689
  343.714   69.032    0.232    0.303   17.070
  343.964   68.003    0.120    0.256   18.101
  344.214   70.495    0.054    0.257   18.713
  344.464   73.443    0.079    0.347   18.409
  344.714   76.862    0.098    0.484   18.131
  344.964   79.207    0.300    0.509   18.442
  345.214   79.976    0.332    0.509   19.234
  345.464   78.471    0.355    0.520   20.785
  345.714   75.983    0.363    0.481   22.029
  345.964   75.126    0.358    0.450   23.907
  346.214   77.047    0.341    0.459   26.620
  346.464   77.524    0.312    0.473   29.147
  346.714   76.318    0.267    0.458   30.647
  346.964   77.463    0.111    0.328   29.134
  347.214   76.025    0.034    0.206   26.077
  347.464   79.011    0.040    0.212   24.236
  347.714   86.846    0.070    0.280   20.952
  347.964  101.351    0.115    0.356   19.392
  348.214  112.915    0.202    0.453   16.829
  348.464  122.172    0.271    0.514   15.194
  348.714  114.990    0.247    0.536   14.784
  348.964  109.188    0.241    0.518   16.440
  349.214  107.356    0.242    0.502   18.247
  349.464  100.559    0.238    0.508   19.296
  349.714   90.915    0.241    0.511   20.429
  349.964   81.231    0.235    0.479   20.588
  350.214   75.018    0.220    0.493   19.971
  350.464   72.463    0.235    0.516   18.579
  350.714   69.788    0.249    0.513   17.363
  350.964   67.240    0.277    0.501   16.634
  351.214   66.120    0.300    0.490   15.783
  351.464   66.748    0.304    0.501   15.733
  351.714   69.403    0.307    0.504   16.005
  351.964   68.529    0.306    0.501   15.647
  352.214   68.312    0.308    0.501   15.660
  352.464   68.453    0.312    0.504   15.682
  352.714   67.368    0.316    0.506   15.329
  352.964   67.017    0.325    0.490   15.354
  353.214   67.279    0.324    0.482   14.845
  353.464   70.037    0.320    0.478   14.646
  353.714   71.779    0.322    0.484   14.254
  353.964   72.498    0.327    0.496   13.986
  354.214   71.650    0.335    0.503   13.698
  354.464   70.620    0.329    0.511   13.702
  354.714   68.713    0.332    0.506   13.995
  354.964   66.792    0.328    0.503   13.988
  355.214   63.210    0.316    0.518   14.194
  355.464   60.484    0.278    0.457   14.489
  355.714   60.974    0.176    0.429   14.454
  355.964   63.925    0.246    0.473   14.472
  356.214   66.406    0.301    0.503   14.162
  356.464   66.863    0.325    0.510   13.915
  356.714   67.231    0.330    0.509   13.637
  356.964   65.472    0.329    0.503   13.644
  357.214   63.917    0.329    0.496   13.638
  357.464   64.199    0.330    0.500   13.632
  357.714   65.497    0.328    0.511   13.627
  357.964   68.622    0.328    0.505   13.596
  358.214   70.030    0.332    0.500   13.866
  358.464   72.342    0.327    0.504   14.137
  358.714   74.219    0.331    0.496   14.761
  358.964   76.352    0.321    0.484   15.830
  359.214   72.102    0.304    0.476   19.014
  359.464   71.396    0.287    0.475   28.965
  359.714   70.643    0.280    0.485   36.301
  359.964   67.479    0.203    0.478   41.292
  360.214   61.601    0.118    0.339   46.525
  360.464   55.958    0.017    0.207   50.506
  360.714   55.220   -0.000    0.168   53.386
  360.964   56.421    0.002    0.152   54.389
  361.214   58.404    0.008    0.145   55.256
  361.464   58.393    0.017    0.141   57.708
  361.714   57.421    0.007    0.139   59.901
  361.964   59.511   -0.000    0.137   63.158
  362.214   60.931    0.000    0.139   59.458
  362.464   61.305   -0.000    0.145   50.146
  362.714   63.003    0.000    0.154   41.986
  362.964   68.734    0.001    0.305   30.777
  363.214   76.829    0.006    0.402   22.592
  363.464   86.548    0.148    0.451   16.974
  363.714   92.278    0.281    0.486   13.139
  363.964   91.808    0.339    0.510   11.215
  364.214   91.829    0.331    0.525    9.463
  364.464   92.789    0.313    0.540    8.647
  364.714   93.002    0.300    0.561    8.320
  364.964   91.548    0.292    0.564    8.173
  365.214   88.171    0.291    0.548    8.515
  365.464   81.436    0.308    0.541    9.150
  365.714   77.174    0.310    0.532   10.401
  365.964   72.308    0.259    0.474   11.339
  366.214   65.921    0.217    0.431   12.634
  366.464   69.654    0.196    0.451   13.569
  366.714   71.022    0.279    0.482   13.574
  366.964   73.588    0.319    0.501   13.148
  367.214   73.081    0.322    0.514   12.733
  367.464   71.879    0.311    0.502   12.278
  367.714   72.974    0.303    0.499   11.274
  367.964   73.126    0.313    0.478    8.960
  368.214   75.546    0.303    0.463    7.462
  368.464   78.292    0.289    0.468    6.187
  368.714   80.728    0.265    0.480    5.622
  368.964   81.440    0.230    0.493    5.131
  369.214   86.499    0.213    0.566    4.738
  369.464   92.626    0.233    0.573    4.475
  369.714   97.499    0.238    0.568    4.425
  369.964  100.128    0.238    0.583    4.408
  370.214  103.352    0.240    0.591    4.613
