~VERSION INFORMATION
 VERS.                 2.0:   CWLS LOG ASCII STANDARD -VERSION 2.0
 WRAP.                  NO:   ONE LINE PER DEPTH STEP
~WELL INFORMATION BLOCK
#MNEM.UNIT           DATA                    DESCRIPTION OF MNEMONIC
#---------    -------------------            -------------------------------
# Generated from Intellog Unique Number	CW_73_75/WELL/702
WELL.         MIAMI AMOCO MARTEN HILLS 07-19 : Well_name    - WELL
LOC .         00/07-19-074-01W5/0            : Location     - LOCATION
UWI .         00/07-19-074-01W5/0            : Uwi          - UNIQUE WELL ID
ENTR.         JAYE                           : Entered      - ENTERED BY
SRVC.         SCHLUMBERGER                   : Scn          - SERVICE COMPANY
DATE.         2 FEB 74                       : Date         - LOG DATE
STRT.M        420.624                        : top_depth    - START DEPTH
STOP.M        633.874                        : bot_depth    - STOP DEPTH
STEP.M        0.25                           : increment    - STEP LENGTH
 NULL. -999.2500:NULL Value
~CURVE INFORMATION BLOCK
#MNEM UNIT       ERCB CURVE CODE    CURVE DESCRIPTION
#-----------   ------------------   ----------------------------------
DEPT.M        00 001 00 00         : DEPTH        - DEPTH
ILD .OHMM     00 120 00 00         : RESD         - DEEP RESISTIVITY (DIL)
NPHI.V/V      00 330 00 00         : PHIN         - NEUTRON POROSITY (SANDSTONE)
DPHI.V/V      00 890 00 00         : PHID         - DENSITY POROSITY (SANDSTONE)
GR  .API      00 310 00 00         : GR           - GAMMA RAY
CALI.MM       00 280 01 00         : CAL          - CALIPER
~PARAMETER INFORMATION
#MNEM.UNIT           DATA             DESCRIPTION OF MNEMONIC
#---------         -----------     ------------------------------
GL  .M        673.608              : gl           - GROUND LEVEL ELEVATION
EREF.M        677.57               : kb           - ELEVATION OF DEPTH REFERENCE
DATM.M        673.608              : datum        - DATUM ELEVATION
TDD .M        639.166              : tdd          - TOTAL DEPTH DRILLER
RUN .         ONE                  : Run          - RUN NUMBER
ENG .         WILLIGER             : Engineer     - RECORDING ENGINEER
WIT .         RUDD                 : Witness      - WITNESSED BY
BASE.         RD                   : Branch       - HOME BASE OF LOGGING UNIT
MUD .         GEL CHEM             : Mud_type     - MUD TYPE
MATR.         SANDSTONE            : Logunit      - NEUTRON MATRIX
TMAX.C        25                   : BHT          - MAXIMUM RECORDED TEMPERATURE
BHTD.M        637.946              : BHTDEP       - MAXIMUM RECORDED TEMPERATURE
RMT .C        20                   : MDTP         - TEMPERATURE OF MUD
MUDD.KG/M     1164                 : MWT          - MUD DENSITY
NEUT.         1                    : NEUTRON      - NEUTRON TYPE
RESI.         0                    : RESIST       - RESISTIVITY TYPE
RM  .OHMM     2.38                 : RM           - RESISTIVITY OF MUD
RMC .OHMM     0                    : RMC          - RESISTIVITY OF MUD CAKE
RMF .OHMM     1.89                 : RMF          - RESISTIVITY OF MUD FILTRATE
SUFT.C        -17.7778             : SUFT         - SURFACE TEMPERATURE
~A  DEPTH     RESD     PHIN     PHID       GR      CAL
# ...
  566.624    6.964    0.436    0.224   79.518  166.332
  566.874    6.542    0.461    0.228   81.761  165.312
  567.124    6.272    0.484    0.231   84.427  164.790
  567.374    5.914    0.478    0.220   87.941  166.008
  567.624    5.690    0.443    0.186   94.610  168.884
  567.874    5.506    0.448    0.164   98.067  169.902
  568.124    5.397    0.449    0.157   92.181  170.522
  568.374    5.340    0.445    0.174   90.842  171.029
  568.624    5.381    0.449    0.192   91.446  171.223
  568.874    5.596    0.450    0.175   91.021  171.427
  569.124    6.006    0.429    0.177   89.926  171.323
  569.374    6.212    0.403    0.174   87.737  171.119
  569.624    6.354    0.399    0.181   88.162  171.106
  569.874    6.427    0.414    0.189   88.218  170.899
  570.124    6.394    0.434    0.174   84.698  170.585
  570.374    6.338    0.451    0.165   85.118  170.496
  570.624    6.201    0.471    0.170   84.145  170.373
  570.874    6.134    0.463    0.179   83.476  170.161
  571.124    6.114    0.449    0.173   84.869  169.955
  571.374    6.116    0.465    0.183   85.653  169.839
  571.624    6.279    0.476    0.199   86.263  169.537
  571.874    6.928    0.482    0.191   86.560  169.421
  572.124    7.963    0.472    0.195   86.558  169.009
  572.374    9.017    0.445    0.187   80.610  168.697
  572.624   10.813    0.428    0.153   73.024  168.405
  572.874   13.606    0.393    0.055   67.135  168.480
  573.124   18.745    0.334    0.008   62.341  168.471
  573.374   20.761    0.286   -0.013   64.228  168.986
  573.624   21.312    0.283    0.021   66.885  169.395
  573.874   17.918    0.300    0.046   70.646  169.494
  574.124   14.066    0.327    0.089   74.161  169.593
  574.374   11.333    0.349    0.112   76.405  169.377
  574.624    9.423    0.377    0.127   79.251  168.867
  574.874    8.483    0.402    0.148   82.947  168.441
  575.124    7.895    0.430    0.167   87.131  166.692
  575.374    7.174    0.452    0.186   89.977  165.962
  575.624    6.689    0.434    0.203   92.160  165.761
  575.874    6.569    0.434    0.203   93.739  165.962
  576.124    6.487    0.433    0.179   94.400  166.668
  576.374    6.441    0.419    0.161   93.308  167.287
  576.624    6.662    0.411    0.156   92.272  167.892
  576.874    6.993    0.408    0.154   90.573  168.827
  577.124    7.617    0.402    0.146   89.172  169.322
  577.374    8.705    0.395    0.136   89.837  169.626
  577.624   10.459    0.389    0.114   90.565  169.527
  577.874   11.562    0.374    0.089   88.921  170.047
  578.124   11.826    0.347    0.069   82.671  170.148
  578.374   11.338    0.337    0.075   78.724  170.135
  578.624   10.131    0.341    0.101   80.186  170.011
  578.874    8.644    0.352    0.119   82.362  169.817
  579.124    7.682    0.382    0.141   86.064  169.906
  579.374    6.827    0.397    0.145   89.635  170.211
  579.624    6.557    0.407    0.135   94.055  170.513
  579.874    6.744    0.415    0.139  101.272  171.232
  580.124    6.834    0.413    0.137  113.341  172.050
  580.374    6.926    0.408    0.130  108.001  172.657
  580.624    6.954    0.409    0.117  103.450  173.277
  580.874    7.009    0.421    0.135  102.237  173.471
  581.124    7.116    0.418    0.145  105.204  173.372
  581.374    7.238    0.413    0.138  107.139  173.065
  581.624    7.335    0.420    0.127  107.807  172.947
  581.874    7.419    0.422    0.132  108.651  172.623
  582.124    7.547    0.421    0.125  105.073  172.429
  582.374    7.564    0.407    0.114  103.499  172.516
  582.624    7.609    0.393    0.094  103.489  172.221
  582.874    7.711    0.414    0.093  108.102  171.890
  583.124    7.990    0.426    0.121  114.341  171.691
  583.374    8.622    0.433    0.137  120.826  171.176
  583.624    9.254    0.425    0.127  112.756  170.650
  583.874   10.173    0.414    0.135  104.205  169.815
  584.124   11.226    0.407    0.149   98.133  168.787
  584.374   12.204    0.395    0.160   96.433  168.172
  584.624   13.268    0.400    0.170   97.034  168.054
  584.874   14.240    0.400    0.159   94.430  168.666
  585.124   14.809    0.374    0.137   90.909  169.186
  585.374   15.008    0.334    0.118   88.356  169.808
  585.624   14.930    0.286    0.076   87.322  170.510
  585.874   13.617    0.308    0.055   92.536  171.113
  586.124   12.146    0.340    0.123   97.990  171.728
  586.374   10.793    0.361    0.139  103.264  172.030
  586.624   10.521    0.368    0.149  106.540  172.356
  586.874   11.826    0.355    0.133  105.445  172.350
  587.124   12.368    0.328    0.121  102.345  172.530
  587.374   12.441    0.292    0.068   95.488  172.433
  587.624   12.446    0.278    0.057   89.850  172.415
  587.874   12.268    0.293    0.076   92.571  172.308
  588.124   11.892    0.315    0.147   99.910  172.097
  588.374   11.507    0.343    0.171  101.727  171.890
  588.624   10.991    0.362    0.148  103.422  171.801
  588.874   10.325    0.357    0.143  105.671  171.888
  589.124    9.628    0.357    0.134  108.574  171.989
  589.374    9.507    0.359    0.112  111.844  171.869
  589.624    9.564    0.365    0.105  114.207  172.173
  589.874    9.692    0.371    0.087  110.504  172.477
  590.124   10.537    0.333    0.083  101.045  172.280
  590.374   12.087    0.315    0.063   95.155  172.169
  590.624   14.362    0.268   -0.001   85.568  171.845
  590.874   15.906    0.268   -0.008   84.473  171.431
  591.124   16.851    0.292    0.004   87.808  171.122
  591.374   17.364    0.298    0.028   91.322  170.710
  591.624   17.083    0.248    0.022   85.979  170.494
  591.874   16.018    0.232   -0.015   81.003  170.287
  592.124   13.467    0.261    0.025   83.853  169.976
  592.374   11.363    0.307    0.060   90.525  169.666
  592.624    9.749    0.374    0.108   99.193  169.460
  592.874    8.891    0.423    0.103  101.678  169.573
  593.124    8.700    0.421    0.118   98.159  169.443
  593.374    8.849    0.424    0.108   97.850  169.143
  593.624    9.254    0.416    0.097   97.911  168.917
  593.874   10.117    0.391    0.116   97.116  167.902
  594.124   10.959    0.370    0.111   94.991  167.280
  594.374   11.783    0.349    0.082   91.712  167.051
  594.624   12.164    0.326    0.050   87.645  167.776
  594.874   11.533    0.302    0.035   88.313  168.687
  595.124   10.975    0.305    0.040   91.951  169.509
  595.374   10.425    0.325    0.071   96.435  170.322
  595.624    9.921    0.354    0.105   99.043  170.521
  595.874    9.406    0.369    0.082  100.441  170.752
  596.124    9.034    0.368    0.068  101.345  170.927
  596.374    8.790    0.364    0.074  101.883  170.615
  596.624    8.712    0.362    0.085  102.911  170.308
  596.874    8.636    0.376    0.110  106.243  169.799
  597.124    8.623    0.394    0.113  107.393  169.472
  597.374    8.722    0.377    0.083  105.027  169.263
  597.624    8.938    0.363    0.079   99.079  169.367
  597.874    9.193    0.349    0.055  100.412  169.457
  598.124    9.264    0.339    0.069  103.871  169.868
  598.374    9.268    0.363    0.096  105.559  169.963
  598.624    9.323    0.354    0.115  106.049  171.303
  598.874    9.309    0.340    0.092  107.802  172.121
  599.124    9.159    0.343    0.074  110.709  172.840
  599.374    8.668    0.365    0.108  113.680  172.925
  599.624    7.745    0.381    0.119  117.074  172.723
  599.874    4.961    0.402    0.131  121.013  171.996
  600.124    3.838    0.422    0.150  124.347  172.083
  600.374    3.238    0.480    0.156  127.256  173.214
  600.624    2.768    0.556    0.175  129.377  180.907
  600.874    2.949    0.587    0.204  126.642  198.057
  601.124    3.339    0.544    0.175  122.574  189.833
  601.374    3.816    0.498    0.161  121.844  181.101
  601.624    4.394    0.474    0.142  114.320  174.117
  601.874    5.004    0.425    0.119  110.678  170.117
  602.124    5.491    0.393    0.105  108.557  168.964
  602.374    5.679    0.365    0.109  106.183  168.758
  602.624    5.639    0.377    0.111  105.881  169.795
  602.874    5.356    0.390    0.099  106.431  171.422
