~VERSION INFORMATION
 VERS.                 2.0:   CWLS LOG ASCII STANDARD -VERSION 2.0
 WRAP.                  NO:   ONE LINE PER DEPTH STEP
~WELL INFORMATION BLOCK
#MNEM.UNIT           DATA                    DESCRIPTION OF MNEMONIC
#---------    -------------------            -------------------------------
# Generated from Intellog Unique Number	CC_80_83/WELL/1166
NULL.         -999.25                        : NULL_VALUE
WELL.         SIEBENS WATCHUSK               : Well_name    - WELL
LOC .         06-34-082-03W4                 : Location     - LOCATION          
UWI .         00/06-34-082-03W400            : Uwi          - UNIQUE WELL ID    
ENTR.         DW                             : Entered      - ENTERED BY        
SRVC.         SCHLUMBERGER                   : Scn          - SERVICE COMPANY   
DATE.         12 FEB 77                      : Date         - LOG DATE
STRT.M        94.488                         : top_depth    - START DEPTH       
STOP.M        310.896                        : bot_depth    - STOP DEPTH        
STEP.M        0.3048                         : increment    - STEP LENGTH       
~CURVE INFORMATION BLOCK
#MNEM UNIT       ERCB CURVE CODE    CURVE DESCRIPTION
#-----------   ------------------   ----------------------------------
DEPT.M        00 001 00 00         : DEPTH        - DEPTH                       
DPHI.V/V      00 890 00 00         : PHID         - DENSITY POROSITY (LIMESTONE)
NPHI.V/V      00 330 00 00         : PHIN         - NEUTRON POROSITY (LIMESTONE)
GR  .API      00 310 00 00         : GR           - GAMMA RAY                   
ILD .OHMM     00 120 00 00         : RESD         - DEEP RESISTIVITY (DIL)      
~PARAMETER INFORMATION       
#MNEM.UNIT           DATA             DESCRIPTION OF MNEMONIC
#---------         -----------     ------------------------------
GL  .M        470.611              : gl           - GROUND LEVEL ELEVATION      
EREF.M        474.116              : kb           - ELEVATION OF DEPTH REFERENCE
DATM.M        474.116              : datum        - DATUM ELEVATION             
TDD .M        319.126              : tdd          - TOTAL DEPTH DRILLER         
RUN .         ONE                  : Run          - RUN NUMBER                  
ENG .         BILL                 : Engineer     - RECORDING ENGINEER          
WIT .         JIM                  : Witness      - WITNESSED BY                
MUD .         GEL                  : Mud_type     - MUD TYPE                    
MATR.         LIMESTONE            : Logunit      - NEUTRON MATRIX              
TMAX.C        19.4444              : BHT          - MAXIMUM RECORDED TEMPERATURE
BHTD.M        319.126              : BHTDEP       - MAXIMUM RECORDED TEMPERATURE
MATR.         1                    : LOGUNIT      - NEUTRON MATRIX              
RMT .C        25                   : MDTP         - TEMPERATURE OF MUD          
NEUT.         1                    : NEUTRON      - NEUTRON TYPE                
RESI.         0                    : RESIST       - RESISTIVITY TYPE            
RMC .OHMM     0.25                 : RMC          - RESISTIVITY OF MUD CAKE     
RMF .OHMM     0.25                 : RMF          - RESISTIVITY OF MUD FILTRATE 
SUFT.C        15                   : SUFT         - SURFACE TEMPERATURE         
~A  DEPTH     PHID     PHIN       GR     RESD
# ...
  200.557    0.236    0.402   89.996    6.010
  200.862    0.232    0.418   91.199    5.899
  201.167    0.231    0.429   93.611    5.788
  201.472    0.232    0.441   95.420    5.787
  201.776    0.247    0.449   97.227    5.679
  202.081    0.248    0.477  102.060    5.678
  202.386    0.254    0.471  102.658    5.784
  202.691    0.236    0.441   96.600    5.676
  202.996    0.260    0.445   97.803    5.781
  203.300    0.249    0.453   97.796    5.780
  203.605    0.236    0.445   97.186    5.779
  203.910    0.231    0.442   94.152    5.778
  204.215    0.230    0.453   93.542    5.777
  204.520    0.228    0.458   94.138    5.775
  204.824    0.227    0.463   95.341    5.774
  205.129    0.225    0.460   96.546    5.773
  205.434    0.223    0.450   97.749    5.772
  205.739    0.223    0.450   96.532    5.771
  206.044    0.228    0.485   99.549    5.769
  206.348    0.241    0.481   98.332    5.768
  206.653    0.239    0.473   95.906    5.767
  206.958    0.224    0.465   97.711    5.766
  207.263    0.238    0.471   97.704    5.764
  207.568    0.227    0.474   97.093    5.764
  207.872    0.216    0.474   95.878    5.762
  208.177    0.211    0.484   94.660    5.655
  208.482    0.206    0.491   94.049    5.654
  208.787    0.207    0.475   95.856    5.652
  209.091    0.221    0.470  100.084    5.652
  209.396    0.230    0.459  100.077    5.546
  209.701    0.236    0.434   92.810    5.545
  210.006    0.238    0.418   90.987    5.442
  210.311    0.224    0.428   94.007    5.339
  210.615    0.222    0.435   92.184    5.339
  210.920    0.224    0.435   87.336    5.338
  211.225    0.226    0.401   85.517    5.141
  211.530    0.228    0.409   77.646    4.952
  211.835    0.252    0.437   55.256    4.511
  212.139    0.291    0.416   41.940    4.033
  212.444    0.329    0.338   30.439    3.409
  212.749    0.325    0.330   31.641    3.105
  213.054    0.309    0.347   37.682    2.991
  213.359    0.301    0.386   41.911    2.881
  213.663    0.306    0.361   38.276    2.880
  213.968    0.314    0.389   33.428    2.880
  214.273    0.317    0.406   33.419    2.826
  214.578    0.325    0.352   35.229    2.773
  214.883    0.328    0.348   34.616    2.721
  215.187    0.324    0.349   34.004    2.721
  215.492    0.324    0.348   33.998    2.771
  215.797    0.323    0.336   36.410    2.771
  216.102    0.319    0.345   38.219    2.770
  216.407    0.316    0.374   40.025    2.770
  216.711    0.317    0.386   40.020    2.821
  217.016    0.316    0.387   38.196    2.874
  217.321    0.311    0.360   37.584    2.873
  217.626    0.310    0.341   37.578    2.873
  217.931    0.331    0.367   37.573    2.819
  218.235    0.342    0.381   37.564    2.818
  218.540    0.334    0.365   35.137    2.766
  218.845    0.335    0.359   30.292    2.664
  219.150    0.336    0.353   31.494    2.614
  219.454    0.323    0.368   34.512    2.518
  219.759    0.310    0.378   38.740    2.518
  220.064    0.318    0.365   38.127    2.471
  220.369    0.318    0.349   34.492    2.470
  220.674    0.316    0.335   33.274    2.470
  220.978    0.316    0.346   32.663    2.469
  221.283    0.330    0.358   30.236    2.469
  221.588    0.326    0.369   27.807    2.468
  221.893    0.332    0.376   27.196    2.468
  222.198    0.334    0.383   27.190    2.467
  222.502    0.332    0.364   27.184    2.467
  222.807    0.316    0.332   28.386    2.466
  223.112    0.293    0.326   30.798    2.466
  223.417    0.292    0.329   33.815    2.465
  223.722    0.301    0.352   37.440    2.419
  224.026    0.315    0.381   39.850    2.419
  224.331    0.324    0.394   39.238    2.330
  224.636    0.329    0.401   38.022    2.244
  224.941    0.329    0.412   35.595    2.202
  225.246    0.325    0.428   32.564    2.121
  225.550    0.327    0.402   31.348    2.121
  225.855    0.335    0.377   31.945    2.120
  226.160    0.340    0.369   36.174    2.160
  226.465    0.339    0.377   44.636    2.241
  226.770    0.328    0.376   54.308    2.553
  227.074    0.322    0.355   62.769    3.376
  227.379    0.288    0.354   71.838    3.918
  227.684    0.246    0.372   85.138    4.221
  227.989    0.237    0.384   88.157    4.380
  228.294    0.228    0.405   85.729    3.843
  228.598    0.276    0.406   79.069    3.436
  228.903    0.308    0.389   67.568    3.129
  229.208    0.319    0.380   57.277    3.015
  229.513    0.326    0.374   55.455    2.850
  229.818    0.301    0.377   56.657    2.850
  230.122    0.287    0.374   53.021    3.013
  230.427    0.297    0.359   57.247    3.306
  230.732    0.297    0.353   65.711    3.562
  231.037    0.279    0.408   79.617    3.628
  231.341    0.264    0.424   79.005    3.366
  231.646    0.281    0.429   64.480    3.124
  231.951    0.292    0.399   57.214    3.009
  232.256    0.327    0.383   67.491    2.953
  232.561    0.281    0.406   77.768    2.952
  232.865    0.264    0.422   65.661    2.952
  233.170    0.319    0.405   50.531    2.951
  233.475    0.337    0.378   56.572    3.006
  233.780    0.310    0.365   62.009    2.950
  234.085    0.291    0.367   62.003    2.841
  234.389    0.286    0.373   60.181    2.686
  234.694    0.306    0.401   46.262    2.587
  234.999    0.329    0.382   38.994    2.401
  235.304    0.337    0.383   40.197    2.401
  235.609    0.340    0.391   45.636    2.586
  235.913    0.332    0.370   50.468    2.785
  236.218    0.329    0.349   54.090    3.057
  236.523    0.313    0.361   56.502    3.232
  236.828    0.295    0.382   57.707    3.292
  237.133    0.297    0.380   54.673    3.353
  237.437    0.273    0.391   48.618    3.291
  237.742    0.306    0.362   44.377    3.230
  238.047    0.288    0.339   47.394    3.111
  238.352    0.286    0.329   41.943    2.941
  238.657    0.284    0.387   43.145    2.833
  238.961    0.330    0.394   34.064    2.728
  239.266    0.319    0.379   29.822    2.728
  239.571    0.312    0.362   34.050    2.727
  239.876    0.310    0.359   35.254    2.676
  240.181    0.324    0.352   30.406    2.627
  240.485    0.330    0.353   28.583    2.578
  240.790    0.331    0.367   29.180    2.437
  241.095    0.337    0.376   29.778    2.529
  241.400    0.337    0.352   29.166    2.482
  241.704    0.319    0.352   30.370    2.435
  242.009    0.323    0.363   32.784    2.390
  242.314    0.338    0.375   34.592    2.345
  242.619    0.344    0.385   33.981    2.345
  242.924    0.347    0.395   33.366    2.389
  243.228    0.336    0.355   32.148    2.433
  243.533    0.323    0.364   31.539    2.478
  243.838    0.305    0.362   30.925    2.572
  244.143    0.299    0.332   30.314    2.620
  244.448    0.322    0.344   30.914    2.619
  244.752    0.323    0.344   32.721    2.618
  245.057    0.304    0.329   35.134    2.618
  245.362    0.280    0.322   38.153    2.569
  245.667    0.315    0.337   44.798    2.429
  245.972    0.343    0.437   49.632    2.254
  246.276    0.370    0.449   53.254    2.131
  246.581    0.381    0.437   55.063    1.941
  246.886    0.373    0.426   55.053    1.835
  247.191    0.368    0.424   54.442    1.801
  247.496    0.355    0.429   53.226    1.767
  247.800    0.355    0.415   52.612    1.734
  248.105    0.367    0.426   52.001    1.734
  248.410    0.368    0.441   51.390    1.733
  248.715    0.372    0.447   51.988    1.733
  249.020    0.368    0.434   54.402    1.765
  249.324    0.375    0.414   58.023    1.832
  249.629    0.361    0.420   60.435    1.901
  249.934    0.363    0.414   61.035    1.936
  250.239    0.367    0.412   58.607    2.010
  250.544    0.366    0.407   53.761    2.086
  250.848    0.360    0.412   50.729    2.085
  251.153    0.353    0.417   53.748    2.124
  251.458    0.356    0.406   57.369    2.084
  251.763    0.350    0.395   59.178    2.123
  252.067    0.338    0.384   60.984    2.123
  252.372    0.350    0.378   62.189    2.122
  252.677    0.357    0.372   60.972    2.044
  252.982    0.359    0.373   54.310    2.006
  253.287    0.359    0.405   53.093    1.968
