~VERSION INFORMATION
 VERS.                 2.0:   CWLS LOG ASCII STANDARD -VERSION 2.0
 WRAP.                  NO:   ONE LINE PER DEPTH STEP
~WELL INFORMATION BLOCK
#MNEM.UNIT           DATA                    DESCRIPTION OF MNEMONIC
#---------    -------------------            -------------------------------
# Generated from Intellog Unique Number	CS_73_76/WELL/618
WELL.         AMOCO AEC IPIATIK              : Well_name    - WELL
LOC .         00/06-07-073-06W4/0            : Location     - LOCATION
UWI .         00/06-07-073-06W4/0            : Uwi          - UNIQUE WELL ID
ENTR.         SP                             : Entered      - ENTERED BY
SRVC.         SCHLUMBERGER                   : Scn          - SERVICE COMPANY
STRT.M        330                            : top_depth    - START DEPTH
STOP.M        550                            : bot_depth    - STOP DEPTH
STEP.M        0.25                           : increment    - STEP LENGTH
 NULL. -999.2500:NULL Value
~CURVE INFORMATION BLOCK
#MNEM UNIT       ERCB CURVE CODE    CURVE DESCRIPTION
#-----------   ------------------   ----------------------------------
DEPT.M        00 001 00 00         : DEPTH        - DEPTH
ILD .OHMM     00 120 00 00         : RESD         - DEEP RESISTIVITY (DIL)
DPHI.V/V      00 890 00 00         : PHID         - DENSITY POROSITY (LIMESTONE)
NPHI.V/V      00 330 00 00         : PHIN         - NEUTRON POROSITY (LIMESTONE)
GR  .API      00 310 00 00         : GR           - GAMMA RAY
~PARAMETER INFORMATION
#MNEM.UNIT           DATA             DESCRIPTION OF MNEMONIC
#---------         -----------     ------------------------------
GL  .M        711.41               : gl           - GROUND LEVEL ELEVATION
EREF.M        716.11               : kb           - ELEVATION OF DEPTH REFERENCE
DATM.M        711.41               : datum        - DATUM ELEVATION
TDD .M        576                  : tdd          - TOTAL DEPTH DRILLER
RUN .         ONE                  : Run          - RUN NUMBER
ENG .         BILL                 : Engineer     - RECORDING ENGINEER
WIT .         JIM                  : Witness      - WITNESSED BY
MUD .         GEL                  : Mud_type     - MUD TYPE
MATR.         LIMESTONE            : Logunit      - NEUTRON MATRIX
TMAX.C        12                   : BHT          - MAXIMUM RECORDED TEMPERATURE
BHTD.M        576                  : BHTDEP       - MAXIMUM RECORDED TEMPERATURE
MATR.         1                    : LOGUNIT      - NEUTRON MATRIX
RMT .C        25                   : MDTP         - TEMPERATURE OF MUD
NEUT.         1                    : NEUTRON      - NEUTRON TYPE
RESI.         0                    : RESIST       - RESISTIVITY TYPE
RMC .OHMM     0.25                 : RMC          - RESISTIVITY OF MUD CAKE
RMF .OHMM     0.25                 : RMF          - RESISTIVITY OF MUD FILTRATE
SUFT.C        15                   : SUFT         - SURFACE TEMPERATURE
~A  DEPTH     RESD     PHID     PHIN       GR
# ...
  417.000    7.480    0.307    0.436   69.725
  417.250    7.484    0.314    0.444   72.734
  417.500    7.348    0.288    0.456   73.333
  417.750    7.082    0.250    0.485   70.903
  418.000    6.826    0.249    0.436   70.887
  418.250    6.577    0.290    0.420   73.295
  418.500    6.222    0.307    0.437   74.497
  418.750    6.109    0.307    0.456   78.716
  419.000    5.889    0.308    0.467   81.125
  419.250    5.891    0.324    0.475   79.903
  419.500    6.005    0.318    0.471   77.472
  419.750    5.897    0.322    0.462   75.040
  420.000    5.683    0.319    0.476   75.031
  420.250    5.477    0.304    0.472   79.853
  420.500    5.378    0.292    0.473   81.052
  420.750    5.380    0.286    0.489   81.647
  421.000    5.589    0.292    0.496   81.031
  421.250    5.805    0.305    0.504   76.181
  421.500    6.144    0.312    0.494   70.727
  421.750    6.381    0.311    0.484   71.922
  422.000    6.505    0.317    0.483   72.518
  422.250    6.509    0.322    0.472   74.317
  422.500    6.272    0.317    0.469   77.329
  422.750    5.715    0.291    0.453   80.344
  423.000    5.110    0.268    0.441   86.382
  423.250    4.402    0.242    0.430   99.071
  423.500    4.011    0.226    0.462  104.503
  423.750    3.724    0.233    0.483  105.698
  424.000    3.656    0.237    0.513  106.896
  424.250    3.523    0.239    0.539  108.095
  424.500    3.526    0.241    0.563  110.504
  424.750    3.594    0.248    0.539  105.652
  425.000    3.804    0.253    0.528   99.590
  425.250    3.951    0.244    0.502   97.769
  425.500    4.028    0.242    0.499  108.039
  425.750    4.029    0.252    0.513  112.260
  426.000    3.811    0.252    0.519  111.645
  426.250    3.742    0.250    0.531  111.029
  426.500    3.540    0.246    0.556  115.247
  426.750    3.349    0.247    0.582  117.656
  427.000    3.287    0.259    0.594  116.434
  427.250    3.289    0.269    0.567  112.190
  427.500    3.547    0.278    0.553  107.946
  427.750    4.279    0.278    0.570  104.305
  428.000    4.973    0.263    0.580  101.873
  428.250    5.567    0.252    0.526   97.629
  428.500    6.002    0.256    0.500   94.593
  428.750    6.474    0.256    0.478   93.976
  429.000    6.599    0.248    0.461   94.570
  429.250    6.853    0.244    0.466   93.346
  429.500    7.119    0.240    0.480   93.937
  429.750    7.257    0.254    0.468   94.535
  430.000    7.263    0.243    0.468   95.731
  430.250    7.266    0.234    0.472   95.115
  430.500    7.135    0.229    0.480   93.290
  430.750    7.005    0.231    0.486   92.673
  431.000    6.751    0.228    0.497   92.662
  431.250    6.755    0.223    0.507   93.857
  431.500    6.758    0.239    0.513   93.848
  431.750    6.761    0.255    0.489   93.835
  432.000    6.764    0.256    0.466   95.638
  432.250    6.896    0.249    0.449   95.022
  432.500    6.900    0.236    0.459   93.802
  432.750    6.774    0.251    0.473   93.788
  433.000    6.530    0.249    0.483   94.986
  433.250    6.412    0.238    0.492   95.581
  433.500    6.179    0.225    0.489   97.382
  433.750    6.067    0.219    0.498   98.582
  434.000    5.848    0.221    0.495   99.176
  434.250    5.635    0.223    0.496   95.530
  434.500    5.232    0.224    0.505   93.707
  434.750    4.767    0.247    0.510   98.536
  435.000    4.343    0.271    0.515  106.989
  435.250    3.957    0.270    0.513  111.213
  435.500    3.674    0.249    0.522  113.621
  435.750    3.475    0.253    0.510  111.791
  436.000    3.412    0.257    0.520  109.968
  436.250    3.288    0.247    0.533  110.556
  436.500    3.229    0.238    0.555  111.150
  436.750    3.230    0.232    0.529  111.140
  437.000    3.232    0.230    0.523  111.736
  437.250    3.295    0.234    0.533  111.118
  437.500    3.359    0.239    0.539  111.107
  437.750    3.489    0.242    0.553  108.072
  438.000    3.693    0.248    0.542  103.826
  438.250    3.835    0.254    0.537  101.396
  438.500    4.058    0.239    0.530   99.567
  438.750    4.295    0.248    0.499   97.139
  439.000    4.461    0.275    0.493   92.894
  439.250    4.634    0.287    0.477   92.277
  439.500    4.724    0.285    0.470   94.079
  439.750    4.907    0.285    0.467   95.279
  440.000    5.002    0.269    0.496   95.267
  440.250    5.100    0.258    0.510   89.205
  440.500    5.197    0.250    0.484   87.986
  440.750    5.299    0.255    0.461   89.182
  441.000    5.403    0.264    0.472   90.984
  441.250    5.405    0.258    0.493   91.578
  441.500    5.511    0.270    0.507   92.778
  441.750    5.617    0.283    0.489   92.764
  442.000    5.833    0.293    0.473   89.125
  442.250    6.290    0.298    0.466   85.485
  442.500    6.910    0.300    0.480   80.027
  442.750    8.184    0.298    0.489   80.622
  443.000    9.162    0.217    0.491   77.587
  443.250    9.878    0.117    0.397   69.713
  443.500   10.261    0.083    0.260   64.256
  443.750   10.076    0.183    0.265   70.294
  444.000    9.009    0.246    0.369   76.330
  444.250    7.617    0.273    0.428   82.366
  444.500    6.941    0.266    0.431   87.194
  444.750    6.687    0.251    0.434   87.179
  445.000    6.567    0.272    0.440   84.752
  445.250    6.450    0.293    0.440   80.506
  445.500    6.575    0.304    0.455   75.047
  445.750    6.702    0.304    0.474   72.619
  446.000    7.093    0.290    0.462   70.188
  446.250    7.230    0.284    0.454   68.360
  446.500    7.234    0.283    0.456   77.422
  446.750    7.238    0.277    0.460   79.227
  447.000    7.106    0.275    0.445   77.400
  447.250    6.722    0.277    0.439   77.991
  447.500    6.478    0.275    0.448   84.630
  447.750    6.362    0.271    0.439   87.647
  448.000    6.247    0.260    0.453   90.660
  448.250    6.134    0.258    0.465   93.670
  448.500    6.023    0.258    0.463   91.240
  448.750    6.140    0.253    0.453   93.042
  449.000    6.259    0.246    0.450   93.031
  449.250    6.381    0.248    0.463   89.994
  449.500    6.505    0.253    0.457   89.982
  449.750    6.632    0.247    0.441   92.392
  450.000    6.511    0.246    0.431   96.613
  450.250    6.159    0.249    0.437   95.999
  450.500    5.825    0.241    0.448   92.960
  450.750    5.210    0.241    0.451   91.738
  451.000    4.836    0.251    0.453   93.543
  451.250    4.325    0.258    0.466   97.160
  451.500    4.246    0.259    0.510  100.775
  451.750    4.411    0.258    0.542  101.974
  452.000    4.757    0.265    0.561  101.359
  452.250    5.325    0.275    0.488   90.461
  452.500    5.741    0.281    0.446   84.402
  452.750    6.427    0.281    0.447   80.761
  453.000    7.061    0.257    0.461   78.935
  453.250    7.472    0.242    0.469   77.713
  453.500    7.761    0.247    0.445   78.306
  453.750    6.439    0.261    0.434   84.344
  454.000    3.814    0.274    0.425   93.403
  454.250    3.106    0.276    0.445   97.626
  454.500    2.778    0.278    0.485   98.215
  454.750    2.579    0.281    0.527   98.208
  455.000    2.532    0.289    0.566   99.405
  455.250    2.533    0.287    0.595   97.579
  455.500    2.582    0.274    0.565   99.983
  455.750    2.785    0.268    0.552  101.787
  456.000    3.118    0.258    0.552  101.173
  456.250    3.299    0.252    0.552   95.716
  456.500    3.835    0.254    0.514   92.076
  456.750    4.135    0.263    0.441   87.227
  457.000    4.716    0.273    0.423   82.377
  457.250    5.085    0.257    0.418   84.781
  457.500    5.586    0.232    0.417   80.536
  457.750    6.255    0.227    0.434   80.526
  458.000    6.495    0.227    0.445   83.538
  458.250    6.623    0.220    0.436   86.549
  458.500    6.625    0.222    0.423   88.959
  458.750    6.630    0.222    0.431   91.970
  459.000    6.511    0.209    0.433   90.751
  459.250    6.514    0.202    0.451   93.157
  459.500    6.397    0.203    0.482   94.961
  459.750    6.400    0.216    0.502   91.319
  460.000    6.402    0.231    0.472   91.310
  460.250    6.405    0.232    0.464   93.113
