~VERSION INFORMATION
 VERS.                 2.0:   CWLS LOG ASCII STANDARD -VERSION 2.0
 WRAP.                  NO:   ONE LINE PER DEPTH STEP
~WELL INFORMATION BLOCK
#MNEM.UNIT           DATA                    DESCRIPTION OF MNEMONIC
#---------    -------------------            -------------------------------
# Generated from Intellog Unique Number	CS_69_70/WELL/842
WELL.         PENNANT-PUMA                   : Well_name    - WELL
LOC .         00/07-24-069-16W4/0            : Location     - LOCATION
UWI .         00/07-24-069-16W4/0            : Uwi          - UNIQUE WELL ID
ENTR.         SP                             : Entered      - ENTERED BY
SRVC.         SCHLUMBERGER                   : Scn          - SERVICE COMPANY
STRT.M        259.080                        : top_depth    - START DEPTH
STOP.M        466.080                        : bot_depth    - STOP DEPTH
STEP.M        0.25                           : increment    - STEP LENGTH
 NULL. -999.2500:NULL Value
~CURVE INFORMATION BLOCK
#MNEM UNIT       ERCB CURVE CODE    CURVE DESCRIPTION
#-----------   ------------------   ----------------------------------
DEPT.M        00 001 00 00         : DEPTH        - DEPTH
GR  .API      00 310 00 00         : GR           - GAMMA RAY
DPHI.V/V      00 890 00 00         : PHID         - DENSITY POROSITY (SANDSTONE)
NPHI.V/V      00 330 00 00         : PHIN         - NEUTRON POROSITY (SANDSTONE)
ILD .OHMM     00 120 00 00         : RESD         - DEEP RESISTIVITY (DIL)
~PARAMETER INFORMATION
#MNEM.UNIT           DATA             DESCRIPTION OF MNEMONIC
#---------         -----------     ------------------------------
GL  .M        552.572              : gl           - GROUND LEVEL ELEVATION
EREF.M        555.65               : kb           - ELEVATION OF DEPTH REFERENCE
DATM.M        552.572              : datum        - DATUM ELEVATION
TDD .M        467.563              : tdd          - TOTAL DEPTH DRILLER
RUN .         ONE                  : Run          - RUN NUMBER
ENG .         BILL                 : Engineer     - RECORDING ENGINEER
WIT .         JIM                  : Witness      - WITNESSED BY
MUD .         GEL                  : Mud_type     - MUD TYPE
MATR.         SANDSTONE            : Logunit      - NEUTRON MATRIX
TMAX.C        22.2222              : BHT          - MAXIMUM RECORDED TEMPERATURE
BHTD.M        467.563              : BHTDEP       - MAXIMUM RECORDED TEMPERATURE
MATR.         1                    : LOGUNIT      - NEUTRON MATRIX
RMT .C        25                   : MDTP         - TEMPERATURE OF MUD
NEUT.         1                    : NEUTRON      - NEUTRON TYPE
RESI.         0                    : RESIST       - RESISTIVITY TYPE
RMC .OHMM     0.25                 : RMC          - RESISTIVITY OF MUD CAKE
RMF .OHMM     0.25                 : RMF          - RESISTIVITY OF MUD FILTRATE
SUFT.C        15                   : SUFT         - SURFACE TEMPERATURE
~A  DEPTH       GR     PHID     PHIN     RESD
# ...
  389.580   54.840    0.330    0.454    2.129
  389.830   52.735    0.334    0.467    2.131
  390.080   52.543    0.339    0.466    2.154
  390.330   53.935    0.344    0.456    2.186
  390.580   55.649    0.339    0.447    2.220
  390.830   57.468    0.335    0.446    2.236
  391.080   58.900    0.329    0.450    2.255
  391.330   59.962    0.327    0.469    2.278
  391.580   60.324    0.330    0.493    2.308
  391.830   60.147    0.323    0.508    2.343
  392.080   59.841    0.315    0.494    2.364
  392.330   59.343    0.311    0.484    2.381
  392.580   59.024    0.296    0.478    2.395
  392.830   59.345    0.282    0.491    2.404
  393.080   60.374    0.271    0.468    2.389
  393.330   60.925    0.271    0.445    2.376
  393.580   61.067    0.270    0.431    2.358
  393.830   60.743    0.245    0.430    2.347
  394.080   60.756    0.252    0.454    2.347
  394.330   61.896    0.292    0.472    2.364
  394.580   62.780    0.315    0.485    2.409
  394.830   62.934    0.313    0.499    2.508
  395.080   63.403    0.318    0.508    2.673
  395.330   64.854    0.325    0.502    2.885
  395.580   67.895    0.322    0.497    3.161
  395.830   71.290    0.285    0.507    3.453
  396.080   75.619    0.241    0.521    3.785
  396.330   79.975    0.223    0.518    4.048
  396.580   80.700    0.235    0.507    4.198
  396.830   79.397    0.242    0.497    4.283
  397.080   78.218    0.249    0.489    4.377
  397.330   76.601    0.242    0.484    4.419
  397.580   73.895    0.245    0.482    4.382
  397.830   71.890    0.245    0.489    4.288
  398.080   72.100    0.247    0.479    4.179
  398.330   75.665    0.249    0.461    4.046
  398.580   79.139    0.237    0.473    3.968
  398.830   83.169    0.227    0.502    3.945
  399.080   85.319    0.224    0.499    3.983
  399.330   85.646    0.224    0.497    4.038
  399.580   84.628    0.217    0.505    3.702
  399.830   82.670    0.208    0.500    3.458
  400.080   83.559    0.201    0.494    3.260
  400.330   89.064    0.193    0.505    3.106
  400.580   94.279    0.249    0.584    2.982
  400.830   98.415    0.267    0.616    2.913
  401.080   98.541    0.249    0.611    2.898
  401.330   95.084    0.238    0.599    2.895
  401.580   92.389    0.230    0.609    2.859
  401.830   92.565    0.250    0.632    2.809
  402.080   94.045    0.263    0.624    2.728
  402.330   95.863    0.252    0.603    2.641
  402.580   97.317    0.254    0.586    2.575
  402.830   97.719    0.266    0.604    2.547
  403.080   97.382    0.263    0.628    2.574
  403.330   96.515    0.269    0.647    2.597
  403.580   96.029    0.269    0.645    2.633
  403.830   94.748    0.248    0.629    2.707
  404.080   90.648    0.237    0.602    2.793
  404.330   88.197    0.227    0.582    3.010
  404.580   87.218    0.222    0.554    3.218
  404.830   88.413    0.220    0.536    3.569
  405.080   89.464    0.217    0.532    3.999
  405.330   88.859    0.214    0.518    4.373
  405.580   86.590    0.228    0.497    4.687
  405.830   81.251    0.242    0.486    4.843
  406.080   76.284    0.251    0.495    5.028
  406.330   72.204    0.228    0.488    5.112
  406.580   71.790    0.184    0.481    5.130
  406.830   74.094    0.158    0.488    5.186
  407.080   74.152    0.167    0.478    5.448
  407.330   71.416    0.226    0.465    6.443
  407.580   73.873    0.233    0.470    7.780
  407.830   75.335    0.204    0.492    9.037
  408.080   71.141    0.226    0.473   10.441
  408.330   66.198    0.238    0.449   11.228
  408.580   60.332    0.219    0.423   11.216
  408.830   56.007    0.136    0.259    9.316
  409.080   62.579    0.065    0.224    7.454
  409.330   70.361    0.001    0.258    6.210
  409.580   75.314    0.037    0.395    5.382
  409.830   78.532    0.074    0.440    4.782
  410.080   78.364    0.150    0.438    4.566
  410.330   78.960    0.191    0.444    4.526
  410.580   80.838    0.199    0.474    4.537
  410.830   83.433    0.205    0.482    4.635
  411.080   85.824    0.206    0.465    4.773
  411.330   88.342    0.209    0.457    4.899
  411.580   89.121    0.203    0.450    4.988
  411.830   88.242    0.197    0.439    5.016
  412.080   85.428    0.195    0.443    5.003
  412.330   83.056    0.196    0.450    4.904
  412.580   82.083    0.177    0.433    4.774
  412.830   84.453    0.160    0.413    4.675
  413.080   87.196    0.136    0.425    4.597
  413.330   89.709    0.169    0.435    4.554
  413.580   91.194    0.190    0.435    4.538
  413.830   91.511    0.192    0.445    4.563
  414.080   91.742    0.197    0.466    4.600
  414.330   92.039    0.200    0.463    4.672
  414.580   92.518    0.201    0.448    4.768
  414.830   92.254    0.201    0.441    4.849
  415.080   89.275    0.194    0.445    4.917
  415.330   85.888    0.182    0.454    4.970
  415.580   83.909    0.159    0.439    4.971
  415.830   86.908    0.142    0.431    5.037
  416.080   92.094    0.176    0.461    5.128
  416.330   93.621    0.206    0.457    5.239
  416.580   89.520    0.201    0.423    5.330
  416.830   89.075    0.203    0.404    5.395
  417.080   90.273    0.195    0.408    5.539
  417.330   90.247    0.182    0.420    5.558
  417.580   87.560    0.164    0.433    5.068
  417.830   83.757    0.151    0.428    4.574
  418.080   81.645    0.120    0.442    3.974
  418.330   85.081    0.188    0.444    3.370
  418.580   87.027    0.201    0.438    2.959
  418.830   87.740    0.223    0.434    2.646
  419.080   91.373    0.220    0.487    2.393
  419.330   91.640    0.225    0.549    2.227
  419.580   90.052    0.230    0.588    2.535
  419.830   92.370    0.214    0.606    3.160
  420.080   91.477    0.215    0.603    3.900
  420.330   85.559    0.201    0.573    4.860
  420.580   80.613    0.188    0.529    6.013
  420.830   74.859    0.159    0.461    7.150
  421.080   70.266    0.095    0.367    8.786
  421.330   63.523    0.061    0.287   10.202
  421.580   51.650    0.041    0.255    9.147
  421.830   60.261    0.055    0.243    7.774
  422.080   71.360    0.103    0.303    6.992
  422.330   77.245    0.129    0.369    6.214
  422.580   83.520    0.164    0.405    5.757
  422.830   85.838    0.163    0.432    6.736
  423.080   80.649    0.148    0.426    8.260
  423.330   74.123    0.128    0.405    9.771
  423.580   67.787    0.078    0.358   11.313
  423.830   61.069    0.030    0.282    9.915
  424.080   62.688    0.052    0.272    7.958
  424.330   71.726    0.100    0.335    6.647
  424.580   78.837    0.150    0.410    5.469
  424.830   84.966    0.179    0.455    4.913
  425.080   89.458    0.186    0.459    4.535
  425.330   92.369    0.180    0.460    4.339
  425.580   94.047    0.175    0.473    4.241
  425.830   89.770    0.187    0.453    4.127
  426.080   86.763    0.168    0.412    4.045
  426.330   90.581    0.149    0.405    4.014
  426.580   93.399    0.136    0.428    3.977
  426.830   91.514    0.156    0.451    3.926
  427.080   91.078    0.152    0.464    3.888
  427.330   93.307    0.142    0.475    3.857
  427.580   94.824    0.176    0.473    3.848
  427.830   96.072    0.191    0.462    3.877
  428.080   97.416    0.187    0.467    3.893
  428.330   99.135    0.194    0.487    3.895
  428.580  100.277    0.174    0.483    3.887
  428.830   98.465    0.164    0.478    3.817
  429.080   96.669    0.149    0.485    3.711
  429.330   96.112    0.163    0.506    3.525
  429.580   95.897    0.161    0.527    3.413
  429.830   95.368    0.139    0.506    3.370
  430.080   94.334    0.158    0.525    3.333
  430.330   93.882    0.185    0.543    3.329
  430.580   94.405    0.199    0.522    3.341
  430.830   95.607    0.209    0.486    3.335
  431.080   96.819    0.213    0.516    3.322
  431.330   98.072    0.209    0.563    3.248
  431.580   99.461    0.203    0.580    3.201
  431.830  100.881    0.199    0.590    3.345
  432.080  102.722    0.205    0.563    3.552
  432.330  101.849    0.192    0.512    3.685
  432.580   96.306    0.157    0.441    3.650
  432.830   91.746    0.128    0.409    3.460
