~VERSION INFORMATION
 VERS.                 2.0:   CWLS LOG ASCII STANDARD -VERSION 2.0
 WRAP.                  NO:   ONE LINE PER DEPTH STEP
~WELL INFORMATION BLOCK
#MNEM.UNIT           DATA                    DESCRIPTION OF MNEMONIC
#---------    -------------------            -------------------------------
# Generated from Intellog Unique Number	CW_82_90/WELL/3059
WELL.         TOTAL ET AL LIVOCK             : Well_name    - WELL
LOC .         00/06-36-085-23W4/0            : Location     - LOCATION
UWI .         00/06-36-085-23W4/0            : Uwi          - UNIQUE WELL ID
ENTR.         JAYE                           : Entered      - ENTERED BY
SRVC.         SCHLUMBERGER                   : Scn          - SERVICE COMPANY
DATE.         16 JAN 78                      : Date         - LOG DATE
STRT.M        188.976                        : top_depth    - START DEPTH
STOP.M        393.226                        : bot_depth    - STOP DEPTH
STEP.M        0.25                           : increment    - STEP LENGTH
 NULL. -999.2500:NULL Value
~CURVE INFORMATION BLOCK
#MNEM UNIT       ERCB CURVE CODE    CURVE DESCRIPTION
#-----------   ------------------   ----------------------------------
DEPT.M        00 001 00 00         : DEPTH        - DEPTH
CALI.MM       00 280 01 00         : CAL          - CALIPER
GR  .API      00 310 00 00         : GR           - GAMMA RAY
NPHI.V/V      00 330 00 00         : PHIN         - NEUTRON POROSITY (SANDSTONE)
DPHI.V/V      00 890 00 00         : PHID         - DENSITY POROSITY (SANDSTONE)
ILD .OHMM     00 120 00 00         : RESD         - DEEP RESISTIVITY (DIL)
~PARAMETER INFORMATION
#MNEM.UNIT           DATA             DESCRIPTION OF MNEMONIC
#---------         -----------     ------------------------------
GL  .M        565.404              : gl           - GROUND LEVEL ELEVATION
EREF.M        568.452              : kb           - ELEVATION OF DEPTH REFERENCE
DATM.M        565.404              : datum        - DATUM ELEVATION
TDD .M        408.432              : tdd          - TOTAL DEPTH DRILLER
RUN .         ONE                  : Run          - RUN NUMBER
ENG .         BUSHMAN              : Engineer     - RECORDING ENGINEER
WIT .         KIRKPATRICK          : Witness      - WITNESSED BY
BASE.         EDMONTON             : Branch       - HOME BASE OF LOGGING UNIT
MUD .         GEL CHEM             : Mud_type     - MUD TYPE
MATR.         SANDSTONE            : Logunit      - NEUTRON MATRIX
TMAX.C        21.1111              : BHT          - MAXIMUM RECORDED TEMPERATURE
BHTD.M        408.432              : BHTDEP       - MAXIMUM RECORDED TEMPERATURE
RMT .C        -17.7778             : MDTP         - TEMPERATURE OF MUD
MUDD.KG/M     8700                 : MWT          - MUD DENSITY
NEUT.         1                    : NEUTRON      - NEUTRON TYPE
RESI.         0                    : RESIST       - RESISTIVITY TYPE
RM  .OHMM     2.5                  : RM           - RESISTIVITY OF MUD
RMC .OHMM     2.5                  : RMC          - RESISTIVITY OF MUD CAKE
RMF .OHMM     6.28                 : RMF          - RESISTIVITY OF MUD FILTRATE
SUFT.C        4                    : SUFT         - SURFACE TEMPERATURE
~A  DEPTH      CAL       GR     PHIN     PHID     RESD
# ...
  225.476  208.985   76.883    0.467    0.312   11.850
  225.726  209.190   75.753    0.465    0.332   13.104
  225.976  210.032   74.685    0.462    0.317   14.545
  226.226  210.450   72.116    0.453    0.294   15.994
  226.476  210.868   67.356    0.433    0.264   16.616
  226.726  210.756   64.412    0.403    0.213   16.876
  226.976  210.326   66.598    0.364    0.105   16.977
  227.226  209.789   70.287    0.325    0.136   16.887
  227.476  209.677   71.535    0.302    0.135   16.421
  227.726  209.669   72.595    0.312    0.149   15.787
  227.976  209.025   74.344    0.386    0.242   14.950
  228.226  209.233   77.030    0.471    0.314   14.292
  228.476  209.967   76.965    0.490    0.337   13.897
  228.726  210.492   76.022    0.507    0.323   13.615
  228.976  211.333   76.018    0.505    0.322   13.466
  229.226  212.070   76.704    0.497    0.321   13.118
  229.476  212.806   78.264    0.486    0.329   12.660
  229.726  213.010   78.761    0.471    0.331   12.240
  229.976  213.748   78.382    0.459    0.329   11.679
  230.226  215.120   77.377    0.463    0.334   11.059
  230.476  217.550   77.937    0.454    0.337   10.219
  230.726  218.395   81.249    0.448    0.319    9.658
  230.976  219.873   82.060    0.452    0.275    9.060
  231.226  224.745   81.868    0.469    0.245    8.434
  231.476  222.724   82.178    0.482    0.270    7.661
  231.726  224.308   83.801    0.520    0.284    6.765
  231.976  242.225   85.425    0.529    0.336    6.203
  232.226  226.204   86.860    0.520    0.328    5.919
  232.476  238.606   87.608    0.515    0.355    5.744
  232.726  230.645   88.105    0.528    0.355    5.692
  232.976  231.380   88.477    0.526    0.329    5.936
  233.226  248.767   91.038    0.545    0.370    6.309
  233.476  217.263   92.600    0.521    0.355    6.743
  233.726  215.877   90.594    0.529    0.330    7.373
  233.976  217.462   85.396    0.537    0.313    8.061
  234.226  210.244   80.574    0.532    0.311    8.747
  234.476  206.950   77.504    0.506    0.319    9.655
  234.726  205.246   72.682    0.477    0.329   10.476
  234.976  204.497   71.865    0.487    0.323   11.673
  235.226  204.491   70.860    0.486    0.311   12.499
  235.476  204.802   67.477    0.485    0.295   13.693
  235.726  204.264   64.032    0.483    0.304   14.225
  235.976  204.046   62.652    0.481    0.321   14.176
  236.226  203.828   63.274    0.478    0.302   13.398
  236.476  204.458   65.084    0.470    0.252   12.286
  236.726  205.088   68.147    0.391    0.210   11.160
  236.976  206.142   72.775    0.451    0.268    9.780
  237.226  209.212   78.904    0.475    0.314    8.701
  237.476  211.645   81.529    0.483    0.309    8.193
  237.726  213.015   77.332    0.481    0.309    7.997
  237.976  213.965   76.202    0.493    0.335    7.924
  238.226  215.761   77.575    0.511    0.336    7.647
  238.476  216.072   80.450    0.529    0.317    7.256
  238.726  217.550   83.888    0.534    0.355    6.922
  238.976  221.044   86.575    0.505    0.322    6.360
  239.226  223.052   89.325    0.458    0.331    5.777
  239.476  227.288   96.768    0.451    0.292    5.258
  239.726  229.614   96.765    0.498    0.270    4.821
  239.976  230.456   96.136    0.513    0.324    4.617
  240.226  234.268   95.631    0.496    0.336    4.806
  240.476  244.867   95.439    0.527    0.385    5.295
  240.726  250.588   94.435    0.553    0.419    5.844
  240.976  258.429   83.731    0.651    0.448    6.775
  241.226  223.319   80.661    0.615    0.380    7.592
  241.476  219.919   78.717    0.533    0.327    8.460
  241.726  219.912   76.586    0.520    0.288    9.408
  241.976  215.981   72.765    0.507    0.273   10.325
  242.226  211.521   68.757    0.494    0.249   11.098
  242.476  206.742   66.563    0.470    0.232   11.729
  242.726  205.569   66.997    0.446    0.245   11.469
  242.976  205.138   70.185    0.461    0.296    9.389
  243.226  205.238   75.626    0.461    0.309    7.614
  243.476  206.291   76.811    0.470    0.313    6.304
  243.726  207.240   77.684    0.470    0.324    5.792
  243.976  209.991   80.371    0.476    0.339    6.144
  244.226  216.876   84.185    0.484    0.357    6.692
  244.476  237.870   86.308    0.510    0.373    7.613
  244.726  220.789   75.479    0.551    0.406    8.792
  244.976  207.314   72.409    0.533    0.338   10.688
  245.226  206.564   70.403    0.502    0.290   12.022
  245.476  206.452   68.084    0.498    0.287   12.655
  245.726  207.610   66.766    0.508    0.316   12.829
  245.976  208.770   66.888    0.496    0.338   12.689
  246.226  209.401   68.449    0.484    0.343   12.268
  246.476  209.077   71.136    0.483    0.333   11.144
  246.726  208.964   74.199    0.492    0.313    9.970
  246.976  208.958   77.825    0.483    0.268    8.590
  247.226  209.693   77.008    0.470    0.292    7.358
  247.476  211.278   80.132    0.470    0.288    6.279
  247.726  213.287   82.946    0.502    0.286    5.461
  247.976  218.053   86.634    0.520    0.322    4.998
  248.226  223.137   88.882    0.560    0.366    4.751
  248.476  222.706   89.005    0.571    0.362    4.871
  248.726  218.882   87.687    0.568    0.361    5.316
  248.976  220.679   87.746    0.542    0.352    5.779
  249.226  221.945   89.306    0.530    0.308    6.488
  249.476  222.574   90.679    0.524    0.296    7.637
  249.726  223.205   90.864    0.524    0.285    8.623
  249.976  224.258   85.354    0.511    0.273    9.810
  250.226  225.737   88.540    0.500    0.250   10.366
  250.476  226.897   89.664    0.495    0.245   10.292
  250.726  225.723   88.409    0.500    0.250    9.970
  250.976  222.535   90.158    0.522    0.254    9.495
  251.226  220.937   96.162    0.513    0.260    9.145
  251.476  221.991  100.100    0.502    0.257    9.011
  251.726  222.092   99.283    0.504    0.252    8.963
  251.976  220.601   96.464    0.505    0.278    8.933
  252.226  219.746   96.147    0.506    0.269    9.021
  252.476  220.693   97.082    0.515    0.293    9.144
  252.726  220.581   98.142    0.498    0.277    9.270
  252.976  219.514   96.261    0.511    0.251    9.343
  253.226  216.112   93.504    0.506    0.282    9.526
  253.476  215.895   90.310    0.454    0.246    9.600
  253.726  216.736   85.863    0.426    0.202    9.714
  253.976  216.519   84.733    0.388    0.178    9.736
  254.226  215.769   87.169    0.395    0.173    9.776
  254.476  214.597   92.735    0.455    0.250    9.742
  254.726  214.166   95.484    0.463    0.249    9.746
  254.976  217.129   95.669    0.462    0.232    9.786
  255.226  221.683   91.661    0.459    0.255    9.808
  255.476  228.252   90.593    0.459    0.241    9.885
  255.726  232.381   90.590    0.494    0.231   10.040
  255.976  236.193   89.397    0.507    0.240   10.590
  256.226  228.550   87.766    0.520    0.251   11.170
  256.476  214.651   88.013    0.514    0.208   11.582
  256.726  206.054   90.263    0.467    0.182   11.965
  256.976  202.017   90.008    0.464    0.249   12.222
  257.226  200.312   79.868    0.496    0.285   12.294
  257.476  200.096   73.732    0.486    0.316   12.207
  257.726  202.316   68.346    0.456    0.333   11.936
  257.976  205.278   66.278    0.450    0.339   11.282
  258.226  206.332   67.213    0.473    0.331   10.704
  258.476  207.386   73.279    0.468    0.325    9.927
  258.726  208.653   79.283    0.466    0.307    9.189
  258.976  210.556   88.228    0.473    0.261    8.316
  259.226  212.139   96.797    0.477    0.255    7.526
  259.476  212.663  100.360    0.473    0.252    6.993
  259.726  212.445   99.606    0.471    0.247    6.723
  259.976  211.908   98.726    0.474    0.242    6.550
  260.226  212.433   98.473    0.480    0.234    6.551
  260.476  212.320  100.597    0.484    0.249    6.730
  260.726  212.208   95.587    0.477    0.242    6.952
  260.976  211.777   94.206    0.471    0.223    7.250
  261.226  210.603   94.891    0.465    0.216    7.647
  261.476  209.536   96.138    0.456    0.215    8.173
  261.726  208.894   96.574    0.454    0.239    8.869
