~VERSION INFORMATION
 VERS.                 2.0:   CWLS LOG ASCII STANDARD -VERSION 2.0
 WRAP.                  NO:   ONE LINE PER DEPTH STEP
~WELL INFORMATION BLOCK
#MNEM.UNIT           DATA                    DESCRIPTION OF MNEMONIC
#---------    -------------------            -------------------------------
# Generated from Intellog Unique Number	CS_67_68/WELL/954
WELL.         NOVALTA TWEEDIE                : Well_name    - WELL
LOC .         00/05-04-068-11W4/0            : Location     - LOCATION
UWI .         00/05-04-068-11W4/0            : Uwi          - UNIQUE WELL ID
ENTR.         T                              : Entered      - ENTERED BY
SRVC.         SCHLUMBERGER                   : Scn          - SERVICE COMPANY
STRT.M        300                            : top_depth    - START DEPTH
STOP.M        515                            : bot_depth    - STOP DEPTH
STEP.M        0.25                           : increment    - STEP LENGTH
 NULL. -999.2500:NULL Value
~CURVE INFORMATION BLOCK
#MNEM UNIT       ERCB CURVE CODE    CURVE DESCRIPTION
#-----------   ------------------   ----------------------------------
DEPT.M        00 001 00 00         : DEPTH        - DEPTH
GR  .API      00 310 00 00         : GR           - GAMMA RAY
CALI.MM       00 280 01 00         : CAL          - CALIPER
NPHI.V/V      00 330 00 00         : PHIN         - NEUTRON POROSITY (SANDSTONE)
DPHI.V/V      00 890 00 00         : PHID         - DENSITY POROSITY (SANDSTONE)
ILD .OHMM     00 120 00 00         : RESD         - DEEP RESISTIVITY (DLL)
~PARAMETER INFORMATION
#MNEM.UNIT           DATA             DESCRIPTION OF MNEMONIC
#---------         -----------     ------------------------------
GL  .M        613.7                : gl           - GROUND LEVEL ELEVATION
EREF.M        617                  : kb           - ELEVATION OF DEPTH REFERENCE
DATM.M        617                  : datum        - DATUM ELEVATION
TDD .M        515                  : tdd          - TOTAL DEPTH DRILLER
RUN .         ONE                  : Run          - RUN NUMBER
ENG .         BILL                 : Engineer     - RECORDING ENGINEER
WIT .         JIM                  : Witness      - WITNESSED BY
MUD .         GEL                  : Mud_type     - MUD TYPE
MATR.         SANDSTONE            : Logunit      - NEUTRON MATRIX
TMAX.C        5                    : BHT          - MAXIMUM RECORDED TEMPERATURE
BHTD.M        25                   : BHTDEP       - MAXIMUM RECORDED TEMPERATURE
RMT .C        515                  : MDTP         - TEMPERATURE OF MUD
MUDD.KG/M     17                   : MWT          - MUD DENSITY
NEUT.         1100                 : NEUTRON      - NEUTRON TYPE
RESI.         1                    : RESIST       - RESISTIVITY TYPE
RM  .OHMM     0                    : RM           - RESISTIVITY OF MUD
RMC .OHMM     2.6                  : RMC          - RESISTIVITY OF MUD CAKE
RMF .OHMM     2.6                  : RMF          - RESISTIVITY OF MUD FILTRATE
SUFT.C        2.7                  : SUFT         - SURFACE TEMPERATURE
SUFT.C        15                   : SUFT         - SURFACE TEMPERATURE
~A  DEPTH       GR      CAL     PHIN     PHID     RESD
# ...
  373.000   78.392  163.455    0.397    0.306    4.187
  373.250   83.678  163.460    0.390    0.300    4.351
  373.500   84.862  163.464    0.396    0.293    4.436
  373.750   83.704  164.450    0.418    0.267    4.696
  374.000   82.543  164.453    0.418    0.262    4.877
  374.250   84.895  164.457    0.403    0.270    4.972
  374.500   87.837  165.444    0.399    0.256    4.979
  374.750   91.954  165.447    0.402    0.234    4.990
  375.000   94.896  167.419    0.396    0.216    4.905
  375.250   97.251  168.405    0.392    0.225    4.915
  375.500  100.193  169.391    0.412    0.237    4.829
  375.750  102.555  171.364    0.445    0.211    4.664
  376.000  103.732  172.351    0.465    0.197    4.584
  376.250  103.744  170.388    0.456    0.196    4.427
  376.500   98.483  167.442    0.443    0.215    4.273
  376.750   94.975  166.461    0.435    0.239    4.125
  377.000   89.714  162.533    0.441    0.260    3.984
  377.250   86.792  162.535    0.443    0.275    3.846
  377.500   80.356  161.556    0.437    0.288    3.782
  377.750   73.335  160.577    0.432    0.307    3.717
  378.000   67.485  159.598    0.425    0.325    3.655
  378.250   60.463  159.600    0.421    0.335    3.530
  378.500   53.444  158.622    0.410    0.333    3.471
  378.750   61.661  158.625    0.408    0.329    3.413
  379.000   62.258  158.630    0.404    0.319    3.355
  379.250   59.339  158.634    0.397    0.318    3.241
  379.500   58.767  158.638    0.402    0.327    3.244
  379.750   59.367  158.640    0.421    0.334    3.250
  380.000   59.373  158.644    0.416    0.325    3.255
  380.250   59.970  158.647    0.405    0.320    3.318
  380.500   59.982  158.651    0.412    0.313    3.385
  380.750   59.996  158.656    0.429    0.306    3.518
  381.000   61.179  158.658    0.434    0.298    3.587
  381.250   63.535  158.662    0.416    0.285    3.658
  381.500   68.821  158.666    0.393    0.276    3.799
  381.750   75.279  158.672    0.383    0.261    3.948
  382.000   77.638  157.691    0.388    0.258    4.101
  382.250   77.063  156.713    0.393    0.262    4.182
  382.500   77.661  156.715    0.400    0.263    4.266
  382.750   80.019  155.736    0.367    0.259    4.272
  383.000   81.786  155.740    0.371    0.257    4.358
  383.250   80.625  154.760    0.378    0.263    4.364
  383.500   78.878  154.763    0.387    0.272    4.372
  383.750   77.717  154.768    0.395    0.279    4.375
  384.000   77.728  155.755    0.399    0.274    4.304
  384.250   78.326  156.741    0.393    0.268    4.308
  384.500   79.509  157.729    0.381    0.264    4.314
  384.750   80.110  158.716    0.368    0.263    4.242
  385.000   79.538  158.720    0.362    0.262    4.250
  385.250   78.957  158.723    0.385    0.260    4.256
  385.500   78.974  159.709    0.382    0.256    4.260
  385.750   78.980  159.714    0.382    0.261    4.268
  386.000   80.163  159.717    0.384    0.267    4.275
  386.250   81.350  160.704    0.385    0.267    4.283
  386.500   83.119  160.709    0.388    0.262    4.208
  386.750   84.300  160.711    0.394    0.253    4.214
  387.000   86.658  160.715    0.397    0.250    4.144
  387.250   88.434  161.701    0.396    0.247    4.151
  387.500   89.611  161.708    0.394    0.244    4.156
  387.750   91.967  161.711    0.398    0.234    4.165
  388.000   93.737  161.713    0.408    0.227    4.169
  388.250   94.920  161.718    0.413    0.220    4.175
  388.500   93.173  161.722    0.412    0.213    4.181
  388.750   89.671  161.724    0.404    0.227    4.187
  389.000   87.921  161.729    0.396    0.244    4.193
  389.250   87.932  161.732    0.386    0.250    4.200
  389.500   89.121  161.735    0.377    0.240    4.205
  389.750   89.713  161.740    0.381    0.233    4.212
  390.000   90.900  160.760    0.384    0.234    4.217
  390.250   91.497  160.765    0.390    0.240    4.224
  390.500   87.992  160.769    0.389    0.246    4.154
  390.750   82.142  160.771    0.385    0.257    4.161
  391.000   78.637  159.793    0.395    0.269    4.090
  391.250   73.373  159.796    0.404    0.279    3.948
  391.500   71.040  159.801    0.409    0.285    3.743
  391.750   71.052  159.804    0.402    0.289    3.679
  392.000   73.407  159.806    0.399    0.294    3.552
  392.250   75.763  159.811    0.408    0.297    3.492
  392.500   75.774  159.814    0.412    0.300    3.434
  392.750   72.275  158.835    0.406    0.295    3.379
  393.000   71.694  158.840    0.397    0.294    3.322
  393.250   71.705  158.843    0.397    0.297    3.325
  393.500   72.303  158.846    0.407    0.292    3.333
  393.750   71.734  158.851    0.413    0.284    3.335
  394.000   71.745  158.854    0.416    0.288    3.340
  394.250   71.756  158.857    0.419    0.295    3.407
  394.500   71.181  158.863    0.421    0.299    3.413
  394.750   68.851  158.865    0.416    0.293    3.545
  395.000   67.685  158.868    0.413    0.289    3.617
  395.250   65.352  158.873    0.410    0.296    3.619
  395.500   66.538  158.876    0.408    0.302    3.626
  395.750   71.821  158.881    0.425    0.292    3.631
  396.000   84.141  158.884    0.444    0.275    3.570
  396.250   88.841  158.888    0.490    0.265    3.447
  396.500   83.580  158.893    0.477    0.287    3.388
  396.750   79.489  158.895    0.459    0.306    3.271
  397.000   76.572  158.898    0.444    0.318    3.159
  397.250   75.409  158.902    0.459    0.327    2.996
  397.500   74.251  158.906    0.477    0.334    2.999
  397.750   76.606  158.910    0.457    0.333    2.895
  398.000   78.959  158.913    0.442    0.328    2.847
  398.250   81.901  158.918    0.443    0.318    2.799
  398.500   80.154  158.921    0.453    0.312    2.804
  398.750   77.235  158.925    0.452    0.321    2.807
  399.000   74.904  157.945    0.458    0.329    2.812
  399.250   72.571  157.950    0.426    0.340    2.868
  399.500   69.649  157.955    0.349    0.337    3.034
  399.750   65.558  157.956    0.305   -0.027    3.581
  400.000   60.881  157.961    0.243   -0.024    5.880
  400.250   55.034  157.965    0.201   -0.024    8.186
  400.500   49.184  157.967    0.148   -0.020   13.441
  400.750   45.679  157.971    0.141   -0.013   17.712
  401.000   46.862  157.976    0.151   -0.008   17.416
  401.250   50.390  157.979    0.168    0.002   14.792
  401.500   54.504  157.984    0.185    0.039   11.465
  401.750   61.549  157.986    0.218    0.070    8.411
  402.000   68.007  157.991    0.256    0.154    7.015
  402.250   75.051  158.978    0.306    0.228    5.850
  402.500   82.099  158.983    0.380    0.256    5.154
  402.750   87.974  158.985    0.414    0.235    4.298
  403.000   86.810  158.988    0.440    0.216    3.855
  403.250   85.063  159.976    0.430    0.230    3.398
  403.500   88.008  159.979    0.438    0.255    3.341
  403.750   90.361  159.982    0.447    0.271    3.347
  404.000   92.716  159.987    0.442    0.259    3.291
  404.250   89.214  159.990    0.436    0.260    3.297
  404.500   88.639  159.993    0.440    0.275    3.299
  404.750   88.647  159.998    0.453    0.283    3.304
  405.000   86.900  160.002    0.454    0.274    3.310
  405.250   83.398  160.005    0.447    0.266    3.314
  405.500   84.582  160.010    0.442    0.270    3.319
  405.750   87.523  160.013    0.453    0.268    3.386
  406.000   89.882  160.017    0.464    0.260    3.390
  406.250   92.235  160.021    0.453    0.249    3.396
  406.500   92.832  161.008    0.441    0.234    3.398
  406.750   92.257  161.011    0.440    0.232    3.467
  407.000   90.513  161.015    0.438    0.230    3.536
  407.250   89.352  161.020    0.434    0.228    3.608
  407.500   89.361  161.021    0.431    0.225    3.749
  407.750   91.719  162.010    0.426    0.218    3.752
  408.000   93.489  162.014    0.425    0.209    3.827
  408.250   94.086  162.018    0.426    0.200    3.976
  408.500   92.922  162.021    0.428    0.189    4.054
  408.750   93.523  162.026    0.423    0.195    4.060
  409.000   91.778  162.028    0.418    0.206    4.142
  409.250   89.443  162.031    0.417    0.217    4.148
