~VERSION INFORMATION
 VERS.                 2.0:   CWLS LOG ASCII STANDARD -VERSION 2.0
 WRAP.                  NO:   ONE LINE PER DEPTH STEP
~WELL INFORMATION BLOCK
#MNEM.UNIT           DATA                    DESCRIPTION OF MNEMONIC
#---------    -------------------            -------------------------------
# Generated from Intellog Unique Number	CS_69_70/WELL/778
NULL.         -999.25                        : NULL_VALUE
WELL.         PANCANADIAN PETROLEUM          : Well_name    - WELL              
LOC .         00/06-26-070-13W4/0            : Location     - LOCATION          
UWI .         00/06-26-070-13W4/0            : Uwi          - UNIQUE WELL ID    
ENTR.         SP                             : Entered      - ENTERED BY        
SRVC.         SCHLUMBERGER                   : Scn          - SERVICE COMPANY   
STRT.M        260                            : top_depth    - START DEPTH       
STOP.M        495                            : bot_depth    - STOP DEPTH        
STEP.M        0.25                           : increment    - STEP LENGTH       
~CURVE INFORMATION BLOCK
#MNEM UNIT       ERCB CURVE CODE    CURVE DESCRIPTION
#-----------   ------------------   ----------------------------------
DEPT.M        00 001 00 00         : DEPTH        - DEPTH                       
ILD .OHMM     00 120 00 00         : RESD         - DEEP RESISTIVITY (DIL)      
DPHI.V/V      00 890 00 00         : PHID         - DENSITY POROSITY (LIMESTONE)
NPHI.V/V      00 330 00 00         : PHIN         - NEUTRON POROSITY (LIMESTONE)
GR  .API      00 310 00 00         : GR           - GAMMA RAY                   
~PARAMETER INFORMATION       
#MNEM.UNIT           DATA             DESCRIPTION OF MNEMONIC
#---------         -----------     ------------------------------
GL  .M        577.2                : gl           - GROUND LEVEL ELEVATION      
EREF.M        580.8                : kb           - ELEVATION OF DEPTH REFERENCE
DATM.M        577.2                : datum        - DATUM ELEVATION             
TDD .M        499.5                : tdd          - TOTAL DEPTH DRILLER         
RUN .         ONE                  : Run          - RUN NUMBER                  
ENG .         BILL                 : Engineer     - RECORDING ENGINEER          
WIT .         JIM                  : Witness      - WITNESSED BY                
MUD .         GEL                  : Mud_type     - MUD TYPE                    
MATR.         LIMESTONE            : Logunit      - NEUTRON MATRIX              
TMAX.C        28                   : BHT          - MAXIMUM RECORDED TEMPERATURE
BHTD.M        499.5                : BHTDEP       - MAXIMUM RECORDED TEMPERATURE
MATR.         1                    : LOGUNIT      - NEUTRON MATRIX              
RMT .C        25                   : MDTP         - TEMPERATURE OF MUD          
NEUT.         1                    : NEUTRON      - NEUTRON TYPE                
RESI.         0                    : RESIST       - RESISTIVITY TYPE            
RMC .OHMM     0.25                 : RMC          - RESISTIVITY OF MUD CAKE     
RMF .OHMM     0.25                 : RMF          - RESISTIVITY OF MUD FILTRATE 
SUFT.C        15                   : SUFT         - SURFACE TEMPERATURE         
~A  DEPTH     RESD     PHID     PHIN       GR
# ...
  434.000    4.775    0.215    0.366  112.352
  434.250    5.072    0.208    0.361  100.111
  434.500    5.338    0.194    0.354   93.841
  434.750    5.598    0.187    0.347   90.133
  435.000    5.804    0.198    0.341   81.672
  435.250    6.086    0.105    0.336   76.438
  435.500    6.250    0.116    0.331   70.109
  435.750    6.505    0.176    0.335   67.131
  436.000    6.873    0.215    0.343   67.019
  436.250    7.085    0.237    0.346   69.040
  436.500    7.129    0.229    0.341   77.400
  436.750    6.909    0.235    0.337   85.576
  437.000    6.733    0.246    0.332   70.715
  437.250    6.724    0.241    0.329   58.776
  437.500    7.130    0.223    0.331   56.165
  437.750    7.420    0.216    0.338   62.148
  438.000    7.593    0.206    0.341   66.912
  438.250    7.582    0.201    0.340   74.053
  438.500    7.294    0.198    0.342   82.229
  438.750    7.135    0.224    0.345   82.361
  439.000    7.247    0.260    0.346   68.900
  439.250    7.485    0.285    0.341   59.523
  439.500    7.834    0.241    0.338   62.398
  439.750    8.153    0.216    0.335   68.623
  440.000    8.296    0.198    0.334   79.178
  440.250    8.270    0.253    0.334   82.662
  440.500    8.212    0.285    0.335   70.420
  440.750    8.170    0.317    0.343   58.239
  441.000    8.376    0.312    0.352   47.216
  441.250    8.833    0.298    0.359   55.212
  441.500    9.209    0.293    0.367   61.499
  441.750    9.494    0.283    0.366   62.848
  442.000    9.880    0.276    0.361   64.991
  442.250   10.131    0.268    0.354   67.682
  442.500   10.098    0.249    0.352   69.155
  442.750    9.711    0.233    0.349   64.837
  443.000    8.586    0.238    0.344   63.993
  443.250    7.662    0.208    0.343   73.450
  443.500    6.980    0.171    0.351   80.286
  443.750    6.311    0.150    0.364   90.963
  444.000    5.718    0.127    0.396   97.127
  444.250    5.199    0.121    0.430  103.842
  444.500    4.754    0.091    0.441  108.422
  444.750    4.547    0.068    0.451  100.265
  445.000    4.317    0.118    0.441  111.489
  445.250    4.215    0.171    0.350  119.423
  445.500    4.178    0.178    0.335  112.606
  445.750    4.300    0.181    0.329   98.413
  446.000    4.424    0.214    0.336   82.392
  446.250    4.402    0.248    0.341   71.796
  446.500    3.870    0.287    0.348   63.272
  446.750    3.473    0.295    0.352   56.699
  447.000    3.152    0.263    0.350   58.721
  447.250    2.909    0.246    0.345   62.203
  447.500    2.927    0.245    0.348   68.003
  447.750    3.052    0.242    0.350   72.828
  448.000    3.200    0.234    0.346   73.874
  448.250    3.349    0.229    0.343   74.798
  448.500    3.519    0.251    0.341   77.002
  448.750    3.642    0.252    0.343   78.536
  449.000    3.762    0.239    0.346   77.874
  449.250    3.792    0.243    0.350   73.799
  449.500    3.773    0.255    0.356   74.053
  449.750    3.732    0.262    0.359   72.112
  450.000    3.672    0.271    0.357   69.501
  450.250    3.659    0.261    0.355   75.605
  450.500    3.796    0.231    0.357   95.058
  450.750    3.832    0.210    0.355  106.648
  451.000    4.018    0.200    0.353  111.717
  451.250    4.237    0.210    0.349  107.033
  451.500    4.311    0.232    0.347   63.827
  451.750    4.017    0.260    0.349   48.599
  452.000    3.440    0.291    0.346   38.978
  452.250    2.864    0.277    0.340   30.271
  452.500    2.439    0.219    0.336   31.683
  452.750    2.458    0.188    0.333   45.650
  453.000    2.737    0.200    0.336   68.029
  453.250    3.048    0.174    0.335   79.010
  453.500    3.292    0.151    0.330   88.102
  453.750    3.679    0.173    0.329   95.912
  454.000    4.051    0.221    0.332   89.217
  454.250    4.385    0.252    0.335   75.573
  454.500    4.589    0.273    0.337   64.124
  454.750    4.252    0.282    0.343   60.598
  455.000    3.668    0.255    0.351   57.683
  455.250    3.159    0.228    0.355   63.238
  455.500    2.851    0.270    0.355   74.889
  455.750    2.637    0.332    0.361   60.698
  456.000    2.384    0.355    0.369   42.482
  456.250    2.209    0.357    0.358   32.495
  456.500    2.050    0.352    0.350   27.324
  456.750    1.947    0.341    0.343   31.784
  457.000    1.908    0.323    0.340   36.059
  457.250    1.884    0.310    0.348   42.042
  457.500    1.867    0.308    0.345   47.049
  457.750    1.872    0.323    0.340   52.363
  458.000    1.873    0.318    0.345   56.333
  458.250    1.899    0.309    0.349   60.060
  458.500    1.917    0.310    0.354   58.790
  458.750    1.955    0.306    0.352   58.007
  459.000    2.008    0.290    0.346   60.090
  459.250    2.166    0.275    0.354   56.016
  459.500    2.384    0.264    0.348   61.449
  459.750    2.542    0.250    0.342   89.862
  460.000    2.856    0.219    0.339  101.574
  460.250    3.204    0.264    0.343  101.158
  460.500    3.328    0.316    0.347   75.506
  460.750    3.226    0.342    0.362   33.946
  461.000    2.573    0.322    0.359   23.045
  461.250    2.304    0.310    0.352   27.443
  461.500    2.119    0.306    0.350   31.231
  461.750    2.019    0.305    0.352   40.203
  462.000    1.998    0.310    0.356   43.563
  462.250    1.999    0.317    0.354   41.622
  462.500    2.022    0.324    0.350   46.568
  462.750    2.077    0.267    0.345   58.829
  463.000    2.186    0.244    0.343   69.872
  463.250    2.258    0.289    0.348   74.879
  463.500    2.315    0.331    0.353   62.027
  463.750    2.239    0.351    0.358   36.924
  464.000    2.098    0.355    0.355   29.254
  464.250    1.981    0.354    0.351   25.789
  464.500    1.986    0.345    0.346   32.016
  464.750    2.078    0.299    0.341   44.339
  465.000    2.258    0.234    0.338   50.016
  465.250    2.453    0.223    0.336   56.120
  465.500    2.681    0.262    0.339   59.787
  465.750    2.891    0.288    0.351   56.993
  466.000    3.066    0.309    0.361   53.041
  466.250    3.161    0.321    0.366   52.196
  466.500    3.069    0.309    0.361   61.167
  466.750    2.974    0.266    0.353   75.865
  467.000    3.049    0.229    0.350   93.550
  467.250    3.420    0.168    0.347  102.946
  467.500    3.787    0.157    0.349  112.221
  467.750    4.130    0.159    0.358  117.960
  468.000    4.598    0.136    0.362  106.084
  468.250    4.968    0.172    0.360   81.103
  468.500    5.160    0.237    0.357   65.813
  468.750    4.881    0.280    0.355   75.149
  469.000    4.480    0.253    0.352   84.118
  469.250    4.166    0.229    0.351   92.844
  469.500    3.926    0.203    0.349  100.045
  469.750    3.942    0.181    0.348  105.358
  470.000    4.188    0.169    0.348  108.415
  470.250    4.509    0.115    0.351  102.451
  470.500    4.844    0.215    0.350   89.783
  470.750    5.041    0.253    0.349   84.185
  471.000    5.025    0.277    0.354   77.428
  471.250    4.535    0.282    0.360   68.782
  471.500    4.162    0.277    0.362   69.402
  471.750    3.828    0.299    0.357   67.948
  472.000    3.560    0.321    0.351   68.384
  472.250    3.317    0.310    0.347   78.817
  472.500    3.108    0.304    0.344   81.690
  472.750    3.006    0.325    0.356   80.969
  473.000    2.946    0.328    0.357   81.649
  473.250    2.975    0.285    0.352   88.485
  473.500    3.245    0.250    0.352   97.393
  473.750    3.454    0.228    0.354  100.389
  474.000    3.561    0.269    0.356   71.629
  474.250    3.419    0.301    0.355   61.399
  474.500    3.126    0.296    0.355   67.566
  474.750    3.002    0.284    0.353   80.557
  475.000    3.091    0.258    0.341   82.925
  475.250    3.652    0.200    0.337   90.474
  475.500    4.064    0.183    0.338  100.573
  475.750    4.242    0.174    0.344  113.189
  476.000    4.257    0.174    0.352  128.248
  476.250    4.114    0.194    0.360  123.186
  476.500    3.984    0.216    0.363  100.262
  476.750    3.953    0.217    0.358   69.753
  477.000    4.050    0.198    0.350   81.259
  477.250    4.235    0.186    0.344   93.321
