~VERSION INFORMATION
 VERS.                 2.0:   CWLS LOG ASCII STANDARD -VERSION 2.0
 WRAP.                  NO:   ONE LINE PER DEPTH STEP
~WELL INFORMATION BLOCK
#MNEM.UNIT           DATA                    DESCRIPTION OF MNEMONIC
#---------    -------------------            -------------------------------
# Generated from Intellog Unique Number	CX_WELLS/WELL/1049
LOC .         00/03-10-088-03W4/0            : Location     - LOCATION
UWI .         00/03-10-088-03W400            : Uwi          - UNIQUE WELL ID
ENTR.         TIM                            : Entered      - ENTERED BY
SRVC.         SCHLUMBERGER                   : Scn          - SERVICE COMPANY
STRT.F        100                            : top_depth    - START DEPTH
STOP.F        689.731                        : bot_depth    - STOP DEPTH
STEP.F        0.82                           : increment    - STEP LENGTH
 NULL. -999.2500:NULL Value
~CURVE INFORMATION BLOCK
#MNEM UNIT       ERCB CURVE CODE    CURVE DESCRIPTION
#-----------   ------------------   ----------------------------------
DEPT.F        00 001 00 00         : DEPTH        - DEPTH
GR  .API      00 310 00 00         : GR           - GAMMA RAY
NPHI.V/V      00 330 00 00         : PHIN         - NEUTRON POROSITY (SANDSTONE)
DPHI.V/V      00 890 00 00         : PHID         - DENSITY POROSITY (SANDSTONE)
ILD .OHMM     00 120 00 00         : RESD         - DEEP RESISTIVITY (DIL)
~PARAMETER INFORMATION
#MNEM.UNIT           DATA             DESCRIPTION OF MNEMONIC
#---------         -----------     ------------------------------
GL  .M        474.269              : gl           - GROUND LEVEL ELEVATION
EREF.M        475.488              : kb           - ELEVATION OF DEPTH REFERENCE
DATM.M        475.488              : datum        - DATUM ELEVATION
TDD .M        213.97               : tdd          - TOTAL DEPTH DRILLER
RUN .         ONE                  : Run          - RUN NUMBER
ENG .         BILL                 : Engineer     - RECORDING ENGINEER
WIT .         JIM                  : Witness      - WITNESSED BY
MUD .         GEL                  : Mud_type     - MUD TYPE
MATR.         SANDSTONE            : Logunit      - NEUTRON MATRIX
TMAX.C        21.1111              : BHT          - MAXIMUM RECORDED TEMPERATURE
BHTD.M        213.97               : BHTDEP       - MAXIMUM RECORDED TEMPERATURE
MATR.         1                    : LOGUNIT      - NEUTRON MATRIX
RMT .C        25                   : MDTP         - TEMPERATURE OF MUD
NEUT.         1                    : NEUTRON      - NEUTRON TYPE
RESI.         0                    : RESIST       - RESISTIVITY TYPE
RMC .OHMM     0.25                 : RMC          - RESISTIVITY OF MUD CAKE
RMF .OHMM     0.25                 : RMF          - RESISTIVITY OF MUD FILTRATE
SUFT.C        15                   : SUFT         - SURFACE TEMPERATURE
~A  DEPTH       GR     PHIN     PHID     RESD
  100.000   77.428    0.291    0.136   21.029
  100.820   78.723    0.302    0.142   20.669
  101.640   79.408    0.314    0.146   19.968
  102.461   79.485    0.310    0.147   19.626
  103.281   83.253    0.313    0.157   18.603
  104.101   88.810    0.330    0.171   17.956
  104.921   91.912    0.381    0.181   16.707
  105.741   98.706    0.403    0.195   16.119
  106.562  102.436    0.416    0.226   14.716
  107.382  109.839    0.441    0.251   13.199
  108.202  118.459    0.471    0.294   12.729
  109.022  124.625    0.544    0.301   11.408
  109.843  130.810    0.597    0.318   10.223
  110.663  135.149    0.595    0.322    8.832
  111.483  136.444    0.588    0.302    8.214
  112.303  137.148    0.588    0.292    7.499
  113.123  137.225    0.592    0.289    7.235
  113.944  138.538    0.597    0.284    7.117
  114.764  138.615    0.597    0.278    7.129
  115.584  138.083    0.594    0.274    7.142
  116.404  139.377    0.589    0.274    7.288
  117.224  141.300    0.577    0.275    7.437
  118.045  141.985    0.567    0.270    7.735
  118.865  141.453    0.554    0.267    7.897
  119.685  140.311    0.542    0.268    8.059
  120.505  138.561    0.529    0.270    8.221
  121.325  137.439    0.520    0.254    8.235
  122.146  136.298    0.522    0.243    8.249
  122.966  135.157    0.527    0.245    8.425
  123.786  134.015    0.517    0.251    8.436
  124.606  132.265    0.491    0.255    8.616
  125.427  130.515    0.488    0.260    8.789
  126.247  130.592    0.489    0.263    9.313
  127.067  132.495    0.495    0.264    9.325
  127.887  133.181    0.505    0.265    9.698
  128.707  132.078    0.507    0.266    9.715
  129.528  130.327    0.500    0.264    9.736
  130.348  129.776    0.500    0.258    9.748
  131.168  130.481    0.505    0.258    9.586
  131.988  134.211    0.506    0.255    9.426
  132.808  136.114    0.504    0.243    9.272
  133.629  136.800    0.508    0.249    9.462
  134.449  136.286    0.513    0.255    9.652
  135.269  135.773    0.518    0.240    9.854
  136.089  135.241    0.522    0.238   10.056
  136.909  135.337    0.513    0.236   10.266
  137.730  135.375    0.501    0.234   10.280
  138.550  134.881    0.491    0.231   10.297
  139.370  134.348    0.487    0.224    9.952
  140.190  133.169    0.487    0.227    9.965
  141.010  132.656    0.484    0.232    9.965
  141.831  132.123    0.483    0.229    9.824
  142.651  132.828    0.511    0.234   10.204
  143.471  133.514    0.515    0.243   10.038
  144.291  133.590    0.522    0.255    9.871
  145.112  133.667    0.529    0.256    9.706
  145.932  133.134    0.524    0.240    9.723
  146.752  132.621    0.514    0.237    9.744
  147.572  131.480    0.499    0.239    9.943
  148.392  131.557    0.498    0.246   10.147
  149.213  132.261    0.494    0.248   10.165
  150.033  132.928    0.497    0.246    9.995
  150.853  133.004    0.505    0.236   10.012
  151.673  131.863    0.521    0.237   10.029
  152.493  130.722    0.527    0.245   10.047
  153.314  133.272    0.521    0.252   10.257
  154.134  133.958    0.513    0.253   10.463
  154.954  131.599    0.513    0.246   10.481
  155.774  129.259    0.512    0.246   10.900
  156.594  128.079    0.508    0.244   11.332
  157.415  128.803    0.505    0.244   11.564
  158.235  129.469    0.504    0.242   11.584
  159.055  130.155    0.501    0.235   11.609
  159.875  130.231    0.508    0.228   11.847
  160.696  128.520    0.512    0.225   11.873
  161.516  127.359    0.501    0.222   12.116
  162.336  128.064    0.490    0.225   12.364
  163.156  130.557    0.477    0.236   12.623
  163.976  137.979    0.476    0.246   12.189
  164.797  139.882    0.500    0.246   11.755
  165.617  137.523    0.505    0.246   11.143
  166.437  136.363    0.513    0.246   10.755
  167.257  135.830    0.524    0.246   10.769
  168.077  135.336    0.510    0.236   10.792
  168.898  132.349    0.495    0.223   10.811
  169.718  128.163    0.480    0.225   10.830
  170.538  127.631    0.481    0.228   10.858
  171.358  126.509    0.483    0.233   10.867
  172.178  124.131    0.490    0.245   11.095
  172.999  119.355    0.497    0.255   11.539
  173.819  116.996    0.492    0.252   11.770
  174.639  114.009    0.480    0.242   12.466
  175.459  114.694    0.475    0.238   12.959
  176.280  120.898    0.470    0.234   12.759
  177.100  126.436    0.476    0.234   12.536
  177.920  130.185    0.481    0.235   12.105
  178.740  132.089    0.479    0.237   12.126
  179.560  130.339    0.468    0.242   11.923
  180.381  127.371    0.463    0.244   11.944
  181.201  124.403    0.469    0.240   11.750
  182.021  122.671    0.480    0.233   11.341
  182.841  122.748    0.502    0.229   10.947
  183.661  123.434    0.514    0.227   10.561
  184.482  121.074    0.513    0.225   10.198
  185.302  116.889    0.492    0.225   10.024
  186.122  117.574    0.479    0.225    9.861
  186.942  120.144    0.479    0.232    9.522
  187.762  121.400    0.504    0.234    9.359
  188.583  122.085    0.508    0.242    9.041
  189.403  121.553    0.509    0.247    8.887
  190.223  121.021    0.506    0.253    8.738
  191.043  116.835    0.498    0.253    8.921
  191.864  111.450    0.497    0.256    9.625
  192.684  110.918    0.490    0.257   10.002
  193.504  108.559    0.481    0.261   10.593
  194.324  101.938    0.474    0.263   11.434
  195.144   98.361    0.461    0.266   11.887
  195.965  101.501    0.452    0.267   12.136
  196.785  104.603    0.438    0.267   12.151
  197.605  110.179    0.437    0.267   11.523
  198.425  115.146    0.466    0.264   10.913
  199.245  117.677    0.494    0.261    9.972
  200.066  115.927    0.512    0.258    9.617
  200.886  115.376    0.523    0.255    9.119
  201.706  115.452    0.530    0.252    8.959
  202.526  118.003    0.532    0.250    8.810
  203.346  119.906    0.534    0.247    8.663
  204.167  119.374    0.533    0.244    8.522
  204.987  116.996    0.524    0.240    8.536
  205.807  116.483    0.508    0.238    8.394
  206.627  116.540    0.489    0.237    8.412
  207.448  116.636    0.485    0.236    8.430
  208.268  116.712    0.511    0.235    8.441
  209.088  116.789    0.524    0.233    8.459
  209.908  113.231    0.537    0.232    8.633
  210.728  109.026    0.525    0.232    8.971
  211.549   94.489    0.500    0.239   10.049
  212.369   92.130    0.505    0.253   13.053
  213.189   86.098    0.512    0.271   17.604
  214.009   78.867    0.515    0.297   20.457
  214.829   74.701    0.511    0.310   21.267
  215.650   75.386    0.503    0.318   21.313
  216.470   77.309    0.459    0.318   21.359
  217.290   80.430    0.458    0.317   20.617
  218.110   84.769    0.459    0.311   20.264
  218.930   89.127    0.459    0.296   18.167
  219.751   92.248    0.459    0.286   17.206
  220.571   95.389    0.457    0.281   15.715
  221.391   98.491    0.454    0.281   14.883
  222.211  103.458    0.452    0.281   14.101
  223.031  110.232    0.458    0.277   12.648
  223.852  117.654    0.463    0.273   12.203
  224.672  120.756    0.476    0.268   11.354
  225.492  120.224    0.488    0.261   10.758
  226.312  113.602    0.500    0.255   10.384
  227.133  111.243    0.499    0.251   10.027
  227.953  112.538    0.498    0.250    9.674
  228.773  113.262    0.498    0.251    9.521
  229.593  111.511    0.469    0.254    9.529
  230.413  110.351    0.476    0.258    9.724
  231.234  112.863    0.483    0.261    9.741
  232.054  115.395    0.491    0.266    9.762
  232.874  113.036    0.490    0.256    9.783
  233.694  113.112    0.469    0.241    9.800
  234.514  112.599    0.456    0.232    9.817
  235.335  112.048    0.452    0.225   10.022
  236.155  111.515    0.454    0.232   10.035
  236.975  115.284    0.461    0.239   10.250
  237.795  118.386    0.473    0.257   10.263
  238.615  117.853    0.493    0.262   10.276
  239.436  114.296    0.504    0.269   10.298
  240.256  110.110    0.511    0.241   10.505
  241.076  111.423    0.508    0.234   10.527
  241.896  114.525    0.498    0.235   10.743
