~VERSION INFORMATION
 VERS.                 2.0:   CWLS LOG ASCII STANDARD -VERSION 2.0
 WRAP.                  NO:   ONE LINE PER DEPTH STEP
~WELL INFORMATION BLOCK
#MNEM.UNIT           DATA                    DESCRIPTION OF MNEMONIC
#---------    -------------------            -------------------------------
# Generated from Intellog Unique Number	CC_80_83/WELL/2301
NULL.         -999.25                        : NULL_VALUE
WELL.         PARA ET AL GRANOR              : Well_name    - WELL
LOC .         07-25-083-18W4                 : Location     - LOCATION          
UWI .         00/07-25-083-18W400            : Uwi          - UNIQUE WELL ID    
ENTR.         DW                             : Entered      - ENTERED BY        
SRVC.         COMPUTALOG                     : Scn          - SERVICE COMPANY   
DATE.         18 JAN 82                      : Date         - LOG DATE
STRT.M        95                             : top_depth    - START DEPTH       
STOP.M        290                            : bot_depth    - STOP DEPTH        
STEP.M        0.3                            : increment    - STEP LENGTH       
~CURVE INFORMATION BLOCK
#MNEM UNIT       ERCB CURVE CODE    CURVE DESCRIPTION
#-----------   ------------------   ----------------------------------
DEPT.M        00 001 00 00         : DEPTH        - DEPTH                       
DPHI.V/V      00 890 00 00         : PHID         - DENSITY POROSITY (LIMESTONE)
NPHI.V/V      00 330 00 00         : PHIN         - NEUTRON POROSITY (LIMESTONE)
GR  .API      00 310 00 00         : GR           - GAMMA RAY                   
ILD .OHMM     00 120 00 00         : RESD         - DEEP RESISTIVITY (DIL)      
~PARAMETER INFORMATION       
#MNEM.UNIT           DATA             DESCRIPTION OF MNEMONIC
#---------         -----------     ------------------------------
GL  .M        543.08               : gl           - GROUND LEVEL ELEVATION      
EREF.M        546.68               : kb           - ELEVATION OF DEPTH REFERENCE
DATM.M        546.68               : datum        - DATUM ELEVATION             
TDD .M        298                  : tdd          - TOTAL DEPTH DRILLER         
RUN .         ONE                  : Run          - RUN NUMBER                  
ENG .         BILL                 : Engineer     - RECORDING ENGINEER          
WIT .         JIM                  : Witness      - WITNESSED BY                
MUD .         GEL                  : Mud_type     - MUD TYPE                    
MATR.         LIMESTONE            : Logunit      - NEUTRON MATRIX              
TMAX.C        20                   : BHT          - MAXIMUM RECORDED TEMPERATURE
BHTD.M        298                  : BHTDEP       - MAXIMUM RECORDED TEMPERATURE
MATR.         1                    : LOGUNIT      - NEUTRON MATRIX              
RMT .C        25                   : MDTP         - TEMPERATURE OF MUD          
NEUT.         1                    : NEUTRON      - NEUTRON TYPE                
RESI.         0                    : RESIST       - RESISTIVITY TYPE            
RMC .OHMM     0.25                 : RMC          - RESISTIVITY OF MUD CAKE     
RMF .OHMM     0.25                 : RMF          - RESISTIVITY OF MUD FILTRATE 
SUFT.C        15                   : SUFT         - SURFACE TEMPERATURE         
~A  DEPTH     PHID     PHIN       GR     RESD
   95.000    0.218    0.490   85.313    3.588
   95.300    0.216    0.431   85.933    3.458
   95.600    0.222    0.415   87.164    3.397
   95.900    0.242    0.460   78.036    3.597
   96.200    0.422    0.530   53.674    4.107
   96.500    0.430    0.454   44.547    4.348
   96.800    0.406    0.318   47.605    4.353
   97.100    0.264    0.317   79.913    3.821
   97.400    0.252    0.467   90.894    3.416
   97.700    0.252    0.492   93.345    2.833
   98.000    0.266    0.507   89.091    2.534
   98.300    0.271    0.513   87.275    2.353
   98.600    0.266    0.444   90.334    2.311
   98.900    0.236    0.445   87.302    2.358
   99.200    0.237    0.508   88.533    2.497
   99.500    0.243    0.504   92.809    2.594
   99.800    0.236    0.477   96.479    2.646
  100.100    0.236    0.595   98.319    2.699
  100.400    0.233    0.601   97.722    2.752
  100.700    0.227    0.510   92.249    2.859
  101.000    0.227    0.479   88.607    3.028
  101.300    0.215    0.454   89.228    3.089
  101.600    0.204    0.419   98.382    3.093
  101.900    0.221    0.433  100.833    3.095
  102.200    0.229    0.484   99.623    3.098
  102.500    0.230    0.438   96.591    3.101
  102.800    0.223    0.445   97.821    3.104
  103.100    0.216    0.515   93.567    3.106
  103.400    0.223    0.544   95.412    3.109
  103.700    0.238    0.559   97.247    3.112
  104.000    0.223    0.567   92.384    3.056
  104.300    0.213    0.562   93.617    3.060
  104.600    0.212    0.582   99.115    3.062
  104.900    0.212    0.583  101.563    3.123
  105.200    0.222    0.448   97.918    3.308
  105.500    0.222    0.416   91.228    3.436
  105.800    0.204    0.382   83.929    3.709
  106.100    0.191    0.355   84.549    3.927
  106.400    0.188    0.393   94.924    4.238
  106.700    0.198    0.474   97.369    4.322
  107.000    0.224    0.514   96.164    4.407
  107.300    0.235    0.541   75.458    4.939
  107.600    0.152    0.462   66.938    5.429
  107.900    0.154    0.441   59.031    6.434
  108.200    0.212    0.453   63.312    7.626
  108.500    0.225    0.442   70.637    8.873
  108.800    0.226    0.390   76.132    9.394
  109.100    0.224    0.424   74.314    9.949
  109.400    0.215    0.450   67.623    9.956
  109.700    0.215    0.427   67.639    9.780
  110.000    0.226    0.420   69.477    9.254
  110.300    0.232    0.436   69.486    9.092
  110.600    0.227    0.460   65.234    8.931
  110.900    0.215    0.476   63.418    9.105
  111.200    0.209    0.481   68.305    9.465
  111.500    0.222    0.465   73.802    9.837
  111.800    0.236    0.480   69.551    9.662
  112.100    0.262    0.398   67.734    9.490
  112.400    0.257    0.432   76.279    9.680
  112.700    0.172    0.459   78.118    9.870
  113.000    0.176    0.515   67.770   10.854
  113.300    0.265    0.412   54.987   11.931
  113.600    0.308    0.412   59.265   16.746
  113.900    0.319    0.456   53.187   21.399
  114.200    0.325    0.471   51.366   21.832
  114.500    0.319    0.378   58.081   20.268
  114.800    0.307    0.379   66.624   17.783
  115.100    0.264    0.456   69.078   14.752
  115.400    0.226    0.483   63.603   12.468
  115.700    0.246    0.515   61.787   11.795
  116.000    0.297    0.481   63.627   10.750
  116.300    0.281    0.306   74.000    9.084
  116.600    0.235    0.363   83.153    5.793
  116.900    0.235    0.530   88.038    4.457
  117.200    0.239    0.581   86.226    3.839
  117.500    0.237    0.404   81.969    3.632
  117.800    0.222    0.381   72.234    3.635
  118.100    0.203    0.375   86.870    3.850
  118.400    0.206    0.471   88.710    4.650
  118.700    0.238    0.509   79.582    5.831
  119.000    0.281    0.472   71.062    7.174
  119.300    0.301    0.424   57.060   10.654
  119.600    0.315    0.398   47.324   16.122
  119.900    0.327    0.394   44.290   19.108
  120.200    0.332    0.418   46.131   21.416
  120.500    0.334    0.447   49.801   21.428
  120.800    0.334    0.457   51.032   20.662
  121.100    0.328    0.449   52.262   20.289
  121.400    0.324    0.420   52.276   17.482
  121.700    0.312    0.396   52.893   16.232
  122.000    0.299    0.426   54.736   15.644
  122.300    0.290    0.454   53.529   14.801
  122.600    0.308    0.484   51.107   14.814
  122.900    0.319    0.511   57.817   15.692
  123.200    0.314    0.464   59.049   16.005
  123.500    0.300    0.454   49.313   16.015
  123.800    0.287    0.466   51.761   15.727
  124.100    0.301    0.442   52.388   15.161
  124.400    0.314    0.449   52.395   13.308
  124.700    0.302    0.423   57.894   11.678
  125.000    0.257    0.412   63.390   10.442
  125.300    0.236    0.401   64.618   10.068
  125.600    0.235    0.405   68.289   11.068
  125.900    0.270    0.436   68.299   12.635
  126.200    0.292    0.463   68.314   14.154
  126.500    0.304    0.488   67.721   15.566
  126.800    0.309    0.445   68.338   15.873
  127.100    0.304    0.369   73.833   13.416
  127.400    0.255    0.373   82.376   10.324
  127.700    0.201    0.413   92.139    8.564
  128.000    0.206    0.433  100.073    7.102
  128.300    0.239    0.378   93.992    6.978
  128.600    0.239    0.379   84.257    7.673
  128.900    0.229    0.429   79.396    8.435
  129.200    0.237    0.434   78.184    9.997
  129.500    0.242    0.372   78.200   11.199
  129.800    0.227    0.373   80.038   11.642
  130.100    0.207    0.409   83.705   11.653
  130.400    0.206    0.432   89.207   10.821
  130.700    0.213    0.428   90.436   10.430
  131.000    0.217    0.454   91.058   10.242
  131.300    0.215    0.398   91.068   10.849
  131.600    0.219    0.358   92.301   10.855
  131.900    0.201    0.360   97.191    9.892
  132.200    0.195    0.393   99.637    7.612
  132.500    0.205    0.436   99.648    6.808
  132.800    0.207    0.377   88.693    6.942
  133.100    0.190    0.332   82.004    7.925
  133.400    0.179    0.312   82.014    8.236
  133.700    0.174    0.315   90.558    7.504
  134.000    0.164    0.336   97.881    5.884
  134.300    0.155    0.377  107.039    5.361
  134.600    0.143    0.454  110.095    5.169
  134.900    0.138    0.494  111.934    5.173
  135.200    0.137    0.492   98.540    5.478
  135.500    0.141    0.425  100.380    5.693
  135.800    0.153    0.404  110.144    5.488
  136.100    0.177    0.433  117.469    4.553
  136.400    0.185    0.522  113.825    3.848
  136.700    0.215    0.534  108.353    3.710
  137.000    0.232    0.518  105.927    3.928
  137.300    0.218    0.465  101.067    4.484
  137.600    0.220    0.400   95.591    6.413
  137.900    0.246    0.372   85.244    9.347
  138.200    0.254    0.398   91.355   10.085
  138.500    0.231    0.436   94.410    9.540
  138.800    0.211    0.423   93.812    8.532
  139.100    0.200    0.396   97.482    7.629
  139.400    0.192    0.392  104.807    6.574
  139.700    0.202    0.428  108.474    6.576
  140.000    0.226    0.456  109.706    6.965
  140.300    0.259    0.460   99.968    7.950
  140.600    0.312    0.368   69.515    9.601
  140.900    0.350    0.357   64.653   13.992
  141.200    0.339    0.432   63.444   15.973
  141.500    0.314    0.494   62.848   15.988
  141.800    0.312    0.503   63.469   14.569
  142.100    0.307    0.455   66.529   12.787
  142.400    0.304    0.404   70.805   11.219
  142.700    0.310    0.497   76.303    9.846
  143.000    0.305    0.520   78.753    9.493
  143.300    0.296    0.423   73.281   10.638
  143.600    0.286    0.470   64.761   11.052
  143.900    0.282    0.501   61.116   12.154
  144.201    0.287    0.526   62.961   12.870
  144.501    0.316    0.535   63.580   13.129
  144.801    0.333    0.472   64.205   13.386
  145.101    0.329    0.487   65.432   13.913
  145.401    0.313    0.430   70.930   14.456
  145.701    0.305    0.447   72.163   15.306
  146.001    0.314    0.494   70.952   16.218
  146.301    0.326    0.423   64.873   16.230
  146.601    0.316    0.390   62.446   16.241
  146.901    0.304    0.385   66.115   15.364
