~VERSION INFORMATION
 VERS.                 2.0:   CWLS LOG ASCII STANDARD -VERSION 2.0
 WRAP.                  NO:   ONE LINE PER DEPTH STEP
~WELL INFORMATION BLOCK
#MNEM.UNIT           DATA                    DESCRIPTION OF MNEMONIC
#---------    -------------------            -------------------------------
# Generated from Intellog Unique Number	CW_76_78/WELL/502
LOC .         00/06-07-076-25W4/0            : Location     - LOCATION
UWI .         00/06-07-076-25W4/0            : Uwi          - UNIQUE WELL ID
ENTR.         JAYE                           : Entered      - ENTERED BY
SRVC.         SCHLUMBERGER                   : Scn          - SERVICE COMPANY
DATE.         17 JAN 75                      : Date         - LOG DATE
STRT.M        472.44                         : top_depth    - START DEPTH
STOP.M        658.44                         : bot_depth    - STOP DEPTH
STEP.M        0.25                           : increment    - STEP LENGTH
 NULL. -999.2500:NULL Value
~CURVE INFORMATION BLOCK
#MNEM UNIT       ERCB CURVE CODE    CURVE DESCRIPTION
#-----------   ------------------   ----------------------------------
DEPT.M        00 001 00 00         : DEPTH        - DEPTH
ILD .OHMM     00 120 00 00         : RESD         - DEEP RESISTIVITY (DIL)
NPHI.V/V      00 330 00 00         : PHIN         - NEUTRON POROSITY (SANDSTONE)
DPHI.V/V      00 890 00 00         : PHID         - DENSITY POROSITY (SANDSTONE)
GR  .API      00 310 00 00         : GR           - GAMMA RAY
CALI.MM       00 280 01 00         : CAL          - CALIPER
~PARAMETER INFORMATION
#MNEM.UNIT           DATA             DESCRIPTION OF MNEMONIC
#---------         -----------     ------------------------------
GL  .M        767.182              : gl           - GROUND LEVEL ELEVATION
EREF.M        771.235              : kb           - ELEVATION OF DEPTH REFERENCE
DATM.M        767.182              : datum        - DATUM ELEVATION
TDD .M        663.55               : tdd          - TOTAL DEPTH DRILLER
RUN .         ONE                  : Run          - RUN NUMBER
ENG .         LLOYD                : Engineer     - RECORDING ENGINEER
WIT .         MUCULAK              : Witness      - WITNESSED BY
BASE.         EDM                  : Branch       - HOME BASE OF LOGGING UNIT
MUD .         GEL                  : Mud_type     - MUD TYPE
MATR.         SANDSTONE            : Logunit      - NEUTRON MATRIX
TMAX.C        30                   : BHT          - MAXIMUM RECORDED TEMPERATURE
BHTD.M        663.55               : BHTDEP       - MAXIMUM RECORDED TEMPERATURE
RMT .C        12.2222              : MDTP         - TEMPERATURE OF MUD
MUDD.KG/M     1140                 : MWT          - MUD DENSITY
NEUT.         1                    : NEUTRON      - NEUTRON TYPE
RESI.         0                    : RESIST       - RESISTIVITY TYPE
RM  .OHMM     2.73                 : RM           - RESISTIVITY OF MUD
RMC .OHMM     0                    : RMC          - RESISTIVITY OF MUD CAKE
RMF .OHMM     0                    : RMF          - RESISTIVITY OF MUD FILTRATE
SUFT.C        -17.7778             : SUFT         - SURFACE TEMPERATURE
~A  DEPTH     RESD     PHIN     PHID       GR      CAL
  472.440    1.604    0.499    0.250   90.243  227.876
  472.690    1.596    0.510    0.266   91.082  229.714
  472.940    1.587    0.530    0.253   92.715  231.547
  473.190    1.611    0.545    0.252   93.861  232.150
  473.440    1.637    0.553    0.256   94.762  230.380
  473.690    1.665    0.548    0.268   95.118  228.507
  473.940    1.689    0.541    0.277   93.950  221.069
  474.190    1.727    0.541    0.255   90.714  222.801
  474.440    1.759    0.534    0.242   92.224  225.251
  474.690    1.782    0.518    0.241   95.317  226.674
  474.940    1.805    0.533    0.242   96.826  227.383
  475.190    1.818    0.546    0.238   96.877  227.769
  475.440    1.842    0.554    0.234   96.135  227.655
  475.690    1.856    0.533    0.220   94.664  227.221
  475.940    1.876    0.547    0.230   96.296  227.099
  476.190    1.894    0.552    0.243   97.685  227.084
  476.440    1.943    0.528    0.245   96.639  227.165
  476.690    2.034    0.517    0.228   94.195  227.047
  476.940    2.114    0.530    0.234   91.445  226.616
  477.190    2.197    0.537    0.223   89.547  225.875
  477.440    2.242    0.530    0.240   90.328  225.134
  477.690    2.284    0.526    0.233   93.359  224.806
  477.940    2.275    0.524    0.215   96.148  224.584
  478.190    2.242    0.512    0.234   98.631  224.460
  478.440    2.214    0.494    0.235  100.811  224.029
  478.690    2.154    0.490    0.260  101.592  223.494
  478.940    2.103    0.503    0.247   96.470  223.067
  479.190    2.081    0.509    0.218   95.667  222.741
  479.440    2.043    0.499    0.219   98.152  221.993
  479.690    2.035    0.514    0.229   98.141  221.772
  479.940    2.032    0.522    0.240   95.452  221.652
  480.190    2.036    0.515    0.248   98.909  221.429
  480.440    2.043    0.501    0.239   99.629  221.408
  480.690    2.051    0.512    0.231   99.862  221.393
  480.940    2.070    0.507    0.221  100.215  221.267
  481.190    2.078    0.497    0.211  100.446  221.451
  481.440    2.105    0.488    0.212  100.619  221.643
  481.690    2.124    0.515    0.234  102.433  222.345
  481.940    2.132    0.532    0.253  103.944  222.845
  482.190    2.140    0.517    0.257  102.777  223.648
  482.440    2.188    0.510    0.250   97.837  224.455
  482.690    2.240    0.496    0.237   93.869  225.467
  482.940    2.278    0.477    0.230   91.304  225.963
  483.190    2.303    0.484    0.234   88.677  225.841
  483.440    2.262    0.493    0.250   84.830  225.204
  483.690    2.152    0.505    0.241   83.907  224.674
  483.940    2.041    0.509    0.249   85.904  223.827
  484.190    1.915    0.517    0.260   87.597  223.089
  484.440    1.766    0.531    0.259   87.525  222.553
  484.690    1.706    0.550    0.255   86.419  222.021
  484.940    1.747    0.566    0.282   83.792  221.586
  485.190    1.929    0.572    0.302   80.983  221.470
  485.440    2.395    0.566    0.313   76.285  221.349
  485.690    2.978    0.520    0.309   70.797  221.432
  485.940    4.037    0.434    0.297   64.641  221.822
  486.190    5.031    0.441    0.279   58.302  222.421
  486.440    5.453    0.451    0.235   57.013  222.816
  486.690    5.474    0.454    0.296   58.583  223.830
  486.940    5.238    0.436    0.320   62.406  225.051
  487.190    5.078    0.436    0.330   62.395  226.370
  487.440    5.172    0.433    0.320   61.167  227.280
  487.690    5.546    0.428    0.305   62.981  228.084
  487.940    6.421    0.458    0.294   65.465  228.272
  488.190    7.601    0.467    0.293   63.811  227.841
  488.440    8.931    0.467    0.289   60.393  226.897
  488.690   10.533    0.464    0.272   56.428  225.641
  488.940   10.967    0.455    0.276   53.191  224.385
  489.190   10.908    0.435    0.318   54.397  223.440
  489.440   10.008    0.455    0.336   57.611  223.215
  489.690    9.284    0.471    0.331   62.710  222.579
  489.940    8.242    0.483    0.335   64.404  221.735
  490.190    7.106    0.456    0.333   64.880  222.026
  490.440    5.960    0.433    0.283   62.739  222.729
  490.690    5.129    0.462    0.260   60.356  223.225
  490.940    4.389    0.474    0.307   63.631  224.134
  491.190    3.798    0.433    0.310   69.827  225.558
  491.440    3.233    0.434    0.248   75.901  227.292
  491.690    2.886    0.453    0.247   81.975  229.025
  491.940    2.742    0.469    0.263   91.701  230.137
  492.190    2.677    0.447    0.232   92.480  230.428
  492.440    2.839    0.441    0.237   97.278  230.410
  492.690    3.336    0.456    0.227  102.377  230.188
  492.940    3.884    0.462    0.206  101.271  230.272
  493.190    4.142    0.451    0.193   95.235  230.769
  493.440    4.142    0.450    0.211   91.026  232.605
  493.690    4.074    0.456    0.190   86.817  235.369
  493.940    4.165    0.462    0.256   82.668  231.537
  494.190    4.624    0.465    0.287   76.996  228.118
  494.440    5.209    0.476    0.314   71.328  225.832
  494.690    5.741    0.473    0.301   66.812  224.475
  494.940    6.292    0.455    0.278   63.456  223.632
  495.190    6.808    0.437    0.331   57.298  223.611
  495.440    6.972    0.398    0.289   51.810  225.036
  495.690    6.722    0.325    0.222   47.054  226.050
  495.940    6.339    0.297    0.136   42.114  226.853
  496.190    5.935    0.378    0.206   47.762  227.042
  496.440    5.516    0.427    0.268   50.975  226.817
  496.690    5.221    0.450    0.291   50.659  226.488
  496.940    5.071    0.464    0.324   50.589  226.060
  497.190    4.970    0.469    0.324   49.726  226.037
  497.440    4.898    0.474    0.337   46.914  226.124
  497.690    4.871    0.462    0.345   47.086  226.004
  497.940    4.880    0.444    0.349   47.989  224.643
  498.190    4.935    0.443    0.354   47.674  223.698
  498.440    4.944    0.449    0.347   46.871  223.165
  498.690    4.944    0.446    0.339   48.200  222.734
  498.940    4.963    0.438    0.334   51.353  222.408
  499.190    4.945    0.436    0.335   53.714  222.181
  499.440    4.945    0.435    0.340   54.008  222.160
  499.690    4.927    0.431    0.338   53.207  222.144
  499.940    4.865    0.426    0.340   53.074  222.334
  500.190    4.838    0.450    0.352   54.949  222.314
  500.440    4.821    0.469    0.343   57.433  222.293
  500.690    4.804    0.478    0.321   59.125  222.276
  500.940    4.751    0.470    0.318   60.211  222.259
  501.190    4.700    0.455    0.315   61.356  222.240
  501.440    4.666    0.442    0.306   63.718  222.221
  501.690    4.666    0.440    0.312   69.306  222.203
  501.940    4.700    0.447    0.308   73.189  221.978
  502.190    4.788    0.449    0.288   78.898  221.958
  502.440    4.930    0.450    0.258   86.798  221.837
  502.690    5.022    0.446    0.250   85.874  222.026
  502.940    5.078    0.413    0.243   80.143  224.377
  503.190    5.097    0.380    0.259   70.883  226.831
  503.440    5.106    0.364    0.275   63.448  221.866
  503.690    5.032    0.356    0.292   54.553  220.094
  503.940    4.932    0.367    0.308   48.517  219.871
  504.190    4.720    0.382    0.310   45.038  219.647
  504.440    4.550    0.394    0.300   45.027  219.937
  504.690    4.452    0.403    0.313   51.406  220.228
  504.940    4.436    0.420    0.302   59.853  220.416
  505.190    4.404    0.432    0.295   65.501  221.013
  505.440    4.372    0.422    0.304   62.143  221.203
  505.690    4.340    0.400    0.313   57.021  221.288
  505.940    4.340    0.390    0.296   57.071  221.270
  506.190    4.372    0.397    0.296   60.346  221.249
  506.440    4.421    0.404    0.293   67.637  220.922
  506.690    4.454    0.399    0.279   73.284  220.594
  506.940    4.422    0.395    0.276   78.019  220.267
  507.190    4.373    0.404    0.270   81.296  220.043
  507.440    4.310    0.414    0.266   84.875  218.995
  507.690    4.201    0.422    0.236   89.915  217.946
  507.940    4.050    0.424    0.227   92.216  220.090
  508.190    3.806    0.420    0.216   92.265  221.720
  508.440    3.454    0.419    0.234   91.038  224.691
  508.690    3.163    0.439    0.251   87.740  231.676
