~VERSION INFORMATION
 VERS.                 2.0:   CWLS LOG ASCII STANDARD -VERSION 2.0
 WRAP.                  NO:   ONE LINE PER DEPTH STEP
~WELL INFORMATION BLOCK
#MNEM.UNIT           DATA                    DESCRIPTION OF MNEMONIC
#---------    -------------------            -------------------------------
# Generated from Intellog Unique Number	CW_76_78/WELL/2574
WELL.         NOVALTA BOVINE                 : Well_name    - WELL
LOC .         00/08-28-078-20W4/0            : Location     - LOCATION
UWI .         00/08-28-078-20W4/0            : Uwi          - UNIQUE WELL ID
ENTR.         MAX                            : Entered      - ENTERED BY
SRVC.         WESTERN ATLAS                  : Scn          - SERVICE COMPANY
STRT.M        200                            : top_depth    - START DEPTH
STOP.M        390                            : bot_depth    - STOP DEPTH
STEP.M        0.25                           : increment    - STEP LENGTH
 NULL. -999.2500:NULL Value
~CURVE INFORMATION BLOCK
#MNEM UNIT       ERCB CURVE CODE    CURVE DESCRIPTION
#-----------   ------------------   ----------------------------------
DEPT.M        00 001 00 00         : DEPTH        - DEPTH
ILD .OHMM     00 120 00 00         : RESD         - DEEP RESISTIVITY (DIL)
NPHI.V/V      00 330 00 00         : PHIN         - NEUTRON POROSITY (SANDSTONE)
DPHI.V/V      00 890 00 00         : PHID         - DENSITY POROSITY (SANDSTONE)
CALI.MM       00 280 01 00         : CAL          - CALIPER
GR  .API      00 310 00 00         : GR           - GAMMA RAY
~PARAMETER INFORMATION
#MNEM.UNIT           DATA             DESCRIPTION OF MNEMONIC
#---------         -----------     ------------------------------
GL  .M        568                  : gl           - GROUND LEVEL ELEVATION
EREF.M        572                  : kb           - ELEVATION OF DEPTH REFERENCE
DATM.M        568                  : datum        - DATUM ELEVATION
TDD .M        389.6                : tdd          - TOTAL DEPTH DRILLER
RUN .         ONE                  : Run          - RUN NUMBER
ENG .         BILL                 : Engineer     - RECORDING ENGINEER
WIT .         JIM                  : Witness      - WITNESSED BY
MUD .         GEL                  : Mud_type     - MUD TYPE
MATR.         SANDSTONE            : Logunit      - NEUTRON MATRIX
TMAX.C        17                   : BHT          - MAXIMUM RECORDED TEMPERATURE
BHTD.M        389.6                : BHTDEP       - MAXIMUM RECORDED TEMPERATURE
RMT .C        21                   : MDTP         - TEMPERATURE OF MUD
MUDD.KG/M     1170                 : MWT          - MUD DENSITY
NEUT.         1                    : NEUTRON      - NEUTRON TYPE
RESI.         0                    : RESIST       - RESISTIVITY TYPE
RM  .OHMM     3.5                  : RM           - RESISTIVITY OF MUD
RMC .OHMM     3.5                  : RMC          - RESISTIVITY OF MUD CAKE
RMF .OHMM     3.8                  : RMF          - RESISTIVITY OF MUD FILTRATE
SUFT.C        -20                  : SUFT         - SURFACE TEMPERATURE
~A  DEPTH     RESD     PHIN     PHID      CAL       GR
# ...
  309.500    8.652    0.365    0.227  166.757  100.226
  309.750    8.496    0.371    0.226  167.254  101.120
  310.000    8.496    0.378    0.227  168.246  104.998
  310.250    8.500    0.381    0.227  168.743  106.787
  310.500    8.581    0.379    0.226  169.736  104.698
  310.750    8.662    0.352    0.225  171.226   99.626
  311.000    8.744    0.349    0.229  172.219   99.029
  311.250    9.158    0.354    0.242  171.721   99.923
  311.500    9.591    0.368    0.242  170.726   99.922
  311.750   10.517    0.375    0.237  169.730  100.817
  312.000   11.855    0.341    0.230  168.237  100.816
  312.250   13.737    0.221    0.213  166.247   99.025
  312.500   15.485    0.197    0.177  165.252   88.883
  312.750   15.633    0.190    0.138  164.257   76.353
  313.000   14.797    0.215    0.099  164.256   76.651
  313.250   11.547    0.306    0.099  164.254   80.528
  313.500    8.929    0.335    0.143  164.253   90.968
  313.750    8.929    0.351    0.199  164.252   97.530
  314.000    8.771    0.352    0.235  164.251  106.180
  314.250    8.935    0.380    0.232  164.250  111.250
  314.500    9.444    0.409    0.226  164.746  110.056
  314.750    9.710    0.410    0.218  165.242  104.985
  315.000    9.713    0.383    0.206  165.241  106.177
  315.250    9.452    0.352    0.198  164.742  110.353
  315.500    9.281    0.342    0.192  164.741  110.054
  315.750    8.948    0.342    0.182  164.740  106.772
  316.000    8.548    0.354    0.177  164.242  109.456
  316.250    8.017    0.368    0.184  163.743  112.736
  316.500    7.730    0.372    0.200  163.742  115.719
  316.750    7.591    0.380    0.212  163.741  118.403
  317.000    7.593    0.386    0.221  163.740  120.788
  317.250    7.879    0.391    0.223  163.739  122.578
  317.500    8.176    0.392    0.220  163.240  119.594
  317.750    8.803    0.390    0.215  163.239  114.820
  318.000    9.219    0.383    0.209  163.735  110.345
  318.250    9.566    0.363    0.209  163.734  107.361
  318.500   10.019    0.359    0.209  163.733  106.764
  318.750   10.302    0.374    0.204  163.732  104.974
  319.000   10.302    0.391    0.197  163.731  105.570
  319.250   10.402    0.386    0.201  163.730  106.464
  319.500   10.501    0.364    0.205  163.231  106.761
  319.750   10.503    0.361    0.209  163.230  107.357
  320.000   10.410    0.363    0.212  162.235  109.445
  320.250   10.317    0.365    0.220  161.239  112.129
  320.500   10.415    0.360    0.220  160.244  111.233
  320.750   10.907    0.344    0.205  160.740  110.934
  321.000   11.635    0.318    0.173  161.236  114.215
  321.250   12.412    0.302    0.138  162.229   95.421
  321.500   11.966    0.309    0.141  164.714   94.824
  321.750   11.121    0.325    0.166  168.193  106.755
  322.000   10.053    0.340    0.205  169.683  111.527
  322.250    8.923    0.363    0.216  170.676  110.632
  322.500    8.216    0.373    0.208  170.675  109.140
  322.750    7.777    0.354    0.194  169.680  108.542
  323.000    7.362    0.349    0.189  168.187  109.138
  323.250    6.969    0.383    0.197  167.192  109.436
  323.500    6.417    0.393    0.205  165.699  109.137
  323.750    6.018    0.397    0.209  165.201  108.241
  324.000    5.802    0.409    0.210  164.702  110.329
  324.250    5.857    0.422    0.207  165.198  119.277
  324.500    6.134    0.416    0.202  165.694  124.646
  324.750    6.604    0.396    0.191  166.190  128.821
  325.000    9.591    0.349    0.176  161.730  122.407
  325.250   11.012    0.324    0.170  161.689  111.962
  325.500   12.185    0.324    0.175  159.183  103.306
  325.750   12.523    0.335    0.186  157.662   96.437
  326.000   12.519    0.352    0.197  157.625   91.054
  326.250   12.401    0.358    0.205  159.570   99.969
  326.500   12.058    0.362    0.215  161.531  108.589
  326.750   11.511    0.360    0.226  161.995  113.031
  327.000   10.689    0.358    0.226  161.466  111.823
  327.250    9.834    0.368    0.227  161.434  113.590
  327.500    9.301    0.382    0.235  162.386  112.973
  327.750    9.129    0.379    0.233  162.841  110.871
  328.000    9.042    0.359    0.228  162.821  107.275
  328.250    9.039    0.358    0.229  162.785  104.573
  328.500    9.121    0.369    0.229  161.755  103.065
  328.750    9.373    0.369    0.226  161.731  102.452
  329.000    9.373    0.361    0.222  161.698  102.433
  329.250    9.630    0.353    0.214  162.154  104.198
  329.500   10.082    0.345    0.205  162.118  105.962
  329.750   10.265    0.342    0.200  161.101  106.539
  330.000   10.456    0.350    0.203  159.571  104.139
  330.250   10.946    0.364    0.210  158.058  102.035
  330.500   11.147    0.367    0.205  157.521  103.800
  330.750   11.147    0.362    0.198  157.488  103.185
  331.000   11.241    0.343    0.206  157.456  101.078
  331.250   11.449    0.351    0.225  157.427  101.657
  331.500   11.767    0.357    0.238  157.891  105.807
  331.750   12.434    0.347    0.237  157.851  112.036
  332.000   13.137    0.339    0.221  157.322  110.530
  332.250   14.139    0.334    0.203  157.790  103.366
  332.500   14.803    0.324    0.186  158.746   97.683
  332.750   15.075    0.293    0.167  160.202   99.751
  333.000   14.931    0.288    0.149  161.159   96.455
  333.250   14.519    0.304    0.163  161.130   92.562
  333.500   13.989    0.328    0.207  161.098   95.523
  333.750   13.231    0.340    0.217  162.054  101.459
  334.000   12.631    0.324    0.209  164.503  102.629
  334.250   12.282    0.326    0.204  165.964  102.311
  334.500   12.054    0.342    0.203  166.424  105.270
  334.750   11.939    0.340    0.197  165.899  112.398
  335.000   11.935    0.343    0.190  165.370  117.436
  335.250   11.823    0.347    0.184  165.834  115.337
  335.500   11.710    0.342    0.184  165.785  110.255
  335.750   11.600    0.332    0.185  165.765  108.151
  336.000   11.596    0.332    0.191  165.728  103.364
  336.250   11.593    0.353    0.201  163.714  104.833
  336.500   11.805    0.363    0.197  161.693  112.855
  336.750   12.021    0.361    0.163  159.675  117.300
  337.000   11.907    0.346    0.155  158.645  119.368
  337.250   11.578    0.338    0.178  159.610  122.326
  337.500   11.053    0.348    0.195  160.570  120.818
  337.750   10.170    0.342    0.202  160.533  118.113
  338.000    9.356    0.343    0.209  160.501  121.074
  338.250    9.182    0.348    0.214  160.965  124.030
  338.500    9.011    0.347    0.214  161.429  123.117
  338.750    9.093    0.332    0.212  162.385  121.909
  339.000    9.607    0.322    0.206  163.845  120.994
  339.250    9.966    0.315    0.193  165.302  113.529
  339.500   10.242    0.316    0.180  166.262  101.597
  339.750   10.146    0.327    0.181  167.715  100.386
  340.000    9.957    0.337    0.193  167.186  111.979
  340.250    9.953    0.336    0.196  166.161  120.301
  340.500   10.135    0.337    0.191  165.127  126.833
  340.750   10.612    0.339    0.176  164.599  125.324
  341.000   11.527    0.327    0.178  164.078  117.560
  341.250   12.638    0.305    0.182  163.549  110.690
  341.500   14.780    0.277    0.183  163.016  102.928
  341.750   16.203    0.266    0.181  162.984   90.696
  342.000   16.500    0.267    0.169  162.951   87.693
  342.250   15.752    0.299    0.155  162.915   89.763
  342.500   14.358    0.321    0.170  162.386   96.594
  342.750   13.963    0.340    0.216  161.853  106.697
  343.000   13.959    0.335    0.253  161.825  101.022
  343.250   14.613    0.320    0.234  161.792   92.065
  343.500   15.873    0.308    0.215  161.259   79.831
  343.750   16.619    0.298    0.210  160.734   72.962
  344.000   17.399    0.295    0.219  160.698   69.071
  344.250   17.554    0.296    0.237  160.665   67.565
  344.500   17.226    0.297    0.245  160.629   69.029
  344.750   17.064    0.293    0.257  160.600   73.182
  345.000   17.060    0.283    0.268  161.060   77.332
  345.250   17.696    0.279    0.269  162.021   75.523
  345.500   19.946    0.263    0.256  162.981   72.230
  345.750   26.790    0.234    0.219  163.445   67.741
