~VERSION INFORMATION
 VERS.                 2.0:   CWLS LOG ASCII STANDARD -VERSION 2.0
 WRAP.                  NO:   ONE LINE PER DEPTH STEP
~WELL INFORMATION BLOCK
#MNEM.UNIT           DATA                    DESCRIPTION OF MNEMONIC
#---------    -------------------            -------------------------------
# Generated from Intellog Unique Number	CX_WELLS/WELL/2884
WELL.         06-12-088-17W4                 : Well_name    - WELL
LOC .         00/06-11-082-02W4/0            : Location     - LOCATION
UWI .         00/06-11-082-02W400            : Uwi          - UNIQUE WELL ID
ENTR.         T                              : Entered      - ENTERED BY
SRVC.         SCHLUMBERGER                   : Scn          - SERVICE COMPANY
STRT.F        400                            : top_depth    - START DEPTH
STOP.F        1029.92                        : bot_depth    - STOP DEPTH
STEP.F        0.82                           : increment    - STEP LENGTH
 NULL. -999.2500:NULL Value
~CURVE INFORMATION BLOCK
#MNEM UNIT       ERCB CURVE CODE    CURVE DESCRIPTION
#-----------   ------------------   ----------------------------------
DEPT.F        00 001 00 00         : DEPTH        - DEPTH
GR  .API      00 310 00 00         : GR           - GAMMA RAY
NPHI.V/V      00 330 00 00         : PHIN         - NEUTRON POROSITY (SANDSTONE)
DPHI.V/V      00 890 00 00         : PHID         - DENSITY POROSITY (SANDSTONE)
ILD .OHMM     00 120 00 00         : RESD         - DEEP RESISTIVITY (OTHER)
~PARAMETER INFORMATION
#MNEM.UNIT           DATA             DESCRIPTION OF MNEMONIC
#---------         -----------     ------------------------------
GL  .F        1552                 : gl           - GROUND LEVEL ELEVATION
EREF.F        1562                 : kb           - ELEVATION OF DEPTH REFERENCE
DATM.F        1562                 : datum        - DATUM ELEVATION
TDD .F        1295                 : tdd          - TOTAL DEPTH DRILLER
RUN .         ONE                  : Run          - RUN NUMBER
ENG .         BILL                 : Engineer     - RECORDING ENGINEER
WIT .         JIM                  : Witness      - WITNESSED BY
MUD .         GEL                  : Mud_type     - MUD TYPE
MATR.         SANDSTONE            : Logunit      - NEUTRON MATRIX
TMAX.F        71.6                 : BHT          - MAXIMUM RECORDED TEMPERATURE
BHTD.F        1292                 : BHTDEP       - MAXIMUM RECORDED TEMPERATURE
MATR.         1                    : LOGUNIT      - NEUTRON MATRIX
RMT .F        77                   : MDTP         - TEMPERATURE OF MUD
NEUT.         1                    : NEUTRON      - NEUTRON TYPE
RESI.         1.35                 : RESIST       - RESISTIVITY TYPE
RMC .OHMM     1.35                 : RMC          - RESISTIVITY OF MUD CAKE
RMF .OHMM     1.35                 : RMF          - RESISTIVITY OF MUD FILTRATE
SUFT.F        32                   : SUFT         - SURFACE TEMPERATURE
~A  DEPTH       GR     PHIN     PHID     RESD
# ...
  685.433   87.389    0.403    0.172    7.113
  686.253   86.931    0.408    0.175    7.128
  687.073   87.036    0.408    0.174    7.158
  687.894   87.808    0.405    0.170    7.197
  688.714   88.580    0.401    0.169    7.212
  689.534   88.650    0.390    0.166    7.108
  690.354   88.825    0.381    0.166    7.146
  691.175   88.367    0.372    0.165    7.044
  691.995   88.472    0.378    0.166    7.066
  692.815   88.612    0.385    0.169    6.972
  693.635   88.751    0.394    0.170    6.872
  694.455   87.098    0.398    0.171    6.766
  695.276   85.515    0.403    0.171    6.669
  696.096   84.987    0.402    0.170    6.580
  696.916   85.794    0.399    0.168    6.479
  697.736   86.496    0.394    0.168    6.386
  698.556   87.199    0.390    0.167    6.294
  699.377   87.374    0.386    0.167    6.197
  700.197   87.513    0.385    0.167    6.244
  701.017   85.930    0.386    0.166    6.257
  701.837   85.437    0.388    0.166    6.284
  702.657   84.909    0.390    0.167    6.311
  703.478   83.854    0.391    0.168    6.227
  704.298   80.970    0.391    0.173    6.247
  705.118   75.731    0.395    0.179    6.150
  705.938   68.067    0.400    0.186    6.183
  706.759   59.805    0.396    0.194    6.203
  707.579   64.796    0.373    0.206    6.000
  708.399   75.095    0.356    0.192    5.598
  709.219   83.039    0.384    0.172    5.210
  710.039   86.764    0.389    0.165    5.136
  710.860   86.306    0.388    0.164    5.163
  711.680   84.653    0.387    0.164    5.490
  712.500   83.035    0.392    0.166    5.606
  713.320   81.979    0.400    0.169    5.851
  714.140   82.119    0.401    0.173    5.987
  714.961   82.891    0.394    0.181    6.132
  715.781   82.996    0.383    0.183    6.158
  716.601   83.136    0.377    0.178    6.178
  717.421   82.643    0.379    0.169    6.204
  718.241   82.220    0.381    0.166    6.244
  719.062   81.727    0.382    0.165    6.257
  719.882   80.109    0.379    0.166    6.297
  720.702   79.616    0.378    0.170    6.311
  721.522   78.526    0.376    0.175    6.351
  722.343   77.470    0.375    0.177    6.247
  723.163   77.047    0.373    0.177    6.280
  723.983   77.187    0.372    0.178    6.190
  724.803   79.119    0.371    0.177    6.216
  725.623   81.087    0.371    0.171    6.134
  726.444   82.422    0.372    0.166    6.033
  727.264   83.757    0.378    0.162    6.058
  728.084   83.862    0.383    0.160    5.978
  728.904   84.599    0.382    0.161    5.892
  729.724   85.336    0.374    0.160    5.917
  730.545   86.073    0.367    0.160    5.936
  731.365   80.870    0.363    0.159    5.863
  732.185   77.389    0.363    0.160    5.767
  733.005   73.310    0.361    0.162    5.791
  733.825   68.071    0.360    0.164    5.708
  734.646   63.395    0.357    0.169    5.733
  735.466   64.765    0.356    0.173    5.656
  736.286   66.065    0.355    0.177    5.563
  737.106   66.837    0.360    0.182    5.593
  737.927   68.207    0.364    0.183    5.519
  738.747   70.105    0.375    0.184    5.530
  739.567   73.830    0.377    0.179    5.457
  740.387   75.200    0.370    0.176    5.384
  741.207   73.547    0.367    0.171    5.396
  742.028   71.859    0.368    0.169    5.324
  742.848   66.022    0.368    0.170    5.247
  743.668   63.139    0.362    0.174    5.178
  744.488   62.083    0.355    0.182    5.189
  745.308   63.453    0.346    0.187    5.120
  746.129   64.155    0.349    0.184    5.141
  746.949   64.963    0.354    0.184    5.163
  747.769   65.067    0.355    0.182    5.185
  748.589   63.484    0.357    0.183    5.116
  749.409   62.956    0.360    0.184    5.127
  750.230   62.464    0.360    0.186    5.149
  751.050   61.408    0.358    0.187    5.171
  751.870   61.020    0.345    0.181    5.108
  752.690   61.687    0.352    0.173    5.124
  753.510   62.460    0.363    0.165    5.140
  754.331   63.830    0.363    0.163    5.168
  755.151   64.532    0.358    0.175    5.190
  755.971   65.902    0.358    0.182    5.218
  756.791   66.604    0.363    0.191    5.240
  757.612   66.744    0.366    0.193    5.262
  758.432   65.688    0.372    0.193    5.290
  759.252   65.863    0.378    0.189    5.301
  760.072   66.635    0.383    0.183    5.231
  760.892   67.303    0.356    0.179    5.253
  761.713   69.270    0.353    0.180    5.281
  762.533   70.570    0.354    0.183    5.292
  763.353   71.940    0.355    0.181    5.222
  764.173   72.677    0.357    0.179    5.244
  764.993   74.012    0.362    0.171    5.267
  765.814   75.382    0.363    0.164    5.284
  766.634   76.085    0.366    0.155    5.317
  767.454   76.892    0.372    0.150    5.329
  768.274   76.399    0.372    0.158    5.263
  769.094   75.976    0.364    0.164    5.280
  769.915   75.448    0.361    0.169    5.297
  770.735   74.393    0.367    0.174    5.325
  771.555   73.970    0.374    0.175    5.348
  772.375   74.109    0.379    0.177    5.271
  773.196   72.456    0.385    0.178    5.299
  774.016   70.838    0.390    0.179    5.316
  774.836   69.713    0.382    0.179    5.345
  775.656   69.220    0.372    0.180    5.362
  776.476   66.969    0.367    0.183    5.285
  777.297   63.523    0.371    0.188    5.307
  778.117   63.663    0.376    0.195    5.330
  778.937   67.986    0.384    0.189    5.248
  779.757   74.171    0.386    0.181    5.270
  780.577   74.944    0.392    0.176    5.195
  781.398   75.611    0.398    0.170    5.125
  782.218   78.141    0.396    0.175    5.052
  783.038   82.534    0.391    0.182    5.079
  783.858   82.709    0.386    0.184    5.090
  784.678   82.181    0.377    0.181    5.128
  785.499   81.758    0.376    0.176    5.236
  786.319   81.898    0.377    0.173    5.252
  787.139   85.026    0.377    0.166    5.280
  787.959   88.154    0.377    0.168    5.397
  788.780   90.684    0.381    0.166    5.438
  789.600   90.823    0.390    0.161    5.455
  790.420   89.803    0.398    0.150    5.472
  791.240   88.150    0.403    0.144    5.496
  792.060   86.462    0.409    0.142    5.519
  792.881   83.578    0.412    0.147    5.537
  793.701   78.937    0.411    0.154    5.356
  794.521   76.651    0.410    0.165    5.187
  795.341   75.631    0.405    0.175    5.018
  796.161   74.575    0.401    0.183    4.854
  796.982   72.324    0.389    0.180    4.779
  797.802   73.027    0.389    0.179    4.711
  798.622   79.178    0.394    0.175    4.731
  799.442   78.122    0.400    0.176    4.663
  800.262   77.664    0.404    0.177    4.683
  801.083   81.389    0.404    0.187    4.616
  801.903   85.713    0.383    0.189    4.635
  802.723   88.910    0.372    0.181    4.489
  803.543   87.820    0.379    0.175    4.342
  804.364   84.374    0.412    0.174    4.356
  805.184   79.698    0.422    0.181    4.294
  806.004   72.631    0.405    0.189    4.232
  806.824   67.392    0.393    0.202    4.246
  807.644   65.211    0.385    0.209    4.268
  808.465   66.476    0.373    0.188    4.286
  809.285   69.639    0.364    0.173    4.305
  810.105   69.778    0.350    0.168    4.409
  810.925   66.298    0.361    0.175    4.512
  811.745   62.219    0.375    0.185    4.531
  812.566   57.578    0.347    0.207    4.550
  813.386   52.901    0.327    0.210    4.570
  814.206   47.663    0.317    0.196    4.499
  815.026   43.021    0.306    0.186    4.353
  815.846   40.138    0.285    0.175    4.215
  816.667   36.762    0.283    0.180    4.229
  817.487   36.832    0.308    0.186    4.172
  818.307   38.764    0.329    0.198    4.186
  819.127   42.559    0.335    0.208    4.126
  819.948   45.722    0.346    0.214    4.066
  820.768   46.390    0.356    0.220    4.088
  821.588   47.127    0.354    0.211    4.021
  822.408   45.509    0.327    0.203    3.963
  823.228   43.821    0.320    0.192    3.838
  824.049   40.937    0.314    0.185    3.927
  824.869   39.917    0.302    0.187    4.018
  825.689   39.494    0.293    0.196    4.112
  826.509   38.966    0.297    0.206    4.207
  827.329   37.910    0.306    0.214    4.225
