~VERSION INFORMATION
 VERS.                 2.0:   CWLS LOG ASCII STANDARD -VERSION 2.0
 WRAP.                  NO:   ONE LINE PER DEPTH STEP
~WELL INFORMATION BLOCK
#MNEM.UNIT           DATA                    DESCRIPTION OF MNEMONIC
#---------    -------------------            -------------------------------
# Generated from Intellog Unique Number	CS_73_76/WELL/1042
WELL.         DOME PETROLEUM                 : Well_name    - WELL
LOC .         00/06-17-076-10W4/0            : Location     - LOCATION
UWI .         00/06-17-076-10W4/0            : Uwi          - UNIQUE WELL ID
ENTR.         SP                             : Entered      - ENTERED BY
SRVC.         SCHLUMBERGER                   : Scn          - SERVICE COMPANY
STRT.M        270.25                         : top_depth    - START DEPTH
STOP.M        505.00                         : bot_depth    - STOP DEPTH
STEP.M        0.25                           : increment    - STEP LENGTH
 NULL. -999.2500:NULL Value
~CURVE INFORMATION BLOCK
#MNEM UNIT       ERCB CURVE CODE    CURVE DESCRIPTION
#-----------   ------------------   ----------------------------------
DEPT.M        00 001 00 00         : DEPTH        - DEPTH
ILD .OHMM     00 120 00 00         : RESD         - DEEP RESISTIVITY (DIL)
DPHI.V/V      00 890 00 00         : PHID         - DENSITY POROSITY (LIMESTONE)
NPHI.V/V      00 330 00 00         : PHIN         - NEUTRON POROSITY (LIMESTONE)
GR  .API      00 310 00 00         : GR           - GAMMA RAY
~PARAMETER INFORMATION
#MNEM.UNIT           DATA             DESCRIPTION OF MNEMONIC
#---------         -----------     ------------------------------
GL  .M        668.26               : gl           - GROUND LEVEL ELEVATION
EREF.M        672.39               : kb           - ELEVATION OF DEPTH REFERENCE
DATM.M        668.26               : datum        - DATUM ELEVATION
TDD .M        517                  : tdd          - TOTAL DEPTH DRILLER
RUN .         ONE                  : Run          - RUN NUMBER
ENG .         BILL                 : Engineer     - RECORDING ENGINEER
WIT .         JIM                  : Witness      - WITNESSED BY
MUD .         GEL                  : Mud_type     - MUD TYPE
MATR.         LIMESTONE            : Logunit      - NEUTRON MATRIX
TMAX.C        23                   : BHT          - MAXIMUM RECORDED TEMPERATURE
BHTD.M        517                  : BHTDEP       - MAXIMUM RECORDED TEMPERATURE
MATR.         1                    : LOGUNIT      - NEUTRON MATRIX
RMT .C        25                   : MDTP         - TEMPERATURE OF MUD
NEUT.         1                    : NEUTRON      - NEUTRON TYPE
RESI.         0                    : RESIST       - RESISTIVITY TYPE
RMC .OHMM     0.25                 : RMC          - RESISTIVITY OF MUD CAKE
RMF .OHMM     0.25                 : RMF          - RESISTIVITY OF MUD FILTRATE
SUFT.C        15                   : SUFT         - SURFACE TEMPERATURE
~A  DEPTH     RESD     PHID     PHIN       GR
  270.250    2.980    0.285    0.553   98.173
  270.500    3.037    0.276    0.546  102.444
  270.750    3.153    0.265    0.547  106.104
  271.000    3.337    0.272    0.563  107.936
  271.250    3.337    0.259    0.550  107.328
  271.500    3.337    0.249    0.540  107.331
  271.750    3.466    0.247    0.520  105.504
  272.000    3.466    0.252    0.531  106.117
  272.250    3.532    0.243    0.541  106.728
  272.500    3.339    0.254    0.546  107.950
  272.750    3.216    0.264    0.548  108.561
  273.000    3.600    0.250    0.548  107.344
  273.250    3.882    0.239    0.536  104.907
  273.500    3.956    0.231    0.510  100.642
  273.750    3.883    0.204    0.486   97.595
  274.000    3.811    0.177    0.502   95.158
  274.250    3.811    0.239    0.514  104.306
  274.500    3.884    0.226    0.520  106.749
  274.750    4.268    0.227    0.525  106.750
  275.000    4.778    0.237    0.529  106.143
  275.250    4.870    0.244    0.521  107.364
  275.500    4.870    0.247    0.498  106.757
  275.750    4.269    0.239    0.490  106.150
  276.000    4.112    0.247    0.496  105.542
  276.250    4.036    0.248    0.520  104.935
  276.500    4.191    0.254    0.532  105.546
  276.750    4.271    0.244    0.535  106.768
  277.000    4.519    0.220    0.526  109.820
  277.250    4.782    0.236    0.499  109.211
  277.500    5.157    0.232    0.509  107.994
  277.750    5.995    0.226    0.493  109.216
  278.000    6.970    0.228    0.471  112.267
  278.250    8.258    0.220    0.450  114.708
  278.500    9.246    0.233    0.440  115.930
  278.750   10.159    0.247    0.426  116.542
  279.000   11.163    0.259    0.427  116.544
  279.250   11.376    0.259    0.451  115.937
  279.500   11.165    0.256    0.451  112.891
  279.750   11.165    0.261    0.444  108.624
  280.000   12.040    0.271    0.459  100.699
  280.250   12.503    0.261    0.463   89.726
  280.500   12.504    0.244    0.428   81.802
  280.750   13.232    0.249    0.401   76.315
  281.000   14.816    0.265    0.389   70.830
  281.250   15.098    0.280    0.402   72.052
  281.500   15.678    0.291    0.418   70.835
  281.750   17.227    0.287    0.437   68.398
  282.000   19.655    0.283    0.447   65.961
  282.250   21.195    0.301    0.445   59.256
  282.500   21.599    0.315    0.416   55.599
  282.750   21.600    0.341    0.406   54.992
  283.000   20.804    0.341    0.420   58.043
  283.250   19.298    0.314    0.432   69.632
  283.500   17.566    0.315    0.439   74.511
  283.750   15.691    0.292    0.426   78.781
  284.000   14.555    0.277    0.437   83.052
  284.250   14.018    0.270    0.444   82.444
  284.500   12.760    0.277    0.435   79.398
  284.750   12.061    0.245    0.416   83.059
  285.000   14.022    0.240    0.431   98.914
  285.250   15.998    0.264    0.437   98.916
  285.500   17.578    0.289    0.420   95.870
  285.750   18.955    0.298    0.411   91.604
  286.000   17.582    0.302    0.415   83.070
  286.250   16.004    0.312    0.407   79.413
  286.500   14.296    0.261    0.399   78.806
  286.750   13.261    0.244    0.407   83.077
  287.000   12.300    0.251    0.426   87.957
  287.250   11.626    0.216    0.411   92.227
  287.500   11.198    0.222    0.426   92.229
  287.750   10.990    0.237    0.432   88.573
  288.000   10.786    0.251    0.423   86.136
  288.250   10.787    0.259    0.418   84.919
  288.500   10.993    0.255    0.421   87.361
  288.750   11.202    0.244    0.421   95.289
  289.000   11.854    0.247    0.407   95.291
  289.250   13.525    0.244    0.412   94.075
  289.500   14.584    0.251    0.418   94.686
  289.750   15.726    0.262    0.431   95.908
  290.000   16.330    0.281    0.464   99.569
  290.250   17.281    0.293    0.467  103.230
  290.500   17.611    0.292    0.453  103.842
  290.750   17.947    0.303    0.460  103.234
  291.000   17.949    0.286    0.469   97.748
  291.250   17.287    0.255    0.454   92.873
  291.500   14.595    0.269    0.439   91.656
  291.750   12.794    0.278    0.434   90.438
  292.000   12.323    0.269    0.446   88.001
  292.250   12.094    0.265    0.431   88.004
  292.500   13.041    0.251    0.419   91.055
  292.750   14.879    0.261    0.418   91.057
  293.000   16.976    0.304    0.434   89.230
  293.250   19.007    0.377    0.496   83.744
  293.500   21.282    0.462    0.545   69.722
  293.750   22.100    0.542    0.639   56.919
  294.000   23.387    0.521    0.627   63.629
  294.250   23.832    0.362    0.611   63.631
  294.500   23.390    0.329    0.416   63.023
  294.750   23.837    0.325    0.418   64.855
  295.000   23.840    0.329    0.432   63.639
  295.250   23.841    0.315    0.442   63.030
  295.500   23.398    0.327    0.443   61.814
  295.750   23.402    0.331    0.442   61.205
  296.000   23.404    0.340    0.443   60.598
  296.250    0.000    0.331    0.449   61.210
  296.500   22.543    0.342    0.454   63.041
  296.750   22.544    0.340    0.453   64.263
  297.000   22.127    0.338    0.453   66.095
  297.250   22.550    0.337    0.456   69.756
  297.500   22.980    0.335    0.454   70.978
  297.750   23.418    0.332    0.450   71.589
  298.000   22.555    0.335    0.449   70.983
  298.250   21.724    0.337    0.454   71.594
  298.500   21.320    0.327    0.454   72.816
  298.750   20.535    0.320    0.446   75.257
  299.000   18.344    0.321    0.440   75.868
  299.250   17.338    0.310    0.429   77.091
  299.500   15.199    0.300    0.429   82.580
  299.750   12.592    0.297    0.439   88.680
  300.000   10.631    0.294    0.430   92.341
  300.250    8.975    0.289    0.438   96.002
  300.500    7.868    0.283    0.451   99.662
  300.750    7.162    0.260    0.448  105.762
  301.000    6.770    0.216    0.456  113.081
  301.250    6.770    0.173    0.469  114.913
  301.500    7.439    0.123    0.503  110.647
  301.750    8.487    0.054    0.475  104.552
  302.000    9.867    0.215    0.444  110.651
  302.250   11.472    0.239    0.421  117.971
  302.500   12.370    0.245    0.446  125.900
  302.750   13.339    0.253    0.437  125.902
  303.000   13.852    0.260    0.442  121.026
  303.250   13.853    0.273    0.449  115.541
  303.500   13.596    0.283    0.459  113.104
  303.750   12.145    0.281    0.467  109.447
  304.000   11.266    0.280    0.453  102.742
  304.250   10.850    0.278    0.435  100.306
  304.500   10.450    0.267    0.429  103.967
  304.750   10.452    0.243    0.423  107.627
  305.000   10.651    0.250    0.444  113.117
  305.250   10.854    0.235    0.451  117.388
  305.500   11.061    0.239    0.440  119.219
  305.750   11.063    0.251    0.440  119.832
  306.000   10.857    0.237    0.446  117.395
  306.250   10.656    0.229    0.448  113.738
  306.500   12.389    0.223    0.438  105.813
  306.750   13.612    0.223    0.410   97.889
  307.000   16.745    0.194    0.402   88.745
  307.250   18.056    0.199    0.390   74.722
  307.500   19.840    0.257    0.411   68.018
  307.750   17.723    0.307    0.410   73.508
  308.000   13.115    0.310    0.403   75.949
  308.250    9.173    0.293    0.416   79.610
  308.500    8.194    0.275    0.440   85.709
  308.750    8.195    0.241    0.457  101.565
  309.000    8.510    0.237    0.473  111.933
  309.250    9.894    0.238    0.467  109.497
  309.500   10.871    0.226    0.429  105.840
  309.750   11.945    0.266    0.441   98.525
  310.000   13.628    0.299    0.441   94.870
  310.250   15.259    0.286    0.433   94.262
  310.500   15.550    0.277    0.438   91.216
  310.750   15.552    0.278    0.440   87.559
  311.000   15.849    0.278    0.434   86.342
  311.250   17.415    0.280    0.423   85.734
  311.500   16.773    0.275    0.413   88.175
  311.750   15.558    0.250    0.397   85.128
  312.000   14.984    0.226    0.298   80.253
  312.250   13.899    0.189    0.275   79.035
  312.500   12.892    0.145    0.345   86.356
  312.750   11.735    0.234    0.418   88.796
  313.000   10.885    0.276    0.444   90.629
  313.250   10.484    0.278    0.440   91.240
  313.500   10.289    0.278    0.446   91.852
