~VERSION INFORMATION
 VERS.                 2.0:   CWLS LOG ASCII STANDARD -VERSION 2.0
 WRAP.                  NO:   ONE LINE PER DEPTH STEP
~WELL INFORMATION BLOCK
#MNEM.UNIT           DATA                    DESCRIPTION OF MNEMONIC
#---------    -------------------            -------------------------------
# Generated from Intellog Unique Number	CS_77_79/WELL/911
WELL.         HOME LEISMER                   : Well_name    - WELL
LOC .         00/07-29-078-07W4/0            : Location     - LOCATION
UWI .         00/07-29-078-07W4/0            : Uwi          - UNIQUE WELL ID
ENTR.         JHS                            : Entered      - ENTERED BY
SRVC.         SCHLUMBERGER                   : Scn          - SERVICE COMPANY
STRT.M        129.845                        : top_depth    - START DEPTH
STOP.M        344.095                        : bot_depth    - STOP DEPTH
STEP.M        0.25                           : increment    - STEP LENGTH
 NULL. -999.2500:NULL Value
~CURVE INFORMATION BLOCK
#MNEM UNIT       ERCB CURVE CODE    CURVE DESCRIPTION
#-----------   ------------------   ----------------------------------
DEPT.M        00 001 00 00         : DEPTH        - DEPTH
RHOB.KG/M3    00 350 00 00         : DENS         - BULK DENSITY
GR  .API      00 310 00 00         : GR           - GAMMA RAY
DPHI.V/V      00 890 00 00         : PHID         - DENSITY POROSITY (SANDSTONE)
NPHI.V/V      00 330 00 00         : PHIN         - NEUTRON POROSITY (SANDSTONE)
ILD .OHMM     00 120 00 00         : RESD         - DEEP RESISTIVITY (DIL)
~PARAMETER INFORMATION
#MNEM.UNIT           DATA             DESCRIPTION OF MNEMONIC
#---------         -----------     ------------------------------
GL  .M        545.592              : gl           - GROUND LEVEL ELEVATION
EREF.M        549.432              : kb           - ELEVATION OF DEPTH REFERENCE
DATM.M        549.432              : datum        - DATUM ELEVATION
TDD .M        446.227              : tdd          - TOTAL DEPTH DRILLER
RUN .         ONE                  : Run          - RUN NUMBER
ENG .         BILL                 : Engineer     - RECORDING ENGINEER
WIT .         JIM                  : Witness      - WITNESSED BY
MUD .         GEL                  : Mud_type     - MUD TYPE
MATR.         SANDSTONE            : Logunit      - NEUTRON MATRIX
TMAX.C        21.6667              : BHT          - MAXIMUM RECORDED TEMPERATURE
BHTD.M        446.227              : BHTDEP       - MAXIMUM RECORDED TEMPERATURE
MATR.         1                    : LOGUNIT      - NEUTRON MATRIX
RMT .C        25                   : MDTP         - TEMPERATURE OF MUD
NEUT.         1                    : NEUTRON      - NEUTRON TYPE
RESI.         0                    : RESIST       - RESISTIVITY TYPE
RMC .OHMM     0.25                 : RMC          - RESISTIVITY OF MUD CAKE
RMF .OHMM     0.25                 : RMF          - RESISTIVITY OF MUD FILTRATE
SUFT.C        15                   : SUFT         - SURFACE TEMPERATURE
~A  DEPTH     DENS       GR     PHID     PHIN     RESD
# ...
  275.845 2288.950   95.107    0.246    0.532    4.190
  276.095 2298.270   94.422    0.241    0.509    3.822
  276.345 2273.670   95.369    0.255    0.507    3.590
  276.595 2256.870   97.460    0.265    0.520    3.485
  276.845 2255.620   98.585    0.266    0.543    3.492
  277.095 2274.150   98.033    0.255    0.558    3.420
  277.345 2286.490  100.365    0.248    0.549    3.380
  277.595 2241.450   98.772    0.274    0.533    3.305
  277.845 2271.850   96.853    0.256    0.542    3.241
  278.095 2272.740   96.267    0.256    0.559    3.141
  278.345 2262.730   95.522    0.262    0.573    3.115
  278.595 2242.080   94.584    0.274    0.563    3.080
  278.845 2269.900   92.285    0.257    0.543    2.983
  279.095 2244.980   91.207    0.272    0.544    2.971
  279.345 2250.040   90.357    0.269    0.543    3.077
  279.595 2249.240   91.368    0.269    0.524    3.589
  279.845 2249.820   92.395    0.269    0.510    4.056
  280.095 2284.540   92.911    0.249    0.515    4.460
  280.345 2313.120   92.021    0.232    0.522    4.749
  280.595 2288.860   89.443    0.246    0.521    5.161
  280.845 2350.450   84.793    0.210    0.504    5.544
  281.095 2402.310   81.237    0.180    0.474    6.251
  281.345 2451.780   78.230    0.151    0.403    6.854
  281.595 2445.080   76.214    0.155    0.407    7.230
  281.845 2255.300   74.103    0.266    0.413    7.384
  282.095 2213.930   70.444    0.290    0.396    7.378
  282.345 2180.550   66.120    0.310    0.401    7.236
  282.595 2151.380   65.436    0.327    0.393    7.253
  282.845 2194.310   68.986    0.302    0.402    7.268
  283.095 2244.110   73.886    0.272    0.434    7.125
  283.345 2252.020   74.103    0.268    0.459    7.145
  283.595 2253.520   74.671    0.267    0.456    7.146
  283.845 2265.120   76.390    0.260    0.437    7.038
  284.095 2254.750   79.783    0.266    0.439    6.735
  284.345 2268.690   77.580    0.258    0.473    6.126
  284.595 2269.860   72.042    0.257    0.502    5.276
  284.845 2216.660   65.450    0.289    0.529    4.770
  285.095 2155.030   55.232    0.325    0.537    5.077
  285.345 2138.070   50.348    0.334    0.466    5.559
  285.595 2152.090   48.661    0.326    0.405    6.418
  285.845 2151.710   47.356    0.326    0.401    7.563
  286.095 2166.220   45.299    0.318    0.411    9.114
  286.345 2161.330   44.369    0.321    0.432   11.863
  286.595 2181.090   45.690    0.309    0.446   17.075
  286.845 2171.170   47.035    0.315    0.445   28.489
  287.095 2157.010   48.654    0.323    0.437   37.459
  287.345 2152.130   50.096    0.326    0.444   43.275
  287.595 2157.380   53.255    0.323    0.451   45.325
  287.845 2186.420   57.074    0.306    0.456   45.094
  288.095 2192.160   54.540    0.303    0.440   39.680
  288.345 2164.800   53.675    0.319    0.434   35.025
  288.595 2175.830   53.321    0.312    0.442   31.060
  288.845 2157.250   55.179    0.323    0.447   27.745
  289.095 2170.590   58.434    0.315    0.452   27.522
  289.345 2186.360   59.705    0.306    0.462   28.565
  289.595 2163.840   63.411    0.319    0.481   31.992
  289.845 2152.130   69.567    0.326    0.469   31.439
  290.095 2161.240   73.051    0.321    0.451   27.144
  290.345 2178.370   73.934    0.311    0.447   24.024
  290.595 2159.160   76.759    0.322    0.462   19.885
  290.845 2183.060   82.230    0.308    0.484   17.135
  291.095 2209.290   88.684    0.293    0.500   13.596
  291.345 2245.680   93.509    0.272    0.473   10.804
  291.595 2290.600   97.611    0.245    0.462    9.123
  291.845 2304.850  103.069    0.237    0.471    7.698
  292.095 2283.850  105.632    0.249    0.489    7.757
  292.345 2255.720  100.821    0.266    0.492    8.148
  292.595 2250.970   93.588    0.268    0.473    8.566
  292.845 2290.110   87.247    0.246    0.451    8.789
  293.095 2306.900   79.276    0.236    0.438    9.024
  293.345 2285.470   71.326    0.248    0.443   10.205
  293.595 2260.270   64.095    0.263    0.458   12.790
  293.845 2229.460   56.056    0.281    0.486   18.227
  294.095 2181.400   50.027    0.309    0.470   23.189
  294.345 2176.190   48.708    0.312    0.444   29.223
  294.595 2159.640   50.971    0.322    0.429   33.342
  294.845 2156.380   59.536    0.324    0.417   29.702
  295.095 2172.000   72.517    0.315    0.413   19.093
  295.345 2208.970   81.155    0.293    0.415   14.829
  295.595 2293.800   85.779    0.243    0.421   12.187
  295.845 2340.110   84.880    0.216    0.428   10.886
  296.095 2341.400   81.764    0.216    0.432   11.479
  296.345 2277.130   79.737    0.253    0.426   11.632
  296.595 2239.610   78.603    0.275    0.427   10.911
  296.845 2278.060   90.039    0.253    0.431    9.646
  297.095 2291.210   93.629    0.245    0.439    8.737
  297.345 2328.840   89.899    0.223    0.458    8.308
  297.595 2325.070   82.636    0.225    0.465    8.776
  297.845 2289.570   76.097    0.246    0.458    9.200
  298.095 2254.820   76.158    0.266    0.448    9.328
  298.345 2240.340   76.532    0.275    0.456    9.142
  298.595 2266.580   76.644    0.259    0.452    8.833
  298.845 2282.750   75.730    0.250    0.442    8.960
  299.095 2287.960   69.946    0.247    0.449   10.404
  299.345 2271.840   63.391    0.256    0.458   13.160
  299.595 2220.170   55.287    0.286    0.455   18.527
  299.845 2189.860   48.579    0.304    0.443   28.138
  300.095 2188.230   43.662    0.305    0.427   44.298
  300.345 2157.240   40.906    0.323    0.430   63.203
  300.595 2161.890   41.917    0.321    0.459   83.549
  300.845 2148.260   40.288    0.329    0.475  109.103
  301.095 2148.940   35.861    0.328    0.463  136.882
  301.345 2132.880   32.803    0.338    0.429  169.863
  301.595 2139.240   34.760    0.334    0.422  190.628
  301.845 2150.810   37.144    0.327    0.421  198.153
  302.095 2126.010   39.406    0.342    0.416  171.633
  302.345 2131.630   41.482    0.338    0.424  128.666
  302.595 2125.700   42.605    0.342    0.438   82.387
  302.845 2122.530   42.055    0.344    0.451   72.404
  303.095 2125.190   38.961    0.342    0.484   69.958
  303.345 2119.000   36.763    0.346    0.487   74.460
  303.595 2126.470   33.031    0.341    0.464   85.379
  303.845 2145.680   34.221    0.330    0.460   99.446
  304.095 2181.540   37.984    0.309    0.462  100.009
  304.345 2194.920   45.344    0.301    0.456   95.279
  304.595 2170.760   47.210    0.315    0.458   81.828
  304.845 2197.490   52.923    0.300    0.464   70.324
  305.095 2238.330   61.884    0.276    0.466   54.430
  305.345 2263.120   70.663    0.261    0.452   29.441
  305.595 2260.830   82.165    0.263    0.444   15.578
  305.845 2247.030   82.838    0.271    0.455   11.518
  306.095 2214.680   80.858    0.290    0.473    9.635
  306.345 2201.830   79.638    0.297    0.491    9.861
  306.595 2197.470   81.662    0.300    0.509   10.152
  306.845 2209.020   84.176    0.293    0.508   10.669
  307.095 2207.570   87.645    0.294    0.483   10.429
  307.345 2210.260   90.587    0.292    0.476    9.273
  307.595 2228.020   95.424    0.282    0.468    8.374
  307.845 2238.410  101.468    0.276    0.483    7.664
  308.095 2262.150  105.916    0.262    0.500    6.422
  308.345 2288.470  107.920    0.247    0.489    6.049
  308.595 2299.830  106.819    0.240    0.491    5.791
  308.845 2304.990  103.989    0.237    0.493    5.654
  309.095 2303.850  101.687    0.238    0.490    5.944
  309.345 2282.660   94.910    0.250    0.482    6.602
  309.595 2301.380   81.004    0.239    0.459    7.945
  309.845 2311.520   71.506    0.233    0.438   10.069
  310.095 2266.750   60.782    0.259    0.434   11.947
  310.345 2224.620   56.070    0.284    0.455   13.980
  310.595 2198.210   53.660    0.299    0.472   17.178
  310.845 2181.010   52.097    0.309    0.471   21.726
  311.095 2177.200   47.370    0.312    0.458   26.249
  311.345 2198.650   42.302    0.299    0.433   33.518
  311.595 2208.520   41.817    0.293    0.434   36.671
  311.845 2176.910   42.950    0.312    0.441   35.484
  312.095 2170.210   47.525    0.316    0.439   27.945
