~VERSION INFORMATION
 VERS.                 2.0:   CWLS LOG ASCII STANDARD -VERSION 2.0
 WRAP.                  NO:   ONE LINE PER DEPTH STEP
~WELL INFORMATION BLOCK
#MNEM.UNIT           DATA                    DESCRIPTION OF MNEMONIC
#---------    -------------------            -------------------------------
# Generated from Intellog Unique Number	CS_73_76/WELL/784
WELL.         ANR PRODUCTION COMPANY         : Well_name    - WELL
LOC .         00/09-17-073-18W4/0            : Location     - LOCATION
UWI .         00/09-17-073-18W4/0            : Uwi          - UNIQUE WELL ID
ENTR.         SP                             : Entered      - ENTERED BY
SRVC.         SCHLUMBERGER                   : Scn          - SERVICE COMPANY
STRT.M        225                            : top_depth    - START DEPTH
STOP.M        480                            : bot_depth    - STOP DEPTH
STEP.M        0.25                           : increment    - STEP LENGTH
 NULL. -999.2500:NULL Value
~CURVE INFORMATION BLOCK
#MNEM UNIT       ERCB CURVE CODE    CURVE DESCRIPTION
#-----------   ------------------   ----------------------------------
DEPT.M        00 001 00 00         : DEPTH        - DEPTH
ILD .OHMM     00 120 00 00         : RESD         - DEEP RESISTIVITY (DIL)
DPHI.V/V      00 890 00 00         : PHID         - DENSITY POROSITY (LIMESTONE)
NPHI.V/V      00 330 00 00         : PHIN         - NEUTRON POROSITY (LIMESTONE)
GR  .API      00 310 00 00         : GR           - GAMMA RAY
~PARAMETER INFORMATION
#MNEM.UNIT           DATA             DESCRIPTION OF MNEMONIC
#---------         -----------     ------------------------------
GL  .M        595.3                : gl           - GROUND LEVEL ELEVATION
EREF.M        599.2                : kb           - ELEVATION OF DEPTH REFERENCE
DATM.M        595.3                : datum        - DATUM ELEVATION
TDD .M        485                  : tdd          - TOTAL DEPTH DRILLER
RUN .         ONE                  : Run          - RUN NUMBER
ENG .         BILL                 : Engineer     - RECORDING ENGINEER
WIT .         JIM                  : Witness      - WITNESSED BY
MUD .         GEL                  : Mud_type     - MUD TYPE
MATR.         LIMESTONE            : Logunit      - NEUTRON MATRIX
TMAX.C        18                   : BHT          - MAXIMUM RECORDED TEMPERATURE
BHTD.M        485                  : BHTDEP       - MAXIMUM RECORDED TEMPERATURE
MATR.         1                    : LOGUNIT      - NEUTRON MATRIX
RMT .C        25                   : MDTP         - TEMPERATURE OF MUD
NEUT.         1                    : NEUTRON      - NEUTRON TYPE
RESI.         0                    : RESIST       - RESISTIVITY TYPE
RMC .OHMM     0.25                 : RMC          - RESISTIVITY OF MUD CAKE
RMF .OHMM     0.25                 : RMF          - RESISTIVITY OF MUD FILTRATE
SUFT.C        15                   : SUFT         - SURFACE TEMPERATURE
~A  DEPTH     RESD     PHID     PHIN       GR
# ...
  355.500    6.633    0.299    0.358   44.402
  355.750    6.512    0.304    0.362   44.398
  356.000    6.516    0.298    0.359   45.619
  356.250    6.398    0.293    0.353   46.228
  356.500    6.401    0.291    0.346   46.223
  356.750    6.524    0.292    0.343   45.606
  357.000    6.776    0.292    0.358   49.887
  357.250    8.171    0.281    0.351   52.334
  357.500    9.315    0.243    0.168   54.778
  357.750   11.659    0.184    0.150   52.937
  358.000   16.022    0.006    0.139   48.036
  358.250   22.855    0.000    0.132   40.072
  358.500   29.146    0.000    0.129   35.783
  358.750   22.041    0.113    0.184   32.105
  359.000   15.757    0.162    0.244   34.550
  359.250   11.913    0.204    0.282   38.831
  359.500    9.889    0.246    0.303   41.888
  359.750    7.910    0.272    0.329   44.334
  360.000    7.207    0.265    0.322   46.777
  360.250    6.817    0.225    0.298   46.161
  360.500    6.571    0.181    0.307   43.708
  360.750    6.218    0.174    0.323   44.317
  361.000    5.992    0.210    0.341   49.209
  361.250    5.884    0.233    0.336   51.043
  361.500    5.777    0.217    0.326   54.100
  361.750    5.781    0.191    0.330   57.157
  362.000    5.783    0.178    0.336   59.602
  362.250    5.896    0.176    0.336   59.599
  362.500    5.898    0.189    0.338   58.369
  362.750    5.899    0.189    0.357   57.142
  363.000    5.794    0.181    0.376   55.912
  363.250    5.584    0.184    0.374   57.133
  363.500    5.483    0.170    0.361   58.353
  363.750    5.287    0.152    0.352   59.573
  364.000    5.191    0.137    0.346   62.018
  364.250    5.097    0.131    0.347   62.015
  364.500    5.005    0.148    0.346   60.786
  364.750    4.914    0.161    0.344   62.007
  365.000    4.736    0.172    0.340   63.839
  365.250    4.236    0.179    0.339   63.224
  365.500    4.160    0.183    0.338   60.156
  365.750    4.085    0.191    0.333   58.929
  366.000    4.404    0.226    0.329   55.862
  366.250    4.838    0.239    0.323   53.410
  366.500    5.024    0.258    0.329   49.732
  366.750    5.121    0.271    0.347   47.280
  367.000    5.220    0.275    0.368   42.378
  367.250    5.320    0.279    0.365   38.701
  367.500    5.423    0.287    0.357   35.024
  367.750    5.528    0.291    0.357   36.244
  368.000    5.634    0.296    0.355   38.077
  368.250    5.746    0.291    0.350   39.910
  368.500    5.856    0.285    0.341   40.517
  368.750    5.859    0.278    0.339   40.513
  369.000    5.861    0.275    0.346   40.508
  369.250    5.974    0.281    0.351   40.505
  369.500    5.977    0.285    0.337   40.501
  369.750    6.094    0.284    0.315   41.722
  370.000    6.096    0.278    0.306   42.941
  370.250    6.214    0.272    0.304   39.876
  370.500    6.333    0.261    0.315   38.036
  370.750    6.576    0.255    0.323   37.419
  371.000    7.090    0.247    0.326   37.416
  371.250    7.363    0.245    0.323   39.248
  371.500    7.792    0.249    0.319   39.243
  371.750    7.942    0.252    0.315   39.852
  372.000    7.947    0.263    0.310   41.684
  372.250    8.100    0.268    0.316   41.068
  372.500    8.103    0.267    0.332   39.840
  372.750    8.107    0.260    0.344   37.999
  373.000    8.110    0.256    0.329   38.607
  373.250    8.116    0.255    0.326   39.825
  373.500    8.119    0.254    0.326   40.433
  373.750    8.124    0.254    0.321   41.043
  374.000    7.976    0.255    0.316   41.041
  374.250    7.980    0.259    0.317   41.036
  374.500    7.693    0.266    0.318   41.032
  374.750    7.554    0.270    0.329   41.640
  375.000    7.417    0.281    0.344   42.860
  375.250    7.420    0.288    0.355   43.468
  375.500    7.425    0.293    0.356   42.852
  375.750    7.428    0.298    0.345   42.234
  376.000    7.430    0.304    0.332   42.231
  376.250    7.433    0.310    0.325   41.616
  376.500    7.301    0.309    0.321   41.610
  376.750    7.305    0.304    0.344   41.607
  377.000    7.172    0.303    0.363   41.602
  377.250    7.175    0.301    0.366   42.212
  377.500    6.916    0.299    0.355   42.208
  377.750    6.790    0.303    0.334   43.426
  378.000    6.546    0.312    0.328   43.424
  378.250    6.310    0.318    0.337   44.031
  378.500    6.196    0.327    0.343   44.027
  378.750    5.971    0.329    0.359   43.411
  379.000    5.863    0.328    0.381   42.795
  379.250    5.757    0.340    0.376   42.791
  379.500    5.549    0.363    0.359   42.174
  379.750    5.448    0.360    0.361   42.170
  380.000    5.253    0.340    0.364   42.778
  380.250    5.158    0.318    0.363   42.775
  380.500    5.065    0.313    0.355   43.382
  380.750    5.067    0.308    0.350   43.992
  381.000    5.069    0.307    0.359   44.600
  381.250    5.167    0.312    0.366   45.207
  381.500    5.267    0.328    0.360   45.203
  381.750    5.268    0.323    0.350   44.587
  382.000    5.473    0.312    0.339   44.583
  382.250    5.578    0.307    0.333   45.191
  382.500    5.687    0.309    0.330   46.410
  382.750    5.688    0.310    0.339   46.406
  383.000    5.691    0.298    0.350   46.401
  383.250    5.588    0.293    0.339   46.398
  383.500    5.488    0.297    0.333   46.394
  383.750    5.593    0.309    0.342   45.779
  384.000    6.030    0.319    0.349   45.162
  384.250    6.875    0.324    0.333   45.158
  384.500    8.606    0.310    0.303   45.153
  384.750   10.572    0.283    0.210   43.925
  385.000   14.259    0.065    0.160   42.698
  385.250   19.234    0.029    0.119   38.408
  385.500   25.460    0.040    0.114   35.342
  385.750   30.135    0.037    0.119   32.890
  386.000   28.509    0.031    0.122   31.661
  386.250   25.978    0.026    0.125   31.043
  386.500   23.236    0.041    0.130   30.428
  386.750   18.582    0.056    0.142   31.037
  387.000   14.584    0.093    0.172   34.704
  387.250    9.858    0.144    0.251   36.538
  387.500    7.884    0.192    0.286   38.370
  387.750    6.921    0.259    0.303   40.204
  388.000    6.308    0.300    0.316   40.812
  388.250    6.080    0.309    0.325   40.808
  388.500    5.860    0.314    0.322   40.803
  388.750    5.862    0.322    0.320   41.411
  389.000    5.758    0.329    0.327   41.408
  389.250    5.760    0.327    0.330   41.402
  389.500    5.763    0.317    0.330   41.400
  389.750    5.765    0.312    0.331   43.232
  390.000    5.662    0.311    0.327   45.677
  390.250    5.664    0.312    0.327   46.284
  390.500    5.562    0.315    0.332   45.056
  390.750    5.462    0.317    0.329   40.767
  391.000    5.364    0.318    0.325   41.987
  391.250    5.367    0.318    0.323   43.208
  391.500    5.469    0.317    0.331   44.428
  391.750    5.370    0.315    0.323   45.649
  392.000    5.274    0.311    0.321   46.868
  392.250    5.179    0.310    0.330   48.090
  392.500    5.181    0.317    0.335   49.922
  392.750    5.088    0.316    0.348   51.142
  393.000    5.091    0.303    0.358   51.138
  393.250    5.092    0.292    0.352   49.910
  393.500    5.095    0.292    0.340   48.069
  393.750    5.098    0.299    0.336   49.902
  394.000    5.100    0.298    0.334   52.345
  394.250    5.102    0.292    0.342   52.955
  394.500    5.011    0.297    0.357   52.338
  394.750    5.013    0.303    0.343   51.723
  395.000    5.015    0.310    0.340   51.717
  395.250    4.924    0.307    0.346   51.712
  395.500    4.927    0.298    0.355   52.322
  395.750    4.838    0.293    0.358   52.931
  396.000    4.663    0.291    0.351   52.314
  396.250    4.171    0.290    0.347   51.697
  396.500    3.662    0.281    0.358   53.530
  396.750    3.464    0.264    0.367   54.751
  397.000    3.216    0.246    0.367   57.806
  397.250    3.099    0.231    0.369   59.028
  397.500    3.044    0.213    0.380   60.860
  397.750    3.103    0.206    0.377   62.693
  398.000    3.473    0.211    0.350   63.914
  398.250    3.673    0.216    0.350   63.910
  398.500    4.268    0.220    0.361   62.069
  398.750    4.776    0.229    0.357   60.840
