~VERSION INFORMATION
 VERS.                 2.0:   CWLS LOG ASCII STANDARD -VERSION 2.0
 WRAP.                  NO:   ONE LINE PER DEPTH STEP
~WELL INFORMATION BLOCK
#MNEM.UNIT           DATA                    DESCRIPTION OF MNEMONIC
#---------    -------------------            -------------------------------
# Generated from Intellog Unique Number	CX_WELLS/WELL/3261
WELL.         PARA ET AL GRAMOR              : Well_name    - WELL
LOC .         00/06-23-083-18W4/0            : Location     - LOCATION
UWI .         00/06-23-083-18W400            : Uwi          - UNIQUE WELL ID
ENTR.         T                              : Entered      - ENTERED BY
SRVC.         SCHLUMBERGER                   : Scn          - SERVICE COMPANY
DATE.         03/04/92                       : Date         - LOG DATE
STRT.M        100                            : top_depth    - START DEPTH
STOP.M        295                            : bot_depth    - STOP DEPTH
STEP.M        0.25                           : increment    - STEP LENGTH
 NULL. -999.2500:NULL Value
~CURVE INFORMATION BLOCK
#MNEM UNIT       ERCB CURVE CODE    CURVE DESCRIPTION
#-----------   ------------------   ----------------------------------
DEPT.M        00 001 00 00         : DEPTH        - DEPTH
GR  .API      00 310 00 00         : GR           - GAMMA RAY
NPHI.V/V      00 330 00 00         : PHIN         - NEUTRON POROSITY (SANDSTONE)
DPHI.V/V      00 890 00 00         : PHID         - DENSITY POROSITY (SANDSTONE)
ILD .OHMM     00 120 00 00         : RESD         - DEEP RESISTIVITY (DIL)
~PARAMETER INFORMATION
#MNEM.UNIT           DATA             DESCRIPTION OF MNEMONIC
#---------         -----------     ------------------------------
GL  .M        551.9                : gl           - GROUND LEVEL ELEVATION
EREF.M        554.9                : kb           - ELEVATION OF DEPTH REFERENCE
DATM.M        554.9                : datum        - DATUM ELEVATION
TDD .M        293                  : tdd          - TOTAL DEPTH DRILLER
RUN .         ONE                  : Run          - RUN NUMBER
ENG .         JO                   : Engineer     - RECORDING ENGINEER
WIT .         TIM                  : Witness      - WITNESSED BY
MUD .         GEL                  : Mud_type     - MUD TYPE
MATR.         SANDSTONE            : Logunit      - NEUTRON MATRIX
TMAX.C        23                   : BHT          - MAXIMUM RECORDED TEMPERATURE
BHTD.M        293                  : BHTDEP       - MAXIMUM RECORDED TEMPERATURE
RMT .C        18                   : MDTP         - TEMPERATURE OF MUD
MUDD.KG/M     1                    : MWT          - MUD DENSITY
NEUT.         1                    : NEUTRON      - NEUTRON TYPE
RESI.         0                    : RESIST       - RESISTIVITY TYPE
RM  .OHMM     2.2                  : RM           - RESISTIVITY OF MUD
RMC .OHMM     1.9                  : RMC          - RESISTIVITY OF MUD CAKE
RMF .OHMM     1.9                  : RMF          - RESISTIVITY OF MUD FILTRATE
SUFT.C        4                    : SUFT         - SURFACE TEMPERATURE
~A  DEPTH       GR     PHIN     PHID     RESD
  100.000   83.240    0.369    0.247    6.020
  100.250   84.545    0.382    0.244    5.482
  100.500   85.224    0.396    0.241    5.387
  100.750   87.182    0.390    0.239    5.391
  101.000   87.861    0.378    0.242    5.504
  101.250   87.915    0.372    0.250    5.407
  101.500   88.608    0.372    0.253    5.115
  101.750   89.886    0.373    0.250    4.929
  102.000   93.082    0.401    0.250    4.755
  102.250   95.638    0.412    0.250    4.759
  102.500   98.819    0.424    0.252    4.763
  102.750  102.015    0.438    0.254    4.594
  103.000  103.306    0.446    0.256    4.427
  103.250  106.501    0.456    0.257    4.267
  103.500  108.432    0.464    0.257    4.193
  103.750  107.860    0.469    0.258    4.359
  104.000  105.398    0.441    0.261    4.626
  104.250  101.685    0.431    0.263    4.720
  104.500   81.096    0.405    0.268    4.817
  104.750   62.995    0.387    0.269    4.731
  105.000   64.925    0.369    0.273    4.560
  105.250   72.500    0.359    0.278    4.152
  105.500  109.475    0.466    0.284    3.851
  105.750  118.287    0.484    0.293    3.439
  106.000  116.464    0.496    0.295    3.071
  106.250  112.139    0.508    0.289    2.796
  106.500  112.193    0.499    0.280    2.694
  106.750  112.247    0.483    0.278    2.649
  107.000  110.438    0.469    0.281    2.650
  107.250  109.240    0.473    0.283    2.654
  107.500  111.796    0.479    0.288    2.658
  107.750  113.088    0.480    0.287    2.712
  108.000  115.644    0.468    0.274    2.718
  108.250  116.324    0.456    0.268    2.721
  108.500  115.752    0.457    0.268    2.725
  108.750  113.304    0.465    0.266    2.729
  109.000  110.243    0.475    0.264    2.785
  109.250  109.658    0.480    0.258    2.843
  109.500  109.100    0.485    0.257    2.902
  109.750  109.154    0.473    0.256    2.961
  110.000  110.472    0.459    0.256    2.965
  110.250  111.125    0.457    0.253    3.026
  110.500  111.206    0.462    0.250    3.031
  110.750  111.872    0.473    0.248    3.036
  111.000  113.190    0.471    0.242    3.099
  111.250  113.244    0.461    0.249    3.104
  111.500  113.284    0.455    0.257    3.107
  111.750  113.977    0.460    0.246    3.172
  112.000  115.282    0.461    0.241    3.175
  112.250  116.587    0.453    0.247    3.242
  112.500  117.267    0.457    0.258    3.245
  112.750  117.946    0.459    0.263    3.251
  113.000  117.987    0.458    0.264    3.255
  113.250  116.803    0.460    0.262    3.324
  113.500  116.857    0.462    0.250    3.326
  113.750  116.299    0.460    0.246    3.396
  114.000  115.088    0.460    0.246    3.466
  114.250  114.503    0.456    0.246    3.537
  114.500  113.319    0.441    0.246    3.825
  114.750  112.122    0.427    0.245    3.978
  115.000  111.564    0.424    0.245    4.299
  115.250  110.978    0.422    0.243    4.647
  115.500  109.156    0.411    0.243    5.119
  115.750  104.817    0.421    0.244    5.640
  116.000  101.743    0.430    0.251    6.579
  116.250   96.167    0.434    0.291    8.131
  116.500   91.203    0.405    0.305   11.054
  116.750   61.217    0.349    0.319   12.412
  117.000   51.887    0.325    0.326   13.942
  117.250   51.941    0.339    0.327   15.656
  117.500   53.246    0.356    0.328   17.247
  117.750   55.190    0.361    0.333   18.641
  118.000   59.011    0.361    0.337   19.387
  118.250   62.179    0.360    0.342   20.572
  118.500   67.251    0.357    0.346   21.394
  118.750   69.793    0.358    0.349   22.257
  119.000   69.847    0.363    0.357   22.280
  119.250   68.650    0.372    0.358   22.748
  119.500   66.215    0.387    0.357   23.674
  119.750   63.767    0.392    0.353   23.714
  120.000   63.821    0.387    0.354   23.730
  120.250   64.500    0.375    0.355   23.314
  120.500   65.180    0.360    0.354   22.912
  120.750   65.234    0.362    0.350   22.935
  121.000   65.274    0.379    0.346   22.548
  121.250   66.579    0.375    0.341   22.563
  121.500   66.007    0.365    0.337   22.594
  121.750   65.449    0.366    0.332   22.625
  122.000   66.768    0.376    0.333   22.243
  122.250   66.808    0.386    0.336   21.844
  122.500   66.849    0.379    0.338   21.874
  122.750   65.053    0.372    0.340   22.764
  123.000   63.842    0.364    0.344   23.235
  123.250   62.631    0.358    0.346   23.707
  123.500   61.434    0.352    0.347   24.197
  123.750   62.114    0.356    0.351   24.697
  124.000   61.542    0.358    0.352   24.739
  124.250   59.094    0.363    0.350   24.765
  124.500   58.535    0.357    0.348   24.338
  124.750   59.840    0.349    0.347   23.458
  125.000   60.506    0.343    0.344   21.344
  125.250   61.186    0.345    0.338   17.659
  125.500   64.394    0.349    0.326   14.610
  125.750   71.316    0.354    0.307   11.199
  126.000   78.877    0.359    0.310    9.441
  126.250   92.706    0.387    0.273    7.100
  126.500   99.016    0.424    0.251    5.987
  126.750   81.541    0.432    0.254    7.539
  127.000   73.462    0.424    0.280    8.631
  127.250   64.133    0.417    0.290    9.153
  127.500   61.698    0.416    0.313    9.165
  127.750   61.752    0.418    0.306    9.181
  128.000   63.669    0.419    0.302    9.190
  128.250   67.476    0.409    0.306    8.864
  128.500   71.922    0.390    0.312    8.702
  128.750   74.465    0.382    0.314    7.483
  129.000   78.299    0.386    0.311    7.073
  129.250   81.481    0.396    0.288    6.954
  129.500   82.773    0.404    0.268    6.959
  129.750   84.078    0.417    0.271    7.105
  130.000   82.880    0.418    0.284    7.391
  130.250   77.957    0.404    0.295    7.690
  130.500   76.733    0.392    0.300    8.002
  130.750   75.549    0.391    0.295    8.011
  131.000   77.479    0.391    0.290    8.334
  131.250   81.899    0.391    0.292    9.181
  131.500   82.592    0.386    0.301   10.313
  131.750   81.381    0.381    0.295   11.576
  132.000   77.681    0.378    0.272   12.753
  132.250   75.247    0.387    0.275   13.523
  132.500   74.675    0.399    0.284   13.807
  132.750   74.729    0.371    0.300   13.831
  133.000   75.408    0.360    0.321   14.112
  133.250   76.074    0.350    0.333   14.131
  133.500   76.754    0.357    0.320   14.428
  133.750   78.059    0.371    0.322   14.443
  134.000   79.377    0.371    0.324   13.921
  134.250   81.308    0.368    0.323   12.196
  134.500   83.864    0.365    0.298   10.285
  134.750   87.032    0.364    0.287    8.193
  135.000   90.853    0.367    0.275    7.319
  135.250   96.537    0.373    0.263    7.055
  135.500  102.221    0.384    0.255    7.198
  135.750  107.905    0.392    0.249    7.633
  136.000  109.849    0.407    0.242    8.093
  136.250  107.400    0.395    0.253    8.748
  136.500  104.939    0.391    0.258    9.455
  136.750  101.239    0.386    0.261    9.833
  137.000  100.681    0.367    0.273   10.236
  137.250  102.612    0.345    0.256   10.250
  137.500  107.670    0.329    0.234   10.074
  137.750  111.491    0.338    0.229   10.084
  138.000  112.170    0.360    0.230    9.903
  138.250  112.211    0.369    0.235    9.920
  138.500  111.652    0.373    0.241    9.934
  138.750  111.094    0.375    0.245    9.944
  139.000  111.121    0.383    0.252    9.961
  139.250  112.426    0.389    0.264    9.601
  139.500  114.370    0.390    0.261    9.079
  139.750  114.424    0.367    0.252    9.088
  140.000  113.227    0.351    0.228    9.101
  140.250  112.669    0.348    0.221    8.775
  140.500  112.696    0.349    0.223    8.455
  140.750  112.750    0.357    0.225    7.410
  141.000  114.068    0.413    0.227    6.875
  141.250  114.734    0.440    0.235    6.751
  141.500  117.943    0.443    0.239    6.507
  141.750  119.234    0.445    0.249    6.393
  142.000  123.667    0.453    0.259    6.164
  142.250  128.113    0.460    0.262    6.054
  142.500  129.418    0.462    0.270    5.839
  142.750  126.957    0.453    0.280    5.626
  143.000  125.134    0.449    0.257    5.421
  143.250  124.576    0.450    0.229    4.842
