~VERSION INFORMATION
 VERS.                 2.0:   CWLS LOG ASCII STANDARD -VERSION 2.0
 WRAP.                  NO:   ONE LINE PER DEPTH STEP
~WELL INFORMATION BLOCK
#MNEM.UNIT           DATA                    DESCRIPTION OF MNEMONIC
#---------    -------------------            -------------------------------
# Generated from Intellog Unique Number	CS_77_79/WELL/865
WELL.         CWWE THORNBURY                 : Well_name    - WELL
LOC .         00/05-31-079-13W4/0            : Location     - LOCATION
UWI .         00/05-31-079-13W4/0            : Uwi          - UNIQUE WELL ID
ENTR.         JHS                            : Entered      - ENTERED BY
SRVC.         SCHLUMBERGER                   : Scn          - SERVICE COMPANY
STRT.M        245                            : top_depth    - START DEPTH
STOP.M        510                            : bot_depth    - STOP DEPTH
STEP.M        0.25                           : increment    - STEP LENGTH
 NULL. -999.2500:NULL Value
~CURVE INFORMATION BLOCK
#MNEM UNIT       ERCB CURVE CODE    CURVE DESCRIPTION
#-----------   ------------------   ----------------------------------
DEPT.M        00 001 00 00         : DEPTH        - DEPTH
DPHI.V/V      00 890 00 00         : PHID         - DENSITY POROSITY (LIMESTONE)
NPHI.V/V      00 330 00 00         : PHIN         - NEUTRON POROSITY (LIMESTONE)
GR  .API      00 310 00 00         : GR           - GAMMA RAY
ILD .OHMM     00 120 00 00         : RESD         - DEEP RESISTIVITY (DIL)
RHOB.KG/M3    00 350 00 00         : DENS         - BULK DENSITY
~PARAMETER INFORMATION
#MNEM.UNIT           DATA             DESCRIPTION OF MNEMONIC
#---------         -----------     ------------------------------
GL  .M        694.2                : gl           - GROUND LEVEL ELEVATION
EREF.M        698                  : kb           - ELEVATION OF DEPTH REFERENCE
DATM.M        698                  : datum        - DATUM ELEVATION
TDD .M        510                  : tdd          - TOTAL DEPTH DRILLER
RUN .         ONE                  : Run          - RUN NUMBER
ENG .         BILL                 : Engineer     - RECORDING ENGINEER
WIT .         JIM                  : Witness      - WITNESSED BY
MUD .         GEL                  : Mud_type     - MUD TYPE
MATR.         LIMESTONE            : Logunit      - NEUTRON MATRIX
TMAX.C        22                   : BHT          - MAXIMUM RECORDED TEMPERATURE
BHTD.M        510                  : BHTDEP       - MAXIMUM RECORDED TEMPERATURE
MATR.         1                    : LOGUNIT      - NEUTRON MATRIX
RMT .C        25                   : MDTP         - TEMPERATURE OF MUD
NEUT.         1                    : NEUTRON      - NEUTRON TYPE
RESI.         0                    : RESIST       - RESISTIVITY TYPE
RMC .OHMM     0.25                 : RMC          - RESISTIVITY OF MUD CAKE
RMF .OHMM     0.25                 : RMF          - RESISTIVITY OF MUD FILTRATE
SUFT.C        15                   : SUFT         - SURFACE TEMPERATURE
~A  DEPTH     PHID     PHIN       GR     RESD     DENS
# ...
  281.500    0.246    0.496  102.371    3.328    0.000
  281.750    0.236    0.468  101.768    3.458    0.000
  282.000    0.231    0.460  100.559    3.594    0.000
  282.250    0.248    0.498   99.953    3.806    0.000
  282.500    0.259    0.497   96.913    3.809    0.000
  282.750    0.252    0.474   90.213    3.741    0.000
  283.000    0.238    0.461   82.293    3.888    0.000
  283.250    0.241    0.441   84.741    4.274    0.000
  283.500    0.259    0.425   92.675    5.260    0.000
  283.750    0.263    0.423   93.903    6.355    0.000
  284.000    0.254    0.442   88.424    6.988    0.000
  284.250    0.254    0.447   90.262    7.261    0.000
  284.500    0.260    0.439   92.096    7.405    0.000
  284.750    0.256    0.443   90.887    7.272    0.000
  285.000    0.258    0.451   87.846    7.142    0.000
  285.250    0.271    0.433   87.243    7.015    0.000
  285.500    0.256    0.416   90.909    7.019    0.000
  285.750    0.245    0.427   90.306    7.024    0.000
  286.000    0.258    0.419   84.826    6.899    0.000
  286.250    0.272    0.397   79.956    7.444    0.000
  286.500    0.254    0.401   86.671    7.735    0.000
  286.750    0.240    0.435   93.387    7.597    0.000
  287.000    0.232    0.457   97.058    7.321    0.000
  287.250    0.235    0.451   97.062    6.796    0.000
  287.500    0.235    0.448   95.850    6.550    0.000
  287.750    0.229    0.464   92.810    6.554    0.000
  288.000    0.186    0.477   88.548    6.811    0.000
  288.250    0.147    0.424   80.630    7.079    0.000
  288.500    0.192    0.378   72.709    7.354    0.000
  288.750    0.260    0.364   90.401    7.361    0.000
  289.000    0.265    0.450  105.043    6.833    0.000
  289.250    0.266    0.486  112.370    5.993    0.000
  289.500    0.263    0.482  109.329    5.257    0.000
  289.750    0.254    0.473  100.799    4.358    0.000
  290.000    0.254    0.471   95.320    3.754    0.000
  290.250    0.270    0.466   91.669    3.826    0.000
  290.500    0.357    0.445   84.358    4.287    0.000
  290.750    0.379    0.414   69.122    6.134    0.000
  291.000    0.325    0.400   75.227    8.778    0.000
  291.250    0.288    0.397   86.211   10.214    0.000
  291.500    0.271    0.392   86.220   11.022    0.000
  291.750    0.263    0.386   82.568   11.669    0.000
  292.000    0.219    0.382   82.578   12.359    0.000
  292.250    0.203    0.384   88.683   12.134    0.000
  292.500    0.230    0.388   96.616   11.917    0.000
  292.750    0.226    0.417  103.942   11.062    0.000
  293.000    0.224    0.433  103.951   10.075    0.000
  293.250    0.230    0.429  101.519    9.352    0.000
  293.500    0.239    0.414   99.088    9.185    0.000
  293.750    0.257    0.409  100.925    9.366    0.000
  294.000    0.268    0.421  100.324    9.736    0.000
  294.250    0.272    0.426   97.893    9.741    0.000
  294.500    0.289    0.413   94.242    9.934    0.000
  294.750    0.327    0.401   90.592   10.130    0.000
  295.000    0.305    0.389   91.817   10.139    0.000
  295.250    0.274    0.389   98.532   10.147    0.000
  295.500    0.259    0.394   95.494    9.597    0.000
  295.750    0.247    0.405   92.450    9.250    0.000
  296.000    0.256    0.423   86.971    9.084    0.000
  296.250    0.265    0.431   85.149    9.261    0.000
  296.500    0.247    0.414   85.157    9.810    0.000
  296.750    0.234    0.399   90.653   10.193    0.000
  297.000    0.227    0.404   93.711   10.198    0.000
  297.250    0.241    0.416   94.328   10.208    0.000
  297.500    0.278    0.421   93.115   10.025    0.000
  297.750    0.322    0.399   87.635   10.226    0.000
  298.000    0.362    0.370   80.937   10.623    0.000
  298.250    0.365    0.365   79.116   12.130    0.000
  298.500    0.360    0.382   79.731   13.086    0.000
  298.750    0.341    0.436   81.570   14.119    0.000
  299.000    0.323    0.435   84.627   14.953    0.000
  299.250    0.318    0.417   88.905   15.246    0.000
  299.500    0.313    0.406   91.961   15.257    0.000
  299.750    0.306    0.405   93.186   15.269    0.000
  300.000    0.313    0.416   94.415   14.444    0.000
  300.250    0.323    0.422   93.811   14.183    0.000
  300.500    0.324    0.415   90.160   13.929    0.000
  300.750    0.325    0.417   88.949   13.940    0.000
  301.000    0.328    0.427   95.055   14.214    0.000
  301.250    0.318    0.438  102.991   14.226    0.000
  301.500    0.297    0.416  108.486   14.238    0.000
  301.750    0.287    0.418  110.933   13.982    0.000
  302.000    0.285    0.406  106.061   13.992    0.000
  302.250    0.299    0.372   76.191   14.006    0.000
  302.500    0.307    0.363   70.100   13.756    0.000
  302.750    0.290    0.371   81.695   13.510    0.000
  303.000    0.271    0.379   90.243   13.022    0.000
  303.250    0.263    0.371   90.857   12.784    0.000
  303.500    0.234    0.366   91.476   11.869    0.000
  303.750    0.175    0.373   93.312   11.015    0.000
  304.000    0.150    0.397   98.198    9.664    0.000
  304.250    0.169    0.404  101.254    8.802    0.000
  304.500    0.221    0.405  106.749    8.016    0.000
  304.750    0.227    0.422  114.075    7.583    0.000
  305.000    0.220    0.448  120.183    7.174    0.000
  305.250    0.204    0.489  122.018    6.912    0.000
  305.500    0.190    0.489  125.075    6.179    0.000
  305.750    0.183    0.481  124.474    5.628    0.000
  306.000    0.178    0.480  125.703    5.223    0.000
  306.250    0.184    0.496  126.927    5.131    0.000
  306.500    0.184    0.519  126.325    5.039    0.000
  306.750    0.196    0.493  123.895    5.044    0.000
  307.000    0.169    0.475  117.195    5.046    0.000
  307.250    0.149    0.457  109.884    5.147    0.000
  307.500    0.149    0.450  109.283    5.347    0.000
  307.750    0.186    0.457  119.658    5.663    0.000
  308.000    0.210    0.481  128.811    5.776    0.000
  308.250    0.197    0.489  131.868    5.670    0.000
  308.500    0.195    0.500  133.097    5.363    0.000
  308.750    0.207    0.540  133.715    4.794    0.000
  309.000    0.234    0.522  138.601    4.051    0.000
  309.250    0.247    0.482  134.950    3.553    0.000
  309.500    0.265    0.456  127.639    3.490    0.000
  309.750    0.285    0.443  115.451    3.765    0.000
  310.000    0.298    0.424  107.534    4.381    0.000
  310.250    0.272    0.425  111.200    5.599    0.000
  310.500    0.252    0.425  116.695    7.572    0.000
  310.750    0.239    0.420  117.922    9.863    0.000
  311.000    0.239    0.425  112.443   10.843    0.000
  311.250    0.263    0.418  107.572   11.268    0.000
  311.500    0.290    0.425  103.312   11.069    0.000
  311.750    0.257    0.423   95.392   10.470    0.000
  312.000    0.204    0.424  101.497   10.279    0.000
  312.250    0.169    0.434  116.140    9.363    0.000
  312.500    0.175    0.433  123.465    8.213    0.000
  312.750    0.206    0.419  126.523    6.942    0.000
  313.000    0.237    0.413  124.700    6.944    0.000
  313.250    0.250    0.414  120.440    7.781    0.000
  313.500    0.257    0.441  116.180    8.717    0.000
  313.750    0.268    0.419  111.918   10.143    0.000
  314.000    0.284    0.415  108.877   10.739    0.000
  314.250    0.291    0.442  105.838   11.160    0.000
  314.500    0.283    0.403  104.014   11.167    0.000
  314.750    0.267    0.385  105.242   10.967    0.000
  315.000    0.269    0.391  116.227   10.977    0.000
  315.250    0.265    0.408  124.162   10.984    0.000
  315.500    0.254    0.404  122.950   10.789    0.000
  315.750    0.251    0.403  116.249   10.595    0.000
  316.000    0.269    0.399  105.283   10.805    0.000
  316.250    0.316    0.386   93.094   11.440    0.000
  316.500    0.348    0.371   74.199   12.345    0.000
  316.750    0.337    0.405   71.160   13.075    0.000
  317.000    0.323    0.438   70.556   13.333    0.000
  317.250    0.316    0.430   73.614   13.594    0.000
  317.500    0.317    0.430   76.059   13.603    0.000
  317.750    0.322    0.446   73.019   13.360    0.000
