~VERSION INFORMATION
 VERS.                 2.0:   CWLS LOG ASCII STANDARD -VERSION 2.0
 WRAP.                  NO:   ONE LINE PER DEPTH STEP
~WELL INFORMATION BLOCK
#MNEM.UNIT           DATA                    DESCRIPTION OF MNEMONIC
#---------    -------------------            -------------------------------
# Generated from Intellog Unique Number	CS_73_76/WELL/1075
WELL.         HOME LIESMER                   : Well_name    - WELL
LOC .         00/06-23-075-07W4/0            : Location     - LOCATION
UWI .         00/06-23-075-07W4/0            : Uwi          - UNIQUE WELL ID
ENTR.         SP                             : Entered      - ENTERED BY
SRVC.         SCHLUMBERGER                   : Scn          - SERVICE COMPANY
STRT.M        274.32                         : top_depth    - START DEPTH
STOP.M        499.57                         : bot_depth    - STOP DEPTH
STEP.M        0.25                           : increment    - STEP LENGTH
 NULL. -999.2500:NULL Value
~CURVE INFORMATION BLOCK
#MNEM UNIT       ERCB CURVE CODE    CURVE DESCRIPTION
#-----------   ------------------   ----------------------------------
DEPT.M        00 001 00 00         : DEPTH        - DEPTH
GR  .API      00 310 00 00         : GR           - GAMMA RAY
DPHI.V/V      00 890 00 00         : PHID         - DENSITY POROSITY (SANDSTONE)
NPHI.V/V      00 330 00 00         : PHIN         - NEUTRON POROSITY (SANDSTONE)
ILD .OHMM     00 120 00 00         : RESD         - DEEP RESISTIVITY (DIL)
~PARAMETER INFORMATION
#MNEM.UNIT           DATA             DESCRIPTION OF MNEMONIC
#---------         -----------     ------------------------------
GL  .M        680.874              : gl           - GROUND LEVEL ELEVATION
EREF.M        680.874              : kb           - ELEVATION OF DEPTH REFERENCE
DATM.M        680.874              : datum        - DATUM ELEVATION
TDD .M        505.968              : tdd          - TOTAL DEPTH DRILLER
RUN .         ONE                  : Run          - RUN NUMBER
ENG .         BILL                 : Engineer     - RECORDING ENGINEER
WIT .         JIM                  : Witness      - WITNESSED BY
MUD .         GEL                  : Mud_type     - MUD TYPE
MATR.         SANDSTONE            : Logunit      - NEUTRON MATRIX
TMAX.C        15.5556              : BHT          - MAXIMUM RECORDED TEMPERATURE
BHTD.M        505.968              : BHTDEP       - MAXIMUM RECORDED TEMPERATURE
MATR.         1                    : LOGUNIT      - NEUTRON MATRIX
RMT .C        25                   : MDTP         - TEMPERATURE OF MUD
NEUT.         1                    : NEUTRON      - NEUTRON TYPE
RESI.         0                    : RESIST       - RESISTIVITY TYPE
RMC .OHMM     0.25                 : RMC          - RESISTIVITY OF MUD CAKE
RMF .OHMM     0.25                 : RMF          - RESISTIVITY OF MUD FILTRATE
SUFT.C        15                   : SUFT         - SURFACE TEMPERATURE
~A  DEPTH       GR     PHID     PHIN     RESD
# ...
  317.820  110.747    0.217    0.449   12.152
  318.070  109.681    0.216    0.466   12.290
  318.320  104.759    0.219    0.480   12.704
  318.570   98.990    0.199    0.473   12.776
  318.820  102.036    0.196    0.482   12.305
  319.070  106.796    0.221    0.492   11.477
  319.320  109.309    0.229    0.506   10.476
  319.570  106.567    0.221    0.511    9.579
  319.820   98.296    0.222    0.511    8.924
  320.070   83.690    0.244    0.516    9.829
  320.320   70.194    0.269    0.505   10.896
  320.570   64.549    0.317    0.478   12.204
  320.820   73.984    0.313    0.443   13.327
  321.070   78.445    0.301    0.434   13.704
  321.320   84.497    0.282    0.444   14.059
  321.570   86.091    0.251    0.437   14.044
  321.820   85.682    0.239    0.428   14.077
  322.070   85.368    0.256    0.426   13.776
  322.320   85.402    0.276    0.436   13.807
  322.570   89.614    0.282    0.429   13.708
  322.820   92.221    0.260    0.423   13.014
  323.070   90.995    0.240    0.419   12.446
  323.320   90.329    0.230    0.425   12.199
  323.570   93.546    0.238    0.438   11.704
  323.820   93.546    0.236    0.459   11.586
  324.070   91.699    0.248    0.474   11.306
  324.320   91.451    0.253    0.479   11.324
  324.570   88.770    0.242    0.484   12.125
  324.820   82.951    0.248    0.489   13.688
  325.070   74.874    0.260    0.480   15.759
  325.320   68.563    0.274    0.464   17.229
  325.570   69.123    0.292    0.439   18.760
  325.820   72.863    0.291    0.425   18.993
  326.070   77.026    0.285    0.437   17.085
  326.320   82.397    0.277    0.455   15.113
  326.570   84.275    0.272    0.466   13.789
  326.820   85.463    0.265    0.465   13.295
  327.070   86.650    0.275    0.455   13.177
  327.320   86.967    0.280    0.446   13.122
  327.570   87.962    0.288    0.449   14.314
  327.820   86.613    0.285    0.454   16.491
  328.070   80.006    0.279    0.461   19.122
  328.320   72.578    0.305    0.455   22.691
  328.570   67.851    0.325    0.443   24.578
  328.820   64.289    0.346    0.431   25.847
  329.070   61.452    0.331    0.438   26.539
  329.320   60.102    0.338    0.442   26.546
  329.570   59.341    0.344    0.451   26.052
  329.820   60.116    0.346    0.463   25.546
  330.070   61.941    0.344    0.463   25.643
  330.320   65.070    0.351    0.460   25.081
  330.570   63.494    0.343    0.468   25.119
  330.820   63.792    0.347    0.481   24.726
  331.070   65.843    0.353    0.495   24.221
  331.320   67.160    0.347    0.487   24.278
  331.570   68.741    0.347    0.473   23.994
  331.820   69.431    0.342    0.463   23.869
  332.070   68.449    0.334    0.478   23.866
  332.320   65.236    0.317    0.503   23.863
  332.570   62.670    0.334    0.519   23.811
  332.820   61.775    0.341    0.520   23.445
  333.070   62.951    0.350    0.512   23.457
  333.320   64.926    0.347    0.500   23.438
  333.570   64.520    0.341    0.491   23.041
  333.820   62.341    0.342    0.479   23.073
  334.070   59.367    0.347    0.471   23.084
  334.320   57.132    0.342    0.464   23.082
  334.570   58.174    0.329    0.465   22.975
  334.820   61.188    0.342    0.475   22.688
  335.070   63.162    0.339    0.481   22.696
  335.320   64.163    0.332    0.485   22.707
  335.570   62.531    0.326    0.485   22.719
  335.820   61.452    0.320    0.483   22.769
  336.070   61.102    0.333    0.477   22.291
  336.320   59.551    0.342    0.471   22.340
  336.570   58.770    0.329    0.466   22.382
  336.820   59.524    0.326    0.469   21.926
  337.070   60.440    0.331    0.475   21.960
  337.320   62.280    0.342    0.479   21.964
  337.570   64.219    0.339    0.483   21.972
  337.820   65.230    0.335    0.491   21.994
  338.070   65.388    0.331    0.499   22.098
  338.320   65.380    0.338    0.497   22.412
  338.570   66.408    0.341    0.491   22.419
  338.820   65.624    0.350    0.485   22.424
  339.070   63.682    0.355    0.480   22.436
  339.320   62.997    0.349    0.473   22.443
  339.570   63.128    0.344    0.469   22.451
  339.820   65.097    0.332    0.475   22.463
  340.070   67.813    0.335    0.481   22.473
  340.320   68.338    0.336    0.493   22.483
  340.570   67.402    0.345    0.502   22.193
  340.820   65.552    0.338    0.498   22.104
  341.070   64.222    0.330    0.496   22.100
  341.320   64.238    0.343    0.504   22.098
  341.570   64.319    0.333    0.500   22.028
  341.820   65.370    0.333    0.492   21.712
  342.070   65.316    0.357    0.498   21.515
  342.320   65.959    0.375    0.512   21.351
  342.570   65.392    0.387    0.522   21.386
  342.820   65.670    0.354    0.524   20.973
  343.070   65.990    0.343    0.514   20.582
  343.320   66.062    0.336    0.505   20.620
  343.570   65.345    0.358    0.495   20.654
  343.820   65.409    0.349    0.486   20.251
  344.070   65.714    0.334    0.483   20.006
  344.320   67.466    0.324    0.488   19.809
  344.570   67.773    0.334    0.495   19.559
  344.820   66.784    0.344    0.484   19.171
  345.070   65.419    0.354    0.481   19.212
  345.320   64.956    0.349    0.489   19.193
  345.570   63.257    0.339    0.492   19.619
  345.820   63.145    0.340    0.494   19.591
  346.070   62.770    0.340    0.487   19.598
  346.320   60.670    0.337    0.482   19.609
  346.570   60.058    0.332    0.474   19.619
  346.820   59.838    0.338    0.482   19.352
  347.070   60.897    0.349    0.487   19.199
  347.320   61.276    0.336    0.481   18.587
  347.570   60.681    0.339    0.471   18.157
  347.820   59.888    0.331    0.465   17.870
  348.070   59.468    0.339    0.480   17.625
  348.320   60.676    0.338    0.493   17.287
  348.570   62.536    0.338    0.485   16.880
  348.820   62.451    0.335    0.479   16.136
  349.070   62.456    0.330    0.481   15.699
  349.320   62.451    0.325    0.478   14.933
  349.570   60.203    0.329    0.467   15.187
  349.820   56.921    0.327    0.459   15.816
  350.070   60.754    0.354    0.448   17.370
  350.320   63.081    0.353    0.459   17.918
  350.570   64.230    0.343    0.463   18.024
  350.820   64.287    0.335    0.470   17.711
  351.070   61.933    0.327    0.463   17.159
  351.320   61.743    0.324    0.476   17.014
  351.570   61.733    0.315    0.488   16.766
  351.820   63.249    0.333    0.490   16.934
  352.070   61.660    0.347    0.483   17.093
  352.320   60.215    0.343    0.474   18.230
  352.570   59.504    0.355    0.468   18.994
  352.820   58.877    0.371    0.472   20.223
  353.070   59.369    0.344    0.479   20.779
  353.320   59.492    0.326    0.488   21.780
  353.570   59.509    0.327    0.477   22.145
  353.820   59.506    0.328    0.466   22.087
  354.070   59.483    0.321    0.463   22.514
  354.320   60.044    0.320    0.468   22.158
  354.570   60.961    0.326    0.482   21.991
  354.820   62.625    0.318    0.500   21.382
  355.070   64.039    0.316    0.501   21.057
  355.320   65.966    0.319    0.499   20.839
  355.570   68.635    0.303    0.504   20.621
  355.820   71.124    0.318    0.501   20.250
  356.070   73.272    0.332    0.476   20.131
  356.320   75.573    0.334    0.472   17.798
  356.570   79.258    0.324    0.481   16.222
  356.820   84.123    0.299    0.479   12.021
  357.070   90.177    0.279    0.482    8.181
  357.320   96.694    0.263    0.505    6.420
  357.570  100.395    0.235    0.526    5.317
  357.820   98.154    0.221    0.542    4.568
  358.070   97.181    0.229    0.537    4.321
  358.320   95.339    0.236    0.541    4.300
  358.570   91.909    0.226    0.542    4.432
  358.820   88.285    0.261    0.527    4.706
  359.070   86.158    0.277    0.528    4.894
  359.320   86.581    0.264    0.542    5.221
  359.570   88.544    0.245    0.553    5.252
  359.820   92.148    0.254    0.542    5.260
  360.070   95.581    0.271    0.533    4.953
  360.320   94.810    0.255    0.543    4.676
  360.570   92.240    0.254    0.559    4.712
  360.820   88.343    0.261    0.546    4.934
  361.070   86.704    0.254    0.518    5.527
