~VERSION INFORMATION
 VERS.                 2.0:   CWLS LOG ASCII STANDARD -VERSION 2.0
 WRAP.                  NO:   ONE LINE PER DEPTH STEP
~WELL INFORMATION BLOCK
#MNEM.UNIT           DATA                    DESCRIPTION OF MNEMONIC
#---------    -------------------            -------------------------------
# Generated from Intellog Unique Number	CW_76_78/WELL/200
WELL.         AMOCO UN-TEX MARTEN HILLS DD-1 : Well_name    - WELL
LOC .         00/06-30-076-02W5/0            : Location     - LOCATION
UWI .         00/06-30-076-02W5/0            : Uwi          - UNIQUE WELL ID
ENTR.         JJ                             : Entered      - ENTERED BY
SRVC.         SCHLUMBERGER                   : Scn          - SERVICE COMPANY
DATE.         22 MAR 72                      : Date         - LOG DATE
STRT.M        670.56                         : top_depth    - START DEPTH
STOP.M        804.56                         : bot_depth    - STOP DEPTH
STEP.M        0.25                           : increment    - STEP LENGTH
 NULL. -999.2500:NULL Value
~CURVE INFORMATION BLOCK
#MNEM UNIT       ERCB CURVE CODE    CURVE DESCRIPTION
#-----------   ------------------   ----------------------------------
DEPT.M        00 001 00 00         : DEPTH        - DEPTH
DELT.US/F     00 520 00 00         : DELT         - SONIC TRAVEL TIME
GR  .API      00 310 00 00         : GR           - GAMMA RAY
CALI.MM       00 280 01 00         : CAL          - CALIPER
ILD .OHMM     00 120 00 00         : RESD         - DEEP RESISTIVITY (DIL)
~PARAMETER INFORMATION
#MNEM.UNIT           DATA             DESCRIPTION OF MNEMONIC
#---------         -----------     ------------------------------
GL  .M        886.054              : gl           - GROUND LEVEL ELEVATION
EREF.M        889.711              : kb           - ELEVATION OF DEPTH REFERENCE
DATM.M        889.711              : datum        - DATUM ELEVATION
TDD .M        804.062              : tdd          - TOTAL DEPTH DRILLER
RUN .         ONE                  : Run          - RUN NUMBER
ENG .         ANDERSON             : Engineer     - RECORDING ENGINEER
WIT .         DESAULNIERS          : Witness      - WITNESSED BY
BASE.         EDM                  : Branch       - HOME BASE OF LOGGING UNIT
MUD .         GEL                  : Mud_type     - MUD TYPE
MATR.         SANDSTONE            : Logunit      - NEUTRON MATRIX
TMAX.C        30                   : BHT          - MAXIMUM RECORDED TEMPERATURE
BHTD.M        802.843              : BHTDEP       - MAXIMUM RECORDED TEMPERATURE
RMT .C        10                   : MDTP         - TEMPERATURE OF MUD
MUDD.KG/M     1128                 : MWT          - MUD DENSITY
NEUT.         1                    : NEUTRON      - NEUTRON TYPE
RESI.         0                    : RESIST       - RESISTIVITY TYPE
RM  .OHMM     6.68                 : RM           - RESISTIVITY OF MUD
RMC .OHMM     13.5                 : RMC          - RESISTIVITY OF MUD CAKE
RMF .OHMM     3.48                 : RMF          - RESISTIVITY OF MUD FILTRATE
SUFT.C        5                    : SUFT         - SURFACE TEMPERATURE
~A  DEPTH     DELT       GR      CAL     RESD
# ...
  757.560  376.491   66.176  234.768    8.683
  757.810  377.743   68.824  235.463    9.827
  758.060  373.142   68.747  234.933   12.225
  758.310  368.940   73.122  233.049   14.310
  758.560  361.802   68.893  230.276   15.416
  758.810  350.955   66.937  233.305   15.853
  759.060  327.808   62.459  231.858   15.232
  759.310  313.315   54.481  229.479   14.377
  759.560  324.725   54.283  225.762   13.875
  759.810  334.368   63.319  231.763   13.568
  760.060  341.744   65.046  232.143   13.261
  760.310  347.564   66.120  231.810   12.875
  760.560  336.390   67.130  231.786   12.646
  760.810  328.532   68.496  231.665   13.124
  761.060  320.165   62.386  231.319   13.757
  761.310  325.846   57.967  228.738   14.627
  761.560  339.009   60.551  225.845   15.614
  761.810  346.124   64.935  229.091   16.915
  762.060  333.716   64.614  228.449   16.058
  762.310  307.447   60.132  226.798   13.478
  762.560  281.178   56.138  225.645   10.779
  762.810  270.070   53.223  225.111    9.571
  763.060  265.798   53.031  225.376    8.756
  763.310  320.798   57.360  228.728    8.291
  763.560  335.141   65.540  231.959    7.984
  763.810  351.426   70.653  234.286    7.756
  764.060  357.111   76.666  235.071    7.685
  764.310  352.897   80.089  235.460    7.613
  764.560  345.498   72.356  235.624    7.541
  764.810  336.802   73.238  235.603    7.352
  765.060  326.737   74.005  235.591    7.242
  765.310  336.650   72.970  235.442    7.208
  765.560  345.976   76.506  235.823    7.293
  765.810  347.880   81.562  236.201    7.418
  766.060  344.320   80.575  236.685    7.622
  766.310  335.885   77.787  236.760    7.823
  766.560  347.551   78.681  237.545    8.536
  766.810  336.250   81.495  237.622    9.681
  767.060  336.401   82.017  235.958   10.510
  767.310  338.762   77.538  230.841   11.614
  767.560  329.090   74.085  229.176   13.189
  767.810  318.436   74.007  229.144   15.314
  768.060  321.908   76.646  229.431   16.536
  768.310  327.979   73.613  229.495   17.759
  768.560  328.709   71.908  229.370   19.843
  768.810  323.396   69.538  229.139   19.606
  769.060  316.976   66.868  228.802   22.855
  769.310  321.290   64.140  228.152   24.541
  769.560  313.961   61.707  227.728   25.810
  769.810  301.096   60.061  226.981   26.686
  770.060  289.076   58.185  226.551   26.403
  770.310  278.233   57.319  226.411   26.087
  770.560  284.232   56.945  227.097   25.006
  770.810  301.307   57.824  229.105   22.351
  771.060  313.622   61.971  233.779   15.952
  771.310  317.028   69.077  234.676   15.330
  771.560  317.958   73.044  234.952   14.828
  771.810  318.047   74.475  235.141   14.914
  772.060  317.276   72.764  235.107   15.077
  772.310  316.259   68.405  234.972   15.240
  772.560  315.637   68.264  234.748   15.132
  772.810  312.013   70.239  235.139   14.824
  773.060  305.066   74.204  235.406   14.477
  773.310  292.663   74.007  235.669   13.856
  773.560  305.626   74.291  236.297   13.040
  773.810  307.082   81.755  236.432   12.262
  774.060  305.280   80.956  236.830   11.328
  774.310  298.729   75.812  237.309   10.590
  774.560  290.879   73.022  237.484    9.970
  774.810  289.981   71.921  237.951    9.232
  775.060  304.060   75.044  237.624    8.336
  775.310  320.285   78.218  238.117    7.834
  775.560  332.281   84.112  238.188    7.567
  775.810  347.395   91.879  238.869    7.692
  776.060  354.379   92.825  241.194    7.933
  776.310  352.384   86.839  234.722    8.331
  776.560  340.492   78.440  233.264    8.848
  776.810  327.436   73.961  232.634    9.287
  777.060  314.114   67.551  232.085    9.449
  777.310  305.736   65.908  231.967    9.301
  777.560  320.341   70.178  232.056    9.149
  777.810  341.185   70.941  232.211    8.804
  778.060  325.132   70.075  232.206    8.536
  778.310  308.429   64.455  232.469    8.308
  778.560  326.146   65.410  232.853    8.120
  778.810  338.661   67.795  233.127    8.008
  779.060  345.119   70.431  233.313    7.935
  779.310  344.039   75.064  233.875    7.904
  779.560  341.064   79.271  234.182    7.871
  779.810  337.307   74.064  234.438    8.034
  780.060  334.267   74.052  235.020    8.315
  780.310  331.042   75.663  235.400    8.832
  780.560  331.714   77.994  235.477    9.741
  780.810  344.805   84.069  235.250   12.217
  781.060  349.448   86.529  234.517   15.126
  781.310  349.992   76.921  233.005   16.191
  781.560  349.877   66.592  232.826   23.160
  781.810  353.160   55.122  232.171   28.202
  782.060  361.575   48.287  230.643   36.009
  782.310  371.680   40.239  229.362   44.211
  782.560  366.813   31.417  227.085   50.438
  782.810  361.634   30.384  225.631   50.345
  783.060  354.433   28.855  225.307   45.500
  783.310  359.725   28.722  225.872   40.666
  783.560  364.819   28.340  227.591   36.217
  783.810  365.223   26.093  228.984   30.188
  784.060  356.787   25.959  230.804   26.144
  784.310  340.021   28.044  231.491   24.065
  784.560  330.534   29.661  232.232   21.590
  784.810  327.372   29.942  232.257   17.536
  785.060  325.893   30.535  232.318   14.688
  785.310  325.191   29.924  232.610    8.669
  785.560  325.026   28.995  232.788   16.385
  785.810  324.656   28.376  232.860   15.569
  786.060  322.980   29.140  232.824   16.125
  786.310  320.274   28.939  232.789   16.994
  786.560  306.044   31.515  232.662   16.412
  786.810  250.167   29.275  232.639   14.616
  787.060  202.747   27.689  232.508   11.917
  787.310  183.118   27.911  231.362    9.454
  787.560  219.775   28.681  226.488    8.403
  787.810  251.355   23.598  225.786    7.899
  788.060  314.952   25.324  223.825    6.926
  788.310  320.234   27.604  219.844    6.541
  788.560  320.913   29.036  222.947    6.156
  788.810  324.116   28.842  223.121    5.850
  789.060  329.085   26.828  224.118    5.660
  789.310  328.977   29.345  224.201    5.589
  789.560  323.853   30.479  224.364    5.479
  789.810  322.381   30.403  224.441    5.368
  790.060  329.558   31.227  224.824    5.334
  790.310  335.959   31.573  224.488    5.301
  790.560  335.912   29.209  224.054    5.230
  790.810  331.429   27.557  224.026    5.119
  791.060  328.788   28.270  223.705    5.048
  791.310  326.343   30.124  223.564    4.938
  791.560  324.086   31.792  223.641    4.983
  791.810  322.417   33.649  223.610    5.147
  792.060  322.560   35.925  223.985    5.350
  792.310  323.949   38.863  224.056    5.553
  792.560  325.145   44.578  223.415    5.756
  792.810  323.849   46.656  221.341    6.037
  793.060  323.030   48.148  218.563    6.239
  793.310  322.209   47.597  219.659    6.520
  793.560  322.559   47.054  223.111    6.802
  793.810  326.155   45.050  227.776    7.005
  794.060  318.565   43.916  230.409    7.051
  794.310  295.937   44.825  230.271    6.784
  794.560  279.561   46.608  229.947    6.319
  794.810  302.160   42.857  229.813    5.974
  795.060  324.695   42.023  229.884    5.666
  795.310  335.260   44.098  229.650    5.242
  795.560  344.977   42.677  229.125    5.603
  795.810  350.265   40.095  229.078    5.844
  796.060  353.086   38.665  228.860    6.164
  796.310  353.230   38.996  229.138    5.897
  796.560  352.345   39.906  229.413    4.570
  796.810  345.209   45.475  230.196    4.107
  797.060  302.737   52.501  231.705    3.564
  797.310  415.787   61.279  234.023    3.022
  797.560  424.529   66.557  237.670    2.794
  797.810  427.997   69.505  242.852    3.155
  798.060  424.244   68.963  249.360    3.318
  798.310  410.275   67.546  242.284    3.599
  798.560  380.688   69.033  218.972    3.841
  798.810  398.081   70.234  186.356    4.082
  799.060  401.095   71.139  149.867    4.365
  799.310  389.144   72.344  151.678    4.411
  799.560  406.994   72.379  155.139    4.495
  799.810  426.532   70.967  156.525    4.619
  800.060  383.477   69.833  157.724    4.746
  800.310  376.207   68.121  157.082    4.790
  800.560  393.669   66.108  160.018    4.796
  800.810  382.040   63.526  167.139    4.844
