~VERSION INFORMATION
 VERS.                 2.0:   CWLS LOG ASCII STANDARD -VERSION 2.0
 WRAP.                  NO:   ONE LINE PER DEPTH STEP
~WELL INFORMATION BLOCK
#MNEM.UNIT           DATA                    DESCRIPTION OF MNEMONIC
#---------    -------------------            -------------------------------
# Generated from Intellog Unique Number	CW_70_72/WELL/620
NULL.         -999.25                        : NULL_VALUE
WELL.         SUNDANCE ET AL CALLS 06-11     : Well_name    - WELL              
LOC .         06-11-071-22W4                 : Location     - LOCATION          
UWI .         00/06-11-071-22W4/0            : Uwi          - UNIQUE WELL ID    
ENTR.         JAYE                           : Entered      - ENTERED BY        
SRVC.         SCHLUMBERGER                   : Scn          - SERVICE COMPANY   
DATE.         4 FEB 71                       : Date         - LOG DATE          
STRT.M        402.336                        : top_depth    - START DEPTH       
STOP.M        647.336                        : bot_depth    - STOP DEPTH        
STEP.M        0.25                           : increment    - STEP LENGTH       
~CURVE INFORMATION BLOCK
#MNEM UNIT       ERCB CURVE CODE    CURVE DESCRIPTION
#-----------   ------------------   ----------------------------------
DEPT.M        00 001 00 00         : DEPTH        - DEPTH                       
DPHI.V/V      00 890 00 00         : PHID         - DENSITY POROSITY (SANDSTONE)
NPHI.V/V      00 330 00 00         : PHIN         - NEUTRON POROSITY (SANDSTONE)
GR  .API      00 310 00 00         : GR           - GAMMA RAY                   
CALI.IN       00 280 01 00         : CAL          - CALIPER                     
ILD .OHMM     00 120 00 00         : RESD         - DEEP RESISTIVITY (DIL)      
~PARAMETER INFORMATION       
#MNEM.UNIT           DATA             DESCRIPTION OF MNEMONIC
#---------         -----------     ------------------------------
GL  .F        2232.5               : gl           - GROUND LEVEL ELEVATION      
EREF.F        2245                 : kb           - ELEVATION OF DEPTH REFERENCE
DATM.F        2232.5               : datum        - DATUM ELEVATION             
TDD .F        2156                 : tdd          - TOTAL DEPTH DRILLER         
RUN .         ONE                  : Run          - RUN NUMBER                  
ENG .         LANGTON/WILLIAMS     : Engineer     - RECORDING ENGINEER          
WIT .         GREENE               : Witness      - WITNESSED BY                
BASE.         EDM                  : Branch       - HOME BASE OF LOGGING UNIT   
MATR.         SANDSTONE            : Logunit      - NEUTRON MATRIX              
TMAX.C        24.4444              : BHT          - MAXIMUM RECORDED TEMPERATURE
BHTD.M        649.224              : BHTDEP       - MAXIMUM RECORDED TEMPERATURE
RMT .C        -17.7778             : MDTP         - TEMPERATURE OF MUD          
MUDD.KG/M     960                  : MWT          - MUD DENSITY                 
NEUT.         1                    : NEUTRON      - NEUTRON TYPE                
RESI.         0                    : RESIST       - RESISTIVITY TYPE            
RM  .OHMM     0                    : RM           - RESISTIVITY OF MUD          
RMC .OHMM     0                    : RMC          - RESISTIVITY OF MUD CAKE     
RMF .OHMM     0                    : RMF          - RESISTIVITY OF MUD FILTRATE 
SUFT.C        0                    : SUFT         - SURFACE TEMPERATURE         
~A  DEPTH     PHID     PHIN       GR      CAL     RESD
# ...
  511.836    0.321    0.436   60.622    7.019    2.873
  512.086    0.315    0.431   59.709    7.039    2.839
  512.336    0.316    0.424   59.099    7.039    2.817
  512.586    0.318    0.418   58.368    7.031    2.790
  512.836    0.323    0.415   57.697    7.014    2.752
  513.086    0.329    0.414   57.270    7.010    2.710
  513.336    0.341    0.418   57.633    7.006    2.660
  513.586    0.344    0.416   58.908    7.002    2.629
  513.836    0.335    0.412   60.244    7.002    2.560
  514.086    0.324    0.409   61.398    7.002    2.540
  514.336    0.327    0.408   62.187    7.001    2.548
  514.586    0.339    0.419   62.671    6.997    2.570
  514.836    0.339    0.433   62.973    7.001    2.626
  515.086    0.334    0.441   63.154    6.997    2.723
  515.336    0.331    0.453   63.153    6.989    2.691
  515.586    0.325    0.459   63.151    6.981    2.670
  515.836    0.341    0.457   63.089    6.976    2.673
  516.086    0.352    0.453   63.087    6.964    2.687
  516.336    0.359    0.448   63.024    6.944    2.680
  516.586    0.360    0.450   62.597    6.915    2.698
  516.836    0.351    0.456   61.319    6.911    2.757
  517.086    0.343    0.465   59.675    6.907    2.832
  517.336    0.332    0.461   59.552    6.899    2.867
  517.586    0.320    0.436   59.550    6.911    2.871
  517.836    0.322    0.424   58.941    6.915    2.838
  518.086    0.333    0.411   58.149    6.935    2.815
  518.336    0.341    0.426   57.053    6.756    2.793
  518.586    0.354    0.444   55.774    6.590    2.781
  518.836    0.352    0.447   54.556    6.805    2.749
  519.086    0.346    0.429   52.974    6.951    2.752
  519.336    0.342    0.421   52.242    6.898    2.741
  519.586    0.344    0.429   52.241    6.898    2.739
  519.836    0.357    0.439   52.969    6.906    2.742
  520.086    0.364    0.447   53.758    6.918    2.741
  520.336    0.355    0.447   55.276    6.946    2.755
  520.586    0.345    0.443   56.916    6.954    2.758
  520.836    0.338    0.440   58.617    6.966    2.751
  521.086    0.332    0.437   60.622    6.990    2.740
  521.336    0.325    0.436   62.444    7.027    2.718
  521.586    0.317    0.435   63.111    7.051    2.742
  521.836    0.320    0.434   62.866    7.071    2.785
  522.086    0.330    0.433   61.588    7.075    2.825
  522.336    0.340    0.431   58.668    7.067    2.903
  522.586    0.353    0.427   56.356    7.050    2.988
  522.836    0.348    0.425   55.928    7.034    3.104
  523.086    0.347    0.422   56.535    7.026    3.230
  523.336    0.353    0.416   56.776    7.030    3.399
  523.586    0.349    0.409   56.775    7.034    3.570
  523.836    0.345    0.402   56.469    7.034    3.777
  524.086    0.341    0.391   56.042    7.038    4.048
  524.336    0.335    0.388   55.736    7.001    4.444
  524.586    0.327    0.394   55.066    6.871    4.915
  524.836    0.315    0.380   52.996    6.839    5.545
  525.086    0.328    0.362   51.353    6.912    6.269
  525.336    0.328    0.389   52.324    7.033    7.165
  525.586    0.320    0.431   55.728    7.106    6.058
  525.836    0.302    0.431   58.766    7.061    4.981
  526.086    0.282    0.408   55.785    6.952    4.491
  526.336    0.244    0.368   54.689    6.858    4.335
  526.586    0.262    0.381   56.755    6.858    4.324
  526.836    0.288    0.391   59.124    6.951    4.369
  527.086    0.302    0.401   60.764    6.996    4.367
  527.336    0.308    0.412   61.796    6.996    4.340
  527.586    0.308    0.422   62.342    7.012    4.282
  527.836    0.295    0.397   62.583    7.004    4.233
  528.086    0.270    0.345   62.764    6.995    4.191
  528.336    0.248    0.320   63.370    6.983    4.181
  528.586    0.232    0.318   64.159    6.959    4.217
  528.836    0.217    0.360   66.529    6.959    4.055
  529.086    0.247    0.402   71.635    6.946    3.717
  529.336    0.241    0.425   76.619    6.942    3.272
  529.586    0.225    0.445   84.826    6.950    2.875
  529.836    0.256    0.449   79.534    6.950    2.734
  530.086    0.269    0.451   80.141    6.970    2.768
  530.336    0.286    0.462   83.665    7.002    2.833
  530.586    0.282    0.479   86.156    7.047    2.906
  530.836    0.262    0.488   88.283    7.091    2.964
  531.086    0.234    0.490   90.470    7.136    3.028
  531.336    0.216    0.493   92.353    7.176    3.111
  531.586    0.200    0.489   94.297    7.245    3.201
  531.836    0.204    0.474   96.242    7.277    3.376
  532.086    0.215    0.459   97.882    7.071    3.493
  532.336    0.223    0.452   96.725    6.860    3.635
  532.586    0.222    0.447   95.021    6.856    3.694
  532.836    0.220    0.440   93.195    6.868    3.598
  533.086    0.219    0.435   92.524    6.872    3.416
  533.336    0.215    0.430   91.489    6.863    3.351
  533.586    0.209    0.430   90.514    6.855    3.386
  533.836    0.211    0.435   88.871    6.823    3.511
  534.086    0.221    0.440   89.295    6.814    3.716
  534.336    0.230    0.444   91.056    6.855    3.867
  534.586    0.230    0.457   92.757    6.899    4.039
  534.836    0.236    0.478   92.270    6.988    4.210
  535.086    0.252    0.488   88.863    7.057    4.350
  535.336    0.266    0.501   83.815    6.996    4.245
  535.586    0.285    0.479   78.584    6.915    3.942
  535.836    0.311    0.452   69.766    6.878    3.639
  536.086    0.327    0.432   67.210    6.854    3.398
  536.336    0.306    0.434   69.702    6.842    3.297
  536.586    0.286    0.445   72.801    6.842    3.266
  536.836    0.266    0.446   76.569    6.842    3.282
  537.086    0.255    0.445   80.398    6.841    3.347
  537.336    0.253    0.442   83.558    6.837    3.419
  537.586    0.244    0.440   84.955    6.825    3.579
  537.836    0.236    0.440   84.892    6.813    3.690
  538.086    0.242    0.442   82.580    6.804    3.797
  538.336    0.255    0.443   83.004    6.796    3.960
  538.586    0.264    0.443   83.854    6.784    4.060
  538.836    0.274    0.443   84.399    6.776    4.165
  539.086    0.283    0.441   83.303    6.759    4.154
  539.336    0.276    0.438   80.079    6.755    4.077
  539.586    0.266    0.436   80.199    6.759    4.021
  539.836    0.256    0.438   80.988    6.755    3.997
  540.086    0.247    0.438   82.385    6.743    4.009
  540.336    0.234    0.435   83.964    6.751    4.037
  540.586    0.221    0.429   85.847    6.783    4.080
  540.836    0.217    0.427   88.460    6.840    4.146
  541.086    0.213    0.438   90.890    6.884    4.228
  541.336    0.208    0.439   89.916    6.904    4.303
  541.586    0.209    0.431   88.455    6.925    4.381
  541.836    0.212    0.423   86.690    6.941    4.419
  542.086    0.216    0.418   83.587    6.953    4.448
  542.336    0.244    0.418   77.688    6.965    4.333
  542.586    0.282    0.422   70.451    6.969    4.098
  542.836    0.303    0.428   63.821    6.952    3.783
  543.086    0.325    0.433   57.314    6.936    3.318
  543.336    0.336    0.436   56.643    6.924    3.003
  543.586    0.341    0.432   58.648    6.924    2.677
  543.836    0.345    0.429   60.167    6.940    2.468
  544.086    0.349    0.444   60.287    6.952    2.373
  544.336    0.352    0.449   59.312    6.956    2.316
  544.586    0.353    0.446   58.702    6.948    2.297
  544.836    0.348    0.436   59.309    6.939    2.326
  545.086    0.330    0.423   59.611    6.911    2.372
  545.336    0.271    0.406   58.636    6.894    2.464
  545.586    0.236    0.380   55.595    6.878    2.690
  545.836    0.205    0.344   52.492    6.866    3.069
  546.086    0.188    0.279   52.977    6.862    3.619
  546.336    0.186    0.265   55.651    6.862    4.561
  546.586    0.238    0.290   58.628    6.862    5.156
  546.836    0.289    0.403   61.302    6.894    4.666
  547.086    0.315    0.446   61.422    6.930    4.277
  547.336    0.334    0.449   60.630    6.946    3.683
  547.586    0.342    0.433   60.020    6.950    3.171
  547.836    0.333    0.426   59.471    6.946    2.907
  548.086    0.324    0.434   59.834    6.950    3.163
