~VERSION INFORMATION
 VERS.                 2.0:   CWLS LOG ASCII STANDARD -VERSION 2.0
 WRAP.                  NO:   ONE LINE PER DEPTH STEP
~WELL INFORMATION BLOCK
#MNEM.UNIT           DATA                    DESCRIPTION OF MNEMONIC
#---------    -------------------            -------------------------------
# Generated from Intellog Unique Number	CW_73_75/WELL/702
WELL.         MIAMI AMOCO MARTEN HILLS 07-19 : Well_name    - WELL
LOC .         00/07-19-074-01W5/0            : Location     - LOCATION
UWI .         00/07-19-074-01W5/0            : Uwi          - UNIQUE WELL ID
ENTR.         JAYE                           : Entered      - ENTERED BY
SRVC.         SCHLUMBERGER                   : Scn          - SERVICE COMPANY
DATE.         2 FEB 74                       : Date         - LOG DATE
STRT.M        420.624                        : top_depth    - START DEPTH
STOP.M        633.874                        : bot_depth    - STOP DEPTH
STEP.M        0.25                           : increment    - STEP LENGTH
 NULL. -999.2500:NULL Value
~CURVE INFORMATION BLOCK
#MNEM UNIT       ERCB CURVE CODE    CURVE DESCRIPTION
#-----------   ------------------   ----------------------------------
DEPT.M        00 001 00 00         : DEPTH        - DEPTH
ILD .OHMM     00 120 00 00         : RESD         - DEEP RESISTIVITY (DIL)
NPHI.V/V      00 330 00 00         : PHIN         - NEUTRON POROSITY (SANDSTONE)
DPHI.V/V      00 890 00 00         : PHID         - DENSITY POROSITY (SANDSTONE)
GR  .API      00 310 00 00         : GR           - GAMMA RAY
CALI.MM       00 280 01 00         : CAL          - CALIPER
~PARAMETER INFORMATION
#MNEM.UNIT           DATA             DESCRIPTION OF MNEMONIC
#---------         -----------     ------------------------------
GL  .M        673.608              : gl           - GROUND LEVEL ELEVATION
EREF.M        677.57               : kb           - ELEVATION OF DEPTH REFERENCE
DATM.M        673.608              : datum        - DATUM ELEVATION
TDD .M        639.166              : tdd          - TOTAL DEPTH DRILLER
RUN .         ONE                  : Run          - RUN NUMBER
ENG .         WILLIGER             : Engineer     - RECORDING ENGINEER
WIT .         RUDD                 : Witness      - WITNESSED BY
BASE.         RD                   : Branch       - HOME BASE OF LOGGING UNIT
MUD .         GEL CHEM             : Mud_type     - MUD TYPE
MATR.         SANDSTONE            : Logunit      - NEUTRON MATRIX
TMAX.C        25                   : BHT          - MAXIMUM RECORDED TEMPERATURE
BHTD.M        637.946              : BHTDEP       - MAXIMUM RECORDED TEMPERATURE
RMT .C        20                   : MDTP         - TEMPERATURE OF MUD
MUDD.KG/M     1164                 : MWT          - MUD DENSITY
NEUT.         1                    : NEUTRON      - NEUTRON TYPE
RESI.         0                    : RESIST       - RESISTIVITY TYPE
RM  .OHMM     2.38                 : RM           - RESISTIVITY OF MUD
RMC .OHMM     0                    : RMC          - RESISTIVITY OF MUD CAKE
RMF .OHMM     1.89                 : RMF          - RESISTIVITY OF MUD FILTRATE
SUFT.C        -17.7778             : SUFT         - SURFACE TEMPERATURE
~A  DEPTH     RESD     PHIN     PHID       GR      CAL
# ...
  457.124    3.735    0.506    0.282   80.948  167.726
  457.374    3.757    0.511    0.300   81.311  165.363
  457.624    3.772    0.506    0.288   81.249  165.460
  457.874    3.753    0.508    0.263   83.131  166.075
  458.124    3.747    0.521    0.252   86.032  167.095
  458.374    3.687    0.521    0.246   91.918  168.018
  458.624    3.757    0.519    0.235   94.823  168.322
  458.874    3.717    0.518    0.230   93.788  168.521
  459.124    3.597    0.518    0.242   92.754  168.821
  459.374    3.454    0.515    0.227   99.370  169.032
  459.624    3.209    0.515    0.228  104.035  169.740
  459.874    2.932    0.526    0.238  110.277  171.173
  460.124    2.669    0.539    0.244  115.369  172.409
  460.374    2.425    0.559    0.267  118.884  173.627
  460.624    2.212    0.560    0.284  121.915  174.954
  460.874    2.025    0.565    0.273  121.793  178.235
  461.124    1.927    0.568    0.268  115.966  179.162
  461.374    1.882    0.572    0.271  109.837  178.123
  461.624    1.900    0.571    0.267  103.345  176.901
  461.874    1.972    0.573    0.255   94.486  175.754
  462.124    2.128    0.567    0.275   85.443  172.566
  462.374    2.293    0.555    0.296   71.430  169.487
  462.624    2.447    0.538    0.299   57.596  168.251
  462.874    2.655    0.539    0.308   52.258  167.436
  463.124    2.834    0.541    0.321   53.769  167.100
  463.374    3.030    0.505    0.333   56.131  167.207
  463.624    3.123    0.493    0.338   57.589  167.513
  463.874    3.170    0.502    0.304   58.494  167.810
  464.124    3.201    0.513    0.295   58.735  167.909
  464.374    3.238    0.520    0.292   58.427  168.133
  464.624    3.263    0.487    0.282   60.606  168.320
  464.874    3.301    0.474    0.290   59.032  168.404
  465.124    3.339    0.481    0.300   58.421  168.941
  465.374    3.340    0.493    0.297   58.720  169.011
  465.624    3.342    0.495    0.288   59.991  168.704
  465.874    3.343    0.487    0.290   61.632  167.674
  466.124    3.369    0.459    0.310   62.289  166.947
  466.374    3.401    0.470    0.298   62.651  168.385
  466.624    3.409    0.484    0.296   62.833  169.503
  466.874    3.423    0.500    0.298   62.710  169.194
  467.124    3.405    0.485    0.298   62.338  168.371
  467.374    3.413    0.463    0.308   61.365  168.060
  467.624    3.420    0.443    0.297   58.148  168.159
  467.874    3.390    0.441    0.285   55.172  168.769
  468.124    3.379    0.446    0.289   53.476  169.703
  468.374    3.367    0.454    0.268   54.622  170.208
  468.624    3.413    0.473    0.266   56.681  169.875
  468.874    3.490    0.489    0.287   60.748  169.370
  469.124    3.610    0.485    0.300   62.803  168.736
  469.374    3.796    0.472    0.272   62.318  168.221
  469.624    4.204    0.456    0.253   61.767  169.244
  469.874    4.868    0.421    0.203   63.101  170.370
  470.124    5.361    0.344    0.163   64.553  171.388
  470.374    5.927    0.370    0.170   66.368  171.497
  470.624    5.940    0.424    0.203   69.036  170.354
  470.874    5.407    0.466    0.235   70.486  168.815
  471.124    4.708    0.500    0.276   71.152  168.086
  471.374    4.018    0.518    0.292   71.701  167.784
  471.624    3.623    0.561    0.285   72.178  167.876
  471.874    3.360    0.551    0.274   71.206  167.659
  472.124    3.293    0.525    0.278   69.320  167.450
  472.374    3.210    0.511    0.277   67.442  167.342
  472.624    3.351    0.500    0.259   66.405  167.543
  472.874    3.518    0.474    0.242   67.433  168.466
  473.124    3.720    0.452    0.210   71.737  170.000
  473.374    3.890    0.392    0.207   75.374  171.744
  473.624    3.906    0.435    0.287   70.579  171.840
  473.874    3.786    0.490    0.305   66.147  169.779
  474.124    3.610    0.507    0.299   67.242  166.703
  474.374    3.429    0.507    0.300   69.603  164.954
  474.624    3.312    0.504    0.284   69.359  164.735
  474.874    3.222    0.493    0.305   69.111  164.636
  475.124    3.170    0.498    0.295   70.262  164.532
  475.374    3.160    0.522    0.270   72.015  164.739
  475.624    3.184    0.541    0.266   73.351  165.138
  475.874    3.227    0.562    0.284   74.076  165.555
  476.124    3.253    0.557    0.289   75.103  165.630
  476.374    3.254    0.534    0.264   76.614  165.433
  476.624    3.231    0.537    0.249   80.496  165.529
  476.874    3.191    0.555    0.238   84.072  165.528
  477.124    3.139    0.534    0.239   87.587  165.718
  477.374    3.071    0.541    0.244   86.132  166.125
  477.624    2.983    0.556    0.223   84.610  167.561
  477.874    2.929    0.573    0.256   81.875  168.987
  478.124    2.936    0.587    0.306   77.749  170.526
  478.374    3.047    0.597    0.432   72.955  172.895
  478.624    3.264    0.602    0.585   66.702  173.803
  478.874    4.047    0.599    0.616   60.027  174.012
  479.124    5.712    0.595    0.628   54.688  171.953
  479.374    8.825    0.591    0.605   59.780  170.202
  479.624   11.481    0.595    0.544   67.666  170.310
  479.874   10.726    0.596    0.274   82.157  171.219
  480.124    9.117    0.590    0.225   96.105  172.748
  480.374    6.635    0.503    0.235   95.315  173.159
  480.624    5.011    0.522    0.254   94.953  172.845
  480.874    4.707    0.535    0.237   92.463  171.295
  481.124    4.841    0.532    0.252   88.088  169.450
  481.374    5.312    0.501    0.272   83.297  167.902
  481.624    5.597    0.510    0.272   79.045  166.967
  481.874    5.568    0.527    0.283   77.164  166.052
  482.124    5.378    0.536    0.283   83.347  165.955
  482.374    5.261    0.544    0.272   84.071  165.927
  482.624    5.177    0.552    0.287   79.943  166.033
  482.874    5.159    0.542    0.304   74.968  166.130
  483.124    5.180    0.540    0.315   75.087  166.031
  483.374    5.259    0.560    0.316   80.845  165.602
  483.624    5.203    0.587    0.301   78.355  164.902
  483.874    5.129    0.604    0.298   72.955  164.680
  484.124    5.074    0.622    0.306   73.315  164.765
  484.374    5.095    0.634    0.316   77.558  164.575
  484.624    5.135    0.603    0.324   76.648  164.970
  484.874    5.137    0.575    0.316   77.018  165.272
  485.124    5.129    0.571    0.300   78.279  165.070
  485.374    5.056    0.573    0.276   80.581  164.950
  485.624    4.928    0.560    0.256   82.950  165.660
  485.874    4.742    0.538    0.240   84.647  168.020
  486.124    4.665    0.533    0.197   87.553  169.160
  486.374    4.624    0.523    0.190   93.855  170.070
  486.624    4.652    0.531    0.193   97.614  170.881
  486.874    4.705    0.528    0.213   96.702  170.261
  487.124    4.759    0.520    0.204   99.552  168.818
  487.374    4.797    0.513    0.205   98.276  167.169
  487.624    4.888    0.504    0.213   94.994  169.238
  487.874    5.055    0.510    0.168   90.987  170.347
  488.124    5.316    0.502    0.153   98.266  171.470
  488.374    5.622    0.469    0.129   96.083  171.989
  488.624    6.112    0.341    0.085   91.160  172.807
  488.874    6.392    0.322    0.094   86.790  173.519
  489.124    6.648    0.343    0.114   88.671  173.919
  489.374    6.516    0.374    0.147   91.759  173.739
  489.624    6.133    0.437    0.164   96.731  173.804
  489.874    5.572    0.472    0.178   99.701  173.619
  490.124    5.234    0.493    0.189  101.881  173.704
  490.374    4.991    0.510    0.187  103.824  173.896
  490.624    4.793    0.524    0.190  105.093  174.000
  490.874    4.690    0.534    0.187  106.973  173.786
  491.124    4.623    0.545    0.184  108.603  173.675
  491.374    4.599    0.557    0.165  110.727  173.776
  491.624    4.575    0.570    0.169  110.660  173.577
  491.874    4.602    0.584    0.179  108.787  173.358
  492.124    4.604    0.567    0.187  107.744  173.354
  492.374    4.572    0.530    0.204  106.955  172.329
  492.624    4.565    0.498    0.215  104.401  171.702
  492.874    4.550    0.487    0.206  101.003  171.080
  493.124    4.585    0.488    0.206  100.217  170.969
  493.374    4.647    0.514    0.190   99.419  170.977
