~VERSION INFORMATION
 VERS.                 2.0:   CWLS LOG ASCII STANDARD -VERSION 2.0
 WRAP.                  NO:   ONE LINE PER DEPTH STEP
~WELL INFORMATION BLOCK
#MNEM.UNIT           DATA                    DESCRIPTION OF MNEMONIC
#---------    -------------------            -------------------------------
# Generated from Intellog Unique Number	CS_77_79/WELL/900
WELL.         DOME PETROLEUM LIMITED         : Well_name    - WELL
LOC .         00/07-19-077-16W4/0            : Location     - LOCATION
UWI .         00/07-19-077-16W4/0            : Uwi          - UNIQUE WELL ID
ENTR.         SP                             : Entered      - ENTERED BY
SRVC.         SCHLUMBERGER                   : Scn          - SERVICE COMPANY
STRT.M        240                            : top_depth    - START DEPTH
STOP.M        460                            : bot_depth    - STOP DEPTH
STEP.M        0.25                           : increment    - STEP LENGTH
 NULL. -999.2500:NULL Value
~CURVE INFORMATION BLOCK
#MNEM UNIT       ERCB CURVE CODE    CURVE DESCRIPTION
#-----------   ------------------   ----------------------------------
DEPT.M        00 001 00 00         : DEPTH        - DEPTH
ILD .OHMM     00 120 00 00         : RESD         - DEEP RESISTIVITY (DIL)
DPHI.V/V      00 890 00 00         : PHID         - DENSITY POROSITY (LIMESTONE)
NPHI.V/V      00 330 00 00         : PHIN         - NEUTRON POROSITY (LIMESTONE)
GR  .API      00 310 00 00         : GR           - GAMMA RAY
~PARAMETER INFORMATION
#MNEM.UNIT           DATA             DESCRIPTION OF MNEMONIC
#---------         -----------     ------------------------------
GL  .M        624.8                : gl           - GROUND LEVEL ELEVATION
EREF.M        628.94               : kb           - ELEVATION OF DEPTH REFERENCE
DATM.M        624.8                : datum        - DATUM ELEVATION
TDD .M        467                  : tdd          - TOTAL DEPTH DRILLER
RUN .         ONE                  : Run          - RUN NUMBER
ENG .         BILL                 : Engineer     - RECORDING ENGINEER
WIT .         JIM                  : Witness      - WITNESSED BY
MUD .         GEL                  : Mud_type     - MUD TYPE
MATR.         LIMESTONE            : Logunit      - NEUTRON MATRIX
TMAX.C        21                   : BHT          - MAXIMUM RECORDED TEMPERATURE
BHTD.M        467                  : BHTDEP       - MAXIMUM RECORDED TEMPERATURE
MATR.         1                    : LOGUNIT      - NEUTRON MATRIX
RMT .C        25                   : MDTP         - TEMPERATURE OF MUD
NEUT.         1                    : NEUTRON      - NEUTRON TYPE
RESI.         0                    : RESIST       - RESISTIVITY TYPE
RMC .OHMM     0.25                 : RMC          - RESISTIVITY OF MUD CAKE
RMF .OHMM     0.25                 : RMF          - RESISTIVITY OF MUD FILTRATE
SUFT.C        15                   : SUFT         - SURFACE TEMPERATURE
~A  DEPTH     RESD     PHID     PHIN       GR
# ...
  327.000   10.358    0.338    0.404   56.888
  327.250   10.560    0.333    0.401   55.074
  327.500   10.566    0.329    0.406   54.484
  327.750   10.570    0.326    0.407   54.495
  328.000   10.575    0.322    0.410   55.121
  328.250   10.782    0.320    0.421   56.350
  328.500   10.993    0.322    0.429   57.589
  328.750   10.999    0.333    0.421   58.825
  329.000   11.210    0.335    0.419   58.834
  329.250   10.804    0.321    0.417   60.067
  329.500   10.413    0.330    0.412   58.255
  329.750   10.227    0.340    0.409   57.055
  330.000   10.041    0.329    0.400   56.459
  330.250    9.322    0.323    0.390   57.077
  330.500    8.654    0.328    0.380   59.530
  330.750    8.186    0.321    0.378   63.818
  331.000    7.458    0.319    0.379   63.832
  331.250    7.055    0.325    0.385   62.623
  331.500    7.058    0.320    0.393   63.249
  331.750    7.332    0.316    0.404   63.262
  332.000    7.475    0.324    0.413   64.502
  332.250    7.764    0.319    0.431   65.123
  332.500    7.913    0.308    0.454   66.360
  332.750    8.534    0.303    0.474   67.592
  333.000    7.922    0.302    0.475   69.435
  333.250    6.697    0.300    0.450   71.888
  333.500    5.878    0.302    0.436   74.342
  333.750    5.457    0.309    0.433   75.575
  334.000    5.066    0.298    0.439   76.198
  334.250    9.056    0.285    0.452   74.994
  334.500   10.723    0.267    0.462   73.177
  334.750   13.431    0.228    0.461   71.978
  335.000   16.823    0.159    0.444   73.817
  335.250   19.189    0.098    0.370   78.709
  335.500   18.151    0.044    0.178   74.456
  335.750   15.931    0.013    0.146   67.767
  336.000   12.972    0.079    0.136   65.948
  336.250   10.367    0.111    0.153   61.085
  336.500    9.100    0.132    0.176   64.760
  336.750    8.138    0.165    0.204   70.259
  337.000    7.553    0.198    0.266   79.423
  337.250    6.883    0.215    0.345   83.712
  337.500    6.510    0.231    0.429   86.160
  337.750    6.045    0.215    0.454   89.831
  338.000    5.934    0.204    0.475   91.674
  338.250    5.614    0.209    0.495   92.302
  338.500    5.512    0.214    0.497   92.325
  338.750    5.414    0.223    0.467   92.946
  339.000    5.315    0.215    0.455   92.956
  339.250    5.221    0.217    0.461   93.580
  339.500    5.223    0.223    0.462   93.591
  339.750    5.225    0.211    0.478   96.046
  340.000    5.228    0.203    0.491   98.503
  340.250    5.135    0.229    0.503  100.952
  340.500    5.137    0.238    0.502  104.020
  340.750    5.044    0.240    0.491  103.421
  341.000    5.046    0.249    0.486  101.002
  341.250    5.050    0.260    0.480   98.575
  341.500    5.053    0.263    0.485   96.759
  341.750    5.055    0.263    0.493   96.774
  342.000    5.153    0.266    0.498   96.791
  342.250    5.252    0.256    0.492   96.192
  342.500    5.457    0.249    0.480   94.989
  342.750    5.562    0.258    0.471   95.001
  343.000    5.670    0.248    0.481   93.187
  343.250    5.674    0.268    0.493   90.767
  343.500    5.571    0.281    0.498   89.556
  343.750    5.574    0.291    0.499   87.741
  344.000    5.577    0.301    0.484   87.758
  344.250    5.477    0.298    0.469   89.603
  344.500    5.278    0.293    0.463   90.223
  344.750    4.992    0.288    0.470   90.238
  345.000    4.548    0.275    0.475   87.814
  345.250    3.774    0.271    0.478   86.003
  345.500    3.191    0.266    0.481   85.405
  345.750    2.800    0.277    0.498   86.641
  346.000    2.367    0.281    0.522   88.481
  346.250    2.078    0.287    0.565   93.983
  346.500    2.003    0.291    0.590  101.315
  346.750    2.003    0.297    0.617  103.772
  347.000    2.005    0.303    0.628  103.785
  347.250    2.202    0.293    0.630  106.242
  347.500    2.657    0.294    0.637  109.308
  347.750    2.920    0.288    0.629  109.927
  348.000    3.090    0.280    0.617  109.940
  348.250    3.333    0.269    0.608  108.124
  348.500    3.334    0.259    0.595  104.480
  348.750    3.399    0.250    0.559   99.618
  349.000    3.337    0.234    0.528   97.192
  349.250    3.157    0.225    0.512   95.987
  349.500    2.986    0.229    0.514   99.051
  349.750    3.044    0.239    0.534   97.847
  350.000    3.221    0.255    0.554   92.987
  350.250    3.539    0.262    0.580   93.001
  350.500    3.962    0.273    0.571   93.620
  350.750    4.436    0.289    0.538   95.465
  351.000    4.694    0.306    0.499   96.090
  351.250    5.255    0.316    0.479   93.666
  351.500    5.775    0.327    0.465   88.808
  351.750    5.886    0.341    0.467   86.377
  352.000    6.113    0.346    0.464   82.733
  352.250    6.352    0.339    0.456   78.478
  352.500    6.355    0.334    0.458   74.834
  352.750    6.478    0.340    0.475   74.854
  353.000    6.481    0.346    0.481   74.863
  353.250    6.607    0.348    0.475   73.055
  353.500    6.610    0.345    0.463   71.848
  353.750    6.739    0.345    0.450   70.643
  354.000    6.743    0.342    0.443   70.657
  354.250    6.746    0.332    0.433   70.672
  354.500    6.624    0.330    0.418   70.685
  354.750    6.627    0.342    0.411   73.140
  355.000    6.509    0.346    0.431   74.984
  355.250    6.513    0.342    0.447   76.831
  355.500    6.515    0.348    0.465   76.837
  355.750    6.641    0.343    0.472   75.022
  356.000    7.029    0.333    0.483   74.427
  356.250    7.439    0.328    0.479   75.057
  356.500    8.023    0.331    0.467   75.070
  356.750    8.333    0.331    0.471   75.085
  357.000    8.337    0.314    0.478   74.487
  357.250    8.341    0.305    0.460   74.505
  357.500    7.891    0.298    0.440   74.516
  357.750    7.463    0.297    0.415   73.309
  358.000    7.060    0.309    0.395   69.059
  358.250    6.932    0.328    0.403   68.461
  358.500    6.681    0.342    0.432   72.752
  358.750    6.562    0.349    0.444   74.591
  359.000    6.565    0.340    0.446   76.433
  359.250    6.446    0.334    0.438   78.281
  359.500    6.329    0.329    0.434   78.291
  359.750    6.332    0.337    0.447   79.537
  360.000    6.336    0.341    0.449   80.771
  360.250    6.340    0.345    0.442   81.391
  360.500    6.344    0.338    0.436   82.621
  360.750    6.346    0.328    0.440   83.242
  361.000    6.350    0.334    0.450   84.478
  361.250    6.352    0.322    0.467   83.272
  361.500    6.356    0.314    0.467   82.067
  361.750    6.360    0.307    0.450   82.079
  362.000    6.362    0.296    0.420   82.704
  362.250    6.487    0.284    0.434   85.158
  362.500    6.489    0.271    0.437   87.004
  362.750    6.617    0.272    0.430   88.848
  363.000    6.745    0.275    0.441   88.862
  363.250    6.749    0.273    0.447   88.266
  363.500    6.881    0.266    0.455   89.502
  363.750    6.883    0.256    0.451   91.349
  364.000    6.888    0.255    0.433   92.576
  364.250    6.890    0.259    0.425   92.591
  364.500    6.895    0.265    0.418   90.780
  364.750    6.646    0.272    0.410   90.186
  365.000    6.524    0.275    0.405   89.587
  365.250    6.289    0.278    0.421   90.212
  365.500    6.175    0.269    0.442   92.054
  365.750    6.063    0.254    0.475   94.507
  366.000    5.956    0.243    0.490   96.352
  366.250    5.848    0.230    0.498   96.371
  366.500    5.851    0.228    0.486   96.990
  366.750    5.853    0.226    0.468   98.835
  367.000    5.747    0.226    0.457   99.457
  367.250    5.752    0.230    0.453   99.477
  367.500    5.755    0.232    0.457   98.877
  367.750    5.866    0.226    0.456   98.287
  368.000    5.869    0.219    0.451   98.296
  368.250    5.872    0.215    0.477   97.091
  368.500    5.874    0.214    0.489   96.499
  368.750    5.990    0.213    0.495   95.300
  369.000    5.993    0.211    0.500   94.093
  369.250    5.995    0.210    0.488   92.888
  369.500    5.999    0.209    0.488   92.289
  369.750    6.001    0.209    0.494   92.312
  370.000    5.677    0.211    0.494   92.933
  370.250    5.371    0.206    0.475   93.552
