~VERSION INFORMATION
 VERS.                 2.0:   CWLS LOG ASCII STANDARD -VERSION 2.0
 WRAP.                  NO:   ONE LINE PER DEPTH STEP
~WELL INFORMATION BLOCK
#MNEM.UNIT           DATA                    DESCRIPTION OF MNEMONIC
#---------    -------------------            -------------------------------
# Generated from Intellog Unique Number	CW_70_72/WELL/3003
NULL.         -999.25                        : NULL_VALUE
WELL.         BRASCAN ET AL MEYER 04-11      : Well_name    - WELL              
LOC .         04-11-070-25W4                 : Location     - LOCATION          
UWI .         00/04-11-070-25W4/0            : Uwi          - UNIQUE WELL ID    
ENTR.         J                              : Entered      - ENTERED BY        
SRVC.         WESTERN ATLAS                  : Scn          - SERVICE COMPANY   
DATE.         27 JULY 80                     : Date         - LOG DATE          
STRT.M        485                            : top_depth    - START DEPTH       
STOP.M        685                            : bot_depth    - STOP DEPTH        
STEP.M        0.25                           : increment    - STEP LENGTH       
~CURVE INFORMATION BLOCK
#MNEM UNIT       ERCB CURVE CODE    CURVE DESCRIPTION
#-----------   ------------------   ----------------------------------
DEPT.M        00 001 00 00         : DEPTH        - DEPTH                       
ILD .OHMM     00 120 00 00         : RESD         - DEEP RESISTIVITY (DIL)      
CALI.MM       00 280 01 00         : CAL          - CALIPER                     
GR  .API      00 310 00 00         : GR           - GAMMA RAY                   
NPHI.V/V      00 330 00 00         : PHIN         - NEUTRON POROSITY (SANDSTONE)
DPHI.V/V      00 890 00 00         : PHID         - DENSITY POROSITY (SANDSTONE)
~PARAMETER INFORMATION       
#MNEM.UNIT           DATA             DESCRIPTION OF MNEMONIC
#---------         -----------     ------------------------------
GL  .M        670.9                : gl           - GROUND LEVEL ELEVATION      
EREF.M        674.46               : kb           - ELEVATION OF DEPTH REFERENCE
DATM.M        670.9                : datum        - DATUM ELEVATION             
TDD .M        726                  : tdd          - TOTAL DEPTH DRILLER         
RUN .         ONE                  : Run          - RUN NUMBER                  
ENG .         WEBER                : Engineer     - RECORDING ENGINEER          
WIT .         GOULD                : Witness      - WITNESSED BY                
MUD .         GEL CHEMX            : Mud_type     - MUD TYPE                    
MATR.         SANDSTONE            : Logunit      - NEUTRON MATRIX              
TMAX.C        35                   : BHT          - MAXIMUM RECORDED TEMPERATURE
BHTD.M        728.1                : BHTDEP       - MAXIMUM RECORDED TEMPERATURE
RMT .C        12                   : MDTP         - TEMPERATURE OF MUD          
MUDD.KG/M     9.5                  : MWT          - MUD DENSITY                 
NEUT.         1                    : NEUTRON      - NEUTRON TYPE                
RESI.         0                    : RESIST       - RESISTIVITY TYPE            
RM  .OHMM     3.9                  : RM           - RESISTIVITY OF MUD          
RMC .OHMM     4.5                  : RMC          - RESISTIVITY OF MUD CAKE     
RMF .OHMM     3.2                  : RMF          - RESISTIVITY OF MUD FILTRATE 
SUFT.C        0                    : SUFT         - SURFACE TEMPERATURE         
~A  DEPTH     RESD      CAL       GR     PHIN     PHID
# ...
  631.000    3.445  163.043   64.412    0.374    0.257
  631.250    3.383  163.325   63.899    0.371    0.248
  631.500    3.371  163.394   64.555    0.368    0.240
  631.750    3.436  162.234   66.013    0.365    0.229
  632.000    3.554  158.810   64.265    0.363    0.221
  632.250    3.710  160.624   63.569    0.360    0.221
  632.500    3.984  165.309   65.394    0.357    0.220
  632.750    4.159  166.294   67.102    0.351    0.214
  633.000    4.507  165.754   69.912    0.346    0.203
  633.250    4.507  163.048   72.295    0.337    0.188
  633.500    5.691  162.500   70.489    0.321    0.175
  633.750    6.133  165.135   60.118    0.309    0.159
  634.000    6.393  166.438   55.109    0.303    0.145
  634.250    6.393  165.476   57.612    0.312    0.158
  634.500    6.230  160.107   60.114    0.324    0.174
  634.750    5.753  162.328   61.946    0.334    0.183
  635.000    5.176  163.012   65.128    0.343    0.191
  635.250    4.896  160.102   67.511    0.351    0.195
  635.500    4.676  161.096   66.998    0.351    0.190
  635.750    4.582  163.522   67.897    0.342    0.185
  636.000    4.566  164.819   69.413    0.335    0.176
  636.250    4.671  165.302   71.306    0.332    0.169
  636.500    4.813  165.273   74.674    0.335    0.160
  636.750    5.187  165.126   73.546    0.332    0.155
  637.000    5.845  165.099   67.856    0.321    0.148
  637.250    6.334  164.645   62.474    0.306    0.140
  637.500    6.725  164.614   58.206    0.296    0.128
  637.750    6.866  164.381   55.165    0.304    0.115
  638.000    6.495  164.858   58.164    0.323    0.103
  638.250    5.931  166.774   64.612    0.342    0.122
  638.500    5.426  169.615   68.164    0.358    0.139
  638.750    5.038  170.190   70.114    0.375    0.152
  639.000    4.740  168.420   70.094    0.382    0.167
  639.250    4.689  164.785   69.641    0.376    0.173
  639.500    4.769  165.579   69.004    0.369    0.166
  639.750    4.988  167.902   68.921    0.361    0.157
  640.000    5.560  168.791   68.534    0.353    0.146
  640.250    5.458  168.965   65.372    0.346    0.132
  640.500    5.688  168.622   68.738    0.342    0.124
  640.750    5.797  169.301   73.644    0.338    0.132
  641.000    5.681  169.467   74.179    0.333    0.140
  641.250    5.455  169.438   70.645    0.330    0.133
  641.500    5.296  169.511   72.538    0.335    0.132
  641.750    5.200  169.371   77.254    0.349    0.149
  642.000    5.115  168.920   79.823    0.364    0.168
  642.250    4.995  168.682   81.592    0.366    0.180
  642.500    4.941  168.346   83.356    0.359    0.189
  642.750    4.934  168.313   84.073    0.357    0.191
  643.000    4.954  166.839   84.050    0.358    0.187
  643.250    4.992  163.414   83.474    0.363    0.178
  643.500    5.040  162.049   82.228    0.372    0.169
  643.750    5.051  164.573   76.169    0.370    0.160
  644.000    5.100  166.695   73.868    0.360    0.151
  644.250    5.158  167.897   77.665    0.356    0.163
  644.500    5.306  167.660   79.307    0.363    0.168
  644.750    5.592  166.906   79.167    0.369    0.168
  645.000    5.827  165.323   76.619    0.359    0.165
  645.250    6.106  163.955   73.023    0.338    0.158
  645.500    6.630  163.106   70.664    0.311    0.145
  645.750    6.935  161.525   69.289    0.298    0.129
  646.000    7.120  160.161   70.868    0.295    0.109
  646.250    6.978  162.279   74.299    0.309    0.110
  646.500    6.651  165.629   78.407    0.331    0.136
  646.750    5.917  166.831   79.371    0.335    0.151
  647.000    5.043  166.798   77.995    0.328    0.146
  647.250    4.005  166.970   74.275    0.323    0.139
  647.500    2.616  167.138   73.761    0.321    0.136
  647.750    2.017  167.209   74.173    0.321    0.134
  648.000    1.372  166.867   75.507    0.328    0.126
  648.250    0.975  166.424   78.259    0.342    0.133
  648.500    0.685  165.863   81.378    0.353    0.153
  648.750    0.471  165.940   84.562    0.363    0.163
  649.000    0.508  166.212   89.036    0.365    0.172
  649.250    0.803  166.280   92.215    0.357    0.168
  649.500    1.300  166.146   93.678    0.351    0.163
  649.750    1.313  165.892   93.475    0.341    0.155
  650.000    0.789  166.373   87.294    0.334    0.148
  650.250    0.403  166.855   81.298    0.332    0.143
  650.500    0.276  167.645   77.828    0.331    0.142
  650.750    0.348  168.534   77.868    0.333    0.142
  651.000    1.110  168.610   79.508    0.345    0.150
  651.250    2.351  168.465   80.231    0.359    0.161
  651.500    2.729  168.233   82.055    0.372    0.174
  651.750    2.908  167.986   84.377    0.389    0.190
  652.000    2.975  167.743   89.840    0.416    0.202
  652.250    2.888  167.402   95.360    0.435    0.213
  652.500    2.789  167.402   96.020    0.418    0.203
  652.750    2.678  167.402   88.666    0.395    0.180
  653.000    2.510  167.802   82.056    0.369    0.153
  653.250    2.343  167.683   73.161    0.327    0.134
  653.500    2.148  167.683   68.155    0.277    0.113
  653.750    2.109  167.689   61.603    0.254    0.092
  654.000    2.133  167.983   58.751    0.242    0.088
  654.250    2.346  168.364   63.716    0.259    0.086
  654.500    2.719  168.364   70.593    0.278    0.116
  654.750    3.306  169.621   77.291    0.315    0.134
  655.000    4.006  169.906   80.842    0.334    0.145
  655.250    4.642  169.769   81.684    0.354    0.148
  655.500    4.920  167.268   82.771    0.368    0.153
  655.750    4.894  164.977   84.355    0.384    0.163
  656.000    4.664  165.346   89.445    0.391    0.173
  656.250    4.470  166.963   91.581    0.387    0.183
  656.500    4.332  169.284   91.868    0.377    0.184
  656.750    4.238  170.176   90.858    0.373    0.180
  657.000    4.223  169.424   89.176    0.377    0.169
  657.250    4.225  166.821   87.246    0.371    0.155
  657.500    4.242  166.785   85.686    0.367    0.148
  657.750    4.275  167.370   83.444    0.360    0.140
  658.000    4.349  168.772   81.885    0.351    0.132
  658.250    4.448  169.148   80.202    0.345    0.123
  658.500    4.550  169.214   79.440    0.337    0.115
  658.750    4.662  169.278   80.099    0.331    0.114
  659.000    4.859  169.355   80.879    0.339    0.124
  659.250    5.017  169.320   80.919    0.344    0.139
  659.500    5.257  168.762   80.034    0.340    0.147
  659.750    5.509  168.632   78.231    0.335    0.152
  660.000    5.893  168.087   75.189    0.324    0.156
  660.250    6.141  167.737   72.709    0.310    0.156
  660.500    6.569  166.980   68.499    0.296    0.149
  660.750    7.013  166.642   65.398    0.283    0.135
  661.000    7.322  166.813   64.516    0.282    0.123
  661.250    7.031  166.882   68.002    0.310    0.110
  661.500    6.396  167.465   73.281    0.335    0.115
  661.750    5.658  168.449   79.238    0.356    0.133
  662.000    5.205  168.732   82.912    0.368    0.144
  662.250    4.952  169.522   83.750    0.382    0.150
  662.500    4.808  170.405   85.274    0.389    0.157
  662.750    4.617  170.405   89.995    0.382    0.161
  663.000    4.584  170.636   89.544    0.375    0.167
  663.250    4.577  170.513   85.210    0.368    0.170
  663.500    4.578  170.271   86.293    0.366    0.160
  663.750    4.692  170.646   87.326    0.360    0.151
  664.000    4.799  171.315   88.537    0.354    0.146
  664.250    5.039  171.910   89.317    0.347    0.139
  664.500    5.212  172.291   88.865    0.339    0.137
  664.750    5.331  172.666   86.011    0.332    0.137
  665.000    5.587  171.602   82.416    0.324    0.139
  665.250    5.736  168.878   79.992    0.331    0.142
  665.500    5.717  168.660   80.027    0.338    0.144
  665.750    5.655  168.516   81.796    0.346    0.148
  666.000    5.410  168.516   83.875    0.358    0.152
  666.250    5.108  168.516   87.057    0.369    0.158
  666.500    4.904  170.150   90.115    0.386    0.164
  666.750    4.709  170.840   92.003    0.383    0.167
  667.000    4.497  171.526   92.662    0.375    0.165
  667.250    4.407  171.900   92.022    0.364    0.159
