~VERSION INFORMATION
 VERS.                 2.0:   CWLS LOG ASCII STANDARD -VERSION 2.0
 WRAP.                  NO:   ONE LINE PER DEPTH STEP
~WELL INFORMATION BLOCK
#MNEM.UNIT           DATA                    DESCRIPTION OF MNEMONIC
#---------    -------------------            -------------------------------
# Generated from Intellog Unique Number	CS_67_68/WELL/783
WELL.         INTER-CITY MANUFACTURING       : Well_name    - WELL
LOC .         00/07-34-068-13W4/0            : Location     - LOCATION
UWI .         00/07-34-068-13W4/0            : Uwi          - UNIQUE WELL ID
ENTR.         SP                             : Entered      - ENTERED BY
SRVC.         SCHLUMBERGER                   : Scn          - SERVICE COMPANY
STRT.M        301.752                        : top_depth    - START DEPTH
STOP.M        472.252                        : bot_depth    - STOP DEPTH
STEP.M        0.25                           : increment    - STEP LENGTH
 NULL. -999.2500:NULL Value
~CURVE INFORMATION BLOCK
#MNEM UNIT       ERCB CURVE CODE    CURVE DESCRIPTION
#-----------   ------------------   ----------------------------------
DEPT.M        00 001 00 00         : DEPTH        - DEPTH
GR  .API      00 310 00 00         : GR           - GAMMA RAY
DPHI.V/V      00 890 00 00         : PHID         - DENSITY POROSITY (SANDSTONE)
NPHI.V/V      00 330 00 00         : PHIN         - NEUTRON POROSITY (SANDSTONE)
ILD .OHMM     00 120 00 00         : RESD         - DEEP RESISTIVITY (DIL)
~PARAMETER INFORMATION
#MNEM.UNIT           DATA             DESCRIPTION OF MNEMONIC
#---------         -----------     ------------------------------
GL  .M        587.045              : gl           - GROUND LEVEL ELEVATION
EREF.M        589.788              : kb           - ELEVATION OF DEPTH REFERENCE
DATM.M        587.045              : datum        - DATUM ELEVATION
TDD .M        472.745              : tdd          - TOTAL DEPTH DRILLER
RUN .         ONE                  : Run          - RUN NUMBER
ENG .         BILL                 : Engineer     - RECORDING ENGINEER
WIT .         JIM                  : Witness      - WITNESSED BY
MUD .         GEL                  : Mud_type     - MUD TYPE
MATR.         SANDSTONE            : Logunit      - NEUTRON MATRIX
TMAX.C        22.2222              : BHT          - MAXIMUM RECORDED TEMPERATURE
BHTD.M        472.745              : BHTDEP       - MAXIMUM RECORDED TEMPERATURE
MATR.         1                    : LOGUNIT      - NEUTRON MATRIX
RMT .C        25                   : MDTP         - TEMPERATURE OF MUD
NEUT.         1                    : NEUTRON      - NEUTRON TYPE
RESI.         0                    : RESIST       - RESISTIVITY TYPE
RMC .OHMM     0.25                 : RMC          - RESISTIVITY OF MUD CAKE
RMF .OHMM     0.25                 : RMF          - RESISTIVITY OF MUD FILTRATE
SUFT.C        15                   : SUFT         - SURFACE TEMPERATURE
~A  DEPTH       GR     PHID     PHIN     RESD
# ...
  432.252  132.280    0.177    0.444    4.264
  432.502  132.154    0.189    0.445    4.271
  432.752  132.499    0.187    0.447    4.306
  433.002  132.927    0.189    0.452    4.349
  433.252  132.541    0.204    0.442    4.167
  433.502  131.225    0.180    0.433    4.210
  433.752  127.696    0.140    0.422    4.273
  434.002  129.687    0.149    0.438    4.332
  434.252  128.831    0.170    0.451    4.397
  434.502  126.176    0.171    0.463    4.435
  434.752  125.789    0.161    0.455    4.457
  435.002  126.186    0.169    0.448    4.486
  435.252  127.765    0.184    0.448    4.525
  435.502  129.973    0.201    0.446    4.527
  435.752  131.258    0.212    0.435    4.529
  436.002  132.728    0.203    0.426    4.524
  436.252  133.645    0.187    0.418    4.526
  436.502  132.986    0.187    0.412    4.536
  436.752  134.338    0.192    0.415    4.492
  437.002  136.551    0.184    0.440    4.378
  437.252  138.371    0.172    0.454    4.284
  437.502  137.240    0.148    0.444    4.221
  437.752  134.294    0.138    0.428    4.154
  438.002  130.947    0.136    0.421    3.720
  438.252  141.265    0.179    0.452    3.106
  438.502  146.688    0.210    0.479    2.703
  438.752  144.079    0.226    0.507    2.395
  439.002  139.582    0.236    0.521    2.168
  439.252  142.335    0.230    0.528    2.070
  439.502  148.789    0.223    0.531    2.078
  439.752  153.305    0.227    0.542    2.145
  440.002  155.640    0.222    0.553    2.258
  440.252  156.744    0.200    0.563    2.423
  440.502  157.743    0.200    0.574    2.640
  440.752  157.923    0.210    0.582    2.987
  441.002  157.750    0.211    0.540    3.426
  441.252  154.383    0.194    0.457    3.885
  441.502  151.170    0.157    0.422    4.519
  441.752  145.446    0.079    0.392    5.125
  442.002  141.897    0.062    0.368    5.598
  442.252  143.560    0.078    0.346    5.838
  442.502  149.674    0.102    0.365    5.867
  442.752  152.777    0.134    0.388    5.627
  443.002  148.651    0.119    0.398    5.601
  443.252  121.357    0.136    0.342    5.840
  443.502  108.548    0.074    0.251    6.158
  443.752   95.660    0.042    0.218    6.394
  444.002  109.163    0.026    0.310    6.412
  444.252  123.966    0.042    0.389    5.648
  444.502  141.470    0.074    0.426    5.080
  444.752  151.169    0.109    0.443    4.443
  445.002  143.915    0.142    0.460    4.023
  445.252  141.292    0.144    0.453    3.856
  445.502  140.934    0.147    0.448    3.798
  445.752  136.257    0.153    0.457    4.006
  446.002  137.834    0.144    0.454    4.022
  446.252  139.263    0.137    0.457    4.148
  446.502  139.738    0.156    0.445    4.324
  446.752  139.341    0.160    0.452    4.453
  447.002  134.808    0.143    0.442    4.367
  447.252  129.178    0.108    0.432    4.075
  447.502  127.398    0.088    0.453    3.802
  447.752  136.550    0.120    0.487    3.545
  448.002  145.666    0.166    0.510    3.322
  448.252  149.224    0.168    0.494    3.153
  448.502  147.285    0.151    0.476    3.088
  448.752  144.964    0.129    0.467    3.115
  449.002  147.561    0.133    0.484    3.249
  449.252  148.813    0.165    0.477    3.421
  449.502  142.305    0.154    0.458    3.524
  449.752  134.230    0.150    0.441    3.499
  450.002  144.074    0.107    0.502    3.342
  450.252  152.919    0.120    0.561    3.193
  450.502  149.929    0.152    0.537    3.069
  450.752  144.053    0.140    0.499    2.976
  451.002  133.601    0.071    0.458    2.941
  451.252  132.692    0.044    0.479    2.959
  451.502  149.871    0.171    0.498    2.986
  451.752  153.937    0.183    0.515    3.038
  452.002  154.591    0.198    0.533    3.126
  452.252  139.056    0.194    0.472    3.243
  452.502  121.126    0.187    0.414    3.518
  452.752  106.546    0.196    0.383    4.098
  453.002   90.394    0.207    0.357    4.644
  453.252   84.549    0.214    0.338    5.560
  453.502   84.342    0.228    0.323    6.556
  453.752   85.614    0.243    0.326    7.297
  454.002   86.929    0.266    0.335    7.997
  454.252   88.263    0.243    0.343    8.593
  454.502   88.985    0.208    0.346    9.067
  454.752   87.936    0.183    0.312    9.681
  455.002   84.912    0.132    0.283   10.478
  455.252   81.423    0.087    0.251   11.552
  455.502   78.258    0.054    0.237   12.556
  455.752   74.438    0.036    0.234   13.319
  456.002   72.891    0.046    0.234   13.828
  456.252   77.442    0.057    0.233   13.244
  456.502   83.438    0.071    0.271   10.819
  456.752   88.752    0.086    0.302    9.047
  457.002   95.312    0.113    0.354    7.487
  457.252  103.801    0.130    0.381    6.311
  457.502  115.590    0.178    0.419    5.454
  457.752  124.428    0.181    0.447    4.543
  458.002  130.602    0.196    0.463    3.931
  458.252  129.620    0.238    0.432    3.529
  458.502  121.470    0.247    0.412    3.285
  458.752  126.067    0.257    0.399    3.128
  459.002  130.651    0.241    0.403    3.121
  459.252  137.037    0.216    0.406    3.238
  459.502  144.981    0.200    0.399    3.480
  459.752  151.377    0.190    0.393    3.764
  460.002  154.292    0.179    0.391    4.031
  460.252  154.576    0.170    0.410    4.409
  460.502  152.190    0.179    0.417    4.756
  460.752  144.755    0.203    0.428    5.173
  461.002  141.788    0.206    0.440    5.615
  461.252  130.858    0.210    0.404    6.018
  461.502  118.647    0.189    0.381    6.494
  461.752  116.951    0.154    0.369    6.723
  462.002  124.356    0.112    0.374    6.838
  462.252  132.125    0.117    0.392    6.736
  462.502  142.126    0.169    0.402    6.550
  462.752  145.608    0.145    0.411    6.329
  463.002  144.474    0.171    0.402    6.037
  463.252  126.032    0.195    0.387    5.831
  463.502  120.830    0.211    0.377    5.709
  463.752  117.936    0.219    0.369    5.686
  464.002  119.996    0.205    0.376    5.833
  464.252  123.471    0.182    0.386    5.987
  464.502  121.158    0.184    0.375    6.206
  464.752  112.518    0.198    0.354    6.456
  465.002  106.524    0.208    0.343    6.489
  465.252  109.804    0.190    0.338    6.337
  465.502   92.947    0.180    0.344    6.182
  465.752   62.942    0.175    0.362    6.149
  466.002   14.717    0.169    0.371    6.195
  466.252   17.158    0.161    0.361    6.431
  466.502   17.856    0.150    0.352    6.752
  466.752   18.434    0.166    0.345    7.037
  467.002   19.104    0.197    0.341    7.268
  467.252   19.697    0.201    0.337    7.398
  467.502   19.833    0.189    0.334    7.412
  467.752   19.806    0.168    0.329    7.373
  468.002   19.728    0.154    0.332    7.256
  468.252   19.916    0.186    0.337    7.118
  468.502   20.739    0.219    0.349    6.888
  468.752   21.471    0.249    0.353    6.684
  469.002   27.554    0.273    0.353    6.512
  469.252   45.087    0.283    0.354    6.490
  469.502   74.705    0.262    0.353    6.574
  469.752   82.951    0.256    0.354    6.681
  470.002   82.064    0.238    0.354    6.816
  470.252   82.003    0.230    0.354    6.921
  470.502   81.790    0.211    0.354    6.895
  470.752   81.672    0.180    0.354    6.773
  471.002   81.706    0.159    0.353    6.434
  471.252   81.984    0.162    0.353    6.072
  471.502   82.629    0.172    0.352    5.807
  471.752   82.993    0.147    0.352    5.656
  472.002   83.209    0.120    0.351    5.583
  472.252   83.451    0.101    0.351    5.602
