~VERSION INFORMATION
 VERS.                 2.0:   CWLS LOG ASCII STANDARD -VERSION 2.0
 WRAP.                  NO:   ONE LINE PER DEPTH STEP
~WELL INFORMATION BLOCK
#MNEM.UNIT           DATA                    DESCRIPTION OF MNEMONIC
#---------    -------------------            -------------------------------
# Generated from Intellog Unique Number	CW_70_72/WELL/903
NULL.         -999.25                        : NULL_VALUE
WELL.         CHIEFTAIN ET AL SMITH 07-19    : Well_name    - WELL              
LOC .         07-19-071-26W4                 : Location     - LOCATION          
UWI .         00/07-19-071-26W4/0            : Uwi          - UNIQUE WELL ID    
ENTR.         JAYE                           : Entered      - ENTERED BY        
SRVC.         SCHLUMBERGER                   : Scn          - SERVICE COMPANY   
DATE.         13 JUNE 76                     : Date         - LOG DATE          
STRT.M        445.008                        : top_depth    - START DEPTH       
STOP.M        702.258                        : bot_depth    - STOP DEPTH        
STEP.M        0.25                           : increment    - STEP LENGTH       
~CURVE INFORMATION BLOCK
#MNEM UNIT       ERCB CURVE CODE    CURVE DESCRIPTION
#-----------   ------------------   ----------------------------------
DEPT.M        00 001 00 00         : DEPTH        - DEPTH                       
DPHI.V/V      00 890 00 00         : PHID         - DENSITY POROSITY (SANDSTONE)
NPHI.V/V      00 330 00 00         : PHIN         - NEUTRON POROSITY (SANDSTONE)
GR  .API      00 310 00 00         : GR           - GAMMA RAY                   
CALI.MM       00 280 01 00         : CAL          - CALIPER                     
ILD .OHMM     00 120 00 00         : RESD         - DEEP RESISTIVITY (DIL)      
~PARAMETER INFORMATION       
#MNEM.UNIT           DATA             DESCRIPTION OF MNEMONIC
#---------         -----------     ------------------------------
GL  .M        633.374              : gl           - GROUND LEVEL ELEVATION      
EREF.M        636.422              : kb           - ELEVATION OF DEPTH REFERENCE
DATM.M        633.374              : datum        - DATUM ELEVATION             
TDD .M        627.888              : tdd          - TOTAL DEPTH DRILLER         
RUN .         ONE                  : Run          - RUN NUMBER                  
BASE.         EDM                  : Branch       - HOME BASE OF LOGGING UNIT   
MUD .         GEL CHEM             : Mud_type     - MUD TYPE                    
MATR.         SANDSTONE            : Logunit      - NEUTRON MATRIX              
TMAX.C        27.2222              : BHT          - MAXIMUM RECORDED TEMPERATURE
BHTD.M        627.888              : BHTDEP       - MAXIMUM RECORDED TEMPERATURE
RMT .C        16.6667              : MDTP         - TEMPERATURE OF MUD          
MUDD.KG/M     0                    : MWT          - MUD DENSITY                 
NEUT.         1                    : NEUTRON      - NEUTRON TYPE                
RESI.         0                    : RESIST       - RESISTIVITY TYPE            
RM  .OHMM     4.87                 : RM           - RESISTIVITY OF MUD          
RMC .OHMM     0                    : RMC          - RESISTIVITY OF MUD CAKE     
RMF .OHMM     3.87                 : RMF          - RESISTIVITY OF MUD FILTRATE 
SUFT.C        -17.7778             : SUFT         - SURFACE TEMPERATURE         
~A  DEPTH     PHID     PHIN       GR      CAL     RESD
  445.008    0.206    0.513   92.050  165.208    1.991
  445.258    0.200    0.516   91.257  165.343    1.990
  445.508    0.187    0.520   83.612  165.688    2.095
  445.758    0.177    0.532   79.396  165.508    2.209
  446.008    0.206    0.546   76.236  165.018    2.378
  446.258    0.227    0.547   69.276  163.802    2.569
  446.508    0.260    0.466   60.134  161.737    2.729
  446.758    0.250    0.414   53.424  158.628    2.852
  447.008    0.234    0.382   56.749  157.101    2.980
  447.258    0.230    0.403   59.885  156.916    3.006
  447.508    0.232    0.427   62.397  156.640    2.949
  447.758    0.240    0.421   61.606  156.046    2.872
  448.008    0.252    0.405   58.883  155.345    2.761
  448.258    0.264    0.415   55.851  154.542    2.714
  448.508    0.268    0.425   52.879  153.942    2.634
  448.758    0.271    0.432   48.101  153.454    2.560
  449.008    0.271    0.437   44.008  153.276    2.470
  449.258    0.262    0.420   43.341  153.212    2.388
  449.508    0.242    0.465   46.727  153.032    2.343
  449.758    0.235    0.462   50.299  152.854    2.329
  450.008    0.256    0.452   52.999  152.687    2.345
  450.258    0.267    0.444   55.886  152.814    2.374
  450.508    0.279    0.432   59.706  152.948    2.462
  450.758    0.278    0.412   65.459  152.987    2.521
  451.008    0.254    0.421   73.082  154.168    2.610
  451.258    0.228    0.453   80.145  159.852    2.737
  451.508    0.203    0.462   85.898  160.512    2.850
  451.758    0.175    0.449   82.990  160.127    3.028
  452.008    0.199    0.433   80.080  158.488    3.158
  452.258    0.216    0.402   76.549  156.739    3.299
  452.508    0.239    0.386   72.953  155.098    3.416
  452.758    0.245    0.423   69.483  154.296    3.440
  453.008    0.253    0.459   66.077  153.593    3.362
  453.258    0.275    0.448   63.291  152.902    3.268
  453.508    0.267    0.419   60.196  152.511    3.113
  453.758    0.264    0.420   57.535  152.021    3.021
  454.008    0.261    0.425   55.186  151.848    2.958
  454.258    0.267    0.420   55.333  151.669    2.951
  454.508    0.274    0.410   58.094  151.494    2.999
  454.758    0.281    0.415   59.858  151.422    3.133
  455.008    0.284    0.409   58.507  151.353    3.310
  455.258    0.280    0.404   56.782  151.595    3.517
  455.508    0.272    0.402   55.369  151.524    3.710
  455.758    0.264    0.397   55.140  151.445    3.964
  456.008    0.254    0.387   55.909  151.166    3.998
  456.258    0.263    0.394   57.049  150.893    3.815
  456.508    0.284    0.402   58.757  150.714    3.568
  456.758    0.278    0.407   59.770  150.746    3.311
  457.008    0.273    0.413   60.849  150.781    3.177
  457.258    0.275    0.423   61.989  150.611    3.026
  457.508    0.270    0.437   63.069  150.632    2.969
  457.758    0.262    0.461   65.022  150.671    2.990
  458.008    0.253    0.473   67.097  150.700    3.078
  458.258    0.254    0.460   68.800  150.728    3.240
  458.508    0.260    0.440   69.008  150.770    3.342
  458.758    0.253    0.445   66.787  150.901    3.390
  459.008    0.265    0.452   65.993  151.250    3.401
  459.258    0.258    0.430   68.944  151.910    3.368
  459.508    0.244    0.395   71.642  152.992    3.298
  459.758    0.228    0.396   74.778  154.176    3.200
  460.008    0.218    0.415   77.665  155.253    3.065
  460.258    0.212    0.438   82.109  156.439    2.834
  460.508    0.215    0.459   86.928  157.516    2.592
  460.758    0.195    0.488   85.829  158.910    2.432
  461.008    0.178    0.510   81.109  160.096    2.321
  461.258    0.190    0.466   73.277  161.175    2.320
  461.508    0.307    0.423   64.448  161.626    2.358
  461.758    0.304    0.384   56.553  160.402    2.374
  462.008    0.290    0.383   54.206  157.611    2.351
  462.258    0.280    0.372   53.041  155.343    2.272
  462.508    0.278    0.369   49.385  154.326    2.209
  462.758    0.273    0.361   45.727  153.420    2.124
  463.008    0.279    0.358   43.816  152.932    2.046
  463.258    0.287    0.366   40.843  152.753    1.930
  463.508    0.289    0.371   36.128  152.477    1.835
  463.758    0.292    0.348   30.351  152.195    1.777
  464.008    0.295    0.328   22.518  152.122    1.757
  464.258    0.302    0.334   28.524  151.943    1.775
  464.508    0.298    0.344   33.029  151.868    1.845
  464.758    0.283    0.352   38.719  151.805    1.956
  465.008    0.264    0.358   47.776  151.837    2.041
  465.258    0.267    0.384   56.957  151.873    2.164
  465.508    0.279    0.372   63.708  152.011    2.321
  465.758    0.269    0.347   68.151  152.047    2.512
  466.008    0.260    0.339   73.159  152.172    2.718
  466.258    0.248    0.360   76.106  152.844    2.851
  466.508    0.230    0.369   79.181  153.184    2.974
  466.758    0.223    0.375   82.629  153.742    3.124
  467.008    0.212    0.391   86.949  154.719    3.319
  467.258    0.200    0.404   91.082  157.051    3.443
  467.508    0.189    0.405   94.032  160.742    3.558
  467.758    0.184    0.396   94.798  161.195    3.510
  468.008    0.207    0.386   91.390  157.361    3.300
  468.258    0.193    0.375   91.288  156.451    3.029
  468.508    0.185    0.391   93.675  156.487    2.689
  468.758    0.176    0.497   95.875  156.723    2.477
  469.008    0.163    0.521   99.260  156.966    2.278
  469.258    0.144    0.495   93.485  158.044    2.150
  469.508    0.148    0.499   95.874  160.696    2.129
  469.758    0.133    0.512  101.815  163.450    2.212
  470.008    0.224    0.499  103.329  163.063    2.312
  470.258    0.218    0.473   99.484  161.738    2.460
  470.508    0.221    0.455   93.957  160.931    2.557
  470.758    0.221    0.517   85.627  160.128    2.671
  471.008    0.229    0.477   78.171  158.694    2.740
  471.258    0.249    0.451   71.707  156.531    2.774
  471.508    0.281    0.421   67.801  154.262    2.758
  471.758    0.251    0.430   66.387  153.253    2.751
  472.008    0.260    0.446   65.909  153.282    2.724
  472.258    0.256    0.427   69.045  152.799    2.703
  472.508    0.260    0.428   72.804  152.622    2.691
  472.758    0.266    0.433   70.083  152.441    2.710
  473.008    0.274    0.430   66.240  152.158    2.754
  473.258    0.286    0.415   63.266  151.981    2.820
  473.508    0.293    0.411   62.913  151.909    2.871
  473.758    0.272    0.421   67.170  151.942    2.917
  474.008    0.262    0.435   67.380  151.976    2.916
  474.258    0.255    0.452   65.901  151.801    2.936
  474.508    0.262    0.453   62.370  151.518    2.935
  474.758    0.265    0.444   60.770  151.240    2.890
  475.008    0.267    0.431   58.172  150.962    2.867
  475.258    0.269    0.415   57.879  150.779    2.855
  475.508    0.275    0.408   60.082  150.711    2.896
  475.758    0.281    0.407   61.908  150.429    2.993
  476.008    0.281    0.409   65.294  150.355    3.081
  476.258    0.267    0.418   69.802  150.292    3.195
  476.508    0.244    0.440   73.123  150.422    3.272
  476.758    0.223    0.448   76.134  150.460    3.387
  477.008    0.217    0.450   78.335  150.805    3.417
  477.258    0.216    0.454   79.479  151.675    3.365
  477.508    0.202    0.459   79.124  153.172    3.271
  477.758    0.198    0.462   74.344  154.668    3.145
  478.008    0.219    0.457   65.203  154.286    2.946
  478.258    0.266    0.447   60.299  152.753    2.729
  478.508    0.278    0.426   63.623  152.365    2.463
  478.758    0.285    0.420   66.759  152.605    2.295
  479.008    0.304    0.413   69.458  153.056    2.174
  479.258    0.301    0.405   73.779  153.401    2.032
  479.508    0.283    0.407   77.289  153.642    1.939
  479.758    0.259    0.419   82.544  154.200    1.864
  480.008    0.227    0.441   86.990  154.651    1.829
  480.258    0.239    0.475   89.376  155.217    1.812
  480.508    0.243    0.507   88.959  155.347    1.848
  480.758    0.225    0.512   84.493  155.274    1.895
  481.008    0.235    0.490   73.233  155.097    1.958
  481.258    0.257    0.459   66.460  154.821    1.990
