~VERSION INFORMATION
 VERS.                 2.0:   CWLS LOG ASCII STANDARD -VERSION 2.0
 WRAP.                  NO:   ONE LINE PER DEPTH STEP
~WELL INFORMATION BLOCK
#MNEM.UNIT           DATA                    DESCRIPTION OF MNEMONIC
#---------    -------------------            -------------------------------
# Generated from Intellog Unique Number	CS_69_70/WELL/768
WELL.         GULF OIL CANADA                : Well_name    - WELL
LOC .         00/06-08-069-15W4/0            : Location     - LOCATION
UWI .         00/06-08-069-15W4/0            : Uwi          - UNIQUE WELL ID
ENTR.         SP                             : Entered      - ENTERED BY
SRVC.         SCHLUMBERGER                   : Scn          - SERVICE COMPANY
STRT.M        259.080                        : top_depth    - START DEPTH
STOP.M        456.830                        : bot_depth    - STOP DEPTH
STEP.M        0.25                           : increment    - STEP LENGTH
 NULL. -999.2500:NULL Value
~CURVE INFORMATION BLOCK
#MNEM UNIT       ERCB CURVE CODE    CURVE DESCRIPTION
#-----------   ------------------   ----------------------------------
DEPT.M        00 001 00 00         : DEPTH        - DEPTH
GR  .API      00 310 00 00         : GR           - GAMMA RAY
DPHI.V/V      00 890 00 00         : PHID         - DENSITY POROSITY (SANDSTONE)
NPHI.V/V      00 330 00 00         : PHIN         - NEUTRON POROSITY (SANDSTONE)
ILD .OHMM     00 120 00 00         : RESD         - DEEP RESISTIVITY (DIL)
~PARAMETER INFORMATION
#MNEM.UNIT           DATA             DESCRIPTION OF MNEMONIC
#---------         -----------     ------------------------------
GL  .M        545.866              : gl           - GROUND LEVEL ELEVATION
EREF.M        549.524              : kb           - ELEVATION OF DEPTH REFERENCE
DATM.M        545.866              : datum        - DATUM ELEVATION
TDD .M        460.553              : tdd          - TOTAL DEPTH DRILLER
RUN .         ONE                  : Run          - RUN NUMBER
ENG .         BILL                 : Engineer     - RECORDING ENGINEER
WIT .         JIM                  : Witness      - WITNESSED BY
MUD .         GEL                  : Mud_type     - MUD TYPE
MATR.         SANDSTONE            : Logunit      - NEUTRON MATRIX
TMAX.C        14.4444              : BHT          - MAXIMUM RECORDED TEMPERATURE
BHTD.M        460.553              : BHTDEP       - MAXIMUM RECORDED TEMPERATURE
MATR.         1                    : LOGUNIT      - NEUTRON MATRIX
RMT .C        25                   : MDTP         - TEMPERATURE OF MUD
NEUT.         1                    : NEUTRON      - NEUTRON TYPE
RESI.         0                    : RESIST       - RESISTIVITY TYPE
RMC .OHMM     0.25                 : RMC          - RESISTIVITY OF MUD CAKE
RMF .OHMM     0.25                 : RMF          - RESISTIVITY OF MUD FILTRATE
SUFT.C        15                   : SUFT         - SURFACE TEMPERATURE
~A  DEPTH       GR     PHID     PHIN     RESD
# ...
  302.580  100.165    0.256    0.431    2.812
  302.830   96.399    0.269    0.409    2.799
  303.080   93.501    0.259    0.401    2.817
  303.330   89.977    0.263    0.398    2.875
  303.580   87.657    0.245    0.402    2.961
  303.830   86.926    0.234    0.418    3.061
  304.080   88.993    0.229    0.424    3.111
  304.330   90.377    0.237    0.426    3.118
  304.580   90.162    0.241    0.432    3.070
  304.830   88.763    0.231    0.439    3.009
  305.080   85.533    0.227    0.445    2.926
  305.330   83.090    0.229    0.453    2.850
  305.580   80.135    0.240    0.464    2.746
  305.830   78.527    0.247    0.463    2.632
  306.080   77.654    0.256    0.446    2.525
  306.330   77.778    0.282    0.434    2.465
  306.580   79.823    0.290    0.436    2.410
  306.830   81.594    0.288    0.434    2.400
  307.080   82.272    0.292    0.441    2.427
  307.330   81.575    0.303    0.433    2.491
  307.580   80.613    0.295    0.426    2.602
  307.830   79.580    0.290    0.436    2.743
  308.080   78.498    0.288    0.430    2.941
  308.330   77.968    0.284    0.415    3.108
  308.580   77.030    0.270    0.409    3.245
  308.830   76.173    0.261    0.402    3.323
  309.080   76.025    0.266    0.411    3.342
  309.330   78.900    0.278    0.429    3.283
  309.580   81.364    0.288    0.434    3.090
  309.830   82.548    0.294    0.423    2.945
  310.080   82.807    0.278    0.419    2.862
  310.330   87.385    0.257    0.433    2.850
  310.580   90.330    0.247    0.461    2.870
  310.830   92.258    0.263    0.453    2.914
  311.080   92.092    0.265    0.448    2.972
  311.330   95.563    0.253    0.453    3.039
  311.580  100.091    0.240    0.448    3.087
  311.830  103.555    0.235    0.441    3.142
  312.080  106.299    0.236    0.453    3.236
  312.330  109.241    0.219    0.458    3.322
  312.580  111.253    0.218    0.445    3.392
  312.830  112.474    0.210    0.437    3.472
  313.080  112.313    0.228    0.429    3.566
  313.330  109.252    0.247    0.441    3.653
  313.580  105.611    0.235    0.458    3.697
  313.830  100.565    0.225    0.446    3.712
  314.080   96.874    0.272    0.435    3.682
  314.330   93.339    0.255    0.422    3.645
  314.580   92.163    0.242    0.414    3.563
  314.830   95.716    0.223    0.427    3.423
  315.080  100.915    0.209    0.449    3.227
  315.330  104.224    0.191    0.458    3.077
  315.580  106.348    0.207    0.447    2.975
  315.830  107.569    0.223    0.482    2.955
  316.080  108.596    0.204    0.520    3.026
  316.330  110.777    0.211    0.544    3.149
  316.580  112.098    0.228    0.531    3.331
  316.830  112.118    0.245    0.502    3.664
  317.080  110.514    0.241    0.465    3.871
  317.330  107.824    0.219    0.438    4.148
  317.580  105.417    0.212    0.420    4.420
  317.830  105.254    0.212    0.413    4.635
  318.080  106.826    0.205    0.416    4.824
  318.330  106.516    0.211    0.408    4.914
  318.580  104.852    0.203    0.388    4.958
  318.830  105.750    0.195    0.372    4.963
  319.080  108.222    0.185    0.390    4.957
  319.330  107.827    0.198    0.405    4.930
  319.580  108.066    0.214    0.416    4.887
  319.830  111.132    0.207    0.419    4.830
  320.080  113.546    0.206    0.413    4.758
  320.330  114.893    0.193    0.414    4.690
  320.580  111.416    0.194    0.417    4.635
  320.830  104.905    0.232    0.414    4.539
  321.080   98.729    0.238    0.410    4.459
  321.330   95.121    0.219    0.412    4.395
  321.580   93.051    0.210    0.421    4.275
  321.830   92.369    0.212    0.425    4.128
  322.080   94.170    0.208    0.428    3.925
  322.330   96.512    0.204    0.435    3.748
  322.580   98.076    0.213    0.443    3.551
  322.830   97.561    0.242    0.453    3.342
  323.080   92.259    0.265    0.437    3.060
  323.330   87.315    0.291    0.423    2.868
  323.580   83.333    0.302    0.414    2.680
  323.830   78.160    0.309    0.413    2.552
  324.080   72.423    0.322    0.416    2.458
  324.330   70.573    0.319    0.419    2.396
  324.580   70.108    0.304    0.422    2.349
  324.830   69.650    0.306    0.430    2.327
  325.080   68.829    0.309    0.434    2.317
  325.330   68.606    0.304    0.427    2.313
  325.580   69.199    0.305    0.417    2.319
  325.830   70.599    0.310    0.410    2.324
  326.080   70.810    0.310    0.408    2.320
  326.330   70.466    0.301    0.398    2.320
  326.580   68.570    0.304    0.389    2.306
  326.830   66.209    0.307    0.398    2.291
  327.080   64.792    0.306    0.408    2.270
  327.330   63.206    0.300    0.414    2.254
  327.580   63.066    0.304    0.417    2.230
  327.830   65.812    0.302    0.421    2.217
  328.080   67.817    0.309    0.430    2.225
  328.330   70.345    0.299    0.423    2.244
  328.580   72.530    0.300    0.406    2.182
  328.830   74.517    0.293    0.394    2.244
  329.080   80.056    0.279    0.390    2.374
  329.330   85.501    0.264    0.393    2.526
  329.580   90.833    0.249    0.390    2.839
  329.830   97.690    0.235    0.388    3.129
  330.080  105.701    0.216    0.392    3.475
  330.330  111.753    0.213    0.399    3.842
  330.580  115.248    0.202    0.412    4.172
  330.830  116.777    0.194    0.425    4.308
  331.080  117.969    0.193    0.428    4.307
  331.330  116.254    0.202    0.426    4.266
  331.580  111.950    0.192    0.406    4.188
  331.830  109.207    0.181    0.388    4.111
  332.080  107.667    0.174    0.392    4.058
  332.330  106.488    0.176    0.401    4.044
  332.580  106.774    0.191    0.407    4.036
  332.830  107.260    0.180    0.411    4.040
  333.080  106.967    0.197    0.419    4.002
  333.330  103.971    0.231    0.426    3.899
  333.580   98.958    0.238    0.433    3.795
  333.830   96.149    0.241    0.440    3.685
  334.080   95.785    0.241    0.433    3.584
  334.330  100.429    0.236    0.429    3.460
  334.580  106.864    0.222    0.443    3.365
  334.830  107.745    0.212    0.456    3.278
  335.080   99.362    0.212    0.452    3.197
  335.330   94.683    0.226    0.442    3.106
  335.580   89.985    0.241    0.426    3.302
  335.830   85.485    0.256    0.414    3.236
  336.080   82.224    0.261    0.406    3.187
  336.330   79.219    0.257    0.401    3.120
  336.580   78.109    0.266    0.401    3.070
  336.830   77.769    0.261    0.400    3.015
  337.080   78.555    0.249    0.401    2.980
  337.330   79.762    0.247    0.411    2.959
  337.580   80.670    0.263    0.419    2.939
  337.830   81.255    0.266    0.428    2.927
  338.080   80.866    0.271    0.437    2.880
  338.330   80.732    0.281    0.428    2.842
  338.580   82.131    0.265    0.409    2.774
  338.830   83.384    0.259    0.398    2.699
  339.080   83.464    0.267    0.404    2.667
  339.330   82.817    0.271    0.418    2.653
  339.580   82.206    0.271    0.433    2.672
  339.830   81.873    0.269    0.444    2.706
  340.080   83.085    0.263    0.443    2.735
  340.330   85.284    0.249    0.416    2.799
  340.580   87.714    0.238    0.393    2.906
  340.830   92.600    0.228    0.378    2.992
  341.080   95.469    0.217    0.390    3.056
  341.330   97.499    0.208    0.418    3.078
  341.580   99.476    0.197    0.434    3.070
  341.830  100.411    0.201    0.445    3.037
  342.080   98.304    0.224    0.448    2.965
  342.330   94.707    0.240    0.452    2.864
  342.580   89.615    0.275    0.445    2.788
  342.830   91.149    0.294    0.437    2.709
  343.080   87.645    0.301    0.442    2.653
  343.330   84.990    0.283    0.441    2.617
  343.580   81.129    0.279    0.428    2.598
  343.830   78.556    0.284    0.420    2.649
  344.080   77.334    0.281    0.414    2.713
  344.330   76.977    0.274    0.411    2.749
  344.580   80.306    0.267    0.406    2.778
  344.830   83.025    0.258    0.410    2.757
  345.080   83.069    0.263    0.420    2.678
  345.330   76.456    0.281    0.423    2.524
  345.580   72.056    0.295    0.428    2.343
  345.830   70.447    0.296    0.432    2.193
