~VERSION INFORMATION
 VERS.                 2.0:   CWLS LOG ASCII STANDARD -VERSION 2.0
 WRAP.                  NO:   ONE LINE PER DEPTH STEP
~WELL INFORMATION BLOCK
#MNEM.UNIT           DATA                    DESCRIPTION OF MNEMONIC
#---------    -------------------            -------------------------------
# Generated from Intellog Unique Number	CS_69_70/WELL/701
NULL.         -999.25                        : NULL_VALUE
WELL.         HUSKY OIL OPERATION            : Well_name    - WELL              
LOC .         00/05-19-070-05W4/0            : Location     - LOCATION          
UWI .         00/05-19-070-05W4/0            : Uwi          - UNIQUE WELL ID    
ENTR.         SP                             : Entered      - ENTERED BY        
SRVC.         SCHLUMBERGER                   : Scn          - SERVICE COMPANY   
STRT.M        305                            : top_depth    - START DEPTH       
STOP.M        550                            : bot_depth    - STOP DEPTH        
STEP.M        0.25                           : increment    - STEP LENGTH       
~CURVE INFORMATION BLOCK
#MNEM UNIT       ERCB CURVE CODE    CURVE DESCRIPTION
#-----------   ------------------   ----------------------------------
DEPT.M        00 001 00 00         : DEPTH        - DEPTH                       
ILD .OHMM     00 120 00 00         : RESD         - DEEP RESISTIVITY (DIL)      
DPHI.V/V      00 890 00 00         : PHID         - DENSITY POROSITY (LIMESTONE)
NPHI.V/V      00 330 00 00         : PHIN         - NEUTRON POROSITY (LIMESTONE)
GR  .API      00 310 00 00         : GR           - GAMMA RAY                   
~PARAMETER INFORMATION       
#MNEM.UNIT           DATA             DESCRIPTION OF MNEMONIC
#---------         -----------     ------------------------------
GL  .M        667.3                : gl           - GROUND LEVEL ELEVATION      
EREF.M        671                  : kb           - ELEVATION OF DEPTH REFERENCE
DATM.M        667                  : datum        - DATUM ELEVATION             
TDD .M        555                  : tdd          - TOTAL DEPTH DRILLER         
RUN .         ONE                  : Run          - RUN NUMBER                  
ENG .         BILL                 : Engineer     - RECORDING ENGINEER          
WIT .         JIM                  : Witness      - WITNESSED BY                
MUD .         GEL                  : Mud_type     - MUD TYPE                    
MATR.         LIMESTONE            : Logunit      - NEUTRON MATRIX              
TMAX.C        26                   : BHT          - MAXIMUM RECORDED TEMPERATURE
BHTD.M        555                  : BHTDEP       - MAXIMUM RECORDED TEMPERATURE
MATR.         1                    : LOGUNIT      - NEUTRON MATRIX              
RMT .C        25                   : MDTP         - TEMPERATURE OF MUD          
NEUT.         1                    : NEUTRON      - NEUTRON TYPE                
RESI.         0                    : RESIST       - RESISTIVITY TYPE            
RMC .OHMM     0.25                 : RMC          - RESISTIVITY OF MUD CAKE     
RMF .OHMM     0.25                 : RMF          - RESISTIVITY OF MUD FILTRATE 
SUFT.C        15                   : SUFT         - SURFACE TEMPERATURE         
~A  DEPTH     RESD     PHID     PHIN       GR
# ...
  479.000   13.330    0.263    0.369   66.084
  479.250   13.588    0.260    0.387   61.260
  479.500   14.112    0.253    0.400   59.456
  479.750   14.930    0.249    0.404   58.268
  480.000   16.713    0.222    0.313   58.276
  480.250   17.354    0.103    0.270   57.073
  480.500   18.022    0.091    0.254   60.716
  480.750   17.696    0.173    0.320   64.356
  481.000   16.434    0.204    0.353   67.392
  481.250   15.838    0.228    0.370   63.780
  481.500   15.267    0.241    0.370   61.370
  481.750   14.990    0.256    0.357   58.962
  482.000   14.998    0.265    0.341   66.235
  482.250   15.006    0.259    0.335   72.900
  482.500   15.301    0.250    0.325   78.354
  482.750   15.891    0.240    0.337   76.562
  483.000   16.196    0.243    0.349   75.966
  483.250   16.506    0.246    0.358   75.973
  483.500   18.131    0.248    0.360   73.569
  483.750   20.676    0.253    0.347   68.745
  484.000   21.876    0.286    0.356   66.332
  484.250   24.030    0.306    0.356   59.088
  484.500   24.954    0.299    0.358   59.704
  484.750   24.965    0.300    0.357   63.345
  485.000   24.518    0.304    0.345   62.758
  485.250   22.766    0.294    0.349   61.554
  485.500   20.748    0.280    0.368   72.456
  485.750   19.261    0.272    0.357   78.515
  486.000   19.271    0.265    0.349   73.689
  486.250   20.394    0.254    0.356   64.024
  486.500   21.177    0.275    0.378   55.568
  486.750   23.265    0.294    0.381   54.976
  487.000   25.552    0.303    0.357   62.246
  487.250   31.394    0.286    0.361   57.422
  487.500   40.797    0.296    0.386   44.734
  487.750   44.801    0.313    0.398   37.487
  488.000   56.078    0.326    0.392   36.894
  488.250   68.896    0.325    0.385   37.509
  488.500   89.525    0.324    0.393   35.103
  488.750  112.063    0.332    0.399   29.067
  489.000  125.416    0.338    0.396   27.264
  489.250  130.247    0.338    0.386   30.907
  489.500   98.490    0.334    0.377   40.597
  489.750   60.640    0.324    0.371   49.681
  490.000   41.767    0.305    0.360   58.161
  490.250   30.423    0.255    0.354   64.225
  490.500   23.881    0.243    0.360   66.049
  490.750   20.963    0.238    0.374   66.666
  491.000   20.587    0.261    0.400   52.162
  491.250   28.290    0.301    0.414   35.847
  491.500   44.306    0.337    0.382   32.832
  491.750   70.699    0.352    0.395   31.031
  492.000   95.358    0.355    0.422   29.232
  492.250  123.892    0.354    0.411   27.430
  492.500  158.006    0.351    0.398   26.230
  492.750  164.092    0.348    0.393   25.034
  493.000  141.400    0.346    0.386   26.858
  493.250  108.935    0.344    0.366   32.922
  493.500   90.424    0.340    0.350   34.745
  493.750   77.920    0.331    0.375   31.130
  494.000   87.211    0.322    0.398   23.888
  494.250  109.165    0.330    0.394   22.081
  494.500  134.111    0.338    0.414   20.885
  494.750  158.715    0.347    0.424   22.711
  495.000  174.345    0.359    0.399   28.772
  495.250  120.072    0.338    0.388   39.676
  495.500   63.680    0.311    0.380   43.917
  495.750   48.153    0.302    0.384   52.401
  496.000   44.708    0.289    0.386   53.014
  496.250   42.300    0.288    0.384   50.609
  496.500   41.530    0.300    0.380   56.670
  496.750   42.341    0.309    0.395   59.705
  497.000   43.154    0.302    0.408   56.697
  497.250   43.178    0.291    0.416   51.868
  497.500   40.847    0.292    0.406   48.251
  497.750   36.537    0.297    0.384   49.473
  498.000   27.631    0.288    0.362   52.511
  498.250   22.936    0.271    0.349   56.756
  498.500   18.340    0.256    0.343   63.421
  498.750   16.101    0.249    0.357   65.854
  499.000   14.136    0.262    0.345   70.099
  499.250   13.371    0.255    0.338   81.604
  499.500   13.380    0.221    0.329   87.059
  499.750   13.638    0.210    0.359   84.050
  500.000   17.266    0.255    0.402   64.462
  500.250   20.046    0.272    0.370   62.671
  500.500   24.160    0.286    0.376   58.477
  500.750   27.534    0.292    0.377   56.681
  501.000   29.672    0.296    0.368   56.098
  501.250   28.597    0.298    0.372   63.347
  501.500   22.457    0.290    0.383   71.795
  501.750   19.723    0.279    0.377   76.635
  502.000   17.976    0.260    0.357   74.843
  502.250   17.005    0.239    0.346   73.055
  502.500   16.087    0.210    0.338   77.894
  502.750   15.220    0.219    0.331   79.113
  503.000   14.667    0.234    0.329   91.185
  503.250   13.124    0.224    0.334   97.825
  503.500   12.414    0.201    0.343  105.076
  503.750   11.316    0.187    0.349  108.107
  504.000   10.703    0.173    0.353  109.324
  504.250    9.576    0.165    0.381  109.946
  504.500    9.059    0.174    0.407  105.746
  504.750    9.063    0.176    0.417   96.130
  505.000    9.066    0.177    0.407   90.722
  505.250    8.738    0.195    0.388   85.920
  505.500    8.114    0.209    0.373   90.157
  505.750    7.676    0.206    0.352  105.838
  506.000    7.263    0.148    0.357  118.511
  506.250    7.131    0.137    0.405  110.695
  506.500    7.133    0.151    0.374   99.867
  506.750    7.270    0.176    0.351   90.244
  507.000    7.409    0.193    0.341   96.291
  507.250    7.837    0.156    0.357   92.093
  507.500    8.447    0.123    0.367   87.293
  507.750    8.770    0.093    0.358   84.896
  508.000    9.106    0.076    0.353   90.942
  508.250    8.942    0.101    0.375   95.776
  508.500    8.618    0.127    0.385  103.027
  508.750    8.307    0.146    0.390  106.058
  509.000    8.156    0.152    0.390  107.884
  509.250    8.010    0.154    0.380  109.103
  509.500    7.864    0.175    0.397  109.119
  509.750    7.867    0.186    0.425  106.729
  510.000    7.869    0.181    0.432  104.939
  510.250    8.022    0.174    0.408  103.757
  510.500    8.024    0.166    0.391  105.576
  510.750    8.026    0.161    0.384  107.401
  511.000    7.881    0.160    0.398  102.598
  511.250    7.596    0.176    0.414   87.560
  511.500    6.671    0.225    0.406   76.129
  511.750    5.968    0.274    0.389   50.847
  512.000    5.339    0.307    0.372   44.844
  512.250    4.689    0.325    0.359   43.661
  512.500    4.435    0.323    0.372   40.058
  512.750    4.355    0.342    0.388   34.652
  513.000    4.197    0.353    0.382   29.252
  513.250    4.121    0.360    0.373   38.303
  513.500    4.123    0.335    0.368   75.071
  513.750    4.361    0.311    0.366   87.134
  514.000    4.701    0.278    0.362   97.392
  514.250    5.161    0.259    0.365   88.980
  514.500    5.666    0.248    0.374   76.349
  514.750    5.994    0.241    0.355   78.172
  515.000    6.224    0.234    0.348   86.627
  515.250    6.343    0.230    0.343   83.633
  515.500    6.001    0.240    0.361   73.415
  515.750    5.784    0.261    0.367   69.812
  516.000    5.679    0.273    0.373   63.210
  516.250    5.473    0.289    0.378   60.809
  516.500    5.275    0.309    0.365   56.611
  516.750    4.991    0.309    0.354   57.234
  517.000    4.901    0.293    0.348   60.262
  517.250    4.902    0.284    0.344   63.293
  517.500    4.996    0.279    0.345   63.911
  517.750    4.998    0.282    0.355   61.520
  518.000    4.908    0.281    0.367   62.141
  518.250    4.909    0.276    0.373   62.156
  518.500    4.912    0.275    0.369   57.958
  518.750    5.006    0.285    0.372   54.364
  519.000    5.007    0.292    0.354   55.594
  519.250    5.200    0.294    0.350   56.810
  519.500    5.299    0.288    0.374   61.051
  519.750    5.203    0.268    0.373   67.088
  520.000    5.206    0.239    0.368   76.141
  520.250    5.112    0.236    0.379   70.737
  520.500    5.113    0.257    0.391   61.120
  520.750    4.928    0.276    0.375   58.123
  521.000    4.839    0.270    0.352   56.933
  521.250    4.664    0.269    0.345   53.341
  521.500    4.331    0.284    0.358   47.336
  521.750    4.097    0.296    0.388   41.328
  522.000    3.948    0.309    0.388   35.320
  522.250    3.877    0.320    0.369   36.549
