~VERSION INFORMATION
 VERS.                 2.0:   CWLS LOG ASCII STANDARD -VERSION 2.0
 WRAP.                  NO:   ONE LINE PER DEPTH STEP
~WELL INFORMATION BLOCK
#MNEM.UNIT           DATA                    DESCRIPTION OF MNEMONIC
#---------    -------------------            -------------------------------
# Generated from Intellog Unique Number	CC_80_83/WELL/1183
NULL.         -999.25                        : NULL_VALUE
WELL.         PARA ET AL GRANOR              : Well_name    - WELL
LOC .         07-14-083-18W4                 : Location     - LOCATION          
UWI .         00/07-14-083-18W400            : Uwi          - UNIQUE WELL ID    
ENTR.         DW                             : Entered      - ENTERED BY        
SRVC.         COMPUTALOG                     : Scn          - SERVICE COMPANY   
DATE.         19 JAN 83                      : Date         - LOG DATE
STRT.M        105                            : top_depth    - START DEPTH       
STOP.M        294.9                          : bot_depth    - STOP DEPTH        
STEP.M        0.3                            : increment    - STEP LENGTH       
~CURVE INFORMATION BLOCK
#MNEM UNIT       ERCB CURVE CODE    CURVE DESCRIPTION
#-----------   ------------------   ----------------------------------
DEPT.M        00 001 00 00         : DEPTH        - DEPTH                       
DPHI.V/V      00 890 00 00         : PHID         - DENSITY POROSITY (LIMESTONE)
NPHI.V/V      00 330 00 00         : PHIN         - NEUTRON POROSITY (LIMESTONE)
GR  .API      00 310 00 00         : GR           - GAMMA RAY                   
ILD .OHMM     00 120 00 00         : RESD         - DEEP RESISTIVITY (DIL)      
~PARAMETER INFORMATION       
#MNEM.UNIT           DATA             DESCRIPTION OF MNEMONIC
#---------         -----------     ------------------------------
GL  .M        552.71               : gl           - GROUND LEVEL ELEVATION      
EREF.M        555.71               : kb           - ELEVATION OF DEPTH REFERENCE
DATM.M        555.71               : datum        - DATUM ELEVATION             
TDD .M        298                  : tdd          - TOTAL DEPTH DRILLER         
RUN .         ONE                  : Run          - RUN NUMBER                  
ENG .         BILL                 : Engineer     - RECORDING ENGINEER          
WIT .         JIM                  : Witness      - WITNESSED BY                
MUD .         GEL                  : Mud_type     - MUD TYPE                    
MATR.         LIMESTONE            : Logunit      - NEUTRON MATRIX              
TMAX.C        23                   : BHT          - MAXIMUM RECORDED TEMPERATURE
BHTD.M        298                  : BHTDEP       - MAXIMUM RECORDED TEMPERATURE
MATR.         1                    : LOGUNIT      - NEUTRON MATRIX              
RMT .C        25                   : MDTP         - TEMPERATURE OF MUD          
NEUT.         1                    : NEUTRON      - NEUTRON TYPE                
RESI.         0                    : RESIST       - RESISTIVITY TYPE            
RMC .OHMM     0.25                 : RMC          - RESISTIVITY OF MUD CAKE     
RMF .OHMM     0.25                 : RMF          - RESISTIVITY OF MUD FILTRATE 
SUFT.C        15                   : SUFT         - SURFACE TEMPERATURE         
~A  DEPTH     PHID     PHIN       GR     RESD
# ...
  209.401    0.271    0.423  101.516   10.156
  209.701    0.264    0.426  106.588    9.961
  210.001    0.262    0.421  102.165    9.960
  210.301    0.264    0.446  105.338   10.152
  210.601    0.271    0.427  101.548   10.348
  210.901    0.278    0.406   95.226   10.346
  211.201    0.284    0.381   92.701   10.149
  211.501    0.292    0.371   94.610    9.954
  211.801    0.286    0.390   94.617    9.764
  212.101    0.273    0.422   95.893    9.578
  212.401    0.262    0.438   95.898    9.395
  212.701    0.258    0.448   92.742    9.393
  213.001    0.302    0.417   84.522    9.392
  213.301    0.287    0.389   85.163    9.213
  213.601    0.240    0.417   89.602    9.211
  213.901    0.304    0.440   92.775    9.211
  214.201    0.334    0.443   89.616    8.863
  214.501    0.270    0.431   80.763    8.693
  214.801    0.259    0.412   82.037    8.365
  215.101    0.297    0.403   89.009    6.517
  215.401    0.305    0.404   85.219    5.808
  215.701    0.323    0.419   90.922    6.516
  216.001    0.392    0.469   92.829    7.743
  216.301    0.385    0.459   84.609    9.936
  216.601    0.345    0.414   83.986   10.727
  216.901    0.327    0.404   84.625   10.726
  217.201    0.323    0.400   75.772   10.932
  217.501    0.337    0.400   72.614   12.031
  217.801    0.344    0.405   74.521   13.759
  218.101    0.324    0.468   71.997   14.855
  218.401    0.186    0.305   61.877   15.141
  218.701    0.147    0.230   53.657   14.292
  219.001    0.244    0.330   73.288   12.736
  219.301    0.308    0.384   78.993   11.350
  219.601    0.324    0.405   82.799   11.133
  219.901    0.319    0.415   83.439   11.347
  220.201    0.320    0.415   84.713   11.130
  220.501    0.311    0.415   83.456   10.918
  220.801    0.304    0.417   82.196   10.916
  221.101    0.315    0.423   83.472   10.707
  221.401    0.319    0.432   82.846   10.503
  221.701    0.304    0.429   82.853   10.106
  222.001    0.269    0.413   85.394    9.358
  222.301    0.277    0.409   91.099    8.666
  222.601    0.284    0.420   96.802    8.500
  222.901    0.280    0.444  100.608    8.499
  223.201    0.284    0.451  101.249    8.663
  223.501    0.285    0.449   99.358    8.829
  223.801    0.279    0.436  100.000    8.661
  224.101    0.266    0.415   99.375    8.175
  224.401    0.258    0.409   98.750    8.019
  224.701    0.279    0.428  101.289    8.018
  225.001    0.317    0.436  107.627    8.017
  225.301    0.349    0.413  101.304    8.330
  225.601    0.335    0.406  105.112    8.490
  225.901    0.290    0.435  106.385    9.343
  226.201    0.272    0.450  100.064    9.896
  226.501    0.253    0.424   96.274   10.282
  226.801    0.270    0.406   98.180   10.085
  227.101    0.306    0.412  101.353    9.704
  227.401    0.291    0.419  100.727    8.986
  227.701    0.261    0.412   96.938    8.647
  228.001    0.273    0.432   98.212    8.646
  228.301    0.270    0.456  100.753    8.645
  228.601    0.276    0.439  100.127    8.982
  228.901    0.287    0.424   99.502    9.513
  229.201    0.269    0.419   95.712    9.884
  229.501    0.252    0.412   94.453   10.270
  229.801    0.268    0.414   96.993   10.877
  230.101    0.274    0.416   98.903   11.743
  230.401    0.271    0.426   99.541   12.438
  230.701    0.217    0.416   93.220   13.428
  231.001    0.184    0.365   88.797   13.951
  231.301    0.272    0.396   93.237   14.495
  231.601    0.296    0.426   93.244   14.493
  231.901    0.258    0.422   79.326   14.217
  232.201    0.139    0.238   71.738   13.420
  232.501    0.205    0.256   83.773   12.667
  232.801    0.254    0.368   93.275   12.666
  233.101    0.270    0.426   95.185   12.188
  233.401    0.265    0.407   92.662   11.505
  233.701    0.262    0.389   92.037   11.285
  234.001    0.263    0.418   90.778   11.069
  234.301    0.258    0.437   93.316   10.857
  234.601    0.254    0.412   96.489   10.856
  234.901    0.257    0.394   99.028   10.648
  235.201    0.260    0.389   99.036   10.647
  235.501    0.257    0.396   98.411   10.443
  235.801    0.247    0.413   99.686   10.244
  236.101    0.250    0.404   98.427   10.242
  236.401    0.264    0.391   97.802   10.241
  236.701    0.269    0.391  103.507   10.438
  237.001    0.273    0.426  103.515   10.437
  237.301    0.275    0.442  100.991   10.436
  237.601    0.274    0.442   97.835   10.434
  237.901    0.269    0.428   95.309   10.235
  238.201    0.256    0.421   93.420   10.233
  238.501    0.230    0.414   95.959   10.038
  238.801    0.223    0.403   99.133    9.846
  239.101    0.241    0.403  100.405    9.474
  239.401    0.255    0.414   97.882    9.116
  239.701    0.256    0.446   95.359    8.772
  240.001    0.245    0.440   97.901    8.281
  240.301    0.248    0.399   98.538    8.122
  240.601    0.296    0.413   99.812    8.121
  240.901    0.329    0.428   99.820    8.601
  241.201    0.318    0.424   90.967   10.621
  241.501    0.290    0.402   87.810   11.690
  241.801    0.309    0.400   87.819   12.145
  242.101    0.310    0.402   87.192   12.378
  242.401    0.254    0.394   87.202   12.617
  242.701    0.257    0.389   86.578   13.110
  243.001    0.321    0.339   84.688   14.707
  243.301    0.333    0.335   83.428   15.878
  243.601    0.333    0.355   80.903   15.875
  243.901    0.331    0.363   77.746   15.573
  244.201    0.338    0.366   77.121   14.699
  244.501    0.337    0.394   86.625   14.419
  244.801    0.289    0.403   89.163   13.610
  245.101    0.291    0.399   89.171   13.350
  245.401    0.311    0.398   84.115   12.845
  245.701    0.253    0.386   86.657   12.844
  246.001    0.253    0.377   87.296   13.092
  246.301    0.305    0.379   86.039   13.866
  246.601    0.311    0.384   79.718   14.686
  246.901    0.271    0.332   78.460   15.259
  247.201    0.215    0.317   81.000   15.553
  247.501    0.248    0.362   82.906   14.965
  247.801    0.306    0.391   79.749   13.336
  248.101    0.296    0.386   77.858   12.115
  248.401    0.300    0.381   81.663    9.439
  248.701    0.297    0.410   90.533    8.574
  249.001    0.247    0.421  101.934    8.251
  249.301    0.238    0.406  108.272    8.093
  249.601    0.268    0.401  103.216    8.571
  249.901    0.278    0.406   96.263   10.998
  250.201    0.272    0.406   95.004   12.104
  250.501    0.241    0.396   89.315   13.842
  250.801    0.243    0.386   83.627   14.109
  251.101    0.287    0.383   86.798   13.576
  251.401    0.298    0.381   90.604   12.572
  251.701    0.297    0.377   91.246   10.990
  252.001    0.242    0.397   96.951   10.374
  252.301    0.234    0.428  101.389    9.982
  252.602    0.252    0.413  101.396    9.792
  252.902    0.268    0.408  103.305    9.604
  253.202    0.259    0.412  106.477    9.242
  253.502    0.240    0.405  106.487    9.241
  253.802    0.248    0.403  107.126    9.239
  254.102    0.258    0.416  107.766    9.417
  254.402    0.253    0.421  106.509    9.598
  254.702    0.242    0.421  105.252    9.783
  255.002    0.250    0.406  105.259    9.972
  255.302    0.264    0.391  109.697   10.164
  255.602    0.250    0.389  114.136    9.233
  255.902    0.253    0.401  112.879    8.884
  256.202    0.248    0.428  109.722    8.714
  256.502    0.209    0.445  107.197    8.882
  256.802    0.168    0.411  106.572    8.881
  257.102    0.215    0.404  112.277    9.227
  257.401    0.234    0.413  114.185    8.879
  257.701    0.218    0.399  115.458    8.065
  258.001    0.234    0.387  121.795    8.065
  258.301    0.253    0.428  121.171    8.379
  258.601    0.248    0.454  114.215   10.960
  258.901    0.196    0.417   98.399   12.062
  259.201    0.165    0.360   99.674   13.532
  259.501    0.206    0.365  103.479   13.531
  259.801    0.249    0.369  104.755   12.058
  260.101    0.245    0.360  107.927   10.745
  260.401    0.243    0.387  112.998    9.761
  260.701    0.240    0.404  120.601    9.392
  261.001    0.236    0.397  121.875    9.758
  261.301    0.238    0.377  106.059   10.740
