~VERSION INFORMATION
 VERS.                 2.0:   CWLS LOG ASCII STANDARD -VERSION 2.0
 WRAP.                  NO:   ONE LINE PER DEPTH STEP
~WELL INFORMATION BLOCK
#MNEM.UNIT           DATA                    DESCRIPTION OF MNEMONIC
#---------    -------------------            -------------------------------
# Generated from Intellog Unique Number	CS_69_70/WELL/737
NULL.         -999.25                        : NULL_VALUE
WELL.         HB CS PITLOCHRIE               : Well_name    - WELL              
LOC .         00/06-07-070-11W4/0            : Location     - LOCATION          
UWI .         00/06-07-070-11W4/0            : Uwi          - UNIQUE WELL ID    
ENTR.         SP                             : Entered      - ENTERED BY        
SRVC.         SCHLUMBERGER                   : Scn          - SERVICE COMPANY   
STRT.M        274.32                         : top_depth    - START DEPTH       
STOP.M        457.32                         : bot_depth    - STOP DEPTH        
STEP.M        0.25                           : increment    - STEP LENGTH       
~CURVE INFORMATION BLOCK
#MNEM UNIT       ERCB CURVE CODE    CURVE DESCRIPTION
#-----------   ------------------   ----------------------------------
DEPT.M        00 001 00 00         : DEPTH        - DEPTH                       
GR  .API      00 310 00 00         : GR           - GAMMA RAY                   
DPHI.V/V      00 890 00 00         : PHID         - DENSITY POROSITY (SANDSTONE)
NPHI.V/V      00 330 00 00         : PHIN         - NEUTRON POROSITY (SANDSTONE)
ILD .OHMM     00 120 00 00         : RESD         - DEEP RESISTIVITY (DIL)      
~PARAMETER INFORMATION       
#MNEM.UNIT           DATA             DESCRIPTION OF MNEMONIC
#---------         -----------     ------------------------------
GL  .M        600.669              : gl           - GROUND LEVEL ELEVATION      
EREF.M        603.717              : kb           - ELEVATION OF DEPTH REFERENCE
DATM.M        600.669              : datum        - DATUM ELEVATION             
TDD .M        478.536              : tdd          - TOTAL DEPTH DRILLER         
RUN .         ONE                  : Run          - RUN NUMBER                  
ENG .         BILL                 : Engineer     - RECORDING ENGINEER          
WIT .         JIM                  : Witness      - WITNESSED BY                
MUD .         GEL                  : Mud_type     - MUD TYPE                    
MATR.         SANDSTONE            : Logunit      - NEUTRON MATRIX              
TMAX.C        26.1111              : BHT          - MAXIMUM RECORDED TEMPERATURE
BHTD.M        478.536              : BHTDEP       - MAXIMUM RECORDED TEMPERATURE
MATR.         1                    : LOGUNIT      - NEUTRON MATRIX              
RMT .C        25                   : MDTP         - TEMPERATURE OF MUD          
NEUT.         1                    : NEUTRON      - NEUTRON TYPE                
RESI.         0                    : RESIST       - RESISTIVITY TYPE            
RMC .OHMM     0.25                 : RMC          - RESISTIVITY OF MUD CAKE     
RMF .OHMM     0.25                 : RMF          - RESISTIVITY OF MUD FILTRATE 
SUFT.C        15                   : SUFT         - SURFACE TEMPERATURE         
~A  DEPTH       GR     PHID     PHIN     RESD
  274.320   94.272    0.232    0.575    2.885
  274.570   95.498    0.241    0.587    2.809
  274.820   95.840    0.248    0.594    2.752
  275.070   94.629    0.258    0.600    2.641
  275.320   92.501    0.250    0.607    2.622
  275.570   89.791    0.237    0.585    2.658
  275.820   92.111    0.242    0.570    2.652
  276.070   94.502    0.260    0.562    2.646
  276.320   94.836    0.260    0.565    2.685
  276.570   95.364    0.251    0.571    2.759
  276.820   96.536    0.255    0.573    2.837
  277.070   98.045    0.256    0.562    2.937
  277.320  100.213    0.279    0.563    3.058
  277.570  101.956    0.296    0.573    3.195
  277.820  103.829    0.315    0.572    3.335
  278.070  104.916    0.338    0.549    3.405
  278.320  104.589    0.318    0.540    3.400
  278.570  102.154    0.302    0.557    3.279
  278.820   98.523    0.282    0.577    3.106
  279.070   95.545    0.275    0.599    3.007
  279.320   93.265    0.312    0.608    2.959
  279.570   91.145    0.338    0.598    2.922
  279.820   92.028    0.349    0.583    2.927
  280.070   93.706    0.358    0.571    2.972
  280.320   94.862    0.345    0.574    3.036
  280.570   96.043    0.295    0.593    3.114
  280.820   95.907    0.297    0.612    3.164
  281.070   93.642    0.317    0.589    3.226
  281.320   89.620    0.333    0.545    3.228
  281.570   86.774    0.303    0.518    3.157
  281.820   91.183    0.298    0.532    3.069
  282.070   95.629    0.324    0.536    3.020
  282.320   98.790    0.325    0.553    3.009
  282.570   96.594    0.291    0.569    3.031
  282.820   93.060    0.298    0.555    3.159
  283.070   90.888    0.320    0.536    3.213
  283.320   89.678    0.271    0.526    3.182
  283.570   89.289    0.268    0.527    3.083
  283.820   89.125    0.298    0.534    3.015
  284.070   89.083    0.320    0.545    3.064
  284.320   89.177    0.343    0.549    3.349
  284.570   89.853    0.324    0.486    3.668
  284.820   91.494    0.292    0.460    4.011
  285.070   92.987    0.264    0.456    4.332
  285.320   92.893    0.305    0.484    4.614
  285.570   89.089    0.339    0.504    4.863
  285.820   81.927    0.365    0.521    4.915
  286.070   72.784    0.334    0.470    4.844
  286.320   62.854    0.296    0.423    4.654
  286.570   60.102    0.291    0.380    4.502
  286.820   62.142    0.298    0.393    4.309
  287.070   62.642    0.300    0.397    4.163
  287.320   60.873    0.312    0.398    4.109
  287.570   61.403    0.308    0.403    4.104
  287.820   66.438    0.279    0.416    4.205
  288.070   70.183    0.264    0.431    4.306
  288.320   73.327    0.257    0.442    4.377
  288.570   73.790    0.263    0.436    4.401
  288.820   73.482    0.291    0.415    4.363
  289.070   79.955    0.293    0.406    4.367
  289.320   86.236    0.249    0.425    4.493
  289.570   92.329    0.227    0.439    4.746
  289.820   97.059    0.218    0.443    5.073
  290.070   98.268    0.230    0.427    5.252
  290.320  101.191    0.249    0.433    5.364
  290.570  103.277    0.223    0.445    5.428
  290.820  104.547    0.206    0.461    5.405
  291.070  105.024    0.210    0.467    5.370
  291.320  104.180    0.233    0.471    5.308
  291.570  103.527    0.237    0.472    5.258
  291.820  103.733    0.234    0.480    5.238
  292.070  103.537    0.251    0.484    5.204
  292.320  101.270    0.256    0.497    5.170
  292.570   97.107    0.247    0.510    5.149
  292.820   93.236    0.260    0.528    5.128
  293.070   81.705    0.294    0.484    4.940
  293.320   72.628    0.303    0.470    4.617
  293.570   63.860    0.307    0.463    4.381
  293.820   55.099    0.302    0.457    4.119
  294.070   47.844    0.307    0.443    3.922
  294.320   43.018    0.311    0.431    3.793
  294.570   37.405    0.321    0.421    3.698
  294.820   42.527    0.327    0.414    3.688
  295.070   52.749    0.318    0.414    3.734
  295.320   60.441    0.286    0.426    3.883
  295.570   78.189    0.270    0.444    4.081
  295.820   86.215    0.251    0.464    4.397
  296.070   89.058    0.224    0.487    4.682
  296.320   89.692    0.222    0.503    4.960
  296.570   88.645    0.214    0.467    5.170
  296.820   87.151    0.212    0.445    5.309
  297.070   86.069    0.213    0.460    5.397
  297.320   85.285    0.230    0.473    5.436
  297.570   87.392    0.258    0.486    5.391
  297.820   94.356    0.233    0.511    5.306
  298.070  101.951    0.238    0.535    5.167
  298.320  109.650    0.237    0.544    4.727
  298.570  116.611    0.226    0.562    4.117
  298.820  117.144    0.287    0.585    3.668
  299.070  113.799    0.281    0.600    3.292
  299.320  112.163    0.284    0.610    3.002
  299.570  111.508    0.290    0.605    2.702
  299.820  107.355    0.287    0.607    2.686
  300.070  102.179    0.273    0.564    3.218
  300.320   97.998    0.255    0.518    3.724
  300.570   99.261    0.238    0.492    4.430
  300.820  109.301    0.229    0.485    5.133
  301.070  115.566    0.257    0.486    5.757
  301.320  108.619    0.293    0.497    6.163
  301.570   99.194    0.287    0.502    6.186
  301.820   91.997    0.273    0.487    6.086
  302.070   86.217    0.266    0.472    5.986
  302.320   81.867    0.264    0.464    5.910
  302.570   82.184    0.268    0.461    5.850
  302.820   85.545    0.261    0.459    5.853
  303.070   89.448    0.238    0.462    5.919
  303.320   92.084    0.221    0.470    6.023
  303.570   93.962    0.217    0.465    6.136
  303.820   92.543    0.234    0.483    6.246
  304.070   91.668    0.218    0.495    6.251
  304.320   99.554    0.201    0.505    6.102
  304.570  107.293    0.210    0.512    5.886
  304.820  112.001    0.228    0.521    5.554
  305.070  112.902    0.222    0.518    5.195
  305.320  112.616    0.201    0.514    5.083
  305.570  112.724    0.209    0.532    4.736
  305.820  113.181    0.234    0.579    4.541
  306.070  114.436    0.253    0.571    4.325
  306.320  116.910    0.266    0.552    4.219
  306.570  117.548    0.254    0.532    4.089
  306.820  117.581    0.242    0.511    4.059
  307.070  117.259    0.233    0.497    4.302
  307.320  116.496    0.244    0.484    4.680
  307.570  113.429    0.257    0.474    5.061
  307.820  105.801    0.282    0.483    5.219
  308.070   98.195    0.316    0.471    5.100
  308.320   90.605    0.332    0.470    4.628
  308.570   89.038    0.321    0.477    4.309
  308.820   90.421    0.296    0.473    4.156
  309.070   91.344    0.288    0.471    4.164
  309.320   91.310    0.281    0.477    4.557
  309.570   91.167    0.274    0.480    4.852
  309.820   92.996    0.268    0.485    5.398
  310.070   96.285    0.256    0.499    5.661
  310.320   99.931    0.259    0.505    5.877
  310.570  100.630    0.270    0.495    5.900
  310.820   99.395    0.259    0.482    5.760
  311.070   96.825    0.248    0.465    5.667
  311.320   94.538    0.254    0.453    5.570
  311.570   97.420    0.269    0.445    5.572
  311.820  100.335    0.268    0.446    5.613
  312.070  102.973    0.260    0.438    5.694
  312.320  102.515    0.246    0.457    5.879
  312.570  101.114    0.249    0.471    6.052
  312.820  101.556    0.251    0.464    6.135
  313.070  102.713    0.258    0.459    6.140
  313.320  103.141    0.270    0.507    5.957
  313.570  100.517    0.287    0.548    5.596
  313.820  100.344    0.299    0.571    5.158
  314.070  103.177    0.266    0.569    4.682
  314.320  103.767    0.259    0.569    4.219
  314.570  102.099    0.266    0.552    4.000
  314.820   99.126    0.245    0.548    4.055
  315.070   97.593    0.234    0.546    4.152
  315.320   96.796    0.219    0.540    4.398
  315.570   99.055    0.221    0.552    4.567
  315.820   98.398    0.252    0.544    4.522
  316.070   97.046    0.235    0.558    4.406
  316.320   97.455    0.244    0.567    4.223
  316.570   99.637    0.249    0.552    4.266
  316.820  100.931    0.256    0.546    4.453
  317.070   99.277    0.265    0.551    4.765
  317.320   96.969    0.273    0.544    4.922
  317.570   95.308    0.283    0.535    5.101
