~VERSION INFORMATION
 VERS.                 2.0:   CWLS LOG ASCII STANDARD -VERSION 2.0
 WRAP.                  NO:   ONE LINE PER DEPTH STEP
~WELL INFORMATION BLOCK
#MNEM.UNIT           DATA                    DESCRIPTION OF MNEMONIC
#---------    -------------------            -------------------------------
# Generated from Intellog Unique Number	CS_77_79/WELL/886
WELL.         PEX LOUGHERY                   : Well_name    - WELL
LOC .         00/06-30-078-05W4/0            : Location     - LOCATION
UWI .         00/06-30-078-05W4/0            : Uwi          - UNIQUE WELL ID
ENTR.         JHS                            : Entered      - ENTERED BY
SRVC.         SCHLUMBERGER                   : Scn          - SERVICE COMPANY
STRT.M        115                            : top_depth    - START DEPTH
STOP.M        390                            : bot_depth    - STOP DEPTH
STEP.M        0.25                           : increment    - STEP LENGTH
 NULL. -999.2500:NULL Value
~CURVE INFORMATION BLOCK
#MNEM UNIT       ERCB CURVE CODE    CURVE DESCRIPTION
#-----------   ------------------   ----------------------------------
DEPT.M        00 001 00 00         : DEPTH        - DEPTH
DPHI.V/V      00 890 00 00         : PHID         - DENSITY POROSITY (LIMESTONE)
NPHI.V/V      00 330 00 00         : PHIN         - NEUTRON POROSITY (LIMESTONE)
GR  .API      00 310 00 00         : GR           - GAMMA RAY
ILD .OHMM     00 120 00 00         : RESD         - DEEP RESISTIVITY (DIL)
RHOB.KG/M3    00 350 00 00         : DENS         - BULK DENSITY
~PARAMETER INFORMATION
#MNEM.UNIT           DATA             DESCRIPTION OF MNEMONIC
#---------         -----------     ------------------------------
GL  .M        552.72               : gl           - GROUND LEVEL ELEVATION
EREF.M        555.82               : kb           - ELEVATION OF DEPTH REFERENCE
DATM.M        555.82               : datum        - DATUM ELEVATION
TDD .M        398                  : tdd          - TOTAL DEPTH DRILLER
RUN .         ONE                  : Run          - RUN NUMBER
ENG .         BILL                 : Engineer     - RECORDING ENGINEER
WIT .         JIM                  : Witness      - WITNESSED BY
MUD .         GEL                  : Mud_type     - MUD TYPE
MATR.         LIMESTONE            : Logunit      - NEUTRON MATRIX
TMAX.C        18.5                 : BHT          - MAXIMUM RECORDED TEMPERATURE
BHTD.M        398                  : BHTDEP       - MAXIMUM RECORDED TEMPERATURE
MATR.         1                    : LOGUNIT      - NEUTRON MATRIX
RMT .C        25                   : MDTP         - TEMPERATURE OF MUD
NEUT.         1                    : NEUTRON      - NEUTRON TYPE
RESI.         0                    : RESIST       - RESISTIVITY TYPE
RMC .OHMM     0.25                 : RMC          - RESISTIVITY OF MUD CAKE
RMF .OHMM     0.25                 : RMF          - RESISTIVITY OF MUD FILTRATE
SUFT.C        15                   : SUFT         - SURFACE TEMPERATURE
~A  DEPTH     PHID     PHIN       GR     RESD     DENS
# ...
  261.000    0.311    0.508   81.146    7.992    0.000
  261.250    0.316    0.532   78.708    8.142    0.000
  261.500    0.315    0.522   78.709    8.453    0.000
  261.750    0.315    0.494   71.393    8.773    0.000
  262.000    0.279    0.489   66.516    8.938    0.000
  262.250    0.213    0.468   63.468    9.105    0.000
  262.500    0.166    0.460   72.616    9.274    0.000
  262.750    0.227    0.472   79.934    9.271    0.000
  263.000    0.285    0.482   78.716    9.445    0.000
  263.250    0.312    0.489   79.327    9.804    0.000
  263.500    0.304    0.476   81.157   10.372    0.000
  263.750    0.261    0.484   73.231   12.058    0.000
  264.000    0.092    0.396   64.086   13.756    0.000
  264.250    0.086    0.204   62.258   14.829    0.000
  264.500    0.174    0.269   72.015   14.547    0.000
  264.750    0.291    0.324   77.504   13.741    0.000
  265.000    0.310    0.436   79.334   12.499    0.000
  265.250    0.311    0.449   74.457   10.543    0.000
  265.500    0.275    0.462   66.531   10.148    0.000
  265.750    0.184    0.451   57.996   10.940    0.000
  266.000    0.022    0.251   53.728   13.208    0.000
  266.250    0.031    0.217   59.217   14.237    0.000
  266.500    0.139    0.306   68.975   13.966    0.000
  266.750    0.288    0.349   75.683   13.444    0.000
  267.000    0.290    0.474   78.733   12.229    0.000
  267.250    0.278    0.440   80.564   10.314    0.000
  267.500    0.280    0.422   78.125    9.742    0.000
  267.750    0.284    0.451   72.029    9.557    0.000
  268.000    0.253    0.461   72.030    9.554    0.000
  268.250    0.213    0.441   77.519    9.731    0.000
  268.500    0.237    0.442   79.349    9.915    0.000
  268.750    0.286    0.458   81.790    9.544    0.000
  269.000    0.279    0.456   86.059    9.186    0.000
  269.250    0.272    0.455   89.109    8.842    0.000
  269.500    0.263    0.471   89.719    8.512    0.000
  269.750    0.246    0.471   93.989    8.041    0.000
  270.000    0.225    0.477   94.600    7.314    0.000
  270.250    0.227    0.493   90.942    7.041    0.000
  270.500    0.275    0.513   89.724    6.650    0.000
  270.750    0.290    0.465   91.554    6.647    0.000
  271.000    0.267    0.424   87.897    6.771    0.000
  271.250    0.249    0.425   88.508    6.899    0.000
  271.500    0.274    0.460   87.899    7.437    0.000
  271.750    0.311    0.485   86.071    7.867    0.000
  272.000    0.295    0.473   86.681    8.322    0.000
  272.250    0.283    0.450   89.122    8.011    0.000
  272.500    0.270    0.435   90.343    7.567    0.000
  272.750    0.276    0.451   89.734    6.883    0.000
  273.000    0.305    0.481   89.735    6.380    0.000
  273.250    0.319    0.506   88.517    5.804    0.000
  273.500    0.348    0.504   89.127    5.482    0.000
  273.750    0.252    0.460   89.738    5.378    0.000
  274.000    0.237    0.447   90.349    5.477    0.000
  274.250    0.244    0.468   94.618    5.373    0.000
  274.500    0.251    0.484   93.400    5.173    0.000
  274.750    0.269    0.492   90.352    4.795    0.000
  275.000    0.295    0.503   89.134    4.530    0.000
  275.250    0.305    0.517   92.184    4.043    0.000
  275.500    0.296    0.525   91.575    4.041    0.000
  275.750    0.280    0.509   88.527    4.195    0.000
  276.000    0.271    0.520   90.967    4.355    0.000
  276.250    0.285    0.542   92.188    4.353    0.000
  276.500    0.359    0.560   90.360    4.270    0.000
  276.750    0.359    0.557   84.873    4.189    0.000
  277.000    0.310    0.512   83.654    4.267    0.000
  277.250    0.276    0.482   90.363    4.430    0.000
  277.500    0.340    0.525   91.584    4.512    0.000
  277.750    0.381    0.565   89.146    4.427    0.000
  278.000    0.338    0.488   89.757    4.182    0.000
  278.250    0.285    0.463   90.977    3.950    0.000
  278.500    0.262    0.478   90.978    4.258    0.000
  278.750    0.251    0.468   90.979    4.590    0.000
  279.000    0.255    0.452   93.419    5.336 2273.130
  279.250    0.260    0.437   97.079    6.087 2264.720
  279.500    0.265    0.458   93.422    6.815 2256.310
  279.750    0.265    0.482   86.715    7.209 2256.320
  280.000    0.252    0.504   76.350    6.809 2279.450
  280.250    0.171    0.420   67.815    6.555 2418.210
  280.500    0.040    0.273   59.279    6.192 2641.080
  280.750    0.035    0.238   64.768    5.961 2649.490
  281.000    0.094    0.420   87.940    6.426 2548.580
  281.250    0.169    0.499   94.649    7.613 2420.330
  281.500    0.300    0.527   94.040    8.206 2197.470
  281.750    0.251    0.480   87.334    7.606 2281.580
  282.000    0.226    0.468   86.115    7.323 2323.630
  282.250    0.226    0.490   89.775    6.788 2323.630
  282.500    0.247    0.506   92.825    6.658 2287.900
  282.750    0.255    0.510   92.826    6.289 2273.180
  283.000    0.267    0.482   89.778    6.054 2254.260
  283.250    0.242    0.456   88.560    6.167 2296.320
  283.500    0.214    0.458   91.000    6.524 2344.680
  283.750    0.244    0.457   92.220    6.900 2292.120
  284.000    0.278    0.489   86.734    6.899 2235.360
  284.250    0.265    0.533   84.296    6.767 2256.380
  284.500    0.274    0.506   87.955    6.514 2241.670
  284.750    0.289    0.487   90.395    6.390 2216.440
  285.000    0.298    0.494   84.299    6.268 2199.630
  285.250    0.308    0.467   78.203    6.630 2182.810
  285.500    0.312    0.447   76.984    6.628 2176.510
  285.750    0.307    0.466   77.595    6.626 2184.920
  286.000    0.298    0.485   80.645    6.378 2199.640
  286.250    0.296    0.483   84.914    6.140 2203.850
  286.500    0.311    0.451   84.915    6.023 2178.630
  286.750    0.300    0.423   84.307    6.020 2197.550
  287.000    0.252    0.408   84.308    5.905 2279.550
  287.250    0.274    0.483   81.870    5.684 2241.710
  287.500    0.343    0.510   82.481    5.370 2123.980
  287.750    0.332    0.500   81.262    4.978 2142.900
  288.000    0.298    0.496   78.824    4.614 2199.670
  288.250    0.311    0.530   78.216    3.966 2178.650
  288.500    0.327    0.585   76.387    3.608 2151.320
  288.750    0.334    0.565   76.388    3.160 2138.710
  289.000    0.323    0.534   76.999    2.716 2157.640
  289.250    0.311    0.525   73.342    2.424 2178.670
  289.500    0.330    0.573   69.684    2.290 2145.030
  289.750    0.340    0.587   66.027    2.289 2128.220
  290.000    0.312    0.579   62.979    2.245 2176.580
  290.250    0.309    0.542   66.639    2.288 2180.790
  290.500    0.298    0.523   78.835    2.374 2199.710
  290.750    0.278    0.541   84.324    2.419 2235.460
  291.000    0.287    0.565   80.057    2.464 2218.640
  291.250    0.298    0.584   73.350    2.510 2199.720
  291.500    0.285    0.517   70.912    2.509 2222.850
  291.750    0.271    0.491   74.572    2.508 2245.980
  292.000    0.264    0.506   83.110    2.808 2258.600
  292.250    0.274    0.526   86.770    3.027 2241.790
  292.500    0.324    0.488   84.331    3.519 2155.590
  292.750    0.268    0.441   81.894    4.014 2252.310
  293.000    0.234    0.415   81.285    4.247 2309.080
  293.250    0.271    0.457   82.506    4.578 2246.010
  293.500    0.254    0.471   87.385    5.030 2275.440
  293.750    0.228    0.453   91.044    5.738 2319.600
  294.000    0.242    0.473   90.436    6.185 2296.480
  294.250    0.260    0.495   88.608    6.067 2264.940
  294.500    0.273    0.471   86.779    5.731 2243.920
  294.750    0.296    0.446   85.561    4.926 2203.980
  295.000    0.274    0.482   83.733    4.481 2241.830
  295.250    0.254    0.510   85.563    4.154 2275.470
  295.500    0.253    0.516   90.442    3.923 2277.580
  295.750    0.252    0.510   90.443    3.776 2279.680
  296.000    0.257    0.502   88.615    3.775 2271.280
  296.250    0.277    0.502   85.567    3.774 2235.540
  296.500    0.258    0.504   89.837    3.772 2269.180
  296.750    0.255    0.496   93.496    3.701 2273.390
  297.000    0.257    0.501   92.278    3.630 2271.290
  297.250    0.249    0.531   86.791    3.561 2283.910
