~VERSION INFORMATION
 VERS.                 2.0:   CWLS LOG ASCII STANDARD -VERSION 2.0
 WRAP.                  NO:   ONE LINE PER DEPTH STEP
~WELL INFORMATION BLOCK
#MNEM.UNIT           DATA                    DESCRIPTION OF MNEMONIC
#---------    -------------------            -------------------------------
# Generated from Intellog Unique Number	CX_WELLS/WELL/3171
WELL.         ULSTER ET AL HANGST            : Well_name    - WELL
LOC .         00/02-02-083-11W4/0            : Location     - LOCATION
UWI .         00/02-02-083-11W400            : Uwi          - UNIQUE WELL ID
ENTR.         T                              : Entered      - ENTERED BY
SRVC.         SCHLUMBERGER                   : Scn          - SERVICE COMPANY
STRT.M        285                            : top_depth    - START DEPTH
STOP.M        510                            : bot_depth    - STOP DEPTH
STEP.M        0.25                           : increment    - STEP LENGTH
 NULL. -999.2500:NULL Value
~CURVE INFORMATION BLOCK
#MNEM UNIT       ERCB CURVE CODE    CURVE DESCRIPTION
#-----------   ------------------   ----------------------------------
DEPT.M        00 001 00 00         : DEPTH        - DEPTH
GR  .API      00 310 00 00         : GR           - GAMMA RAY
NPHI.V/V      00 330 00 00         : PHIN         - NEUTRON POROSITY (SANDSTONE)
DPHI.V/V      00 890 00 00         : PHID         - DENSITY POROSITY (SANDSTONE)
ILD .OHMM     00 120 00 00         : RESD         - DEEP RESISTIVITY (DIL)
~PARAMETER INFORMATION
#MNEM.UNIT           DATA             DESCRIPTION OF MNEMONIC
#---------         -----------     ------------------------------
GL  .M        733                  : gl           - GROUND LEVEL ELEVATION
EREF.M        736.9                : kb           - ELEVATION OF DEPTH REFERENCE
DATM.M        736.9                : datum        - DATUM ELEVATION
TDD .M        508                  : tdd          - TOTAL DEPTH DRILLER
RUN .         ONE                  : Run          - RUN NUMBER
ENG .         BILL                 : Engineer     - RECORDING ENGINEER
WIT .         JIM                  : Witness      - WITNESSED BY
MUD .         GEL                  : Mud_type     - MUD TYPE
MATR.         SANDSTONE            : Logunit      - NEUTRON MATRIX
TMAX.C        23                   : BHT          - MAXIMUM RECORDED TEMPERATURE
BHTD.M        508                  : BHTDEP       - MAXIMUM RECORDED TEMPERATURE
MATR.         1                    : LOGUNIT      - NEUTRON MATRIX
RMT .C        20                   : MDTP         - TEMPERATURE OF MUD
NEUT.         1                    : NEUTRON      - NEUTRON TYPE
RESI.         4.2                  : RESIST       - RESISTIVITY TYPE
RMC .OHMM     4.2                  : RMC          - RESISTIVITY OF MUD CAKE
RMF .OHMM     3.75                 : RMF          - RESISTIVITY OF MUD FILTRATE
SUFT.C        15                   : SUFT         - SURFACE TEMPERATURE
~A  DEPTH       GR     PHIN     PHID     RESD
  285.000  104.771    0.515    0.262    3.422
  285.250  104.839    0.478    0.259    3.891
  285.500  104.880    0.468    0.253    4.113
  285.750  104.948    0.489    0.247    4.117
  286.000  105.002    0.509    0.239    3.978
  286.250  106.195    0.517    0.240    3.705
  286.500  107.387    0.519    0.244    3.514
  286.750  108.024    0.522    0.246    3.520
  287.000  109.786    0.526    0.247    3.523
  287.250  109.826    0.516    0.245    3.529
  287.500  108.743    0.506    0.243    3.470
  287.750  107.672    0.484    0.244    3.413
  288.000  107.713    0.475    0.245    3.355
  288.250  109.502    0.484    0.243    3.300
  288.500  110.112    0.495    0.241    3.821
  288.750  110.749    0.501    0.241    4.501
  289.000  110.803    0.471    0.241    5.210
  289.250  110.857    0.459    0.244    5.921
  289.500  109.787    0.458    0.247    6.488
  289.750  108.690    0.457    0.240    6.987
  290.000  105.899    0.452    0.188    7.801
  290.250  103.677    0.479    0.417    8.548
  290.500  101.455    0.491    0.433   10.633
  290.750  100.927    0.511    0.440   12.991
  291.000   98.719    0.500    0.437   15.877
  291.250   97.052    0.447    0.424   18.380
  291.500   92.555    0.402    0.408   19.082
  291.750   87.487    0.396    0.394   19.464
  292.000   81.851    0.397    0.388   19.477
  292.250   76.784    0.400    0.395   19.504
  292.500   72.300    0.404    0.390   18.837
  292.750   72.354    0.409    0.383   17.546
  293.000   72.422    0.409    0.370   16.057
  293.250   72.477    0.393    0.341   15.225
  293.500   72.517    0.387    0.324   15.524
  293.750   73.710    0.388    0.318   16.123
  294.000   74.902    0.390    0.323   16.139
  294.250   72.125    0.389    0.321   15.877
  294.500   69.320    0.387    0.311   15.329
  294.750   66.530    0.395    0.295   14.279
  295.000   65.460    0.420    0.295   14.298
  295.250   67.776    0.428    0.305   15.683
  295.500   76.380    0.428    0.309   17.191
  295.750   83.832    0.419    0.322   17.214
  296.000   92.422    0.409    0.321   16.929
  296.250   77.681    0.408    0.324   17.897
  296.500   72.045    0.460    0.372   19.611
  296.750   68.699    0.529    0.312   22.694
  297.000   76.137    0.448    0.327   25.338
  297.250   75.622    0.402    0.342   26.787
  297.500   70.569    0.375    0.337   26.832
  297.750   71.206    0.362    0.335   24.986
  298.000   69.540    0.366    0.337   21.650
  298.250   65.041    0.398    0.337   18.753
  298.500   60.530    0.457    0.328   15.959
  298.750   58.322    0.474    0.316   14.599
  299.000   69.757    0.428    0.303   16.900
  299.250   93.155    0.399    0.298   19.921
  299.500  106.311    0.381    0.301   21.437
  299.750   93.833    0.373    0.306   23.506
  300.000   77.385    0.370    0.330   24.396
  300.250   56.941    0.369    0.339   24.884
  300.500   49.611    0.368    0.335   23.594
  300.750   51.386    0.364    0.328   19.718
  301.000   53.120    0.361    0.322   15.329
  301.250   54.882    0.361    0.315   11.288
  301.500   54.936    0.370    0.284    9.606
  301.750   56.711    0.387    0.230    8.630
  302.000   59.611    0.403    0.179    8.642
  302.250   64.787    0.417    0.151    9.479
  302.500   83.633    0.413    0.155   10.014
  302.750   99.634    0.419    0.179   11.184
  303.000  109.362    0.410    0.224   11.608
  303.250  111.720    0.401    0.267   12.048
  303.500  108.915    0.403    0.284   12.289
  303.750  101.572    0.401    0.288   12.526
  304.000   97.074    0.386    0.291   12.543
  304.250   94.852    0.380    0.287   12.122
  304.500   91.479    0.389    0.277   11.913
  304.750   82.997    0.402    0.265   11.303
  305.000   80.207    0.413    0.253   10.721
  305.250   82.551    0.417    0.249   11.966
  305.500   86.033    0.421    0.246   12.881
  305.750   88.919    0.415    0.254   13.627
  306.000   92.970    0.409    0.271   13.636
  306.250   89.027    0.403    0.285   13.655
  306.500   82.822    0.399    0.289   13.674
  306.750   78.324    0.396    0.292   13.697
  307.000   76.672    0.397    0.292   13.465
  307.250   75.615    0.403    0.288   13.242
  307.500   75.642    0.412    0.283   13.027
  307.750   75.697    0.424    0.280   13.287
  308.000   76.889    0.423    0.268   13.539
  308.250   83.216    0.418    0.262   14.845
  308.500   90.668    0.415    0.267   16.289
  308.750   97.009    0.414    0.279   16.900
  309.000   96.495    0.412    0.302   17.541
  309.250   95.980    0.408    0.325   18.224
  309.500   95.465    0.402    0.323   18.243
  309.750   92.105    0.405    0.316   17.946
  310.000   88.176    0.408    0.311   17.327
  310.250   84.803    0.413    0.305   16.734
  310.500   86.009    0.414    0.298   15.872
  310.750   88.895    0.416    0.292   14.785
  311.000   92.932    0.418    0.287   13.772
  311.250   98.704    0.420    0.284   12.829
  311.500  102.742    0.420    0.278   11.736
  311.750  106.766    0.419    0.268   10.928
  312.000  109.679    0.418    0.259    9.642
  312.250  105.750    0.418    0.258    8.510
  312.500  102.959    0.418    0.256    7.785
  312.750   98.461    0.420    0.246    7.249
  313.000   96.253    0.432    0.239    6.876
  313.250   99.139    0.456    0.196    6.292
  313.500  103.746    0.484    0.178    5.966
  313.750  120.898    0.480    0.148    5.364
  314.000  120.939    0.463    0.114    5.084
  314.250  114.165    0.463    0.110    4.572
  314.500  105.115    0.481    0.153    4.335
  314.750  109.721    0.516    0.161    4.184
  315.000  118.311    0.521    0.185    3.970
  315.250  126.346    0.548    0.206    3.835
  315.500  125.831    0.561    0.223    3.841
  315.750  125.899    0.563    0.238    3.985
  316.000  125.940    0.507    0.254    4.868
  316.250  126.008    0.480    0.272    6.750
  316.500  124.924    0.448    0.288    9.534
  316.750  123.827    0.424    0.304   11.648
  317.000  122.201    0.409    0.297   13.242
  317.250  119.397    0.402    0.281   13.744
  317.500  116.023    0.399    0.276   14.019
  317.750  106.973    0.405    0.275   14.299
  318.000  104.182    0.408    0.282   14.313
  318.250  102.529    0.408    0.288   14.600
  318.500  104.291    0.409    0.292   14.100
  318.750  103.221    0.414    0.300   13.130
  319.000  101.568    0.415    0.298   11.585
  319.250   98.790    0.416    0.266    9.855
  319.500   96.000    0.414    0.248    6.511
  319.750   93.209    0.424    0.241    5.746
  320.000   90.987    0.446    0.195    6.648
  320.250   93.873    0.450    0.163    9.560
  320.500  109.305    0.422    0.179   10.869
  320.750  114.481    0.418    0.200   11.909
  321.000  112.259    0.417    0.248   13.539
  321.250  109.482    0.416    0.283   14.570
  321.500  107.260    0.416    0.278   15.684
  321.750  105.052    0.417    0.286   16.003
  322.000  104.523    0.416    0.299   16.019
  322.250  104.022    0.409    0.296   15.754
  322.500  104.049    0.404    0.271   14.942
  322.750  100.689    0.399    0.267   13.669
  323.000   89.946    0.400    0.259   12.505
  323.250   87.155    0.407    0.253   11.861
  323.500   87.778    0.417    0.244   12.314
  323.750   96.368    0.423    0.241   13.261
  324.000   98.129    0.427    0.248   13.763
  324.250   87.928    0.430    0.254   14.294
  324.500   84.581    0.433    0.265   14.309
  324.750   81.777    0.435    0.272   13.829
  325.000   76.723    0.437    0.281   13.351
  325.250   73.933    0.439    0.282   12.441
  325.500   73.987    0.442    0.287   12.226
  325.750   75.762    0.443    0.292   11.397
  326.000   76.954    0.439    0.299   11.208
  326.250   78.147    0.434    0.298   11.018
  326.500   79.922    0.425    0.292   10.839
  326.750   80.532    0.411    0.284   10.461
  327.000   82.876    0.403    0.272    9.751
  327.250   85.789    0.401    0.257    9.080
  327.500   88.106    0.407    0.247    8.455
  327.750   90.992    0.415    0.237    7.463
  328.000   97.333    0.422    0.229    6.705
  328.250  102.495    0.432    0.222    6.131
