~VERSION INFORMATION
 VERS.                 2.0:   CWLS LOG ASCII STANDARD -VERSION 2.0
 WRAP.                  NO:   ONE LINE PER DEPTH STEP
~WELL INFORMATION BLOCK
#MNEM.UNIT           DATA                    DESCRIPTION OF MNEMONIC
#---------    -------------------            -------------------------------
# Generated from Intellog Unique Number	CW_82_90/WELL/591
WELL.         07-11-082-20W4                 : Well_name    - WELL
LOC .         00/07-11-082-20W4/0            : Location     - LOCATION
UWI .         00/07-11-082-20W4/0            : Uwi          - UNIQUE WELL ID
ENTR.         JAYE                           : Entered      - ENTERED BY
SRVC.         SCHLUMBERGER                   : Scn          - SERVICE COMPANY
DATE.         07 FEB 77                      : Date         - LOG DATE
STRT.M        182.88                         : top_depth    - START DEPTH
STOP.M        373.13                         : bot_depth    - STOP DEPTH
STEP.M        0.25                           : increment    - STEP LENGTH
 NULL. -999.2500:NULL Value
~CURVE INFORMATION BLOCK
#MNEM UNIT       ERCB CURVE CODE    CURVE DESCRIPTION
#-----------   ------------------   ----------------------------------
DEPT.M        00 001 00 00         : DEPTH        - DEPTH
CALI.MM       00 280 01 00         : CAL          - CALIPER
GR  .API      00 310 00 00         : GR           - GAMMA RAY
NPHI.V/V      00 330 00 00         : PHIN         - NEUTRON POROSITY (SANDSTONE)
DPHI.V/V      00 890 00 00         : PHID         - DENSITY POROSITY (SANDSTONE)
ILD .OHMM     00 120 00 00         : RESD         - DEEP RESISTIVITY (DIL)
~PARAMETER INFORMATION
#MNEM.UNIT           DATA             DESCRIPTION OF MNEMONIC
#---------         -----------     ------------------------------
GL  .M        572.719              : gl           - GROUND LEVEL ELEVATION
EREF.M        581.863              : kb           - ELEVATION OF DEPTH REFERENCE
DATM.M        572.719              : datum        - DATUM ELEVATION
TDD .M        384.048              : tdd          - TOTAL DEPTH DRILLER
RUN .         ONE                  : Run          - RUN NUMBER
ENG .         CERANTOIA            : Engineer     - RECORDING ENGINEER
WIT .         GRAHAM               : Witness      - WITNESSED BY
BASE.         EDMONTON             : Branch       - HOME BASE OF LOGGING UNIT
MUD .         GEL CHEM             : Mud_type     - MUD TYPE
MATR.         SANDSTONE            : Logunit      - NEUTRON MATRIX
TMAX.C        24.4444              : BHT          - MAXIMUM RECORDED TEMPERATURE
BHTD.M        375.514              : BHTDEP       - MAXIMUM RECORDED TEMPERATURE
RMT .C        24.4444              : MDTP         - TEMPERATURE OF MUD
MUDD.KG/M     0                    : MWT          - MUD DENSITY
NEUT.         1                    : NEUTRON      - NEUTRON TYPE
RESI.         0                    : RESIST       - RESISTIVITY TYPE
RM  .OHMM     5                    : RM           - RESISTIVITY OF MUD
RMC .OHMM     5                    : RMC          - RESISTIVITY OF MUD CAKE
RMF .OHMM     5                    : RMF          - RESISTIVITY OF MUD FILTRATE
SUFT.C        4                    : SUFT         - SURFACE TEMPERATURE
~A  DEPTH      CAL       GR     PHIN     PHID     RESD
# ...
  219.380  152.801   54.830    0.517    0.350    9.516
  219.630  152.522   58.170    0.510    0.353   12.562
  219.880  152.227   56.689    0.512    0.347   15.503
  220.130  151.824   53.760    0.525    0.343   15.604
  220.380  151.411   49.934    0.531    0.351   15.425
  220.630  150.792   48.661    0.497    0.357   15.357
  220.880  150.613   53.310    0.478    0.360   15.287
  221.130  150.093   55.690    0.472    0.349   15.333
  221.380  149.916   53.797    0.473    0.334   16.005
  221.630  149.404   56.589    0.479    0.328   16.860
  221.880  148.993   59.446    0.483    0.330   17.728
  222.130  148.833   59.964    0.485    0.324   18.206
  222.380  148.537   58.001    0.490    0.341   18.160
  222.630  148.239   55.759    0.498    0.343   17.026
  222.880  148.422   51.314    0.506    0.347   16.258
  223.130  148.141   48.943    0.506    0.352   15.921
  223.380  147.844   48.492    0.515    0.345   15.997
  223.630  147.792   48.594    0.517    0.359   16.426
  223.880  147.498   49.530    0.513    0.355   17.400
  224.130  146.752   51.631    0.511    0.348   18.732
  224.380  146.460   52.975    0.513    0.347   19.135
  224.630  146.402   53.075    0.519    0.353   19.293
  224.880  146.347   52.905    0.520    0.348   19.454
  225.130  146.176   55.211    0.521    0.350   19.617
  225.380  145.560   58.346    0.524    0.344   19.604
  225.630  145.488   57.489    0.527    0.341   19.552
  225.880  145.334   57.451    0.524    0.343   19.540
  226.130  145.269   57.558    0.509    0.352   19.032
  226.380  145.206   56.561    0.503    0.357   18.037
  226.630  145.150   57.694    0.503    0.354   17.036
  226.880  144.746   60.278    0.493    0.350   15.974
  227.130  144.704   61.621    0.489    0.336   14.652
  227.380  144.870   58.488    0.489    0.328   13.466
  227.630  144.814   57.557    0.493    0.326   12.532
  227.880  144.878   58.075    0.510    0.355   11.815
  228.130  144.697   59.425    0.510    0.355   11.383
  228.380  145.347   58.216    0.507    0.353   11.376
  228.630  145.407   58.732    0.504    0.360   12.006
  228.880  146.043   61.245    0.505    0.363   13.356
  229.130  146.217   67.481    0.503    0.363   14.302
  229.380  147.672   71.377    0.503    0.361   14.635
  229.630  151.681   78.644    0.546    0.330   14.075
  229.880  154.060   84.608    0.574    0.339   11.283
  230.130  157.031   84.638    0.596    0.334    8.981
  230.380  159.996   81.092    0.592    0.326    5.400
  230.630  161.088   77.959    0.580    0.324    3.569
  230.880  151.751   77.099    0.519    0.315    2.909
  231.130  142.986   75.682    0.499    0.295    2.742
  231.380  139.915   72.137    0.522    0.290    2.775
  231.630  138.580   67.833    0.532    0.335    2.966
  231.880  137.369   63.733    0.498    0.321    3.674
  232.130  137.189   62.803    0.500    0.318    4.851
  232.380  137.137   65.108    0.491    0.314    6.198
  232.630  137.777   67.489    0.479    0.311    7.761
  232.880  139.716   67.175    0.476    0.292    9.389
  233.130  140.801   66.459    0.485    0.296   10.814
  233.380  141.788   64.834    0.510    0.327   11.433
  233.630  142.911   62.251    0.516    0.334   11.868
  233.880  142.954   60.843    0.513    0.344   12.368
  234.130  142.216   60.811    0.507    0.336   14.164
  234.380  141.567   63.526    0.510    0.332   15.364
  234.630  141.169   64.457    0.501    0.327   16.331
  234.880  141.118   59.257    0.470    0.315   15.936
  235.130  141.187   55.018    0.459    0.304   15.408
  235.380  141.343   51.608    0.466    0.314   15.152
  235.630  141.305   49.926    0.459    0.335   14.573
  235.880  141.367   50.022    0.461    0.320   13.683
  236.130  141.295   51.091    0.468    0.318   13.284
  236.380  141.474   50.437    0.473    0.330   12.612
  236.630  141.658   49.306    0.466    0.328   12.195
  236.880  142.055   48.992    0.450    0.324   12.080
  237.130  142.247   48.343    0.457    0.308   11.938
  237.380  142.538   47.750    0.462    0.302   11.757
  237.630  142.240   47.031    0.461    0.306   11.537
  237.880  142.094   46.517    0.455    0.319   11.300
  238.130  142.264   46.614    0.445    0.321   11.086
  238.380  142.189   47.000    0.442    0.321   10.959
  238.630  142.037   48.139    0.456    0.320   10.771
  238.880  141.968   48.510    0.454    0.302   10.645
  239.130  141.793   48.827    0.449    0.313   10.541
  239.380  142.197   49.408    0.448    0.327   10.344
  239.630  143.086   53.447    0.455    0.337   10.131
  239.880  143.489   53.817    0.463    0.329    9.923
  240.130  143.658   55.442    0.458    0.313    9.735
  240.380  143.732   55.063    0.449    0.313    9.551
  240.630  143.554   53.992    0.451    0.319    9.459
  240.880  143.379   55.128    0.465    0.332    9.402
  241.130  143.443   56.611    0.463    0.334    9.273
  241.380  143.612   56.509    0.450    0.336    9.198
  241.630  143.563   55.650    0.436    0.336    9.144
  241.880  143.285   54.441    0.433    0.336    9.102
  242.130  142.050   52.545    0.454    0.327    9.082
  242.380  138.530   50.720    0.464    0.327    9.058
  242.630  139.741   51.102    0.475    0.327    9.019
  242.880  141.419   49.967    0.474    0.314    8.979
  243.130  141.369   48.344    0.463    0.306    8.938
  243.380  141.308   46.795    0.454    0.319    8.834
  243.630  141.151   46.072    0.443    0.320    8.716
  243.880  141.439   46.450    0.424    0.312    8.679
  244.130  141.858   48.345    0.397    0.206    8.623
  244.380  141.801   46.934    0.327    0.057    8.619
  244.630  141.852   43.591    0.200    0.037    8.675
  244.880  141.908   40.392    0.180    0.021    9.685
  245.130  141.874   37.875    0.183    0.017   11.340
  245.380  142.047   38.737    0.194    0.056   12.919
  245.630  142.336   44.560    0.218    0.085   14.426
  245.880  142.621   48.451    0.325    0.151   16.525
  246.130  143.039   49.182    0.384    0.187   15.156
  246.380  143.333   48.386    0.457    0.225   13.930
  246.630  143.605   49.317    0.484    0.294   11.837
  246.880  144.137   51.278    0.484    0.322   10.508
  247.130  144.306   52.140    0.488    0.338    9.655
  247.380  144.025   52.727    0.481    0.332    9.236
  247.630  143.854   53.104    0.502    0.332    8.914
  247.880  143.680   53.073    0.513    0.343    8.795
  248.130  142.727   52.691    0.509    0.337    8.678
  248.380  139.852   51.072    0.495    0.320    8.577
  248.630  129.694   49.869    0.484    0.321    8.587
  248.880  129.986   49.624    0.482    0.338    8.720
  249.130  138.057   50.285    0.487    0.333    8.779
  249.380  141.967   51.833    0.482    0.334    8.864
  249.630  141.664   52.776    0.476    0.338    8.877
  249.880  141.489   52.522    0.473    0.337    8.871
  250.130  140.981   50.352    0.464    0.337    8.785
  250.380  140.799   50.041    0.453    0.345    8.652
  250.630  140.868   53.177    0.476    0.345    8.489
  250.880  141.046   54.183    0.488    0.338    8.389
  251.130  141.331   51.387    0.492    0.331    8.490
  251.380  141.399   49.008    0.491    0.340    8.641
  251.630  141.805   51.735    0.470    0.342    8.842
  251.880  141.858   52.183    0.465    0.325    9.062
  252.130  142.037   54.701    0.473    0.324    9.272
  252.380  137.800   53.144    0.473    0.327    9.436
  252.630  136.468   49.802    0.464    0.342    9.498
  252.880  141.769   50.945    0.476    0.339    9.454
  253.130  141.582   52.904    0.484    0.335    9.380
  253.380  141.064   55.142    0.474    0.342    9.288
  253.630  141.129   56.005    0.470    0.339    9.146
  253.880  141.198   52.732    0.478    0.329    8.991
  254.130  141.260   49.045    0.477    0.317    8.902
  254.380  141.668   44.948    0.416    0.303    8.849
  254.630  142.184   38.509    0.361    0.278    8.842
  254.880  142.471   35.029    0.314    0.185    8.965
  255.130  142.665   33.199    0.282    0.161    9.618
  255.380  142.838   32.408    0.269    0.162   11.445
  255.630  142.900   35.133    0.255    0.170   13.110
