~VERSION INFORMATION
 VERS.                 2.0:   CWLS LOG ASCII STANDARD -VERSION 2.0
 WRAP.                  NO:   ONE LINE PER DEPTH STEP
~WELL INFORMATION BLOCK
#MNEM.UNIT           DATA                    DESCRIPTION OF MNEMONIC
#---------    -------------------            -------------------------------
# Generated from Intellog Unique Number	CS_69_70/WELL/833
NULL.         -999.25                        : NULL_VALUE
WELL.         GULF CANADA LIMITED            : Well_name    - WELL              
LOC .         00/07-17-070-15W4/0            : Location     - LOCATION          
UWI .         00/07-17-070-15W4/0            : Uwi          - UNIQUE WELL ID    
ENTR.         SP                             : Entered      - ENTERED BY        
SRVC.         SCHLUMBERGER                   : Scn          - SERVICE COMPANY   
STRT.M        245                            : top_depth    - START DEPTH       
STOP.M        509                            : bot_depth    - STOP DEPTH        
STEP.M        0.25                           : increment    - STEP LENGTH       
~CURVE INFORMATION BLOCK
#MNEM UNIT       ERCB CURVE CODE    CURVE DESCRIPTION
#-----------   ------------------   ----------------------------------
DEPT.M        00 001 00 00         : DEPTH        - DEPTH                       
GR  .API      00 310 00 00         : GR           - GAMMA RAY                   
NPHI.V/V      00 330 00 00         : PHIN         - NEUTRON POROSITY (LIMESTONE)
DPHI.V/V      00 890 00 00         : PHID         - DENSITY POROSITY (LIMESTONE)
ILD .OHMM     00 120 00 00         : RESD         - DEEP RESISTIVITY (DIL)      
~PARAMETER INFORMATION       
#MNEM.UNIT           DATA             DESCRIPTION OF MNEMONIC
#---------         -----------     ------------------------------
GL  .M        567.89               : gl           - GROUND LEVEL ELEVATION      
EREF.M        572.24               : kb           - ELEVATION OF DEPTH REFERENCE
DATM.M        567.89               : datum        - DATUM ELEVATION             
TDD .M        519                  : tdd          - TOTAL DEPTH DRILLER         
RUN .         ONE                  : Run          - RUN NUMBER                  
ENG .         BILL                 : Engineer     - RECORDING ENGINEER          
WIT .         JIM                  : Witness      - WITNESSED BY                
MUD .         GEL                  : Mud_type     - MUD TYPE                    
MATR.         LIMESTONE            : Logunit      - NEUTRON MATRIX              
TMAX.C        25.5                 : BHT          - MAXIMUM RECORDED TEMPERATURE
BHTD.M        519                  : BHTDEP       - MAXIMUM RECORDED TEMPERATURE
MATR.         1                    : LOGUNIT      - NEUTRON MATRIX              
RMT .C        25                   : MDTP         - TEMPERATURE OF MUD          
NEUT.         1                    : NEUTRON      - NEUTRON TYPE                
RESI.         0                    : RESIST       - RESISTIVITY TYPE            
RMC .OHMM     0.25                 : RMC          - RESISTIVITY OF MUD CAKE     
RMF .OHMM     0.25                 : RMF          - RESISTIVITY OF MUD FILTRATE 
SUFT.C        15                   : SUFT         - SURFACE TEMPERATURE         
~A  DEPTH       GR     PHIN     PHID     RESD
# ...
  419.000   71.660    0.420    0.213    3.828
  419.250   72.875    0.416    0.221    3.758
  419.500   73.605    0.372    0.232    3.786
  419.750   75.909    0.367    0.242    3.886
  420.000   73.069    0.379    0.243    4.063
  420.250   71.803    0.389    0.234    4.585
  420.500   67.813    0.397    0.221    5.668
  420.750   62.492    0.403    0.138    6.540
  421.000   58.322    0.259    0.102    7.646
  421.250   55.179    0.220    0.028    7.951
  421.500   52.158    0.212    0.099    7.423
  421.750   61.118    0.326    0.152    5.775
  422.000   70.561    0.349    0.209    5.043
  422.250   78.553    0.368    0.238    4.613
  422.500   83.942    0.388    0.185    4.453
  422.750   85.096    0.389    0.161    4.520
  423.000   81.591    0.389    0.161    4.605
  423.250   82.079    0.410    0.171    4.648
  423.500   83.899    0.406    0.176    4.709
  423.750   85.052    0.397    0.180    4.833
  424.000   86.269    0.392    0.167    5.158
  424.250   86.271    0.390    0.161    5.598
  424.500   84.157    0.415    0.171    5.725
  424.750   72.180    0.431    0.163    5.630
  425.000   66.920    0.406    0.088    5.506
  425.250   73.944    0.365    0.095    5.276
  425.500   81.753    0.370    0.129    5.074
  425.750   90.229    0.384    0.197    4.972
  426.000   89.386    0.395    0.200    4.990
  426.250   86.125    0.409    0.196    5.037
  426.500   85.159    0.419    0.176    5.103
  426.750   85.102    0.403    0.143    5.123
  427.000   87.346    0.388    0.168    5.066
  427.250   89.044    0.393    0.191    4.945
  427.500   89.835    0.389    0.194    4.872
  427.750   90.687    0.383    0.189    4.765
  428.000   92.446    0.386    0.189    4.695
  428.250   93.055    0.388    0.195    4.617
  428.500   91.909    0.388    0.205    4.575
  428.750   86.588    0.386    0.192    4.566
  429.000   86.593    0.398    0.160    4.627
  429.250   89.018    0.402    0.152    4.731
  429.500   88.537    0.391    0.169    4.838
  429.750   82.975    0.392    0.181    5.087
  430.000   78.622    0.393    0.158    5.300
  430.250   74.512    0.380    0.120    5.349
  430.500   71.551    0.367    0.075    5.154
  430.750   66.956    0.337    0.061    4.857
  431.000   61.999    0.300    0.050    4.518
  431.250   67.631    0.303    0.150    4.233
  431.500   73.806    0.342    0.173    3.981
  431.750   81.193    0.370    0.187    3.696
  432.000   85.251    0.402    0.202    3.381
  432.250   81.927    0.383    0.185    2.936
  432.500   82.598    0.365    0.176    2.660
  432.750   85.083    0.391    0.170    2.521
  433.000   88.717    0.427    0.189    2.461
  433.250   91.928    0.454    0.203    2.443
  433.500   87.697    0.483    0.206    2.484
  433.750   88.670    0.480    0.232    2.808
  434.000   88.310    0.522    0.250    3.320
  434.250   84.200    0.540    0.182    3.781
  434.500   78.516    0.402    0.157    4.315
  434.750   79.973    0.394    0.160    4.833
  435.000   81.308    0.392    0.174    5.226
  435.250   80.344    0.404    0.184    5.843
  435.500   65.826    0.419    0.176    6.389
  435.750   58.630    0.426    0.010    7.358
  436.000   54.217    0.244   -0.004    8.242
  436.250   59.667    0.240    0.023    8.350
  436.500   70.926    0.282    0.079    7.869
  436.750   77.707    0.330    0.136    7.144
  437.000   80.918    0.376    0.181    6.534
  437.250   79.834    0.398    0.204    6.146
  437.500   75.542    0.390    0.156    6.044
  437.750   76.514    0.373    0.113    6.044
  438.000   78.817    0.360    0.120    6.090
  438.250   79.003    0.346    0.111    6.170
  438.500   79.854    0.361    0.128    6.102
  438.750   84.638    0.370    0.148    5.803
  439.000   88.939    0.366    0.162    5.438
  439.250   90.335    0.367    0.178    5.114
  439.500   92.638    0.381    0.164    4.846
  439.750   95.003    0.384    0.164    4.601
  440.000   96.640    0.391    0.173    4.417
  440.250   98.036    0.394    0.179    4.232
  440.500   93.260    0.402    0.202    4.078
  440.750   93.628    0.413    0.231    3.980
  441.000   96.112    0.429    0.208    3.871
  441.250   96.056    0.449    0.192    3.772
  441.500   91.522    0.465    0.185    3.716
  441.750   89.409    0.449    0.173    3.744
  442.000   91.531    0.456    0.161    3.800
  442.250   92.382    0.468    0.189    3.872
  442.500   92.206    0.457    0.182    3.952
  442.750   91.059    0.436    0.161    3.989
  443.000   88.825    0.440    0.149    4.027
  443.250   88.829    0.442    0.162    4.027
  443.500   89.136    0.428    0.159    4.005
  443.750   89.564    0.426    0.131    3.953
  444.000   91.021    0.424    0.115    3.844
  444.250   92.476    0.429    0.151    3.684
  444.500   95.507    0.447    0.193    3.569
  444.750   97.931    0.452    0.192    3.414
  445.000   99.508    0.432    0.168    3.253
  445.250   98.967    0.443    0.190    3.158
  445.500   97.338    0.490    0.204    3.123
  445.750   94.801    0.493    0.210    3.129
  446.000   92.445    0.471    0.211    3.152
  446.250   89.545    0.468    0.198    3.217
  446.500   88.884    0.459    0.164    3.152
  446.750   90.763    0.423    0.143    2.927
  447.000   94.519    0.404    0.149    2.758
  447.250   97.912    0.446    0.189    2.758
  447.500  100.578    0.482    0.205    2.971
  447.750  100.340    0.502    0.214    3.652
  448.000   96.049    0.524    0.221    4.481
  448.250   85.706    0.537    0.221    5.228
  448.500   76.270    0.405    0.166    5.988
  448.750   70.526    0.338    0.105    6.859
  449.000   71.377    0.330    0.074    7.784
  449.250   75.558    0.332    0.099    8.542
  449.500   75.924    0.342    0.109    9.288
  449.750   70.240    0.331    0.072    9.821
  450.000   54.224    0.238    0.231    6.498
  450.250   57.929    0.255    0.256   10.752
  450.500   58.885    0.266    0.260   10.094
  450.750   59.959    0.282    0.251    9.835
  451.000   61.632    0.299    0.241    9.762
  451.250   62.647    0.321    0.232    9.672
  451.500   63.123    0.345    0.230    9.708
  451.750   61.029    0.345    0.235    9.781
  452.000   60.968    0.347    0.230    9.835
  452.250   61.684    0.359    0.222    9.854
  452.500   61.383    0.355    0.218    9.781
  452.750   61.143    0.353    0.216    9.709
  453.000   61.858    0.351    0.211    9.637
  453.250   63.770    0.347    0.202    9.460
  453.500   64.606    0.339    0.198    9.338
  453.750   62.871    0.333    0.193    9.081
  454.000   65.081    0.326    0.196    8.848
  454.250   66.694    0.327    0.203    8.494
  454.500   65.377    0.329    0.199    8.276
  454.750   64.778    0.337    0.199    8.004
  455.000   64.597    0.339    0.203    7.915
  455.250   65.193    0.329    0.198    8.384
  455.500   67.224    0.318    0.169    8.590
  455.750   68.956    0.305    0.141    9.287
  456.000   62.199    0.287    0.103    9.967
  456.250   52.812    0.263    0.063   10.268
  456.500   55.321    0.235    0.136    9.967
  456.750   65.363    0.270    0.147    9.202
  457.000   75.226    0.304    0.136    8.231
  457.250   81.383    0.324    0.132    7.473
  457.500   82.696    0.327    0.140    7.916
  457.750   73.727    0.331    0.170    8.495
  458.000   64.519    0.347    0.204    8.785
  458.250   60.452    0.362    0.230    8.687
  458.500   64.217    0.349    0.258    7.699
  458.750   70.074    0.343    0.267    6.951
  459.000   74.915    0.338    0.238    6.525
  459.250   77.485    0.337    0.214    6.311
  459.500   76.885    0.321    0.190    6.229
  459.750   80.411    0.303    0.169    6.276
  460.000   87.105    0.286    0.153    6.382
  460.250   91.468    0.299    0.138    6.466
  460.500   94.276    0.314    0.151    6.563
  460.750   93.498    0.317    0.162    6.624
  461.000   90.626    0.328    0.167    6.636
  461.250   85.424    0.360    0.157    6.698
  461.500   75.498    0.360    0.178    6.875
  461.750   68.801    0.337    0.196    7.242
  462.000   59.174    0.315    0.195    7.559
  462.250   66.466    0.300    0.166    7.816
