~VERSION INFORMATION
 VERS.                 2.0:   CWLS LOG ASCII STANDARD -VERSION 2.0
 WRAP.                  NO:   ONE LINE PER DEPTH STEP
~WELL INFORMATION BLOCK
#MNEM.UNIT           DATA                    DESCRIPTION OF MNEMONIC
#---------    -------------------            -------------------------------
# Generated from Intellog Unique Number	CS_71_72/WELL/800
WELL.         BVX ET AL LYLE                 : Well_name    - WELL
LOC .         00/06-36-072-17W4/0            : Location     - LOCATION
UWI .         00/06-36-072-17W4/0            : Uwi          - UNIQUE WELL ID
ENTR.         SP                             : Entered      - ENTERED BY
SRVC.         SCHLUMBERGER                   : Scn          - SERVICE COMPANY
STRT.M        268.224                        : top_depth    - START DEPTH
STOP.M        461.224                        : bot_depth    - STOP DEPTH
STEP.M        0.25                           : increment    - STEP LENGTH
 NULL. -999.2500:NULL Value
~CURVE INFORMATION BLOCK
#MNEM UNIT       ERCB CURVE CODE    CURVE DESCRIPTION
#-----------   ------------------   ----------------------------------
DEPT.M        00 001 00 00         : DEPTH        - DEPTH
GR  .API      00 310 00 00         : GR           - GAMMA RAY
DPHI.V/V      00 890 00 00         : PHID         - DENSITY POROSITY (SANDSTONE)
NPHI.V/V      00 330 00 00         : PHIN         - NEUTRON POROSITY (SANDSTONE)
ILD .OHMM     00 120 00 00         : RESD         - DEEP RESISTIVITY (DIL)
~PARAMETER INFORMATION
#MNEM.UNIT           DATA             DESCRIPTION OF MNEMONIC
#---------         -----------     ------------------------------
GL  .M        592.836              : gl           - GROUND LEVEL ELEVATION
EREF.M        595.884              : kb           - ELEVATION OF DEPTH REFERENCE
DATM.M        592.836              : datum        - DATUM ELEVATION
TDD .M        463.296              : tdd          - TOTAL DEPTH DRILLER
RUN .         ONE                  : Run          - RUN NUMBER
ENG .         BILL                 : Engineer     - RECORDING ENGINEER
WIT .         JIM                  : Witness      - WITNESSED BY
MUD .         GEL                  : Mud_type     - MUD TYPE
MATR.         SANDSTONE            : Logunit      - NEUTRON MATRIX
TMAX.C        12.7778              : BHT          - MAXIMUM RECORDED TEMPERATURE
BHTD.M        463.296              : BHTDEP       - MAXIMUM RECORDED TEMPERATURE
MATR.         1                    : LOGUNIT      - NEUTRON MATRIX
RMT .C        25                   : MDTP         - TEMPERATURE OF MUD
NEUT.         1                    : NEUTRON      - NEUTRON TYPE
RESI.         0                    : RESIST       - RESISTIVITY TYPE
RMC .OHMM     0.25                 : RMC          - RESISTIVITY OF MUD CAKE
RMF .OHMM     0.25                 : RMF          - RESISTIVITY OF MUD FILTRATE
SUFT.C        15                   : SUFT         - SURFACE TEMPERATURE
~A  DEPTH       GR     PHID     PHIN     RESD
# ...
  311.724  108.933    0.195    0.451    6.533
  311.974  112.363    0.233    0.462    6.011
  312.224  114.924    0.202    0.460    5.833
  312.474  114.686    0.223    0.456    5.627
  312.724  112.276    0.249    0.459    5.502
  312.974  109.276    0.253    0.470    5.637
  313.224  106.931    0.253    0.455    5.713
  313.474  101.269    0.267    0.440    6.125
  313.724   95.026    0.293    0.436    6.315
  313.974   89.766    0.291    0.449    6.679
  314.224   89.865    0.304    0.437    6.870
  314.474   93.837    0.294    0.429    7.021
  314.724   97.155    0.285    0.431    7.019
  314.974  100.837    0.262    0.437    7.067
  315.224  103.443    0.264    0.455    6.707
  315.474  108.341    0.262    0.470    6.392
  315.724  111.418    0.247    0.482    5.784
  315.974  114.691    0.240    0.502    5.565
  316.224  115.449    0.247    0.520    5.153
  316.474  114.496    0.253    0.527    5.522
  316.724  111.248    0.249    0.478    6.038
  316.974  107.530    0.246    0.463    6.739
  317.224  100.195    0.277    0.459    7.294
  317.474   93.621    0.299    0.459    8.048
  317.724   90.339    0.307    0.470    8.266
  317.974   82.892    0.314    0.471    8.724
  318.224   73.049    0.310    0.446    8.787
  318.474   68.237    0.300    0.432    8.930
  318.724   67.826    0.291    0.422    8.739
  318.974   67.410    0.284    0.418    8.491
  319.224   68.878    0.285    0.419    8.413
  319.474   69.454    0.293    0.422    8.192
  319.724   71.008    0.308    0.430    8.060
  319.974   70.876    0.322    0.440    8.058
  320.224   68.449    0.319    0.454    8.059
  320.474   68.045    0.319    0.464    8.063
  320.724   68.757    0.326    0.462    8.067
  320.974   68.679    0.337    0.450    8.073
  321.224   67.730    0.342    0.436    8.077
  321.474   65.878    0.336    0.428    8.081
  321.724   63.959    0.334    0.420    8.085
  321.974   62.644    0.334    0.418    8.075
  322.224   64.203    0.340    0.428    8.269
  322.474   66.398    0.334    0.434    8.103
  322.724   66.844    0.335    0.443    8.122
  322.974   66.410    0.338    0.439    7.954
  323.224   65.990    0.340    0.433    7.835
  323.474   65.525    0.340    0.427    7.826
  323.724   66.582    0.346    0.423    7.811
  323.974   68.118    0.355    0.419    7.687
  324.224   67.827    0.347    0.427    7.707
  324.474   66.509    0.339    0.431    7.554
  324.724   65.903    0.337    0.447    7.567
  324.974   66.843    0.344    0.463    7.579
  325.224   67.198    0.350    0.472    7.436
  325.474   65.848    0.347    0.478    7.442
  325.724   64.828    0.344    0.474    7.443
  325.974   64.844    0.343    0.471    7.448
  326.224   65.756    0.337    0.468    7.451
  326.474   67.429    0.333    0.456    7.456
  326.724   68.904    0.342    0.449    7.460
  326.974   69.674    0.349    0.444    7.477
  327.224   70.400    0.355    0.443    7.324
  327.474   70.879    0.347    0.458    7.338
  327.724   71.632    0.344    0.464    7.341
  327.974   70.916    0.354    0.457    7.346
  328.224   69.606    0.365    0.454    7.336
  328.474   67.992    0.365    0.464    7.502
  328.724   66.842    0.356    0.469    7.492
  328.974   66.136    0.345    0.474    7.492
  329.224   65.828    0.339    0.480    7.471
  329.474   66.253    0.357    0.484    7.366
  329.724   67.213    0.363    0.488    7.367
  329.974   68.200    0.359    0.487    7.353
  330.224   69.126    0.355    0.482    7.356
  330.474   70.778    0.360    0.478    7.392
  330.724   72.393    0.360    0.483    7.250
  330.974   72.995    0.347    0.498    7.248
  331.224   72.345    0.344    0.507    7.413
  331.474   71.138    0.354    0.513    7.401
  331.724   71.313    0.358    0.531    7.313
  331.974   72.519    0.349    0.520    7.279
  332.224   73.576    0.354    0.501    7.278
  332.474   72.287    0.355    0.509    7.284
  332.724   71.116    0.357    0.515    7.292
  332.974   70.153    0.353    0.508    7.172
  333.224   69.459    0.359    0.510    7.162
  333.474   69.606    0.361    0.505    7.153
  333.724   71.157    0.359    0.498    7.034
  333.974   73.067    0.358    0.492    7.021
  334.224   74.348    0.358    0.490    7.319
  334.474   74.550    0.356    0.490    7.310
  334.724   73.463    0.353    0.485    7.316
  334.974   73.746    0.352    0.484    7.325
  335.224   74.134    0.352    0.492    7.184
  335.474   74.376    0.360    0.502    7.196
  335.724   74.335    0.364    0.519    7.202
  335.974   75.821    0.359    0.529    7.205
  336.224   74.255    0.360    0.516    7.209
  336.474   73.798    0.362    0.485    7.214
  336.724   74.757    0.361    0.476    7.218
  336.974   75.761    0.361    0.491    7.221
  337.224   77.387    0.364    0.498    7.238
  337.474   77.412    0.356    0.516    7.084
  337.724   78.090    0.350    0.530    7.103
  337.974   77.380    0.347    0.543    7.017
  338.224   79.329    0.351    0.537    6.982
  338.474   80.516    0.358    0.530    6.988
  338.724   81.242    0.362    0.526    6.850
  338.974   80.424    0.357    0.519    6.865
  339.224   76.615    0.349    0.522    6.879
  339.474   78.274    0.354    0.516    6.737
  339.724   80.952    0.357    0.514    6.752
  339.974   83.599    0.347    0.516    6.756
  340.224   82.539    0.350    0.508    6.756
  340.474   80.581    0.348    0.499    6.757
  340.724   80.034    0.343    0.496    6.636
  340.974   80.037    0.344    0.494    6.647
  341.224   80.676    0.351    0.500    6.651
  341.474   81.728    0.353    0.505    6.723
  341.724   81.960    0.349    0.500    6.937
  341.974   80.817    0.345    0.494    7.164
  342.224   80.993    0.341    0.492    7.306
  342.474   82.693    0.339    0.497    7.602
  342.724   83.765    0.343    0.501    7.852
  342.974   82.223    0.344    0.513    7.880
  343.224   81.373    0.337    0.531    7.717
  343.474   81.394    0.334    0.535    7.389
  343.724   82.484    0.333    0.512    7.157
  343.974   83.833    0.333    0.503    6.808
  344.224   84.074    0.329    0.503    6.778
  344.474   81.042    0.328    0.518    6.827
  344.724   81.438    0.326    0.523    6.707
  344.974   84.357    0.327    0.489    6.370
  345.224   88.311    0.330    0.479    6.081
  345.474   95.444    0.313    0.495    5.815
  345.724   98.742    0.303    0.520    5.478
  345.974  103.628    0.290    0.511    5.274
  346.224  103.762    0.274    0.501    5.045
  346.474  100.958    0.262    0.500    4.831
  346.724  100.035    0.252    0.503    4.749
  346.974  100.823    0.240    0.508    4.608
  347.224  103.499    0.232    0.517    4.601
  347.474  106.071    0.238    0.517    4.510
  347.724  107.422    0.228    0.530    4.459
  347.974  107.363    0.230    0.528    4.415
  348.224  103.851    0.232    0.517    4.360
  348.474  101.888    0.244    0.517    4.321
  348.724   99.891    0.246    0.519    4.382
  348.974   96.499    0.257    0.532    4.599
  349.224   92.107    0.268    0.514    4.739
  349.474   89.264    0.278    0.505    4.887
  349.724   85.385    0.339    0.508    4.962
  349.974   80.534    0.357    0.512    4.847
  350.224   81.348    0.352    0.508    4.451
  350.474   84.508    0.351    0.507    4.131
  350.724   86.436    0.326    0.525    3.970
  350.974   87.835    0.317    0.538    3.995
  351.224   83.076    0.303    0.520    4.340
  351.474   80.053    0.311    0.491    4.655
  351.724   78.066    0.331    0.473    4.868
  351.974   73.968    0.355    0.469    5.243
  352.224   72.918    0.357    0.482    5.392
  352.474   72.441    0.355    0.488    5.478
  352.724   72.694    0.349    0.491    5.486
  352.974   73.758    0.345    0.504    5.373
  353.224   75.272    0.344    0.512    5.210
  353.474   76.808    0.344    0.511    5.190
  353.724   76.695    0.339    0.505    5.293
  353.974   77.685    0.335    0.495    5.541
  354.224   78.576    0.338    0.491    5.660
  354.474   78.013    0.342    0.480    6.126
  354.724   75.100    0.344    0.464    6.308
  354.974   73.070    0.348    0.451    6.668
