~VERSION INFORMATION
 VERS.                 2.0:   CWLS LOG ASCII STANDARD -VERSION 2.0
 WRAP.                  NO:   ONE LINE PER DEPTH STEP
~WELL INFORMATION BLOCK
#MNEM.UNIT           DATA                    DESCRIPTION OF MNEMONIC
#---------    -------------------            -------------------------------
# Generated from Intellog Unique Number	CS_67_68/WELL/2169
WELL.         CHIEFCO et al TWEEDIE          : Well_name    - WELL
LOC .         00/06-13-067-12W4/0            : Location     - LOCATION
UWI .         00/06-13-067-12W4/0            : Uwi          - UNIQUE WELL ID
ENTR.         SP                             : Entered      - ENTERED BY
SRVC.         SCHLUMBERGER                   : Scn          - SERVICE COMPANY
STRT.M        320                            : top_depth    - START DEPTH
STOP.M        525                            : bot_depth    - STOP DEPTH
STEP.M        0.25                           : increment    - STEP LENGTH
 NULL. -999.2500:NULL Value
~CURVE INFORMATION BLOCK
#MNEM UNIT       ERCB CURVE CODE    CURVE DESCRIPTION
#-----------   ------------------   ----------------------------------
DEPT.M        00 001 00 00         : DEPTH        - DEPTH
ILD .OHMM     00 120 00 00         : RESD         - DEEP RESISTIVITY (DIL)
DPHI.V/V      00 890 00 00         : PHID         - DENSITY POROSITY (LIMESTONE)
NPHI.V/V      00 330 00 00         : PHIN         - NEUTRON POROSITY (LIMESTONE)
GR  .API      00 310 00 00         : GR           - GAMMA RAY
CALI.MM       00 280 01 00         : CAL          - CALIPER
~PARAMETER INFORMATION
#MNEM.UNIT           DATA             DESCRIPTION OF MNEMONIC
#---------         -----------     ------------------------------
GL  .M        604.6                : gl           - GROUND LEVEL ELEVATION
EREF.M        607.6                : kb           - ELEVATION OF DEPTH REFERENCE
DATM.M        607.6                : datum        - DATUM ELEVATION
TDD .M        532                  : tdd          - TOTAL DEPTH DRILLER
RUN .         ONE                  : Run          - RUN NUMBER
ENG .         BILL                 : Engineer     - RECORDING ENGINEER
WIT .         JIM                  : Witness      - WITNESSED BY
MUD .         GEL                  : Mud_type     - MUD TYPE
MATR.         LIMESTONE            : Logunit      - NEUTRON MATRIX
TMAX.C        20                   : BHT          - MAXIMUM RECORDED TEMPERATURE
BHTD.M        529                  : BHTDEP       - MAXIMUM RECORDED TEMPERATURE
MATR.         1                    : LOGUNIT      - NEUTRON MATRIX
RMT .C        25                   : MDTP         - TEMPERATURE OF MUD
NEUT.         1                    : NEUTRON      - NEUTRON TYPE
RESI.         0                    : RESIST       - RESISTIVITY TYPE
RMC .OHMM     0.25                 : RMC          - RESISTIVITY OF MUD CAKE
RMF .OHMM     0.25                 : RMF          - RESISTIVITY OF MUD FILTRATE
SUFT.C        15                   : SUFT         - SURFACE TEMPERATURE
~A  DEPTH     RESD     PHID     PHIN       GR      CAL
# ...
  393.000    2.546    0.231    0.330   75.248  140.401
  393.250    2.700    0.238    0.328   78.300  140.390
  393.500    2.847    0.242    0.322   75.173  140.380
  393.750    2.963    0.233    0.316   69.723  140.064
  394.000    3.143    0.207    0.314   74.365  139.951
  394.250    3.271    0.182    0.318   77.418  139.634
  394.500    3.373    0.179    0.316   79.308  139.622
  394.750    3.440    0.174    0.315   77.466  139.816
  395.000    3.469    0.177    0.329   74.523  140.109
  395.250    3.426    0.199    0.344   75.556  140.406
  395.500    3.232    0.221    0.354   79.832  140.803
  395.750    2.993    0.213    0.364   82.517  140.793
  396.000    2.934    0.201    0.365   86.731  141.394
  396.250    2.824    0.193    0.370   92.781  143.422
  396.500    2.785    0.187    0.378   98.158  146.572
  396.750    2.756    0.184    0.381  101.333  150.130
  397.000    2.619    0.192    0.388  101.448  154.197
  397.250    2.411    0.205    0.409   98.934  157.857
  397.500    2.232    0.219    0.430   94.767  160.701
  397.750    2.125    0.246    0.430   92.620  163.950
  398.000    2.220    0.275    0.418   88.943  165.980
  398.250    2.349    0.309    0.406   84.961  166.275
  398.500    2.576    0.243    0.383   83.180  162.085
  398.750    2.872    0.210    0.351   83.295  154.223
  399.000    3.057    0.187    0.343   83.778  150.033
  399.250    3.224    0.183    0.360   84.995  149.511
  399.500    3.318    0.203    0.369   86.641  148.584
  399.750    3.346    0.218    0.377   88.959  148.164
  400.000    3.162    0.199    0.376   83.875  147.440
  400.250    3.021    0.209    0.370   85.275  147.428
  400.500    2.902    0.224    0.366   87.165  146.705
  400.750    2.672    0.227    0.363   89.239  145.164
  401.000    2.334    0.230    0.366   88.193  144.030
  401.250    2.090    0.277    0.368   78.398  143.716
  401.500    1.892    0.293    0.376   70.134  143.398
  401.750    1.788    0.294    0.370   67.558  143.286
  402.000    1.714    0.283    0.369   70.058  143.174
  402.250    1.662    0.276    0.375   72.376  142.653
  402.500    1.627    0.270    0.373   74.144  142.131
  402.750    1.659    0.266    0.366   74.200  142.122
  403.000    1.756    0.263    0.358   66.241  141.703
  403.250    1.901    0.260    0.353   65.194  141.692
  403.500    2.088    0.257    0.353   68.736  141.884
  403.750    2.252    0.254    0.359   70.748  142.486
  404.000    2.305    0.257    0.348   67.071  142.883
  404.250    2.320    0.265    0.338   72.081  143.077
  404.500    2.208    0.277    0.342   74.276  143.066
  404.750    2.056    0.286    0.346   72.680  142.747
  405.000    1.964    0.287    0.333   68.636  142.432
  405.250    2.194    0.288    0.320   63.980  142.217
  405.500    2.558    0.271    0.307   61.526  142.306
  405.750    2.983    0.239    0.295   68.126  142.297
  406.000    3.484    0.258    0.289   71.729  142.491
  406.250    4.296    0.295    0.290   60.895  142.378
  406.500    4.935    0.218    0.272   55.873  142.570
  406.750    5.412    0.175    0.235   49.687  142.969
  407.000    5.716    0.132    0.197   54.330  142.856
  407.250    5.585    0.061    0.187   56.831  143.251
  407.500    3.999    0.063    0.169   59.089  143.444
  407.750    2.934    0.066    0.234   61.407  143.639
  408.000    2.465    0.096    0.291   67.824  143.832
  408.250    2.191    0.266    0.318   73.017  143.414
  408.500    2.051    0.308    0.350   72.338  142.995
  408.750    1.934    0.265    0.360   78.448  143.086
  409.000    1.893    0.245    0.367   86.639  144.094
  409.250    1.902    0.240    0.363   94.585  144.696
  409.500    1.976    0.241    0.368   92.254  145.093
  409.750    2.127    0.240    0.356   92.064  145.286
  410.000    2.238    0.242    0.349   91.385  145.478
  410.250    2.373    0.226    0.353   87.280  145.672
  410.500    2.561    0.217    0.361   84.459  146.069
  410.750    2.629    0.218    0.356   88.183  146.568
  411.000    2.783    0.221    0.345   92.580  147.167
  411.250    2.907    0.213    0.339   94.961  147.463
  411.500    2.943    0.207    0.339   89.878  147.452
  411.750    2.891    0.201    0.348   92.747  147.647
  412.000    2.820    0.196    0.360   95.981  147.736
  412.250    2.780    0.193    0.367   97.383  147.727
  412.500    2.778    0.196    0.370   96.274  148.021
  412.750    2.881    0.195    0.372   95.045  148.112
  413.000    3.044    0.196    0.370   99.382  148.306
  413.250    3.133    0.196    0.367  103.046  148.296
  413.500    3.218    0.200    0.361   96.922  148.285
  413.750    3.210    0.206    0.359   88.841  148.274
  414.000    3.153    0.217    0.361   87.978  148.365
  414.250    3.058    0.215    0.361   94.331  147.945
  414.500    3.016    0.213    0.357   97.997  147.629
  414.750    2.990    0.214    0.358   96.706  146.803
  415.000    3.049    0.210    0.361   89.298  146.079
  415.250    3.216    0.204    0.362   81.951  145.456
  415.500    3.372    0.197    0.363   83.107  145.139
  415.750    3.584    0.195    0.369   87.749  145.027
  416.000    3.668    0.204    0.368   89.211  145.422
  416.250    3.725    0.207    0.372   84.983  145.614
  416.500    3.750    0.203    0.373   82.224  145.707
  416.750    3.698    0.196    0.369   80.811  145.594
  417.000    3.600    0.192    0.365   83.128  145.381
  417.250    3.510    0.190    0.362   87.037  145.063
  417.500    3.442    0.181    0.369   88.192  145.051
  417.750    3.363    0.174    0.374   88.309  145.450
  418.000    3.329    0.168    0.364   89.710  145.644
  418.250    3.315    0.174    0.358   94.658  145.836
  418.500    3.317    0.179    0.363   98.383  146.028
  418.750    3.326    0.186    0.360   86.448  145.916
  419.000    3.336    0.188    0.354   80.507  146.008
  419.250    3.357    0.184    0.359   85.212  146.201
  419.500    3.393    0.182    0.365   85.755  146.394
  419.750    3.421    0.184    0.376   86.727  146.483
  420.000    3.476    0.177    0.377   87.699  146.576
  420.250    3.531    0.170    0.371   89.774  146.565
  420.500    3.601    0.164    0.373   92.763  146.962
  420.750    3.631    0.165    0.366   94.593  147.156
  421.000    3.627    0.169    0.369   94.587  147.247
  421.250    3.545    0.173    0.382   87.362  147.134
  421.500    3.489    0.174    0.387   80.749  147.123
  421.750    3.402    0.173    0.393   81.782  147.215
  422.000    3.299    0.170    0.397   90.034  147.510
  422.250    3.141    0.169    0.388   92.169  148.008
  422.500    2.956    0.178    0.387   91.184  148.202
  422.750    2.794    0.185    0.391   92.584  148.190
  423.000    2.744    0.189    0.395   96.124  148.179
  423.250    2.737    0.191    0.407   97.710  147.862
  423.500    2.765    0.183    0.402   97.091  147.954
  423.750    2.773    0.179    0.386   95.861  147.842
  424.000    2.786    0.174    0.378   97.506  147.728
  424.250    2.768    0.179    0.378   97.010  147.922
  424.500    2.730    0.194    0.381   94.863  148.115
  424.750    2.692    0.209    0.375   94.245  147.901
  425.000    2.660    0.201    0.378   96.012  147.175
  425.250    2.682    0.194    0.387   98.453  147.165
  425.500    2.791    0.196    0.378   90.739  146.542
  425.750    2.911    0.213    0.369   83.759  146.226
  426.000    2.996    0.214    0.363   86.688  146.010
  426.250    3.113    0.201    0.354   91.392  145.285
  426.500    3.180    0.200    0.347   92.853  144.764
  426.750    3.171    0.205    0.353   91.501  144.550
  427.000    3.151    0.210    0.359   89.170  144.337
  427.250    3.090    0.213    0.362   87.879  144.020
  427.500    2.813    0.228    0.367   85.120  143.806
  427.750    2.430    0.241    0.377   81.137  143.794
  428.000    2.100    0.253    0.371   75.381  143.580
  428.250    1.805    0.263    0.361   68.644  143.264
  428.500    1.683    0.271    0.353   64.418  142.945
  428.750    1.558    0.283    0.346   59.456  142.730
  429.000    1.467    0.295    0.340   56.085  142.516
  429.250    1.399    0.307    0.337   52.653  142.506
