~VERSION INFORMATION
 VERS.                 2.0:   CWLS LOG ASCII STANDARD -VERSION 2.0
 WRAP.                  NO:   ONE LINE PER DEPTH STEP
~WELL INFORMATION BLOCK
#MNEM.UNIT           DATA                    DESCRIPTION OF MNEMONIC
#---------    -------------------            -------------------------------
# Generated from Intellog Unique Number	CN_94_101/WELL/3728
WELL.         01-29-096-19W4                 : Well_name    - WELL
LOC .         00/01-29-096-19W4/0            : Location     - LOCATION
UWI .         00/01-29-096-19W400            : Uwi          - UNIQUE WELL ID
ENTR.         JOETTE                         : Entered      - ENTERED BY
SRVC.         SCHLUMBERGER                   : Scn          - SERVICE COMPANY
DATE.         08/10/92                       : Date         - LOG DATE
STRT.F        1100                           : top_depth    - START DEPTH
STOP.F        1720.08                        : bot_depth    - STOP DEPTH
STEP.F        0.82                           : increment    - STEP LENGTH
 NULL. -999.2500:NULL Value
~CURVE INFORMATION BLOCK
#MNEM UNIT       ERCB CURVE CODE    CURVE DESCRIPTION
#-----------   ------------------   ----------------------------------
DEPT.F        00 001 00 00         : DEPTH        - DEPTH
ILD .OHMM     00 120 00 00         : RESD         - DEEP RESISTIVITY (DIL)
GR  .API      00 310 00 00         : GR           - GAMMA RAY
NPHI.V/V      00 330 00 00         : PHIN         - NEUTRON POROSITY (SANDSTONE)
~PARAMETER INFORMATION
#MNEM.UNIT           DATA             DESCRIPTION OF MNEMONIC
#---------         -----------     ------------------------------
GL  .M        783.793              : gl           - GROUND LEVEL ELEVATION
EREF.M        786.11               : kb           - ELEVATION OF DEPTH REFERENCE
DATM.M        786.11               : datum        - DATUM ELEVATION
TDD .M        526.39               : tdd          - TOTAL DEPTH DRILLER
RUN .         ONE                  : Run          - RUN NUMBER
ENG .         BILL                 : Engineer     - RECORDING ENGINEER
WIT .         JIM                  : Witness      - WITNESSED BY
MUD .         GEL                  : Mud_type     - MUD TYPE
MATR.         SANDSTONE            : Logunit      - NEUTRON MATRIX
TMAX.F        65                   : BHT          - MAXIMUM RECORDED TEMPERATURE
BHTD.F        1727                 : BHTDEP       - MAXIMUM RECORDED TEMPERATURE
RMT .F        70                   : MDTP         - TEMPERATURE OF MUD
MUDD.LB/G     9.1                  : MWT          - MUD DENSITY
NEUT.         1                    : NEUTRON      - NEUTRON TYPE
RESI.         0                    : RESIST       - RESISTIVITY TYPE
RM  .OHMM     6.2                  : RM           - RESISTIVITY OF MUD
RMC .OHMM     6.2                  : RMC          - RESISTIVITY OF MUD CAKE
RMF .OHMM     6.2                  : RMF          - RESISTIVITY OF MUD FILTRATE
SUFT.F        4                    : SUFT         - SURFACE TEMPERATURE
~A  DEPTH     RESD       GR     PHIN
 1100.000    5.520   74.390    0.364
 1100.820    5.527   72.603    0.351
 1101.640    6.074   73.275    0.353
 1102.460    6.426   74.575    0.368
 1103.280    6.798   72.803    0.363
 1104.100    7.071   74.074    0.344
 1104.920    6.828   77.203    0.358
 1105.740    6.590   75.417    0.356
 1106.560    6.605   69.944    0.351
 1107.380    6.742   66.943    0.364
 1108.200    7.000   71.915    0.354
 1109.020    7.412   72.572    0.342
 1109.840    7.425   69.557    0.338
 1110.660    6.788   77.616    0.335
 1111.480    6.430   83.203    0.347
 1112.300    5.770   85.103    0.358
 1113.120    5.278   82.716    0.356
 1113.940    5.191   88.917    0.355
 1114.760    5.294   87.145    0.359
 1115.580    5.608   84.116    0.375
 1116.400    5.716   80.486    0.374
 1117.220    5.832   83.615    0.370
 1118.040    5.843   88.602    0.362
 1118.860    5.853   89.887    0.367
 1119.690    5.654   87.501    0.385
 1120.510    5.267   89.387    0.391
 1121.330    4.992   92.530    0.399
 1122.150    4.646   90.729    0.409
 1122.970    4.568   91.401    0.419
 1123.790    4.413   96.987    0.423
 1124.610    4.419   95.230    0.417
 1125.430    4.514   97.744    0.377
 1126.250    4.602   99.644    0.388
 1127.070    4.780   96.615    0.391
 1127.890    4.877   94.228    0.392
 1128.710    4.978   89.355    0.384
 1129.530    4.991   85.726    0.384
 1130.350    4.906   90.698    0.414
 1131.170    4.823   95.685    0.419
 1131.990    4.577   93.898    0.393
 1132.810    4.416   94.570    0.393
 1133.630    4.037   95.870    0.378
 1134.450    3.897   91.011    0.384
 1135.270    3.698   89.210    0.403
 1136.090    3.702   89.267    0.401
 1136.910    3.778   87.481    0.404
 1137.730    4.228   89.381    0.400
 1138.550    4.390   94.968    0.394
 1139.370    4.733   99.954    0.412
 1140.190    5.102  100.011    0.423
 1141.010    5.306   94.552    0.405
 1141.830    5.311   90.923    0.407
 1142.650    5.035   94.652    0.392
 1143.470    4.604   97.795    0.421
 1144.290    4.056   94.766    0.411
 1145.110    3.707   89.293    0.413
 1145.930    3.386   90.579    0.405
 1146.750    3.096   96.194    0.416
 1147.570    2.991   91.935    0.433
 1148.390    3.050   93.221    0.407
 1149.210    3.349   98.208    0.415
 1150.030    3.747   98.265    0.403
 1150.850    4.114   97.707    0.388
 1151.670    4.121   97.135    0.386
 1152.490    3.838   93.520    0.378
 1153.310    3.443   90.519    0.373
 1154.130    3.263   89.933    0.393
 1154.950    2.985   88.761    0.403
 1155.770    2.881   90.075    0.396
 1156.590    2.832   88.903    0.407
 1157.410    2.837   88.946    0.431
 1158.230    3.006   92.689    0.439
 1159.060    3.064   98.905    0.432
 1159.880    3.130  100.805    0.430
 1160.700    3.134  100.862    0.423
 1161.520    3.138   99.704    0.432
 1162.340    3.205   97.289    0.427
 1163.160    3.268   93.659    0.417
 1163.980    3.333   90.058    0.407
 1164.800    3.660   92.558    0.410
 1165.620    4.093   95.059    0.418
 1166.440    5.603   94.501    0.406
 1167.260    6.043   92.715    0.402
 1168.080    6.166   92.772    0.386
 1168.900    7.023   92.843    0.357
 1169.720    7.165   91.671    0.329
 1170.540    7.311   99.101    0.324
 1171.360    7.062   96.714    0.324
 1172.180    6.693   93.699    0.330
 1173.000    6.463   90.055    0.337
 1173.820    6.477   85.210    0.333
 1174.640    6.982   80.338    0.341
 1175.460    7.390   78.565    0.338
 1176.280    7.822   79.837    0.339
 1177.100    8.279   82.966    0.341
 1177.920    8.762   84.294    0.339
 1178.740    9.282   80.036    0.326
 1179.560    9.466   75.149    0.325
 1180.380    9.483   71.534    0.328
 1181.200    9.499   72.205    0.326
 1182.020    9.181   74.719    0.333
 1182.840    9.025   79.092    0.326
 1183.660    8.715   81.592    0.321
 1184.480    8.568   85.964    0.335
 1185.300    8.273   87.250    0.353
 1186.120    7.989   84.849    0.336
 1186.940    7.436   87.978    0.339
 1187.760    6.673   92.336    0.347
 1188.580    5.564   95.480    0.363
 1189.400    4.901   92.450    0.385
 1190.220    4.162   86.977    0.407
 1191.040    3.407   89.520    0.401
 1191.860    3.003   92.635    0.403
 1192.680    2.846   84.704    0.399
 1193.500    2.959   80.460    0.410
 1194.320    3.247   74.987    0.416
 1195.140    4.873   70.114    0.401
 1195.960    5.255   62.798    0.394
 1196.780    5.663   59.182    0.396
 1197.600    6.333   61.697    0.385
 1198.430    7.217   65.454    0.373
 1199.250    8.078   67.355    0.368
 1200.070    8.238   65.568    0.382
 1200.890    8.401   64.996    0.392
 1201.710    8.423   68.740    0.364
 1202.530    8.281   75.570    0.371
 1203.350    7.708   76.870    0.372
 1204.170    6.916   76.298    0.366
 1204.990    6.557   73.283    0.385
 1205.810    6.334   70.882    0.379
 1206.630    6.230   74.640    0.373
 1207.450    6.125   76.540    0.378
 1208.270    5.809   75.368    0.388
 1209.090    5.407   75.425    0.380
 1209.910    4.764   78.554    0.389
 1210.730    4.195   80.483    0.394
 1211.550    3.628   79.897    0.400
 1212.370    3.316   81.182    0.417
 1213.190    3.322   83.697    0.414
 1214.010    3.517   82.525    0.422
 1214.830    3.860   88.126    0.427
 1215.650    4.239   87.569    0.419
 1216.470    4.832   83.939    0.408
 1217.290    4.930   80.938    0.403
 1218.110    4.674   79.151    0.407
 1218.930    4.353   81.666    0.412
 1219.750    4.277   82.952    0.402
 1220.570    4.285   81.780    0.409
 1221.390    4.292   81.222    0.423
 1222.210    4.627   78.207    0.392
 1223.030    5.573   72.105    0.319
 1223.850    6.233   58.644    0.276
 1224.670    6.716   61.159    0.268
 1225.490    6.982   74.133    0.302
 1226.310    6.620   81.563    0.333
 1227.130    6.159   81.006    0.354
 1227.950    5.426   79.234    0.345
 1228.770    4.871   78.076    0.349
 1229.590    4.369   78.104    0.335
 1230.410    4.067   76.975    0.347
 1231.230    3.855   75.174    0.401
 1232.050    3.728   78.303    0.415
 1232.870    3.872   82.033    0.404
 1233.690    3.949   85.162    0.397
 1234.510    3.886   85.219    0.386
 1235.330    3.617   80.374    0.399
 1236.150    3.427   82.275    0.420
 1236.980    3.311   82.346    0.425
 1237.800    3.442   79.931    0.430
 1238.620    3.574   76.315    0.422
 1239.440    3.716   76.358    0.417
 1240.260    3.866   78.872    0.402
 1241.080    3.871   77.086    0.414
 1241.900    3.806   72.842    0.406
 1242.720    3.741   77.200    0.401
 1243.540    3.486   82.801    0.402
 1244.360    3.363   77.942    0.415
 1245.180    3.191   81.085    0.415
 1246.000    3.137   85.429    0.414
 1246.820    3.144   86.100    0.427
 1247.640    3.148   84.314    0.422
 1248.460    3.273   82.528    0.418
 1249.280    3.338   81.970    0.409
 1250.100    3.536   82.670    0.395
 1250.920    3.671   82.098    0.400
 1251.740    3.886   83.384    0.403
 1252.560    4.268   85.898    0.401
 1253.380    4.605   85.341    0.392
 1254.200    4.784   82.940    0.392
 1255.020    4.881   82.997    0.391
 1255.840    4.980   83.668    0.379
 1256.660    4.988   86.211    0.363
 1257.480    4.906   88.740    0.400
 1258.300    4.741   89.383    0.399
 1259.120    4.493   89.469    0.401
 1259.940    4.258   89.497    0.408
 1260.760    3.755   90.168    0.411
 1261.580    3.558   92.697    0.406
 1262.400    3.372   94.597    0.424
 1263.220    3.199   90.982    0.428
 1264.040    3.202   89.195    0.403
 1264.860    3.209   92.310    0.393
 1265.680    3.274   95.439    0.387
 1266.500    3.278   95.496    0.398
 1267.320    3.473   98.011    0.410
 1268.140    3.542   96.853    0.400
 1268.960    3.550  101.211    0.397
 1269.780    3.557  102.511    0.394
 1270.600    3.560  100.725    0.386
 1271.420    3.567  103.840    0.403
 1272.240    3.574  105.740    0.398
 1273.060    3.648  103.982    0.394
 1273.880    3.651  100.338    0.389
 1274.700    3.527   96.694    0.387
 1275.520    3.344   93.693    0.390
 1276.350    3.171   97.465    0.396
 1277.170    3.120   98.122    0.401
