~VERSION INFORMATION
 VERS.                 2.0:   CWLS LOG ASCII STANDARD -VERSION 2.0
 WRAP.                  NO:   ONE LINE PER DEPTH STEP
~WELL INFORMATION BLOCK
#MNEM.UNIT           DATA                    DESCRIPTION OF MNEMONIC
#---------    -------------------            -------------------------------
# Generated from Intellog Unique Number	CS_69_70/WELL/845
WELL.         BOW VALLEY EXPLORATIONS        : Well_name    - WELL
LOC .         00/07-31-069-13W4/0            : Location     - LOCATION
UWI .         00/07-31-069-13W4/0            : Uwi          - UNIQUE WELL ID
ENTR.         SP                             : Entered      - ENTERED BY
SRVC.         SCHLUMBERGER                   : Scn          - SERVICE COMPANY
STRT.M        265                            : top_depth    - START DEPTH
STOP.M        485                            : bot_depth    - STOP DEPTH
STEP.M        0.25                           : increment    - STEP LENGTH
 NULL. -999.2500:NULL Value
~CURVE INFORMATION BLOCK
#MNEM UNIT       ERCB CURVE CODE    CURVE DESCRIPTION
#-----------   ------------------   ----------------------------------
DEPT.M        00 001 00 00         : DEPTH        - DEPTH
ILD .OHMM     00 120 00 00         : RESD         - DEEP RESISTIVITY (DIL)
DPHI.V/V      00 890 00 00         : PHID         - DENSITY POROSITY (LIMESTONE)
NPHI.V/V      00 330 00 00         : PHIN         - NEUTRON POROSITY (LIMESTONE)
GR  .API      00 310 00 00         : GR           - GAMMA RAY
~PARAMETER INFORMATION
#MNEM.UNIT           DATA             DESCRIPTION OF MNEMONIC
#---------         -----------     ------------------------------
GL  .M        568.8                : gl           - GROUND LEVEL ELEVATION
EREF.M        576.5                : kb           - ELEVATION OF DEPTH REFERENCE
DATM.M        568.8                : datum        - DATUM ELEVATION
TDD .M        486                  : tdd          - TOTAL DEPTH DRILLER
RUN .         ONE                  : Run          - RUN NUMBER
ENG .         BILL                 : Engineer     - RECORDING ENGINEER
WIT .         JIM                  : Witness      - WITNESSED BY
MUD .         GEL                  : Mud_type     - MUD TYPE
MATR.         LIMESTONE            : Logunit      - NEUTRON MATRIX
TMAX.C        20                   : BHT          - MAXIMUM RECORDED TEMPERATURE
BHTD.M        486                  : BHTDEP       - MAXIMUM RECORDED TEMPERATURE
MATR.         1                    : LOGUNIT      - NEUTRON MATRIX
RMT .C        25                   : MDTP         - TEMPERATURE OF MUD
NEUT.         1                    : NEUTRON      - NEUTRON TYPE
RESI.         0                    : RESIST       - RESISTIVITY TYPE
RMC .OHMM     0.25                 : RMC          - RESISTIVITY OF MUD CAKE
RMF .OHMM     0.25                 : RMF          - RESISTIVITY OF MUD FILTRATE
SUFT.C        15                   : SUFT         - SURFACE TEMPERATURE
~A  DEPTH     RESD     PHID     PHIN       GR
# ...
  439.000    3.924    0.208    0.323  108.968
  439.250    3.904    0.208    0.329  109.945
  439.500    3.905    0.211    0.345  113.038
  439.750    3.935    0.217    0.345  118.489
  440.000    4.003    0.215    0.352  125.997
  440.250    4.110    0.205    0.381  134.110
  440.500    4.252    0.196    0.397  130.734
  440.750    4.325    0.200    0.389  127.963
  441.000    4.407    0.206    0.379  126.402
  441.250    4.593    0.199    0.374  129.012
  441.500    4.877    0.190    0.383  129.022
  441.750    5.111    0.164    0.392  120.809
  442.000    5.428    0.143    0.391  114.411
  442.250    5.562    0.117    0.375  108.496
  442.500    5.743    0.165    0.355  105.604
  442.750    5.986    0.192    0.346  103.982
  443.000    6.089    0.203    0.346   98.792
  443.250    6.193    0.230    0.347   91.911
  443.500    6.276    0.241    0.347   85.996
  443.750    6.302    0.255    0.364   84.615
  444.000    6.130    0.266    0.372   90.432
  444.250    5.962    0.264    0.361   95.341
  444.500    5.693    0.210    0.353   97.887
  444.750    5.537    0.200    0.346  100.618
  445.000    5.336    0.199    0.342   99.238
  445.250    5.308    0.201    0.336   94.654
  445.500    5.310    0.219    0.324   90.009
  445.750    5.341    0.223    0.314   85.302
  446.000    5.363    0.215    0.306   83.498
  446.250    5.424    0.207    0.307   85.564
  446.500    5.591    0.200    0.316   90.594
  446.750    5.719    0.192    0.328   93.445
  447.000    5.882    0.182    0.339   88.619
  447.250    6.131    0.178    0.342   82.041
  447.500    6.342    0.192    0.322   77.818
  447.750    6.476    0.202    0.311   74.562
  448.000    6.501    0.193    0.306   80.499
  448.250    6.419    0.181    0.314   84.561
  448.500    6.220    0.176    0.323   87.593
  448.750    5.808    0.204    0.330   83.733
  449.000    5.292    0.224    0.332   76.972
  449.250    4.922    0.239    0.347   76.922
  449.500    4.622    0.248    0.358   79.351
  449.750    4.454    0.257    0.365   80.150
  450.000    4.308    0.268    0.366   79.855
  450.250    4.198    0.255    0.356   82.284
  450.500    4.145    0.246    0.350   87.677
  450.750    4.162    0.239    0.338   91.495
  451.000    4.362    0.231    0.332   96.222
  451.250    4.571    0.219    0.326   98.046
  451.500    4.809    0.193    0.320   98.663
  451.750    4.965    0.184    0.312  100.243
  452.000    5.069    0.176    0.314  104.426
  452.250    5.005    0.165    0.339  108.063
  452.500    4.743    0.172    0.364  112.248
  452.750    4.404    0.133    0.384  115.219
  453.000    4.244    0.118    0.402  114.745
  453.250    4.190    0.102    0.433  116.086
  453.500    4.246    0.119    0.454  121.236
  453.750    4.311    0.172    0.480  125.780
  454.000    4.535    0.204    0.449  126.758
  454.250    4.727    0.207    0.401  111.471
  454.500    4.790    0.191    0.310  109.607
  454.750    4.854    0.178    0.319  113.306
  455.000    4.811    0.183    0.336  108.419
  455.250    4.610    0.198    0.344  101.537
  455.500    4.451    0.211    0.354   97.980
  455.750    4.305    0.233    0.359   96.539
  456.000    4.219    0.211    0.361   98.243
  456.250    4.197    0.197    0.352   98.615
  456.500    4.175    0.196    0.350   97.114
  456.750    4.168    0.198    0.347   93.981
  457.000    4.162    0.204    0.341   91.754
  457.250    4.163    0.214    0.333   95.030
  457.500    4.211    0.197    0.325  101.933
  457.750    4.308    0.175    0.322  110.105
  458.000    4.390    0.166    0.337  116.887
  458.250    4.441    0.169    0.350  119.317
  458.500    4.475    0.184    0.357  120.293
  458.750    4.443    0.196    0.366  121.213
  459.000    4.354    0.215    0.373  120.859
  459.250    4.150    0.232    0.363  111.316
  459.500    4.044    0.252    0.351   95.847
  459.750    3.948    0.269    0.340   73.124
  460.000    3.898    0.265    0.334   62.191
  460.250    3.885    0.257    0.334   64.741
  460.500    3.908    0.247    0.331   68.623
  460.750    3.953    0.227    0.327   70.507
  461.000    3.969    0.188    0.311   72.511
  461.250    3.977    0.143    0.284   80.745
  461.500    4.008    0.197    0.291   92.788
  461.750    4.047    0.229    0.320  104.769
  462.000    4.117    0.205    0.340  118.504
  462.250    4.196    0.180    0.332  127.101
  462.500    4.236    0.164    0.336  133.821
  462.750    4.230    0.162    0.353  141.269
  463.000    4.192    0.179    0.382  145.028
  463.250    4.054    0.193    0.417  142.378
  463.500    3.695    0.196    0.414  133.259
  463.750    3.262    0.186    0.395  119.726
  464.000    2.842    0.193    0.378  109.821
  464.250    2.481    0.210    0.364  102.091
  464.500    2.211    0.240    0.362   88.921
  464.750    2.068    0.269    0.369   78.350
  465.000    2.042    0.290    0.371   75.882
  465.250    2.310    0.305    0.363   81.817
  465.500    2.728    0.305    0.356   93.013
  465.750    3.074    0.269    0.350  105.540
  466.000    3.530    0.237    0.344  116.372
  466.250    3.848    0.209    0.336  126.117
  466.500    3.863    0.179    0.326  130.783
  466.750    3.587    0.180    0.326  110.115
  467.000    3.405    0.222    0.342   97.066
  467.250    3.173    0.252    0.361   85.346
  467.500    3.001    0.270    0.351   89.349
  467.750    2.823    0.255    0.341   95.282
  468.000    2.655    0.229    0.331  104.786
  468.250    2.452    0.209    0.322  108.726
  468.500    2.268    0.257    0.320  103.235
  468.750    2.097    0.294    0.340   94.722
  469.000    1.962    0.311    0.355   90.981
  469.250    1.905    0.320    0.374   89.722
  469.500    1.916    0.304    0.360   94.267
  469.750    2.053    0.282    0.349   98.814
  470.000    2.310    0.262    0.339  102.270
  470.250    2.508    0.242    0.332  104.759
  470.500    2.595    0.235    0.326   98.601
  470.750    2.459    0.247    0.349   86.398
  471.000    2.253    0.286    0.363   77.037
  471.250    2.155    0.309    0.378   69.912
  471.500    2.096    0.319    0.379   71.555
  471.750    2.039    0.311    0.373   76.646
  472.000    1.998    0.301    0.369   80.645
  472.250    2.010    0.295    0.365   82.953
  472.500    1.996    0.290    0.363   85.262
  472.750    2.046    0.296    0.367   91.862
  473.000    2.088    0.286    0.369  102.635
  473.250    2.164    0.283    0.363  107.966
  473.500    2.277    0.289    0.361  113.116
  473.750    2.454    0.294    0.366  118.447
  474.000    2.781    0.300    0.380  124.927
  474.250    3.254    0.300    0.390  129.471
  474.500    3.709    0.288    0.369  133.230
  474.750    4.072    0.262    0.351  138.985
  475.000    4.165    0.230    0.338  143.953
  475.250    4.105    0.151    0.353  147.833
  475.500    4.030    0.164    0.370  148.992
  475.750    3.994    0.177    0.372  114.478
  476.000    3.936    0.173    0.359  107.958
  476.250    3.894    0.148    0.346  108.816
  476.500    3.902    0.096    0.336  114.993
  476.750    3.970    0.111    0.330  124.375
  477.000    4.000    0.168    0.345  131.882
  477.250    3.906    0.177    0.358  126.997
  477.500    3.736    0.184    0.345  117.513
  477.750    3.462    0.189    0.358  106.037
  478.000    3.172    0.199    0.348  100.000
  478.250    2.956    0.217    0.339   96.866
  478.500    2.838    0.236    0.364   97.182
  478.750    2.787    0.253    0.379   98.158
  479.000    2.731    0.280    0.385   99.861
  479.250    2.727    0.293    0.364  101.321
  479.500    2.800    0.277    0.351  103.448
  479.750    2.880    0.265    0.356  104.970
  480.000    2.957    0.258    0.358  106.071
  480.250    3.070    0.252    0.350  105.959
  480.500    3.111    0.244    0.344  104.881
  480.750    2.696    0.231    0.354  104.107
  481.000    2.623    0.209    0.367  103.391
  481.250    2.678    0.239    0.351  103.159
  481.500    2.806    0.268    0.331  102.990
  481.750    2.985    0.279    0.306  102.997
  482.000    3.199    0.256    0.287  103.198
  482.250    3.455    0.175    0.277  103.326
