~VERSION INFORMATION
 VERS.                 2.0:   CWLS LOG ASCII STANDARD -VERSION 2.0
 WRAP.                  NO:   ONE LINE PER DEPTH STEP
~WELL INFORMATION BLOCK
#MNEM.UNIT           DATA                    DESCRIPTION OF MNEMONIC
#---------    -------------------            -------------------------------
# Generated from Intellog Unique Number	CS_77_79/WELL/838
WELL.         CANADIAN WORLDWIDE ENERGY      : Well_name    - WELL
LOC .         00/02-14-077-04W4/0            : Location     - LOCATION
UWI .         00/02-14-077-04W4/0            : Uwi          - UNIQUE WELL ID
ENTR.         SP                             : Entered      - ENTERED BY
SRVC.         SCHLUMBERGER                   : Scn          - SERVICE COMPANY
STRT.M        195                            : top_depth    - START DEPTH
STOP.M        470                            : bot_depth    - STOP DEPTH
STEP.M        0.25                           : increment    - STEP LENGTH
 NULL. -999.2500:NULL Value
~CURVE INFORMATION BLOCK
#MNEM UNIT       ERCB CURVE CODE    CURVE DESCRIPTION
#-----------   ------------------   ----------------------------------
DEPT.M        00 001 00 00         : DEPTH        - DEPTH
ILD .OHMM     00 120 00 00         : RESD         - DEEP RESISTIVITY (DIL)
DPHI.V/V      00 890 00 00         : PHID         - DENSITY POROSITY (LIMESTONE)
NPHI.V/V      00 330 00 00         : PHIN         - NEUTRON POROSITY (LIMESTONE)
GR  .API      00 310 00 00         : GR           - GAMMA RAY
~PARAMETER INFORMATION
#MNEM.UNIT           DATA             DESCRIPTION OF MNEMONIC
#---------         -----------     ------------------------------
GL  .M        572.1                : gl           - GROUND LEVEL ELEVATION
EREF.M        575.75               : kb           - ELEVATION OF DEPTH REFERENCE
DATM.M        572.1                : datum        - DATUM ELEVATION
TDD .M        471.9                : tdd          - TOTAL DEPTH DRILLER
RUN .         ONE                  : Run          - RUN NUMBER
ENG .         BILL                 : Engineer     - RECORDING ENGINEER
WIT .         JIM                  : Witness      - WITNESSED BY
MUD .         GEL                  : Mud_type     - MUD TYPE
MATR.         LIMESTONE            : Logunit      - NEUTRON MATRIX
TMAX.C        25                   : BHT          - MAXIMUM RECORDED TEMPERATURE
BHTD.M        471.9                : BHTDEP       - MAXIMUM RECORDED TEMPERATURE
MATR.         1                    : LOGUNIT      - NEUTRON MATRIX
RMT .C        25                   : MDTP         - TEMPERATURE OF MUD
NEUT.         1                    : NEUTRON      - NEUTRON TYPE
RESI.         0                    : RESIST       - RESISTIVITY TYPE
RMC .OHMM     0.25                 : RMC          - RESISTIVITY OF MUD CAKE
RMF .OHMM     0.25                 : RMF          - RESISTIVITY OF MUD FILTRATE
SUFT.C        15                   : SUFT         - SURFACE TEMPERATURE
~A  DEPTH     RESD     PHID     PHIN       GR
# ...
  282.000   18.781    0.327    0.401   56.019
  282.250   19.157    0.317    0.406   54.171
  282.500   20.294    0.301    0.387   52.950
  282.750   22.333    0.281    0.341   51.729
  283.000   23.207    0.262    0.280   47.406
  283.250   25.534    0.230    0.235   46.178
  283.500   28.632    0.095    0.230   51.184
  283.750   30.920    0.125    0.264   56.815
  284.000   32.131    0.177    0.302   57.455
  284.250   33.402    0.176    0.316   50.637
  284.500   36.072    0.185    0.286   45.064
  284.750   36.784    0.190    0.265   42.596
  285.000   37.527    0.218    0.261   44.501
  285.250   36.859    0.295    0.299   46.388
  285.500   35.522    0.320    0.331   47.651
  285.750   33.590    0.323    0.354   45.811
  286.000   31.168    0.323    0.371   46.464
  286.250   31.199    0.323    0.365   45.862
  286.500   34.334    0.309    0.286   40.285
  286.750   38.497    0.267    0.231   34.091
  287.000   43.987    0.159    0.189   29.752
  287.250   47.485    0.042    0.141   33.510
  287.500   49.354    0.061    0.136   39.760
  287.750   44.104    0.179    0.177   44.764
  288.000   37.239    0.250    0.226   46.657
  288.250   33.270    0.307    0.310   48.556
  288.500   30.287    0.295    0.343   49.193
  288.750   27.062    0.293    0.394   51.713
  289.000   25.115    0.315    0.390   52.981
  289.250   23.755    0.336    0.387   51.137
  289.500   23.337    0.345    0.380   49.299
  289.750   23.352    0.340    0.386   48.695
  290.000   24.280    0.339    0.382   47.490
  290.250   24.758    0.339    0.371   47.512
  290.500   25.744    0.332    0.367   47.537
  290.750   25.765    0.327    0.376   47.562
  291.000   25.787    0.323    0.392   46.956
  291.250   25.810    0.324    0.404   45.736
  291.500   26.344    0.326    0.407   44.514
  291.750   26.370    0.322    0.400   46.412
  292.000   26.385    0.317    0.389   48.302
  292.250   26.399    0.315    0.382   47.704
  292.500   26.422    0.316    0.384   45.237
  292.750   25.961    0.310    0.374   42.779
  293.000   25.974    0.305    0.366   44.672
  293.250   26.012    0.315    0.367   47.181
  293.500   25.538    0.316    0.383   49.695
  293.750   25.559    0.315    0.385   50.971
  294.000   25.585    0.326    0.381   50.995
  294.250   26.592    0.322    0.354   49.147
  294.500   30.388    0.312    0.304   47.304
  294.750   39.647    0.290    0.267   44.220
  295.000   48.877    0.107    0.232   41.131
  295.250   53.757    0.074    0.188   41.163
  295.500   61.423    0.154    0.162   41.180
  295.750   68.894    0.233    0.185   40.588
  296.000   72.990    0.250    0.247   39.987
  296.250   74.434    0.189    0.217   39.396
  296.500   74.551    0.143    0.199   40.037
  296.750   76.038    0.157    0.197   40.685
  297.000   76.096    0.174    0.212   41.333
  297.250   76.162    0.168    0.203   41.361
  297.500   76.201    0.111    0.189   39.519
  297.750   76.289    0.119    0.175   36.428
  298.000   76.359    0.140    0.164   33.345
  298.250   76.414    0.132    0.149   30.253
  298.500   77.944    0.063    0.144   32.151
  298.750   78.024    0.053    0.138   34.663
  299.000   78.089    0.058    0.134   36.559
  299.250   75.253    0.054    0.128   36.589
  299.500   73.918    0.070    0.134   36.611
  299.750   73.994    0.200    0.167   37.249
  300.000   76.924    0.239    0.195   36.658
  300.250   83.049    0.226    0.237   34.811
  300.500   87.967    0.176    0.238   30.478
  300.750   98.641    0.153    0.224   28.019
  301.000  114.863    0.118    0.209   25.550
  301.250  144.276    0.111    0.195   26.827
  301.500  184.677    0.126    0.179   26.844
  301.750  223.327    0.111    0.163   22.518
  302.000  280.560    0.035    0.152   20.672
  302.250  352.427    0.011    0.130   19.458
  302.500  410.356    0.000    0.107   20.729
  302.750  451.461    0.000    0.102   21.996
  303.000  395.819    0.000    0.116   25.135
  303.250  298.271    0.000    0.128   29.522
  303.500  162.946    0.031    0.153   33.274
  303.750   80.982    0.105    0.176   38.278
  304.000   45.086    0.324    0.232   42.034
  304.250   41.054    0.330    0.315   43.925
  304.500   46.926    0.275    0.304   37.736
  304.750   54.631    0.173    0.244   36.505
  305.000   71.266    0.122    0.189   32.798
  305.250   87.858    0.087    0.139   27.224
  305.500   94.855    0.021    0.128   25.381
  305.750   94.921    0.000    0.135   32.871
  306.000   84.816    0.018    0.144   37.876
  306.250   63.910    0.094    0.153   40.392
  306.500   39.863    0.088    0.163   44.775
  306.750   31.796    0.128    0.199   49.784
  307.000   27.876    0.244    0.273   48.556
  307.250   24.444    0.316    0.307   42.992
  307.500   21.840    0.342    0.322   44.874
  307.750   19.515    0.338    0.317   51.126
  308.000   18.803    0.303    0.349   56.750
  308.250   17.129    0.291    0.372   61.752
  308.500   16.817    0.293    0.392   64.267
  308.750   16.526    0.296    0.394   66.783
  309.000   16.228    0.295    0.412   70.539
  309.250   15.935    0.293    0.433   66.840
  309.500   15.950    0.306    0.435   64.365
  309.750   15.377    0.309    0.431   63.146
  310.000   15.387    0.310    0.448   65.661
  310.250   15.114    0.312    0.453   66.931
  310.500   14.841    0.312    0.451   70.074
  310.750   14.304    0.309    0.458   71.336
  311.000   13.787    0.305    0.456   70.740
  311.250   13.290    0.303    0.443   68.897
  311.500   12.565    0.303    0.435   69.546
  311.750   11.657    0.303    0.434   65.835
  312.000   10.032    0.301    0.436   66.488
  312.250    9.306    0.299    0.442   69.621
  312.500    8.160    0.301    0.447   75.256
  312.750    7.020    0.290    0.444   78.383
  313.000    6.272    0.267    0.451   84.013
  313.250    5.499    0.249    0.472   89.017
  313.500    4.914    0.244    0.488   94.640
  313.750    4.390    0.247    0.494  100.887
  314.000    3.777    0.250    0.499  102.781
  314.250    3.439    0.253    0.507  105.298
  314.500    3.132    0.270    0.503  107.809
  314.750    3.076    0.263    0.511  111.567
  315.000    3.080    0.249    0.527  107.245
  315.250    3.141    0.224    0.546  105.395
  315.500    3.204    0.217    0.525  106.043
  315.750    3.207    0.213    0.510  107.315
  316.000    3.271    0.218    0.520  109.843
  316.250    3.274    0.224    0.517  110.482
  316.500    3.277    0.224    0.507  111.121
  316.750    3.344    0.222    0.485  111.768
  317.000    3.476    0.229    0.472  111.171
  317.250    3.613    0.230    0.510  106.224
  317.500    3.755    0.231    0.548  103.135
  317.750    4.293    0.234    0.531   98.800
  318.000    4.634    0.239    0.489   93.844
  318.250    5.002    0.232    0.434   92.004
  318.500    5.399    0.234    0.423   90.785
  318.750    5.941    0.252    0.442   87.703
  319.000    6.537    0.268    0.469   84.616
  319.250    6.666    0.272    0.493   82.153
  319.500    6.931    0.279    0.492   80.302
  319.750    7.205    0.290    0.471   77.838
  320.000    7.211    0.285    0.460   85.336
  320.250    6.950    0.274    0.457   92.825
  320.500    6.698    0.265    0.461   92.240
  320.750    6.704    0.264    0.462   89.769
  321.000    6.971    0.269    0.438   85.438
  321.250    7.244    0.270    0.413   81.102
  321.500    8.126    0.269    0.402   76.770
  321.750    8.445    0.266    0.407   72.447
  322.000    8.947    0.256    0.395   70.598
  322.250    9.124    0.234    0.404   67.508
  322.500    9.308    0.201    0.415   67.538
  322.750    9.496    0.275    0.422   73.786
  323.000    9.684    0.281    0.432   79.416
  323.250   10.066    0.279    0.432   83.168
  323.500   10.664    0.268    0.420   80.704
  323.750   11.518    0.260    0.426   78.864
  324.000   12.198    0.266    0.430   75.153
  324.250   13.172    0.290    0.415   71.450
  324.500   13.953    0.268    0.376   68.980
  324.750   14.231    0.216    0.298   67.764
  325.000   13.715    0.156    0.284   70.900
  325.250   12.728    0.175    0.297   76.540
