~VERSION INFORMATION
 VERS.                 2.0:   CWLS LOG ASCII STANDARD -VERSION 2.0
 WRAP.                  NO:   ONE LINE PER DEPTH STEP
~WELL INFORMATION BLOCK
#MNEM.UNIT           DATA                    DESCRIPTION OF MNEMONIC
#---------    -------------------            -------------------------------
# Generated from Intellog Unique Number	CW_82_90/WELL/3055
WELL.         06-28-087-22W4                 : Well_name    - WELL
LOC .         00/06-28-087-22W4/0            : Location     - LOCATION
UWI .         00/06-28-087-22W4/0            : Uwi          - UNIQUE WELL ID
ENTR.         MAX                            : Entered      - ENTERED BY
SRVC.         SCHLUMBERGER                   : Scn          - SERVICE COMPANY
STRT.M        106.68                         : top_depth    - START DEPTH
STOP.M        303.68                         : bot_depth    - STOP DEPTH
STEP.M        0.25                           : increment    - STEP LENGTH
 NULL. -999.2500:NULL Value
~CURVE INFORMATION BLOCK
#MNEM UNIT       ERCB CURVE CODE    CURVE DESCRIPTION
#-----------   ------------------   ----------------------------------
DEPT.M        00 001 00 00         : DEPTH        - DEPTH
GR  .API      00 310 00 00         : GR           - GAMMA RAY
CALI.MM       00 280 01 00         : CAL          - CALIPER
DPHI.V/V      00 890 00 00         : PHID         - DENSITY POROSITY (SANDSTONE)
NPHI.V/V      00 330 00 00         : PHIN         - NEUTRON POROSITY (SANDSTONE)
ILD .OHMM     00 120 00 00         : RESD         - DEEP RESISTIVITY (DIL)
~PARAMETER INFORMATION
#MNEM.UNIT           DATA             DESCRIPTION OF MNEMONIC
#---------         -----------     ------------------------------
GL  .M        536.448              : gl           - GROUND LEVEL ELEVATION
EREF.M        539.801              : kb           - ELEVATION OF DEPTH REFERENCE
DATM.M        536.448              : datum        - DATUM ELEVATION
TDD .M        307.238              : tdd          - TOTAL DEPTH DRILLER
RUN .         ONE                  : Run          - RUN NUMBER
ENG .         BILL                 : Engineer     - RECORDING ENGINEER
WIT .         JIM                  : Witness      - WITNESSED BY
MUD .         GEL                  : Mud_type     - MUD TYPE
MATR.         SANDSTONE            : Logunit      - NEUTRON MATRIX
TMAX.C        20                   : BHT          - MAXIMUM RECORDED TEMPERATURE
BHTD.M        307.238              : BHTDEP       - MAXIMUM RECORDED TEMPERATURE
MATR.         1                    : LOGUNIT      - NEUTRON MATRIX
RMT .C        17.2222              : MDTP         - TEMPERATURE OF MUD
NEUT.         1                    : NEUTRON      - NEUTRON TYPE
RESI.         0                    : RESIST       - RESISTIVITY TYPE
RMC .OHMM     1.12                 : RMC          - RESISTIVITY OF MUD CAKE
RMF .OHMM     1.23                 : RMF          - RESISTIVITY OF MUD FILTRATE
SUFT.C        -15                  : SUFT         - SURFACE TEMPERATURE
~A  DEPTH       GR      CAL     PHID     PHIN     RESD
# ...
  216.180   63.144  248.249    0.186    0.476    9.410
  216.430   63.440  248.257    0.207    0.530    8.904
  216.680   63.735  248.265    0.207    0.523    8.349
  216.930   65.199  248.271    0.204    0.490    8.118
  217.180   68.411  248.279    0.216    0.475    8.113
  217.430   72.500  247.791    0.211    0.503    8.107
  217.680   72.504  247.303    0.193    0.511    8.324
  217.930   69.299  246.818    0.173    0.490    8.863
  218.180   63.761  246.330    0.145    0.468    9.524
  218.430   54.138  242.880    0.117    0.361   10.051
  218.680   50.059  241.407    0.060    0.255   11.098
  218.930   52.105  239.437    0.048    0.263   12.942
  219.180   55.901  238.950    0.071    0.326   17.136
  219.430   59.698  238.463    0.112    0.373   23.105
  219.680   64.370  237.977    0.147    0.429   28.971
  219.930   69.918  237.491    0.227    0.485   29.750
  220.180   69.338  237.002    0.246    0.485   23.473
  220.430   68.467  236.517    0.213    0.486   20.287
  220.680   67.014  236.525    0.208    0.516   12.873
  220.930   65.558  236.530    0.243    0.538    9.447
  221.180   61.478  235.551    0.256    0.549    7.189
  221.430   53.315  234.075    0.294    0.534    7.183
  221.680   49.235  232.106    0.316    0.513    7.580
  221.930   47.780  231.126    0.316    0.506    8.919
  222.180   46.909  230.640    0.316    0.489   11.184
  222.430   45.163  230.153    0.311    0.489   14.411
  222.680   43.710  230.160    0.302    0.499   18.738
  222.930   41.963  230.166    0.284    0.501   22.048
  223.180   42.259  230.176    0.272    0.457   24.126
  223.430   43.431  230.181    0.242    0.428   24.546
  223.680   43.726  229.695    0.252    0.466   24.530
  223.930   43.731  229.702    0.297    0.456   24.512
  224.180   43.735  229.711    0.297    0.470   24.494
  224.430   43.739  229.223    0.280    0.496   24.477
  224.680   44.035  229.230    0.287    0.492   21.932
  224.930   44.040  229.240    0.304    0.483   19.652
  225.180   43.753  229.244    0.303    0.501   19.287
  225.430   43.757  229.252    0.308    0.514   19.620
  225.680   46.387  228.766    0.308    0.514   19.788
  225.930   48.141  228.774    0.296    0.502   19.953
  226.180   51.062  228.779    0.280    0.485   20.120
  226.430   54.275  228.788    0.257    0.450   20.105
  226.680   52.238  228.795    0.225    0.462   19.909
  226.930   49.325  228.801    0.211    0.462   19.713
  227.180   46.412  228.808    0.220    0.449   19.701
  227.430   47.583  229.310    0.244    0.438   20.044
  227.680   50.505  229.812    0.256    0.432   20.398
  227.930   53.426  230.807    0.257    0.437   20.946
  228.180   57.514  232.296    0.237    0.465   21.120
  228.430   61.020  233.785    0.213    0.470   21.106
  228.680   61.004  238.211    0.240    0.457   18.730
  228.930   62.212  239.779    0.225    0.461   18.104
  229.180   64.305  241.854    0.202    0.478   17.499
  229.430   69.638  243.929    0.172    0.448   16.613
  229.680   74.961  246.996    0.219    0.447   15.355
  229.930   77.352  249.061    0.218    0.458   13.940
  230.180   78.290  252.128    0.215    0.456   12.431
  230.430   80.676  254.182    0.218    0.448   11.697
  230.680   80.430  254.768    0.227    0.449   11.306
  230.930   79.311  254.838    0.226    0.455   11.130
  231.180   77.306  254.938    0.221    0.466   11.350
  231.430   76.474  254.511    0.213    0.455   11.682
  231.680   75.062  254.095    0.202    0.470   11.814
  231.930   73.063  252.686    0.203    0.484   11.934
  232.180   73.392  253.272    0.203    0.520   12.293
  232.430   76.668  253.351    0.213    0.509   12.312
  232.680   77.014  251.456    0.228    0.465   12.329
  232.930   76.182  251.526    0.221    0.451   12.024
  233.180   74.465  251.615    0.212    0.444   11.625
  233.430   75.403  252.191    0.228    0.432   11.756
  233.680   74.559  247.805    0.235    0.413   12.424
  233.930   70.802  245.393    0.233    0.400   13.735
  234.180   71.142  243.994    0.210    0.407   15.059
  234.430   71.500  243.588    0.201    0.408   15.633
  234.680   70.944  243.171    0.190    0.401   16.375
  234.930   67.480  242.248    0.201    0.403   16.855
  235.180   66.941  241.346    0.242    0.416   17.346
  235.430   68.160  240.929    0.248    0.428   17.541
  235.680   67.621  241.019    0.233    0.424   17.569
  235.930   70.019  242.597    0.231    0.423   17.605
  236.180   74.462  243.163    0.234    0.418   17.174
  236.430   78.617  243.749    0.228    0.416   16.741
  236.680   79.262  244.315    0.224    0.426   16.185
  236.930   77.551  245.903    0.222    0.451   15.230
  237.180   76.127  245.963    0.227    0.449   14.466
  237.430   74.703  243.592    0.235    0.457   14.229
  237.680   72.417  242.659    0.249    0.447   14.258
  237.930   71.872  242.749    0.245    0.437   14.287
  238.180   73.385  242.818    0.243    0.450   14.438
  238.430   76.667  243.404    0.245    0.456   14.342
  238.680   79.053  243.504    0.229    0.463   14.110
  238.930   81.444  243.574    0.208    0.478   14.009
  239.180   79.147  243.653    0.205    0.484   13.669
  239.430   74.505  243.227    0.199    0.492   12.972
  239.680   68.111  243.813    0.179    0.467   11.674
  239.930   67.566  243.426    0.161    0.450   11.181
  240.180   70.543  243.476    0.155    0.475   11.104
  240.430   72.941  243.566    0.252    0.498   10.829
  240.680   74.752  245.144    0.262    0.542    9.659
  240.930   74.799  246.216    0.256    0.568    6.702
  241.180   72.496  246.782    0.253    0.571    4.906
  241.430   69.325  247.368    0.238    0.554    4.073
  241.680   68.499  248.450    0.231    0.512    3.972
  241.930   67.075  249.016    0.230    0.490    4.052
  242.180   64.197  249.106    0.213    0.463    4.360
  242.430   63.652  248.709    0.176    0.453    5.042
  242.680   65.463  247.280    0.166    0.481    5.935
  242.930   66.976  245.385    0.198    0.499    7.049
  243.180   65.265  244.969    0.216    0.468    8.079
  243.430   63.266  244.066    0.192    0.421    8.695
  243.680   62.434  244.155    0.153    0.392    9.531
  243.930   64.538  243.729    0.138    0.427   10.255
  244.180   65.764  243.809    0.188    0.503   10.941
  244.430   66.104  243.888    0.147    0.511   11.669
  244.680   67.317  243.978    0.140    0.520   11.905
  244.930   69.709  244.058    0.191    0.531   11.615
  245.180   71.221  244.624    0.206    0.529   11.023
  245.430   73.326  245.696    0.197    0.553    9.920
  245.680   77.481  246.302    0.208    0.528    9.418
  245.930   81.045  246.362    0.214    0.514    9.101
  246.180   81.678  244.952    0.213    0.510    9.289
  246.430   80.266  243.067    0.213    0.502    9.555
  246.680   76.204  242.631    0.210    0.505    9.926
  246.930   72.735  242.730    0.221    0.512   10.031
  247.180   70.443  242.810    0.208    0.478   10.323
  247.430   71.364  241.401    0.249    0.440   10.820
  247.680   72.595  238.513    0.214    0.413   11.438
  247.930   69.711  235.109    0.206    0.417   12.088
  248.180   65.063  233.214    0.171    0.341   13.608
  248.430   61.300  231.298    0.099    0.290   15.183
  248.680   61.054  229.889    0.018    0.256   16.936
  248.930   64.917  229.493    0.037    0.300   19.410
  249.180   64.976  229.553    0.065    0.352   22.647
  249.430   60.322  230.148    0.122    0.338   26.183
  249.680   52.164  230.228    0.074    0.295   33.114
  249.930   49.579  230.318    0.037    0.269   35.013
  250.180   47.856  230.378    0.034    0.281   36.364
  250.430   49.087  230.457    0.041    0.282   40.572
  250.680   57.334  231.063    0.074    0.313   44.442
  250.930   65.892  231.639    0.128    0.365   42.966
  251.180   71.220  232.711    0.191    0.424   36.303
  251.430   69.509  233.287    0.199    0.483   25.421
  251.680   68.677  233.863    0.204    0.479   17.797
  251.930   68.718  234.429    0.204    0.515   14.388
  252.180   68.771  235.025    0.198    0.541   14.029
  252.430   69.117  235.105    0.185    0.527   14.184
