~VERSION INFORMATION
 VERS.                 2.0:   CWLS LOG ASCII STANDARD -VERSION 2.0
 WRAP.                  NO:   ONE LINE PER DEPTH STEP
~WELL INFORMATION BLOCK
#MNEM.UNIT           DATA                    DESCRIPTION OF MNEMONIC
#---------    -------------------            -------------------------------
# Generated from Intellog Unique Number	CX_WELLS/WELL/3386
WELL.         ANDERSON ET AL NEWBY           : Well_name    - WELL
LOC .         00/06-20-084-05W4/0            : Location     - LOCATION
UWI .         00/06-20-084-05W400            : Uwi          - UNIQUE WELL ID
ENTR.         T                              : Entered      - ENTERED BY
SRVC.         SCHLUMBERGER                   : Scn          - SERVICE COMPANY
DATE.         03/04/92                       : Date         - LOG DATE
STRT.M        80                             : top_depth    - START DEPTH
STOP.M        275                            : bot_depth    - STOP DEPTH
STEP.M        0.25                           : increment    - STEP LENGTH
 NULL. -999.2500:NULL Value
~CURVE INFORMATION BLOCK
#MNEM UNIT       ERCB CURVE CODE    CURVE DESCRIPTION
#-----------   ------------------   ----------------------------------
DEPT.M        00 001 00 00         : DEPTH        - DEPTH
GR  .API      00 310 00 00         : GR           - GAMMA RAY
NPHI.V/V      00 330 00 00         : PHIN         - NEUTRON POROSITY (SANDSTONE)
DPHI.V/V      00 890 00 00         : PHID         - DENSITY POROSITY (SANDSTONE)
ILD .OHMM     00 120 00 00         : RESD         - DEEP RESISTIVITY (DIL)
~PARAMETER INFORMATION
#MNEM.UNIT           DATA             DESCRIPTION OF MNEMONIC
#---------         -----------     ------------------------------
GL  .M        471                  : gl           - GROUND LEVEL ELEVATION
EREF.M        474.6                : kb           - ELEVATION OF DEPTH REFERENCE
DATM.M        474.6                : datum        - DATUM ELEVATION
TDD .M        275                  : tdd          - TOTAL DEPTH DRILLER
RUN .         ONE                  : Run          - RUN NUMBER
ENG .         JO                   : Engineer     - RECORDING ENGINEER
WIT .         TIM                  : Witness      - WITNESSED BY
MUD .         GEL                  : Mud_type     - MUD TYPE
MATR.         SANDSTONE            : Logunit      - NEUTRON MATRIX
TMAX.C        31                   : BHT          - MAXIMUM RECORDED TEMPERATURE
BHTD.M        275                  : BHTDEP       - MAXIMUM RECORDED TEMPERATURE
RMT .C        14.4                 : MDTP         - TEMPERATURE OF MUD
MUDD.KG/M     1                    : MWT          - MUD DENSITY
NEUT.         1                    : NEUTRON      - NEUTRON TYPE
RESI.         3.5                  : RESIST       - RESISTIVITY TYPE
RM  .OHMM     2.4                  : RM           - RESISTIVITY OF MUD
RMC .OHMM     2.4                  : RMC          - RESISTIVITY OF MUD CAKE
RMF .OHMM     2.4                  : RMF          - RESISTIVITY OF MUD FILTRATE
SUFT.C        4                    : SUFT         - SURFACE TEMPERATURE
~A  DEPTH       GR     PHIN     PHID     RESD
# ...
  123.500   61.680    0.436    0.329   14.436
  123.750   59.968    0.434    0.329   14.479
  124.000   58.833    0.438    0.328   14.252
  124.250   56.543    0.447    0.329   14.278
  124.500   55.428    0.454    0.334   14.311
  124.750   54.891    0.454    0.335   14.354
  125.000   55.610    0.453    0.339   14.371
  125.250   56.866    0.451    0.341   14.171
  125.500   57.545    0.445    0.343   13.933
  125.750   58.203    0.442    0.344   13.957
  126.000   58.284    0.431    0.345   13.982
  126.250   58.405    0.426    0.347   14.015
  126.500   58.465    0.419    0.348   14.048
  126.750   57.949    0.420    0.348   14.082
  127.000   56.895    0.420    0.347   14.131
  127.250   56.337    0.416    0.347   14.156
  127.500   56.398    0.413    0.345   14.182
  127.750   56.499    0.415    0.341   14.223
  128.000   57.197    0.423    0.339   14.257
  128.250   57.876    0.430    0.341   14.026
  128.500   58.534    0.434    0.341   14.059
  128.750   58.595    0.421    0.338   14.092
  129.000   57.521    0.407    0.336   14.134
  129.250   56.386    0.416    0.332   14.176
  129.500   55.312    0.426    0.331   14.201
  129.750   55.352    0.427    0.330   14.226
  130.000   55.453    0.415    0.333   14.276
  130.250   56.111    0.414    0.336   14.293
  130.500   56.830    0.415    0.338   14.061
  130.750   57.488    0.415    0.338   14.111
  131.000   57.549    0.425    0.338   14.153
  131.250   57.072    0.446    0.339   14.169
  131.500   56.535    0.453    0.341   14.203
  131.750   56.616    0.458    0.342   14.245
  132.000   56.677    0.451    0.342   14.279
  132.250   56.778    0.444    0.341   14.304
  132.500   57.476    0.440    0.339   14.346
  132.750   57.537    0.434    0.337   14.372
  133.000   57.618    0.430    0.334   14.406
  133.250   57.699    0.426    0.333   14.440
  133.500   57.800    0.421    0.330   14.491
  133.750   57.860    0.421    0.329   14.517
  134.000   57.941    0.427    0.329   14.551
  134.250   58.022    0.435    0.327   14.594
  134.500   58.740    0.430    0.326   14.628
  134.750   59.399    0.417    0.324   14.663
  135.000   60.097    0.416    0.323   14.698
  135.250   61.353    0.425    0.323   14.732
  135.500   62.630    0.433    0.321   14.767
  135.750   63.328    0.437    0.324   14.793
  136.000   64.027    0.433    0.325   14.846
  136.250   64.068    0.431    0.326   14.881
  136.500   64.189    0.431    0.326   14.916
  136.750   64.229    0.433    0.324   14.951
  137.000   64.330    0.439    0.323   14.978
  137.250   64.431    0.440    0.324   15.013
  137.500   64.512    0.429    0.324   14.770
  137.750   64.015    0.433    0.322   14.813
  138.000   64.055    0.441    0.322   14.573
  138.250   63.539    0.449    0.322   14.599
  138.500   62.424    0.453    0.323   14.633
  138.750   60.712    0.446    0.323   14.421
  139.000   60.215    0.429    0.321   14.179
  139.250   60.275    0.413    0.320   14.212
  139.500   60.376    0.412    0.320   13.990
  139.750   60.477    0.419    0.320   13.763
  140.000   60.538    0.424    0.318   13.524
  140.250   60.599    0.425    0.318   13.564
  140.500   60.720    0.427    0.317   13.344
  140.750   60.800    0.426    0.316   13.119
  141.000   60.901    0.425    0.318   12.914
  141.250   60.982    0.429    0.320   12.704
  141.500   59.270    0.436    0.327   12.727
  141.750   57.537    0.460    0.338   12.528
  142.000   56.423    0.475    0.370   12.325
  142.250   55.288    0.477    0.399   12.354
  142.500   55.369    0.473    0.396   12.153
  142.750   56.645    0.468    0.384   11.963
  143.000   58.559    0.459    0.367   11.984
  143.250   58.599    0.447    0.360   12.020
  143.500   59.916    0.439    0.357   11.825
  143.750   61.192    0.440    0.357   11.845
  144.000   61.871    0.441    0.355   11.660
  144.250   62.549    0.440    0.353   11.478
  144.500   63.208    0.439    0.350   11.069
  144.750   64.524    0.442    0.345   10.700
  145.000   65.162    0.449    0.340   10.713
  145.250   65.841    0.456    0.335   10.751
  145.500   66.540    0.451    0.324   10.763
  145.750   66.043    0.375    0.228   11.214
  146.000   64.310    0.347    0.212   11.446
  146.250   61.403    0.325    0.228   11.697
  146.500   57.319    0.331    0.275   11.946
  146.750   56.762    0.351    0.326   12.193
  147.000   60.449    0.416    0.338   12.222
  147.250   65.910    0.439    0.332   12.251
  147.500   66.608    0.443    0.333   11.829
  147.750   66.091    0.436    0.339   11.643
  148.000   65.575    0.410    0.337   11.242
  148.250   65.655    0.413    0.332   10.861
  148.500   69.940    0.441    0.323   10.480
  148.750   73.607    0.470    0.313    9.759
  149.000   77.275    0.494    0.303    9.417
  149.250   79.169    0.485    0.295    8.929
  149.500   84.629    0.472    0.288    8.616
  149.750   87.698    0.479    0.282    8.471
  150.000   90.170    0.487    0.280    7.888
  150.250   92.662    0.495    0.275    7.611
  150.500   93.938    0.495    0.263    7.345
  150.750   95.214    0.479    0.257    6.835
  151.000   95.873    0.468    0.258    6.720
  151.250   97.149    0.474    0.267    6.253
  151.500   97.847    0.483    0.276    5.711
  151.750   98.526    0.494    0.278    5.412
  152.000   98.029    0.484    0.271    5.126
  152.250   97.532    0.482    0.256    4.854
  152.500   97.573    0.488    0.247    4.515
  152.750  100.065    0.491    0.252    3.972
  153.000  103.114    0.497    0.265    3.831
  153.250  105.606    0.526    0.277    3.436
  153.500  107.500    0.539    0.287    3.315
  153.750  108.776    0.551    0.299    3.142
  154.000  108.837    0.550    0.306    3.032
  154.250  108.918    0.551    0.308    2.819
  154.500  109.018    0.553    0.302    2.774
  154.750  109.099    0.551    0.292    3.057
  155.000  109.180    0.542    0.282    3.302
  155.250  107.447    0.531    0.275    3.499
  155.500  103.344    0.521    0.273    3.927
  155.750  101.632    0.496    0.272    4.406
  156.000  102.908    0.485    0.269    4.760
  156.250  104.204    0.467    0.268    5.143
  156.500  103.090    0.457    0.265    5.556
  156.750   99.564    0.446    0.264    6.005
  157.000   95.461    0.441    0.260    6.484
  157.250   94.366    0.442    0.260    6.875
  157.500   93.252    0.445    0.261    7.435
  157.750   91.539    0.452    0.264    7.733
  158.000   90.425    0.459    0.267    8.209
  158.250   90.505    0.466    0.270    8.378
  158.500   90.566    0.471    0.276    8.557
  158.750   91.883    0.471    0.284    8.739
  159.000   93.777    0.465    0.303    8.925
  159.250   94.415    0.452    0.314    9.116
  159.500   95.094    0.437    0.316    9.132
  159.750   93.401    0.410    0.288    9.326
  160.000   92.884    0.407    0.253    9.359
  160.250   94.161    0.412    0.220    9.382
  160.500   96.612    0.420    0.221    9.404
  160.750  102.113    0.422    0.216    9.420
  161.000  101.576    0.418    0.193    9.454
  161.250  100.461    0.413    0.190    9.471
  161.500   98.151    0.419    0.219    9.317
  161.750   95.841    0.425    0.240    9.339
  162.000   93.531    0.435    0.253    9.355
  162.250   93.611    0.445    0.255    9.389
  162.500   94.908    0.459    0.255    9.225
  162.750   96.782    0.463    0.256    9.253
  163.000   98.058    0.468    0.252    9.108
  163.250   98.139    0.471    0.242    8.794
  163.500   97.642    0.465    0.231    8.184
  163.750   99.516    0.459    0.227    7.897
  164.000  101.370    0.450    0.231    7.625
  164.250  105.057    0.444    0.234    7.362
  164.500  103.942    0.449    0.239    7.238
  164.750  102.808    0.452    0.240    7.259
  165.000  100.497    0.451    0.242    7.272
  165.250   97.590    0.453    0.246    7.158
  165.500   96.495    0.459    0.252    7.042
  165.750   96.556    0.464    0.256    6.673
  166.000   97.254    0.469    0.256    6.443
  166.250   98.531    0.472    0.252    6.102
  166.500  100.425    0.470    0.250    5.895
  166.750  100.506    0.468    0.253    5.800
