~VERSION INFORMATION
 VERS.                 2.0:   CWLS LOG ASCII STANDARD -VERSION 2.0
 WRAP.                  NO:   ONE LINE PER DEPTH STEP
~WELL INFORMATION BLOCK
#MNEM.UNIT           DATA                    DESCRIPTION OF MNEMONIC
#---------    -------------------            -------------------------------
# Generated from Intellog Unique Number	CW_79_81/WELL/2452
WELL.         GULF AMOCO HOOLE               : Well_name    - WELL
LOC .         00/06-20-081-24W4/0            : Location     - LOCATION
UWI .         00/06-20-081-24W4/0            : Uwi          - UNIQUE WELL ID
ENTR.         MAX                            : Entered      - ENTERED BY
SRVC.         COMPUTALOG                     : Scn          - SERVICE COMPANY
STRT.M        210                            : top_depth    - START DEPTH
STOP.M        474.75                         : bot_depth    - STOP DEPTH
STEP.M        0.25                           : increment    - STEP LENGTH
 NULL. -999.2500:NULL Value
~CURVE INFORMATION BLOCK
#MNEM UNIT       ERCB CURVE CODE    CURVE DESCRIPTION
#-----------   ------------------   ----------------------------------
DEPT.M        00 001 00 00         : DEPTH        - DEPTH
ILD .OHMM     00 120 00 00         : RESD         - DEEP RESISTIVITY (DIL)
NPHI.V/V      00 330 00 00         : PHIN         - NEUTRON POROSITY (SANDSTONE)
DPHI.V/V      00 890 00 00         : PHID         - DENSITY POROSITY (SANDSTONE)
GR  .API      00 310 00 00         : GR           - GAMMA RAY
CALI.MM       00 280 01 00         : CAL          - CALIPER
~PARAMETER INFORMATION
#MNEM.UNIT           DATA             DESCRIPTION OF MNEMONIC
#---------         -----------     ------------------------------
GL  .M        599.05               : gl           - GROUND LEVEL ELEVATION
EREF.M        603.3                : kb           - ELEVATION OF DEPTH REFERENCE
DATM.M        599.05               : datum        - DATUM ELEVATION
TDD .M        487                  : tdd          - TOTAL DEPTH DRILLER
RUN .         ONE                  : Run          - RUN NUMBER
ENG .         BILL                 : Engineer     - RECORDING ENGINEER
WIT .         JIM                  : Witness      - WITNESSED BY
MUD .         GEL                  : Mud_type     - MUD TYPE
MATR.         SANDSTONE            : Logunit      - NEUTRON MATRIX
TMAX.C        24                   : BHT          - MAXIMUM RECORDED TEMPERATURE
BHTD.M        487                  : BHTDEP       - MAXIMUM RECORDED TEMPERATURE
MATR.         1                    : LOGUNIT      - NEUTRON MATRIX
RMT .C        17.8                 : MDTP         - TEMPERATURE OF MUD
NEUT.         1                    : NEUTRON      - NEUTRON TYPE
RESI.         0                    : RESIST       - RESISTIVITY TYPE
RMC .OHMM     5                    : RMC          - RESISTIVITY OF MUD CAKE
RMF .OHMM     5.8                  : RMF          - RESISTIVITY OF MUD FILTRATE
SUFT.C        -20                  : SUFT         - SURFACE TEMPERATURE
~A  DEPTH     RESD     PHIN     PHID       GR      CAL
  210.000    5.842    0.451    0.249  100.489  223.200
  210.250    6.901    0.428    0.250   82.061  222.396
  210.500    8.462    0.386    0.268   60.800  220.454
  210.750   11.546    0.344    0.284   39.041  219.079
  211.000   17.251    0.316    0.286   23.266  219.005
  211.250   21.805    0.305    0.271   20.764  219.914
  211.500   24.515    0.307    0.259   22.520  220.354
  211.750   25.441    0.308    0.247   26.842  220.376
  212.000   26.118    0.308    0.240   27.036  220.399
  212.250   26.907    0.307    0.263   25.017  221.021
  212.500   27.881    0.305    0.302   22.518  221.742
  212.750   29.033    0.308    0.309   20.849  220.724
  213.000   30.660    0.311    0.311   19.620  219.503
  213.250   32.525    0.310    0.305   18.438  219.130
  213.500   33.953    0.311    0.305   17.974  218.754
  213.750   34.989    0.312    0.305   17.868  218.577
  214.000   35.721    0.313    0.305   17.881  218.402
  214.250   36.324    0.313    0.303   17.798  217.635
  214.500   36.616    0.313    0.303   17.313  217.654
  214.750   36.900    0.308    0.304   16.612  217.680
  215.000   37.391    0.311    0.301   16.985  217.703
  215.250   37.682    0.314    0.298   17.715  217.526
  215.500   37.763    0.316    0.298   18.266  216.952
  215.750   38.117    0.318    0.301   17.836  215.621
  216.000   38.421    0.314    0.305   15.608  214.815
  216.250   39.005    0.317    0.304   16.340  214.442
  216.500   39.815    0.317    0.301   16.712  214.363
  216.750   40.868    0.315    0.303   16.846  214.584
  217.000   41.805    0.312    0.310   17.040  215.107
  217.250   41.692    0.310    0.318   17.873  216.018
  217.500   41.068    0.309    0.323   18.386  216.458
  217.750   40.478    0.311    0.317   17.684  216.480
  218.000   40.342    0.315    0.314   16.980  216.505
  218.250   40.651    0.324    0.315   16.755  216.328
  218.500   41.786    0.333    0.319   16.711  216.049
  218.750   45.435    0.331    0.322   15.722  216.078
  219.000   49.501    0.322    0.318   15.485  216.102
  219.250   54.055    0.326    0.318   15.019  217.723
  219.500   60.313    0.330    0.317   14.915  218.148
  219.750   68.139    0.330    0.316   14.810  217.773
  220.000   75.803    0.326    0.316   14.643  217.297
  220.250   78.583    0.327    0.316   14.663  217.807
  220.500   78.001    0.323    0.316   14.675  218.247
  220.750   72.962    0.324    0.317   16.843  218.670
  221.000   60.639    0.330    0.318   19.010  219.389
  221.250   51.453    0.340    0.331   20.340  220.010
  221.500   40.339    0.346    0.345   21.431  220.433
  221.750   24.378    0.340    0.328   24.520  220.780
  222.000   19.184    0.341    0.314   25.531  220.389
  222.250   15.643    0.354    0.303   29.611  220.408
  222.500   13.333    0.362    0.289   44.099  220.431
  222.750   11.456    0.369    0.276   56.435  220.655
  223.000    9.971    0.374    0.264   62.132  221.079
  223.250    8.893    0.375    0.251   65.132  221.506
  223.500    8.367    0.381    0.252   66.889  221.528
  223.750    8.125    0.400    0.257   70.493  221.552
  224.000    8.069    0.411    0.256   73.737  221.278
  224.250    8.160    0.408    0.253   74.350  220.705
  224.500    8.449    0.393    0.254   70.655  219.931
  224.750    9.177    0.385    0.263   60.633  218.994
  225.000    9.542    0.379    0.269   55.912  218.190
  225.250    9.615    0.367    0.264   56.407  217.414
  225.500   10.012    0.368    0.266   57.261  216.642
  225.750   10.396    0.373    0.268   57.753  216.068
  226.000   10.555    0.375    0.269   57.165  215.792
  226.250   10.466    0.371    0.277   53.941  215.736
  226.500   10.389    0.364    0.286   49.719  215.345
  226.750   10.013    0.366    0.286   47.103  215.371
  227.000    9.435    0.376    0.279   47.357  215.990
  227.250    8.796    0.393    0.281   49.883  218.006
  227.500    8.092    0.410    0.296   54.382  220.823
  227.750    7.094    0.416    0.325   62.105  222.612
  228.000    6.378    0.413    0.350   68.350  223.465
  228.250    5.702    0.427    0.346   69.800  224.289
  228.500    5.618    0.440    0.326   72.686  224.810
  228.750    5.827    0.439    0.307   73.777  226.030
  229.000    6.153    0.423    0.295   70.561  228.048
  229.250    6.359    0.391    0.280   61.200  231.148
  229.500    6.216    0.388    0.272   60.962  236.572
  229.750    5.902    0.392    0.278   62.413  237.792
  230.000    5.542    0.403    0.269   64.760  235.127
  230.250    5.207    0.414    0.258   68.003  230.166
  230.500    4.871    0.422    0.249   72.085  224.606
  230.750    4.393    0.431    0.245   77.534  220.167
  231.000    4.071    0.443    0.249   80.789  219.774
  231.250    3.837    0.465    0.253   80.087  222.190
  231.500    3.658    0.477    0.257   81.179  224.905
  231.750    3.514    0.481    0.263   82.031  226.324
  232.000    3.401    0.475    0.270   81.984  226.047
  232.250    3.323    0.455    0.264   82.258  224.881
  232.500    3.298    0.447    0.252   84.764  224.904
  232.750    3.324    0.442    0.242   84.778  224.930
  233.000    3.331    0.450    0.240   86.049  224.954
  233.250    3.356    0.465    0.242   87.381  224.978
  233.500    3.408    0.478    0.244   87.695  225.001
  233.750    3.470    0.471    0.244   85.536  224.947
  234.000    3.525    0.442    0.245   83.059  224.559
  234.250    3.526    0.446    0.246   84.031  224.576
  234.500    3.489    0.470    0.246   83.747  224.897
  234.750    3.374    0.490    0.244   84.837  225.121
  235.000    3.186    0.497    0.243   87.602  225.146
  235.250    2.930    0.494    0.248   90.064  225.173
  235.500    2.778    0.487    0.257   90.325  225.203
  235.750    2.657    0.480    0.267   91.057  224.826
  236.000    2.557    0.479    0.271   90.176  224.448
  236.250    2.484    0.491    0.269   89.353  224.271
  236.500    2.435    0.512    0.266   89.604  224.296
  236.750    2.385    0.526    0.265   91.147  224.326
  237.000    2.313    0.534    0.270   90.414  224.348
  237.250    2.297    0.536    0.275   88.994  224.374
  237.500    2.306    0.535    0.275   89.365  224.399
  237.750    2.333    0.523    0.273   88.901  224.623
  238.000    2.364    0.503    0.269   87.601  225.146
  238.250    2.386    0.486    0.260   88.145  225.967
  238.500    2.405    0.478    0.251   88.409  225.992
  238.750    2.406    0.480    0.247   87.465  225.617
  239.000    2.434    0.480    0.247   87.960  225.539
  239.250    2.480    0.479    0.250   89.411  225.163
  239.500    2.545    0.477    0.251   91.398  224.190
  239.750    2.659    0.477    0.248   93.468  221.128
  240.000    2.743    0.461    0.244   92.984  213.676
  240.250    2.846    0.451    0.243   89.168  215.297
  240.500    2.922    0.460    0.243   86.612  216.918
  240.750    2.978    0.472    0.243   87.106  217.140
  241.000    3.023    0.482    0.246   89.032  216.164
  241.250    3.074    0.488    0.256   87.625  216.043
  241.500    3.099    0.487    0.262   88.883  217.316
  241.750    3.100    0.480    0.256   90.332  218.930
  242.000    3.084    0.476    0.251   91.064  221.449
  242.250    3.062    0.476    0.249   93.112  223.866
  242.500    3.040    0.481    0.251   96.775  225.682
  242.750    3.019    0.491    0.253  100.174  226.741
  243.000    3.020    0.506    0.250   97.947  225.932
  243.250    3.111    0.499    0.241   95.806  222.768
  243.500    3.382    0.467    0.240   93.848  219.603
  243.750    3.903    0.440    0.239   91.708  217.034
  244.000    4.765    0.426    0.234   88.430  215.562
  244.250    6.142    0.409    0.227   79.873  215.422
  244.500    7.415    0.389    0.230   66.928  214.616
  244.750    8.946    0.372    0.245   54.741  214.241
  245.000   10.605    0.389    0.278   49.013  213.569
  245.250   12.279    0.407    0.304   48.190  212.993
  245.500   13.942    0.415    0.317   49.819  212.714
  245.750   16.059    0.413    0.328   50.554  212.827
  246.000   17.225    0.410    0.327   50.571  213.272
  246.250   17.616    0.414    0.323   51.539  213.690
