~VERSION INFORMATION
 VERS.                 2.0:   CWLS LOG ASCII STANDARD -VERSION 2.0
 WRAP.                  NO:   ONE LINE PER DEPTH STEP
~WELL INFORMATION BLOCK
#MNEM.UNIT           DATA                    DESCRIPTION OF MNEMONIC
#---------    -------------------            -------------------------------
# Generated from Intellog Unique Number	CS_77_79/WELL/891
WELL.         BVX MERLAND DUNCAN             : Well_name    - WELL
LOC .         00/07-03-078-15W4/0            : Location     - LOCATION
UWI .         00/07-03-078-15W4/0            : Uwi          - UNIQUE WELL ID
ENTR.         JHS                            : Entered      - ENTERED BY
SRVC.         SCHLUMBERGER                   : Scn          - SERVICE COMPANY
STRT.M        180                            : top_depth    - START DEPTH
STOP.M        430                            : bot_depth    - STOP DEPTH
STEP.M        0.25                           : increment    - STEP LENGTH
 NULL. -999.2500:NULL Value
~CURVE INFORMATION BLOCK
#MNEM UNIT       ERCB CURVE CODE    CURVE DESCRIPTION
#-----------   ------------------   ----------------------------------
DEPT.M        00 001 00 00         : DEPTH        - DEPTH
DPHI.V/V      00 890 00 00         : PHID         - DENSITY POROSITY (LIMESTONE)
NPHI.V/V      00 330 00 00         : PHIN         - NEUTRON POROSITY (LIMESTONE)
GR  .API      00 310 00 00         : GR           - GAMMA RAY
ILD .OHMM     00 120 00 00         : RESD         - DEEP RESISTIVITY (DIL)
~PARAMETER INFORMATION
#MNEM.UNIT           DATA             DESCRIPTION OF MNEMONIC
#---------         -----------     ------------------------------
GL  .M        581.32               : gl           - GROUND LEVEL ELEVATION
EREF.M        584.77               : kb           - ELEVATION OF DEPTH REFERENCE
DATM.M        584.77               : datum        - DATUM ELEVATION
TDD .M        430                  : tdd          - TOTAL DEPTH DRILLER
RUN .         ONE                  : Run          - RUN NUMBER
ENG .         BILL                 : Engineer     - RECORDING ENGINEER
WIT .         JIM                  : Witness      - WITNESSED BY
MUD .         GEL                  : Mud_type     - MUD TYPE
MATR.         LIMESTONE            : Logunit      - NEUTRON MATRIX
TMAX.C        23                   : BHT          - MAXIMUM RECORDED TEMPERATURE
BHTD.M        430                  : BHTDEP       - MAXIMUM RECORDED TEMPERATURE
MATR.         1                    : LOGUNIT      - NEUTRON MATRIX
RMT .C        25                   : MDTP         - TEMPERATURE OF MUD
NEUT.         1                    : NEUTRON      - NEUTRON TYPE
RESI.         0                    : RESIST       - RESISTIVITY TYPE
RMC .OHMM     0.25                 : RMC          - RESISTIVITY OF MUD CAKE
RMF .OHMM     0.25                 : RMF          - RESISTIVITY OF MUD FILTRATE
SUFT.C        15                   : SUFT         - SURFACE TEMPERATURE
~A  DEPTH     PHID     PHIN       GR     RESD
# ...
  354.000    0.212    0.414   91.099    7.744
  354.250    0.214    0.414   86.146    7.748
  354.500    0.214    0.401   81.811    7.751
  354.750    0.214    0.395   82.414    7.904
  355.000    0.220    0.403   87.332    8.059
  355.250    0.226    0.413   88.552    8.217
  355.500    0.221    0.406   87.301    8.377
  355.750    0.210    0.404   88.522    8.543
  356.000    0.215    0.395   92.829    8.709
  356.250    0.220    0.394   98.986    8.880
  356.500    0.214    0.409   97.119    8.884
  356.750    0.209    0.389   89.081    9.059
  357.000    0.209    0.367   89.677    9.413
  357.250    0.199    0.368   88.431    9.596
  357.500    0.191    0.378   87.183    9.970
  357.750    0.184    0.366   89.635   10.167
  358.000    0.188    0.352   90.236   10.172
  358.250    0.208    0.350   93.309    9.438
  358.500    0.215    0.385   96.997    8.922
  358.750    0.226    0.416  100.066    8.123
  359.000    0.214    0.421   98.816    7.537
  359.250    0.188    0.403   94.482    7.125
  359.500    0.182    0.392   90.145    6.864
  359.750    0.182    0.389   91.364    6.740
  360.000    0.192    0.401   92.582    6.494
  360.250    0.208    0.415   89.484    6.140
  360.500    0.232    0.424   86.995    5.915
  360.750    0.214    0.411   84.514    5.808
  361.000    0.198    0.397   80.796    5.596
  361.250    0.205    0.398   84.483    5.192
  361.500    0.229    0.432   86.317    4.726
  361.750    0.299    0.477   83.835    4.066
  362.000    0.309    0.519   81.967    3.124
  362.250    0.302    0.534   81.337    2.588
  362.500    0.317    0.542   82.554    2.226
  362.750    0.323    0.559   85.625    2.105
  363.000    0.301    0.573   88.697    2.067
  363.250    0.260    0.560   91.149    2.068
  363.500    0.243    0.537   97.308    2.189
  363.750    0.233    0.531   98.526    2.453
  364.000    0.215    0.466   91.106    2.749
  364.250    0.206    0.418   88.004    3.385
  364.500    0.189    0.397   91.073    4.328
  364.750    0.172    0.401   86.121    5.133
  365.000    0.170    0.393   83.020    5.750
  365.250    0.175    0.379   82.385    6.691
  365.500    0.184    0.368   85.458    7.086
  365.750    0.196    0.360   90.996    7.089
  366.000    0.210    0.379   93.451    7.093
  366.250    0.185    0.402   91.584    7.231
  366.500    0.098    0.392   76.756    7.515
  366.750    0.072    0.330   70.567    7.807
  367.000    0.082    0.302   74.257    8.267
  367.250    0.135    0.344   82.881    8.270
  367.500    0.176    0.365   89.035    7.819
  367.750    0.181    0.379   92.725    7.392
  368.000    0.193    0.388   92.091    6.360
  368.250    0.202    0.422   90.228    5.471
  368.500    0.200    0.443   88.977    4.888
  368.750    0.197    0.432   84.023    4.891
  369.000    0.179    0.393   77.836    5.082
  369.250    0.168    0.372   78.439    4.989
  369.500    0.186    0.395   90.151    4.629
  369.750    0.218    0.432   98.158    4.136
  370.000    0.221    0.468  102.464    3.695
  370.250    0.202    0.472  101.831    3.697
  370.500    0.182    0.440   95.642    3.990
  370.750    0.172    0.406   98.097    4.145
  371.000    0.181    0.397  103.021    4.472
  371.250    0.193    0.410  102.386    4.646
  371.500    0.164    0.426   99.899    5.014
  371.750    0.130    0.402   98.654    5.309
  372.000    0.127    0.382  106.662    5.515
  372.250    0.185    0.413  111.585    5.731
  372.500    0.203    0.425   99.842    5.954
  372.750    0.211    0.411   85.631    6.546
  373.000    0.203    0.363   65.864    7.198
  373.250    0.198    0.299   59.677    7.068
  373.500    0.224    0.318   71.389    6.557
  373.750    0.217    0.372   81.866    5.970
  374.000    0.216    0.408   88.024    5.862
  374.250    0.228    0.445   83.070    5.976
  374.500    0.240    0.355   62.069    6.954
  374.750    0.245    0.260   38.600    8.563
  375.000    0.221    0.291   46.609   13.733
  375.250    0.216    0.311   59.555   18.236
  375.500    0.223    0.370   68.797   21.221
  375.750    0.228    0.366   68.165   20.834
  376.000    0.225    0.351   65.064   18.265
  376.250    0.228    0.348   65.048   16.318
  376.500    0.242    0.355   77.376   16.955
  376.750    0.233    0.339   90.941   16.335
  377.000    0.191    0.329  105.121   13.032
  377.250    0.167    0.392  108.802   10.397
  377.500    0.204    0.387  108.176   10.600
  377.750    0.233    0.376  102.604   12.570
  378.000    0.233    0.364   90.246   15.188
  378.250    0.215    0.339   79.739   17.673
  378.500    0.198    0.331   77.254   19.802
  378.750    0.205    0.333   82.793   20.970
  379.000    0.205    0.321   82.775   20.978
  379.250    0.205    0.320   84.615   20.213
  379.500    0.220    0.341   87.686   18.755
  379.750    0.230    0.342   85.816   18.066
  380.000    0.224    0.335   83.953   17.082
  380.250    0.208    0.341   83.937   16.458
  380.500    0.192    0.347   87.007   16.161
  380.750    0.176    0.321   84.524   16.475
  381.000    0.187    0.314   74.016   18.812
  381.250    0.219    0.329   59.804   21.479
  381.500    0.235    0.334   57.938   24.527
  381.750    0.228    0.324   67.176   26.463
  382.000    0.226    0.324   68.400   28.023
  382.250    0.222    0.346   67.767   25.997
  382.500    0.214    0.351   77.010   24.118
  382.750    0.214    0.346   85.635   21.547
  383.000    0.202    0.358   86.237   19.994
  383.250    0.195    0.330   77.579   20.006
  383.500    0.198    0.308   80.651   19.640
  383.750    0.200    0.308   87.425   19.281
  384.000    0.195    0.322   92.347   18.230
  384.250    0.186    0.341   95.418   17.898
  384.500    0.184    0.335   88.611   17.908
  384.750    0.184    0.322   81.805   18.607
  385.000    0.190    0.312   80.560   20.077
  385.250    0.223    0.312   74.989   22.496
  385.500    0.276    0.323   68.185   25.685
  385.750    0.295    0.302   61.380   32.846
  386.000    0.308    0.176   52.722   46.160
  386.250    0.355    0.148   41.599   67.365
  386.500    0.381    0.132   31.708   92.892
  386.750    0.356    0.128   28.603  116.570
  387.000    0.340    0.165   31.060  123.430
  387.250    0.318    0.295   32.278  118.919
  387.500    0.313    0.315   34.733  104.254
  387.750    0.311    0.322   40.890   80.089
  388.000    0.289    0.326   50.132   58.140
  388.250    0.255    0.332   61.225   42.205
  388.500    0.236    0.342   66.767   29.501
  388.750    0.222    0.354   74.156   23.094
  389.000    0.214    0.375   75.994   19.869
  389.250    0.228    0.386   72.273   19.142
  389.500    0.240    0.394   74.111   18.796
  389.750    0.225    0.370   77.182   19.527
  390.000    0.222    0.337   73.464   21.472
  390.250    0.248    0.304   67.274   24.519
  390.500    0.288    0.285   61.088   25.473
  390.750    0.282    0.295   62.307   29.642
  391.000    0.271    0.325   60.440   40.116
  391.250    0.282    0.306   51.167   46.677
  391.500    0.273    0.293   41.895   50.362
  391.750    0.267    0.317   43.109   55.373
  392.000    0.269    0.349   47.419   55.409
  392.250    0.266    0.366   51.724   52.386
  392.500    0.266    0.368   49.857   47.690
  392.750    0.277    0.361   52.925   44.249
  393.000    0.289    0.347   52.294   46.847
  393.250    0.309    0.350   44.257   51.511
  393.500    0.300    0.353   39.300   51.540
  393.750    0.263    0.351   41.754   59.979
  394.000    0.246    0.360   43.593   67.195
  394.250    0.170    0.228   38.020   76.729
  394.500    0.037    0.113   31.833   81.243
  394.750    0.000    0.096   28.116   76.809
  395.000    0.066    0.135   35.506   61.277
  395.250    0.148    0.196   53.392   40.474
  395.500    0.232    0.298   70.041   25.745
  395.750    0.222    0.331   81.136   20.154
  396.000    0.208    0.340   78.651   18.351
  396.250    0.242    0.372   68.759   18.016
  396.500    0.269    0.394   63.805   18.719
  396.750    0.256    0.376   69.963   19.449
  397.000    0.224    0.370   77.355   19.833
  397.250    0.221    0.386   74.871   19.841
