~VERSION INFORMATION
 VERS.                 2.0:   CWLS LOG ASCII STANDARD -VERSION 2.0
 WRAP.                  NO:   ONE LINE PER DEPTH STEP
~WELL INFORMATION BLOCK
#MNEM.UNIT           DATA                    DESCRIPTION OF MNEMONIC
#---------    -------------------            -------------------------------
# Generated from Intellog Unique Number	CS_67_68/WELL/782
WELL.         MURPHY OIL COMPANY LTD         : Well_name    - WELL
LOC .         00/07-30-068-17W4/0            : Location     - LOCATION
UWI .         00/07-30-068-17W4/0            : Uwi          - UNIQUE WELL ID
ENTR.         SP                             : Entered      - ENTERED BY
SRVC.         SCHLUMBERGER                   : Scn          - SERVICE COMPANY
STRT.M        298.704                        : top_depth    - START DEPTH
STOP.M        493.454                        : bot_depth    - STOP DEPTH
STEP.M        0.152                          : increment    - STEP LENGTH
 NULL. -999.2500:NULL Value
~CURVE INFORMATION BLOCK
#MNEM UNIT       ERCB CURVE CODE    CURVE DESCRIPTION
#-----------   ------------------   ----------------------------------
DEPT.M        00 001 00 00         : DEPTH        - DEPTH
GR  .API      00 310 00 00         : GR           - GAMMA RAY
NPHI.V/V      00 330 00 00         : PHIN         - NEUTRON POROSITY (SANDSTONE)
DPHI.V/V      00 890 00 00         : PHID         - DENSITY POROSITY (SANDSTONE)
ILD .OHMM     00 120 00 00         : RESD         - DEEP RESISTIVITY (DIL)
~PARAMETER INFORMATION
#MNEM.UNIT           DATA             DESCRIPTION OF MNEMONIC
#---------         -----------     ------------------------------
GL  .M        543.154              : gl           - GROUND LEVEL ELEVATION
EREF.M        547.116              : kb           - ELEVATION OF DEPTH REFERENCE
DATM.M        543.154              : datum        - DATUM ELEVATION
TDD .M        502.92               : tdd          - TOTAL DEPTH DRILLER
RUN .         ONE                  : Run          - RUN NUMBER
ENG .         BILL                 : Engineer     - RECORDING ENGINEER
WIT .         JIM                  : Witness      - WITNESSED BY
MUD .         GEL                  : Mud_type     - MUD TYPE
MATR.         SANDSTONE            : Logunit      - NEUTRON MATRIX
TMAX.C        22.2222              : BHT          - MAXIMUM RECORDED TEMPERATURE
BHTD.M        502.92               : BHTDEP       - MAXIMUM RECORDED TEMPERATURE
MATR.         1                    : LOGUNIT      - NEUTRON MATRIX
RMT .C        25                   : MDTP         - TEMPERATURE OF MUD
NEUT.         1                    : NEUTRON      - NEUTRON TYPE
RESI.         0                    : RESIST       - RESISTIVITY TYPE
RMC .OHMM     0.25                 : RMC          - RESISTIVITY OF MUD CAKE
RMF .OHMM     0.25                 : RMF          - RESISTIVITY OF MUD FILTRATE
SUFT.C        15                   : SUFT         - SURFACE TEMPERATURE
~A  DEPTH       GR     PHIN     PHID     RESD
# ...
  385.704   94.509    0.345    0.135    4.394
  385.954   93.258    0.380    0.149    4.124
  386.204   97.714    0.409    0.179    3.748
  386.454  100.643    0.436    0.199    3.393
  386.704  101.227    0.429    0.189    3.131
  386.954  100.488    0.424    0.181    2.981
  387.204   99.715    0.418    0.176    2.981
  387.454  100.625    0.413    0.179    3.504
  387.704  102.608    0.417    0.186    4.088
  387.954  103.234    0.416    0.189    4.735
  388.204   98.756    0.407    0.176    5.446
  388.454   92.220    0.394    0.162    5.941
  388.704   88.201    0.367    0.141    6.355
  388.954   87.523    0.308    0.126    6.067
  389.204   91.547    0.335    0.161    5.381
  389.454   97.547    0.385    0.189    4.567
  389.704  101.667    0.413    0.179    4.224
  389.954  102.696    0.413    0.166    3.961
  390.204  103.408    0.413    0.158    3.805
  390.454  103.464    0.419    0.164    3.685
  390.704  101.929    0.416    0.175    3.692
  390.954   99.931    0.408    0.189    3.719
  391.204   99.345    0.403    0.194    3.754
  391.454   99.848    0.417    0.184    3.784
  391.704   99.998    0.409    0.181    3.832
  391.954  101.206    0.400    0.177    3.880
  392.204  106.533    0.405    0.170    3.888
  392.454  109.792    0.410    0.167    3.881
  392.704  107.865    0.425    0.167    3.866
  392.954  106.184    0.414    0.180    3.844
  393.204  108.242    0.406    0.188    3.803
  393.454  109.316    0.403    0.189    3.756
  393.704  110.326    0.408    0.183    3.721
  393.954  110.475    0.415    0.173    3.675
  394.204  110.710    0.431    0.168    3.648
  394.454  111.376    0.443    0.165    3.631
  394.704  112.578    0.437    0.168    3.598
  394.954  113.710    0.429    0.179    3.542
  395.204  114.376    0.435    0.185    3.469
  395.454  114.571    0.430    0.183    3.405
  395.704  114.096    0.430    0.177    3.304
  395.954  113.200    0.440    0.174    3.189
  396.204  110.100    0.444    0.194    3.053
  396.454  102.320    0.434    0.203    2.928
  396.704   96.205    0.428    0.213    2.816
  396.954   90.796    0.421    0.223    2.662
  397.204   87.263    0.417    0.213    2.494
  397.454   85.605    0.423    0.201    2.337
  397.704   89.069    0.435    0.198    2.212
  397.954   96.413    0.448    0.210    2.061
  398.204  104.425    0.472    0.239    1.876
  398.454  111.379    0.524    0.217    1.695
  398.704  117.007    0.546    0.199    1.519
  398.954  118.558    0.553    0.210    1.525
  399.204  118.942    0.545    0.222    1.685
  399.454  117.083    0.523    0.226    1.873
  399.704  115.053    0.493    0.230    2.091
  399.954  113.347    0.463    0.213    2.282
  400.204  111.644    0.446    0.202    2.443
  400.454  109.775    0.444    0.194    2.495
  400.704  108.797    0.455    0.170    2.489
  400.954  107.796    0.468    0.156    2.514
  401.204  102.082    0.441    0.177    2.578
  401.454   97.618    0.416    0.195    2.637
  401.704   96.223    0.417    0.215    2.688
  401.954   97.246    0.415    0.192    2.736
  402.204   96.114    0.404    0.169    2.790
  402.454   94.560    0.395    0.170    2.844
  402.704   96.995    0.408    0.173    2.950
  402.954  100.621    0.417    0.182    2.971
  403.204  103.612    0.419    0.178    2.973
  403.454  100.276    0.422    0.194    2.966
  403.704   95.763    0.426    0.203    3.001
  403.954   92.342    0.434    0.200    3.263
  404.204   88.150    0.438    0.202    3.652
  404.454   89.105    0.427    0.225    4.325
  404.704   89.268    0.379    0.222    5.042
  404.954   86.489    0.345    0.101    5.632
  405.204   89.915    0.301    0.084    6.101
  405.454   98.677    0.289    0.093    6.137
  405.704   88.703    0.339    0.149    6.079
  405.954   79.552    0.370    0.213    5.796
  406.204   72.192    0.389    0.261    5.105
  406.454   67.511    0.372    0.283    4.213
  406.704   65.687    0.351    0.266    3.525
  406.954   65.910    0.367    0.269    3.011
  407.204   67.210    0.397    0.281    2.686
  407.454   66.982    0.414    0.287    2.392
  407.704   65.822    0.407    0.286    2.159
  407.954   64.587    0.401    0.294    2.008
  408.204   63.917    0.397    0.303    1.877
  408.454   64.423    0.390    0.280    1.780
  408.704   65.533    0.397    0.267    1.719
  408.954   66.637    0.405    0.277    1.647
  409.204   67.143    0.410    0.291    1.623
  409.454   66.718    0.409    0.296    1.643
  409.704   65.963    0.397    0.301    1.685
  409.954   68.488    0.386    0.289    1.726
  410.204   70.279    0.385    0.277    1.775
  410.454   71.006    0.395    0.280    1.806
  410.704   71.209    0.402    0.291    1.841
  410.954   73.285    0.410    0.294    1.862
  411.204   73.379    0.425    0.285    1.883
  411.454   72.200    0.416    0.289    1.913
  411.704   70.081    0.424    0.290    2.121
  411.954   67.888    0.428    0.281    2.413
  412.204   66.345    0.413    0.269    2.770
  412.454   63.898    0.385    0.251    3.226
  412.704   62.644    0.332    0.211    3.630
  412.954   61.482    0.240    0.137    3.992
  413.204   57.029    0.226    0.078    3.967
  413.454   58.515    0.324    0.128    2.922
  413.704   60.224    0.356    0.214    2.295
  413.954   62.992    0.378    0.264    1.968
  414.204   65.850    0.396    0.269    1.761
  414.454   68.085    0.407    0.272    1.709
  414.704   69.771    0.416    0.279    1.698
  414.954   71.339    0.421    0.285    1.710
  415.204   72.807    0.421    0.290    1.728
  415.454   74.848    0.421    0.280    1.760
  415.704   75.891    0.417    0.292    1.778
  415.954   75.889    0.410    0.299    1.827
  416.204   75.437    0.405    0.298    1.864
  416.454   75.383    0.401    0.296    1.976
  416.704   76.854    0.399    0.301    2.091
  416.954   79.179    0.401    0.280    2.239
  417.204   82.620    0.407    0.261    2.456
  417.454   88.232    0.410    0.240    2.679
  417.704   93.101    0.412    0.218    2.762
  417.954   97.083    0.418    0.198    2.789
  418.204  100.677    0.428    0.188    2.817
  418.454  103.571    0.432    0.195    2.849
  418.704  105.525    0.428    0.190    2.939
  418.954  107.241    0.421    0.172    3.151
  419.204  106.830    0.416    0.155    3.284
  419.454  108.907    0.409    0.157    3.450
  419.704  108.859    0.409    0.166    3.562
  419.954  105.914    0.426    0.158    3.731
  420.204  104.336    0.423    0.175    3.808
  420.454  103.769    0.412    0.182    3.895
  420.704  105.575    0.418    0.180    3.883
  420.954  105.517    0.421    0.174    3.951
  421.204  103.609    0.410    0.180    3.958
  421.454  104.490    0.402    0.195    3.931
  421.704  107.496    0.396    0.181    3.924
  421.954  109.808    0.392    0.164    3.878
  422.204  111.790    0.403    0.156    3.859
  422.454  113.271    0.410    0.157    3.884
  422.704  113.658    0.410    0.171    3.903
  422.954  112.461    0.405    0.161    3.921
  423.204  109.419    0.409    0.162    3.532
  423.454  105.855    0.416    0.184    3.040
  423.704  102.993    0.411    0.189    2.774
  423.954  108.980    0.448    0.194    2.449
  424.204  115.355    0.478    0.204    2.323
  424.454  116.274    0.503    0.208    2.306
  424.704  115.204    0.507    0.211    2.292
  424.954  114.914    0.515    0.220    2.278
  425.204  114.853    0.530    0.209    2.325
  425.454  112.398    0.534    0.221    2.290
  425.704  111.275    0.523    0.196    2.230
  425.954  114.339    0.512    0.207    2.159
  426.204  117.516    0.502    0.218    2.086
  426.454  120.764    0.496    0.226    2.094
  426.704  122.640    0.486    0.219    2.112
  426.954  122.033    0.477    0.207    2.136
  427.204  120.427    0.474    0.204    2.307
  427.454  118.343    0.458    0.196    2.517
  427.704  116.451    0.439    0.189    2.734
  427.954  115.592    0.418    0.184    2.879
  428.204  116.231    0.418    0.160    2.995
  428.454  120.231    0.426    0.150    3.092
  428.704  122.297    0.433    0.142    3.218
  428.954  121.842    0.434    0.164    3.322
