~VERSION INFORMATION
 VERS.                 2.0:   CWLS LOG ASCII STANDARD -VERSION 2.0
 WRAP.                  NO:   ONE LINE PER DEPTH STEP
~WELL INFORMATION BLOCK
#MNEM.UNIT           DATA                    DESCRIPTION OF MNEMONIC
#---------    -------------------            -------------------------------
# Generated from Intellog Unique Number	CS_69_70/WELL/785
WELL.         HUSKY OIL OPERATIONS           : Well_name    - WELL
LOC .         00/06-32-069-04W4/0            : Location     - LOCATION
UWI .         00/06-32-069-04W4/0            : Uwi          - UNIQUE WELL ID
ENTR.         SP                             : Entered      - ENTERED BY
SRVC.         SCHLUMBERGER                   : Scn          - SERVICE COMPANY
STRT.M        310                            : top_depth    - START DEPTH
STOP.M        540                            : bot_depth    - STOP DEPTH
STEP.M        0.25                           : increment    - STEP LENGTH
 NULL. -999.2500:NULL Value
~CURVE INFORMATION BLOCK
#MNEM UNIT       ERCB CURVE CODE    CURVE DESCRIPTION
#-----------   ------------------   ----------------------------------
DEPT.M        00 001 00 00         : DEPTH        - DEPTH
ILD .OHMM     00 120 00 00         : RESD         - DEEP RESISTIVITY (DIL)
DPHI.V/V      00 890 00 00         : PHID         - DENSITY POROSITY (LIMESTONE)
NPHI.V/V      00 330 00 00         : PHIN         - NEUTRON POROSITY (LIMESTONE)
GR  .API      00 310 00 00         : GR           - GAMMA RAY
~PARAMETER INFORMATION
#MNEM.UNIT           DATA             DESCRIPTION OF MNEMONIC
#---------         -----------     ------------------------------
GL  .M        685.9                : gl           - GROUND LEVEL ELEVATION
EREF.M        689.6                : kb           - ELEVATION OF DEPTH REFERENCE
DATM.M        685.9                : datum        - DATUM ELEVATION
TDD .M        547                  : tdd          - TOTAL DEPTH DRILLER
RUN .         ONE                  : Run          - RUN NUMBER
ENG .         BILL                 : Engineer     - RECORDING ENGINEER
WIT .         JIM                  : Witness      - WITNESSED BY
MUD .         GEL                  : Mud_type     - MUD TYPE
MATR.         LIMESTONE            : Logunit      - NEUTRON MATRIX
TMAX.C        22                   : BHT          - MAXIMUM RECORDED TEMPERATURE
BHTD.M        547                  : BHTDEP       - MAXIMUM RECORDED TEMPERATURE
MATR.         1                    : LOGUNIT      - NEUTRON MATRIX
RMT .C        25                   : MDTP         - TEMPERATURE OF MUD
NEUT.         1                    : NEUTRON      - NEUTRON TYPE
RESI.         0                    : RESIST       - RESISTIVITY TYPE
RMC .OHMM     0.25                 : RMC          - RESISTIVITY OF MUD CAKE
RMF .OHMM     0.25                 : RMF          - RESISTIVITY OF MUD FILTRATE
SUFT.C        15                   : SUFT         - SURFACE TEMPERATURE
~A  DEPTH     RESD     PHID     PHIN       GR
  310.000    3.106    0.268    0.542   96.084
  310.250    3.095    0.267    0.549   93.062
  310.500    3.149    0.267    0.526   95.979
  310.750    3.233    0.271    0.531   96.169
  311.000    3.259    0.264    0.520   94.662
  311.250    3.303    0.247    0.477   93.035
  311.500    3.328    0.233    0.483   92.680
  311.750    3.380    0.230    0.496   88.873
  312.000    3.425    0.242    0.505   87.607
  312.250    3.478    0.241    0.512   87.737
  312.500    3.486    0.232    0.516   86.473
  312.750    3.527    0.232    0.518   87.329
  313.000    3.547    0.244    0.513   89.882
  313.250    3.582    0.252    0.502   92.375
  313.500    3.603    0.258    0.498   92.988
  313.750    3.631    0.248    0.487   88.453
  314.000    3.674    0.235    0.505   85.614
  314.250    3.716    0.237    0.527   86.713
  314.500    3.574    0.248    0.540   91.689
  314.750    3.243    0.256    0.550   93.817
  315.000    3.108    0.264    0.510   91.645
  315.250    3.126    0.268    0.509   88.927
  315.500    3.145    0.268    0.500   87.118
  315.750    3.187    0.269    0.496   89.369
  316.000    3.254    0.264    0.528   94.586
  316.250    3.305    0.253    0.545   97.502
  316.500    3.368    0.251    0.544   93.513
  316.750    3.452    0.259    0.536   90.007
  317.000    3.572    0.263    0.530   85.714
  317.250    3.779    0.261    0.489   80.998
  317.500    3.795    0.285    0.466   76.582
  317.750    3.993    0.413    0.514   70.231
  318.000    4.378    0.496    0.568   64.665
  318.250    4.764    0.245    0.607   59.826
  318.500    5.234    0.225    0.549   77.888
  318.750    5.580    0.216    0.461   87.529
  319.000    5.795    0.221    0.438   89.900
  319.250    5.764    0.226    0.428   89.665
  319.500    5.680    0.228    0.426   88.887
  319.750    5.660    0.229    0.436   89.502
  320.000    5.641    0.226    0.430   91.993
  320.250    5.643    0.217    0.439   94.728
  320.500    5.623    0.214    0.453   95.281
  320.750    5.636    0.219    0.450   91.957
  321.000    5.701    0.226    0.434   89.118
  321.250    5.714    0.227    0.424   91.186
  321.500    5.683    0.221    0.420   94.649
  321.750    5.549    0.217    0.427   96.291
  322.000    5.437    0.216    0.448   97.209
  322.250    5.500    0.217    0.452   97.944
  322.500    5.627    0.227    0.433   98.013
  322.750    5.954    0.235    0.423   93.478
  323.000    6.577    0.242    0.435   81.612
  323.250    7.417    0.275    0.449   65.626
  323.500    8.318    0.319    0.264   50.005
  323.750    9.848    0.383    0.237   40.562
  324.000   15.014    0.444    0.219   33.724
  324.250   27.555    0.434    0.199   29.796
  324.500   39.052    0.408    0.190   28.532
  324.750   44.956    0.391    0.204   30.600
  325.000   42.833    0.377    0.221   32.122
  325.250   38.869    0.376    0.234   32.615
  325.500   32.240    0.388    0.231   32.381
  325.750   27.815    0.400    0.223   33.117
  326.000   25.430    0.407    0.222   38.941
  326.250   22.482    0.399    0.241   49.006
  326.500   19.431    0.333    0.357   62.221
  326.750   14.539    0.311    0.424   83.372
  327.000   11.529    0.298    0.455  102.948
  327.250    9.563    0.293    0.469  104.411
  327.500    8.266    0.267    0.458   99.209
  327.750    7.376    0.171    0.470   95.461
  328.000    6.718    0.150    0.465   95.591
  328.250    5.829    0.173    0.457   98.567
  328.500    5.240    0.205    0.475  103.967
  328.750    4.854    0.232    0.485  108.641
  329.000    4.455    0.225    0.485  111.193
  329.250    4.135    0.234    0.487  111.262
  329.500    3.947    0.248    0.489  109.816
  329.750    3.739    0.260    0.501  107.522
  330.000    3.556    0.267    0.514  111.106
  330.250    3.363    0.273    0.532  101.299
  330.500    3.295    0.291    0.557   77.075
  330.750    4.398    0.312    0.492   55.516
  331.000    8.224    0.402    0.170   39.833
  331.250   11.854    0.461    0.163   38.751
  331.500   16.182    0.454    0.242   48.635
  331.750   21.318    0.440    0.265   51.248
  332.000   28.189    0.445    0.200   50.771
  332.250   34.650    0.449    0.182   59.383
  332.500   27.839    0.429    0.250   66.661
  332.750   22.410    0.408    0.284   73.030
  333.000   18.039    0.399    0.307   77.279
  333.250   15.533    0.393    0.330   80.438
  333.500   13.502    0.379    0.362   81.718
  333.750   11.283    0.359    0.407   78.698
  334.000    9.844    0.351    0.422   73.496
  334.250    8.784    0.357    0.404   69.566
  334.500    8.047    0.367    0.372   67.455
  334.750    7.944    0.377    0.347   67.281
  335.000    8.127    0.376    0.357   70.681
  335.250    8.730    0.362    0.351   72.749
  335.500    9.789    0.350    0.341   69.850
  335.750   10.514    0.339    0.322   61.620
  336.000   11.617    0.380    0.227   59.507
  336.250   12.063    0.410    0.229   65.998
  336.500   12.457    0.387    0.314   70.792
  336.750   11.758    0.325    0.351   74.314
  337.000   11.015    0.273    0.338   68.022
  337.250    9.774    0.257    0.324   59.609
  337.500   11.063    0.249    0.321   54.589
  337.750   11.025    0.276    0.335   66.230
  338.000   10.118    0.292    0.361   70.175
  338.250    9.252    0.298    0.379   70.426
  338.500    8.798    0.298    0.394   74.615
  338.750    8.320    0.288    0.381   78.015
  339.000    7.809    0.280    0.371   74.692
  339.250    7.468    0.279    0.370   72.034
  339.500    7.277    0.274    0.385   77.193
  339.750    7.198    0.262    0.398   81.746
  340.000    7.146    0.251    0.397   83.933
  340.250    6.925    0.243    0.393   85.275
  340.500    6.785    0.246    0.393   87.524
  340.750    6.749    0.248    0.400   90.077
  341.000    6.726    0.252    0.420   90.267
  341.250    6.628    0.268    0.431   85.793
  341.500    6.411    0.284    0.433   83.014
  341.750    6.437    0.292    0.440   82.114
  342.000    6.722    0.288    0.455   80.546
  342.250    6.762    0.284    0.453   78.737
  342.500    6.602    0.287    0.457   77.837
  342.750    6.457    0.292    0.463   78.150
  343.000    6.351    0.288    0.456   78.520
  343.250    6.305    0.292    0.447   79.679
  343.500    6.237    0.297    0.444   82.232
  343.750    6.192    0.295    0.441   84.179
  344.000    6.194    0.290    0.459   85.459
  344.250    6.255    0.298    0.482   85.287
  344.500    6.363    0.293    0.494   84.386
  344.750    6.583    0.281    0.455   83.061
  345.000    6.849    0.244    0.423   80.162
  345.250    7.440    0.230    0.400   75.626
  345.500    7.887    0.239    0.431   82.177
  345.750    8.054    0.256    0.456   86.063
  346.000    7.716    0.268    0.467   86.737
  346.250    7.338    0.277    0.448   81.415
  346.500    6.914    0.280    0.436   80.878
  346.750    6.562    0.285    0.462   84.279
  347.000    6.264    0.293    0.481   86.649
  347.250    5.935    0.290    0.499   89.142
  347.500    5.837    0.283    0.470   90.543
  347.750    5.796    0.278    0.445   90.067
  348.000    5.963    0.291    0.480   91.045
  348.250    6.309    0.298    0.507   91.235
  348.500    6.676    0.298    0.448   85.307
  348.750    7.320    0.306    0.424   83.557
  349.000    7.922    0.311    0.413   80.962
  349.250    8.195    0.315    0.412   78.243
  349.500    8.244    0.321    0.413   75.828
  349.750    8.109    0.325    0.412   81.230
  350.000    8.051    0.302    0.410   83.962
  350.250    7.919    0.288    0.425   87.484
  350.500    7.731    0.289    0.433   89.310
  350.750    7.449    0.295    0.438   84.291
  351.000    7.137    0.287    0.431   86.661
  351.250    6.813    0.265    0.429   91.092
  351.500    6.601    0.253    0.437   93.523
  351.750    6.420    0.248    0.438   92.259
  352.000    6.339    0.262    0.442   86.634
  352.250    6.329    0.277    0.443   80.281
  352.500    6.475    0.286    0.429   78.048
  352.750    6.599    0.283    0.427   81.752
  353.000    6.738    0.279    0.446   85.274
  353.250    6.933    0.287    0.458   86.251
