~VERSION INFORMATION
 VERS.                 2.0:   CWLS LOG ASCII STANDARD -VERSION 2.0
 WRAP.                  NO:   ONE LINE PER DEPTH STEP
~WELL INFORMATION BLOCK
#MNEM.UNIT           DATA                    DESCRIPTION OF MNEMONIC
#---------    -------------------            -------------------------------
# Generated from Intellog Unique Number	CS_73_76/WELL/1080
WELL.         BOW VALLEY EXPLORATION         : Well_name    - WELL
LOC .         00/06-28-076-17W4/0            : Location     - LOCATION
UWI .         00/06-28-076-17W4/0            : Uwi          - UNIQUE WELL ID
ENTR.         SP                             : Entered      - ENTERED BY
SRVC.         SCHLUMBERGER                   : Scn          - SERVICE COMPANY
STRT.M        325                            : top_depth    - START DEPTH
STOP.M        542                            : bot_depth    - STOP DEPTH
STEP.M        0.25                           : increment    - STEP LENGTH
 NULL. -999.2500:NULL Value
~CURVE INFORMATION BLOCK
#MNEM UNIT       ERCB CURVE CODE    CURVE DESCRIPTION
#-----------   ------------------   ----------------------------------
DEPT.M        00 001 00 00         : DEPTH        - DEPTH
DPHI.V/V      00 890 00 00         : PHID         - DENSITY POROSITY (LIMESTONE)
NPHI.V/V      00 330 00 00         : PHIN         - NEUTRON POROSITY (LIMESTONE)
GR  .API      00 310 00 00         : GR           - GAMMA RAY
ILD .OHMM     00 120 00 00         : RESD         - DEEP RESISTIVITY (DIL)
~PARAMETER INFORMATION
#MNEM.UNIT           DATA             DESCRIPTION OF MNEMONIC
#---------         -----------     ------------------------------
GL  .M        692.7                : gl           - GROUND LEVEL ELEVATION
EREF.M        696                  : kb           - ELEVATION OF DEPTH REFERENCE
DATM.M        692.7                : datum        - DATUM ELEVATION
TDD .M        545                  : tdd          - TOTAL DEPTH DRILLER
RUN .         ONE                  : Run          - RUN NUMBER
ENG .         BILL                 : Engineer     - RECORDING ENGINEER
WIT .         JIM                  : Witness      - WITNESSED BY
MUD .         GEL                  : Mud_type     - MUD TYPE
MATR.         LIMESTONE            : Logunit      - NEUTRON MATRIX
TMAX.C        24                   : BHT          - MAXIMUM RECORDED TEMPERATURE
BHTD.M        545                  : BHTDEP       - MAXIMUM RECORDED TEMPERATURE
MATR.         1                    : LOGUNIT      - NEUTRON MATRIX
RMT .C        25                   : MDTP         - TEMPERATURE OF MUD
NEUT.         1                    : NEUTRON      - NEUTRON TYPE
RESI.         0                    : RESIST       - RESISTIVITY TYPE
RMC .OHMM     0.25                 : RMC          - RESISTIVITY OF MUD CAKE
RMF .OHMM     0.25                 : RMF          - RESISTIVITY OF MUD FILTRATE
SUFT.C        15                   : SUFT         - SURFACE TEMPERATURE
~A  DEPTH     PHID     PHIN       GR     RESD
# ...
  368.500    0.348    0.477   71.414   15.851
  368.750    0.347    0.489   75.053   14.453
  369.000    0.333    0.492   77.478   13.180
  369.250    0.303    0.466   78.080   12.243
  369.500    0.291    0.460   89.613   11.165
  369.750    0.291    0.461   95.680    9.994
  370.000    0.287    0.455   94.462    8.620
  370.250    0.283    0.452   90.812    8.007
  370.500    0.302    0.451   86.557    7.438
  370.750    0.310    0.445   83.516    6.909
  371.000    0.292    0.444   81.689    6.786
  371.250    0.274    0.444   81.684    6.788
  371.500    0.280    0.438   84.109    6.790
  371.750    0.276    0.437   90.176    6.792
  372.000    0.269    0.442   97.459    6.795
  372.250    0.280    0.446   95.632    6.672
  372.500    0.287    0.460   93.805    6.552
  372.750    0.284    0.472   97.445    6.200
  373.000    0.269    0.490   98.046    5.867
  373.250    0.276    0.508   98.042    5.450
  373.500    0.270    0.517   96.215    5.062
  373.750    0.265    0.485   94.995    4.703
  374.000    0.279    0.459   89.525    4.534
  374.250    0.295    0.456   76.160    4.370
  374.500    0.324    0.457   60.974    4.453
  374.750    0.358    0.445   48.216    4.978
  375.000    0.360    0.434   48.818    5.463
  375.250    0.347    0.426   49.421    6.577
  375.500    0.337    0.431   48.809    7.629
  375.750    0.349    0.433   47.589    9.531
  376.000    0.358    0.423   48.192   11.057
  376.250    0.358    0.416   48.186   12.360
  376.500    0.353    0.410   49.395   14.607
  376.750    0.352    0.406   49.998   17.262
  377.000    0.360    0.411   50.601   20.781
  377.250    0.367    0.414   51.810   24.559
  377.500    0.369    0.404   53.627   25.495
  377.750    0.367    0.402   55.445   25.507
  378.000    0.367    0.402   54.833   25.044
  378.250    0.369    0.405   53.613   23.263
  378.500    0.368    0.409   54.822   20.442
  378.750    0.365    0.424   55.423   17.309
  379.000    0.367    0.425   55.419   14.657
  379.250    0.367    0.416   54.807   13.365
  379.500    0.368    0.419   54.196   12.647
  379.750    0.375    0.430   53.584   11.968
  380.000    0.373    0.424   54.793   11.326
  380.250    0.374    0.408   54.789   10.917
  380.500    0.379    0.414   52.962   10.722
  380.750    0.381    0.430   53.564   10.725
  381.000    0.380    0.433   53.560   10.530
  381.250    0.374    0.425   52.340   10.534
  381.500    0.364    0.424   51.121   10.735
  381.750    0.364    0.429   51.723   10.940
  382.000    0.352    0.418   55.362   10.943
  382.250    0.352    0.419   52.321   10.747
  382.500    0.352    0.425   49.886   10.554
  382.750    0.339    0.426   50.488   10.556
  383.000    0.335    0.432   52.913   10.560
  383.250    0.351    0.436   55.338   10.565
  383.500    0.366    0.447   60.798   10.568
  383.750    0.373    0.464   60.792   10.376
  384.000    0.375    0.476   60.181   10.381
  384.250    0.356    0.471   58.960   10.384
  384.500    0.363    0.461   58.349   10.388
  384.750    0.374    0.452   54.093   10.390
  385.000    0.368    0.451   51.659   10.395
  385.250    0.368    0.448   51.654   10.207
  385.500    0.362    0.440   52.257   10.024
  385.750    0.367    0.442   52.859    9.842
  386.000    0.366    0.435   52.854    9.847
  386.250    0.360    0.437   50.420    9.668
  386.500    0.355    0.440   49.808    9.673
  386.750    0.349    0.449   52.232    9.675
  387.000    0.346    0.455   54.049    9.502
  387.250    0.354    0.457   53.437    9.505
  387.500    0.352    0.448   52.217    9.685
  387.750    0.346    0.431   52.213    9.870
  388.000    0.334    0.432   53.422   10.058
  388.250    0.343    0.440   58.276   10.061
  388.500    0.322    0.454   63.130   10.252
  388.750    0.321    0.462   66.768   10.257
  389.000    0.316    0.464   66.763   10.259
  389.250    0.309    0.452   60.684   10.264
  389.500    0.321    0.442   59.466   10.266
  389.750    0.318    0.441   60.068   10.464
  390.000    0.321    0.443   62.492   10.466
  390.250    0.326    0.451   63.701   10.469
  390.500    0.329    0.453   63.090   10.474
  390.750    0.300    0.462   62.478   10.476
  391.000    0.241    0.459   62.473   10.481
  391.250    0.182    0.400   62.468   10.484
  391.500    0.028    0.212   60.641   10.882
  391.750    0.011    0.161   57.599   10.886
  392.000    0.009    0.142   55.166   11.300
  392.250    0.020    0.137   51.517   13.605
  392.500    0.008    0.135   47.869   15.493
  392.750    0.000    0.135   47.864   19.356
  393.000    0.000    0.141   46.645   25.092
  393.250    0.005    0.155   46.640   32.530
  393.500    0.075    0.180   48.456   37.737
  393.750    0.160    0.210   50.880   42.188
  394.000    0.206    0.244   53.304   42.990
  394.250    0.243    0.298   56.336   39.938
  394.500    0.280    0.343   58.759   35.750
  394.750    0.337    0.391   59.970   30.836
  395.000    0.371    0.433   61.788   23.801
  395.250    0.365    0.453   59.354   17.703
  395.500    0.359    0.466   58.134   13.921
  395.750    0.354    0.461   56.914   12.008
  396.000    0.350    0.466   56.302   10.551
  396.250    0.352    0.480   55.689    9.622
  396.500    0.364    0.483   54.471    9.275
  396.750    0.353    0.468   54.466    9.108
  397.000    0.358    0.468   54.461    8.944
  397.250    0.359    0.462   53.241    9.114
  397.500    0.358    0.457   54.451    9.117
  397.750    0.352    0.451   56.269    9.120
  398.000    0.360    0.452   56.871    9.124
  398.250    0.363    0.462   59.293    8.959
  398.500    0.368    0.475   60.504    8.798
  398.750    0.377    0.480   59.892    8.481
  399.000    0.380    0.471   58.064    8.176
  399.250    0.373    0.468   58.668    8.028
  399.500    0.380    0.467   59.877    7.883
  399.750    0.381    0.469   63.516    7.742
  400.000    0.379    0.478   63.511    7.602
  400.250    0.385    0.478   62.899    7.329
  400.500    0.381    0.461   64.109    7.331
  400.750    0.375    0.468   64.104    7.198
  401.000    0.375    0.475   64.707    7.201
  401.250    0.381    0.482   64.093    7.203
  401.500    0.380    0.494   62.268    7.206
  401.750    0.380    0.485   60.440    7.208
  402.000    0.376    0.489   58.615    7.210
  402.250    0.373    0.505   57.395    7.081
  402.500    0.382    0.495   57.997    7.083
  402.750    0.386    0.485   60.421    7.086
  403.000    0.385    0.472   61.630    7.088
  403.250    0.380    0.468   60.411    7.223
  403.500    0.363    0.491   58.585    7.498
  403.750    0.368    0.483   57.973    7.784
  404.000    0.370    0.462   54.324    7.786
  404.250    0.361    0.449   50.676    7.646
  404.500    0.357    0.437   49.456    7.509
  404.750    0.345    0.426   48.237    7.511
  405.000    0.346    0.428   46.410    7.943
  405.250    0.358    0.444   45.798    8.245
  405.500    0.353    0.454   45.186    8.720
  405.750    0.340    0.448   44.572    8.886
  406.000    0.338    0.438   43.960    8.888
  406.250    0.335    0.433   43.955    9.058
  406.500    0.339    0.438   43.952    9.060
  406.750    0.339    0.445   43.946    9.063
  407.000    0.340    0.445   44.549    9.236
  407.250    0.350    0.443   45.759    9.239
  407.500    0.341    0.440   47.576    9.072
  407.750    0.339    0.450   48.178    9.076
  408.000    0.329    0.448   48.173    8.912
  408.250    0.338    0.451   47.560    9.082
  408.500    0.346    0.450   47.556    9.085
  408.750    0.346    0.461   47.552    9.088
  409.000    0.346    0.465   46.939    9.092
  409.250    0.349    0.459   46.934    9.094
  409.500    0.346    0.450   47.536    9.098
  409.750    0.338    0.453   48.139    8.934
  410.000    0.330    0.447   48.741    8.937
  410.250    0.323    0.444   48.129    8.940
  410.500    0.327    0.449   48.731    8.944
  410.750    0.329    0.447   49.942    8.947
  411.000    0.337    0.441   49.937    8.949
  411.250    0.335    0.435   47.502    8.953
  411.500    0.320    0.435   48.104    8.955
  411.750    0.327    0.443   49.922    8.959
