~VERSION INFORMATION
 VERS.                 2.0:   CWLS LOG ASCII STANDARD -VERSION 2.0
 WRAP.                  NO:   ONE LINE PER DEPTH STEP
~WELL INFORMATION BLOCK
#MNEM.UNIT           DATA                    DESCRIPTION OF MNEMONIC
#---------    -------------------            -------------------------------
# Generated from Intellog Unique Number	CW_70_72/WELL/2901
NULL.         -999.25                        : NULL_VALUE
COMP .        HOME OIL CO LTD                :  COMPANY
WELL.         SCURRY ET AL DOUCETTE          : Well_name    - WELL              
LOC .         06-29-077-02W5                 : Location     - LOCATION          
UWI .         00/06-29-077-02W5/0            : Uwi          - UNIQUE WELL ID    
ENTR.         MAX                            : Entered      - ENTERED BY        
SRVC.         COMPUTALOG                     : Scn          - SERVICE COMPANY   
DATE.         24 NOV 77                      : Date         - LOG DATE
STRT.M        375                            : top_depth    - START DEPTH       
STOP.M        625                            : bot_depth    - STOP DEPTH        
STEP.M        0.25                           : increment    - STEP LENGTH       
~CURVE INFORMATION BLOCK
#MNEM UNIT       ERCB CURVE CODE    CURVE DESCRIPTION
#-----------   ------------------   ----------------------------------
DEPT.M        00 001 00 00         : DEPTH        - DEPTH                       
ILD .OHMM     00 120 00 00         : RESD         - DEEP RESISTIVITY (DIL)      
NPHI.V/V      00 330 00 00         : PHIN         - NEUTRON POROSITY (SANDSTONE)
DPHI.V/V      00 890 00 00         : PHID         - DENSITY POROSITY (SANDSTONE)
CALI.MM       00 280 01 00         : CAL          - CALIPER                     
GR  .API      00 310 00 00         : GR           - GAMMA RAY                   
~PARAMETER INFORMATION       
#MNEM.UNIT           DATA             DESCRIPTION OF MNEMONIC
#---------         -----------     ------------------------------
GL  .M        678.3                : gl           - GROUND LEVEL ELEVATION      
EREF.M        683.7                : kb           - ELEVATION OF DEPTH REFERENCE
DATM.M        678.3                : datum        - DATUM ELEVATION             
TDD .M        639                  : tdd          - TOTAL DEPTH DRILLER         
RUN .         ONE                  : Run          - RUN NUMBER                  
ENG .         BILL                 : Engineer     - RECORDING ENGINEER          
WIT .         JIM                  : Witness      - WITNESSED BY                
MUD .         GEL                  : Mud_type     - MUD TYPE                    
MATR.         SANDSTONE            : Logunit      - NEUTRON MATRIX              
TMAX.C        36                   : BHT          - MAXIMUM RECORDED TEMPERATURE
BHTD.M        639                  : BHTDEP       - MAXIMUM RECORDED TEMPERATURE
RMT .C        12.5                 : MDTP         - TEMPERATURE OF MUD          
MUDD.KG/M     1160                 : MWT          - MUD DENSITY                 
NEUT.         1                    : NEUTRON      - NEUTRON TYPE                
RESI.         0                    : RESIST       - RESISTIVITY TYPE            
RM  .OHMM     5.1                  : RM           - RESISTIVITY OF MUD          
RMC .OHMM     5                    : RMC          - RESISTIVITY OF MUD CAKE     
RMF .OHMM     4                    : RMF          - RESISTIVITY OF MUD FILTRATE 
SUFT.C        -10                  : SUFT         - SURFACE TEMPERATURE         
~A  DEPTH     RESD     PHIN     PHID      CAL       GR
# ...
  484.500    7.987    0.419    0.290  202.479   71.978
  484.750    8.285    0.418    0.288  202.959   72.266
  485.000    8.517    0.416    0.295  204.905   72.261
  485.250    8.598    0.416    0.300  205.386   72.550
  485.500    8.602    0.419    0.299  202.932   72.251
  485.750    8.764    0.425    0.298  202.437   71.952
  486.000    9.009    0.430    0.304  202.427   69.894
  486.250    9.016    0.433    0.310  203.397   69.301
  486.500    9.098    0.438    0.315  204.366   69.589
  486.750    9.103    0.444    0.320  204.358   68.118
  487.000    9.274    0.449    0.324  204.349   66.645
  487.250    9.447    0.449    0.323  204.830   66.934
  487.500    9.451    0.445    0.322  204.821   67.516
  487.750    9.203    0.435    0.321  204.323   68.683
  488.000    8.643    0.432    0.322  203.824   68.972
  488.250    8.265    0.435    0.321  202.351   68.967
  488.500    7.975    0.435    0.310  200.385   68.668
  488.750    7.626    0.436    0.302  199.889   69.836
  489.000    7.227    0.435    0.295  197.432   73.646
  489.250    7.036    0.433    0.288  195.958   84.204
  489.500    6.790    0.429    0.280  195.948   90.067
  489.750    6.551    0.429    0.283  197.408   86.540
  490.000    6.265    0.430    0.295  197.890   75.386
  490.250    5.937    0.434    0.301  198.858   73.032
  490.500    5.835    0.439    0.284  199.340   73.615
  490.750    5.680    0.445    0.260  201.287   80.359
  491.000    5.286    0.450    0.221  204.212   82.994
  491.250    4.875    0.454    0.252  205.671   82.108
  491.500    4.537    0.457    0.294  206.641   81.516
  491.750    4.300    0.458    0.303  207.610   83.565
  492.000    4.038    0.458    0.278  208.579   85.614
  492.250    3.527    0.452    0.221  208.570   88.543
  492.500    3.166    0.444    0.217  208.561   91.472
  492.750    2.894    0.440    0.214  208.552   91.466
  493.000    2.818    0.442    0.214  209.034   92.048
  493.250    2.897    0.437    0.218  209.515   92.337
  493.500    3.060    0.436    0.224  209.506   92.037
  493.750    3.351    0.436    0.229  209.497   91.152
  494.000    3.804    0.432    0.226  209.977   87.040
  494.250    4.602    0.429    0.231  209.480   79.406
  494.500    5.825    0.429    0.232  208.492   76.760
  494.750    6.042    0.427    0.244  207.995   74.408
  495.000    6.155    0.422    0.255  207.009   73.228
  495.250    6.158    0.420    0.252  205.534   74.691
  495.500    6.158    0.425    0.248  205.524   79.673
  495.750    6.054    0.423    0.254  205.026   83.777
  496.000    5.948    0.422    0.253  202.573   85.825
  496.250    5.950    0.422    0.251  197.674   83.471
  496.500    5.953    0.422    0.253  194.244   80.533
  496.750    6.176    0.422    0.250  196.189   76.713
  497.000    6.464    0.423    0.244  199.604   76.709
  497.250    6.952    0.420    0.248  203.019   76.703
  497.500    7.343    0.405    0.241  199.586   75.525
  497.750    7.413    0.347    0.199  199.091   71.998
  498.000    6.962    0.325    0.172  200.549   71.407
  498.250    6.538    0.352    0.169  200.050   73.749
  498.500    6.140    0.406    0.201  197.598   75.504
  498.750    5.979    0.416    0.243  194.165   76.966
  499.000    5.822    0.418    0.256  195.625   77.547
  499.250    5.668    0.422    0.251  198.550   76.662
  499.500    5.470    0.426    0.247  199.518   77.537
  499.750    5.374    0.433    0.243  198.533   79.878
  500.000    5.095    0.429    0.245  195.878   82.640
  500.250    5.087    0.424    0.244  196.755   84.914
  500.500    5.078    0.419    0.243  198.607   87.783
  500.750    5.209    0.418    0.241  202.886   89.756
  501.000    5.296    0.419    0.241  204.697   87.044
  501.250    5.335    0.423    0.241  204.597   86.674
  501.500    5.422    0.422    0.238  204.986   85.159
  501.750    5.561    0.421    0.233  208.274   81.568
  502.000    5.705    0.417    0.228  209.123   81.500
  502.250    6.118    0.419    0.220  209.497   84.653
  502.500    6.447    0.417    0.225  209.886   87.806
  502.750    7.102    0.401    0.237  209.758   85.103
  503.000    7.897    0.375    0.249  208.654   81.503
  503.250    9.686    0.362    0.284  207.550   77.628
  503.500   11.668    0.350    0.312  205.987   73.168
  503.750   14.704    0.341    0.326  205.887   68.113
  504.000   18.200    0.330    0.345  205.774   62.756
  504.250   20.597    0.330    0.355  204.670   61.818
  504.500   20.198    0.336    0.354  203.566   64.670
  504.750   19.286    0.347    0.348  202.950   67.229
  505.000   18.082    0.369    0.334  202.851   63.948
  505.250   19.050    0.398    0.318  203.239   60.064
  505.500   20.620    0.377    0.311  204.087   58.248
  505.750   23.340    0.340    0.303  205.926   57.008
  506.000   24.802    0.300    0.264  208.741   56.639
  506.250   24.553    0.297    0.239  209.115   58.319
  506.500   22.419    0.320    0.230  208.499   60.309
  506.750   19.053    0.345    0.241  207.424   63.755
  507.000   16.049    0.361    0.241  205.330   66.917
  507.250   14.013    0.389    0.241  203.264   69.777
  507.500   12.233    0.405    0.252  202.648   72.043
  507.750   11.073    0.419    0.284  202.061   69.339
  508.000   10.199    0.436    0.297  200.971   67.221
  508.250    9.739    0.437    0.301  200.369   66.275
  508.500    9.637    0.430    0.298  200.241   67.662
  508.750    9.623    0.421    0.292  199.640   69.351
  509.000    9.609    0.426    0.290  200.028   71.048
  509.250    9.609    0.431    0.294  198.924   74.494
  509.500    9.663    0.431    0.294  197.318   77.346
  509.750    9.735    0.429    0.292  196.228   78.733
  510.000    9.809    0.427    0.286  197.077   78.389
  510.250    9.795    0.424    0.275  198.456   77.719
  510.500    9.780    0.416    0.269  199.304   77.065
  510.750    9.679    0.415    0.269  199.190   75.248
  511.000    9.156    0.417    0.275  199.091   75.749
  511.250    8.437    0.418    0.259  199.465   78.324
  511.500    7.633    0.424    0.253  201.304   80.892
  511.750    6.970    0.426    0.233  208.511   84.932
  512.000    6.085    0.423    0.227  209.374   89.549
  512.250    5.605    0.425    0.229  210.222   92.978
  512.500    5.647    0.426    0.222  211.056   91.153
  512.750    5.739    0.425    0.218  210.483   90.809
  513.000    5.730    0.425    0.221  209.379   92.196
  513.250    5.724    0.426    0.224  209.266   92.111
  513.500    5.463    0.427    0.226  210.616   88.253
  513.750    5.264    0.432    0.226  210.000   86.126
  514.000    5.162    0.434    0.226  208.925   87.230
  514.250    5.155    0.429    0.226  206.859   88.324
  514.500    5.240    0.420    0.226  206.731   89.135
  514.750    5.521    0.419    0.231  206.129   87.318
  515.000    5.869    0.421    0.246  205.987   82.263
  515.250    6.239    0.418    0.244  206.376   82.195
  515.500    6.873    0.411    0.236  204.798   83.884
  515.750    7.439    0.405    0.241  202.244   87.915
  516.000    8.344    0.401    0.256  199.662   91.947
  516.250    9.875    0.395    0.277  202.017   89.536
  516.500   11.479    0.382    0.284  202.392   78.323
  516.750   12.535    0.359    0.283  201.288   71.520
  517.000   12.185    0.331    0.256  199.208   67.042
  517.250   10.926    0.324    0.222  199.582   67.852
  517.500    9.540    0.350    0.183  202.899   71.014
  517.750    8.555    0.373    0.190  203.762   74.167
  518.000    8.244    0.389    0.207  204.136   77.613
  518.250    8.304    0.402    0.222  204.970   80.473
  518.500    8.748    0.401    0.230  204.857   80.396
  518.750    9.300    0.387    0.228  205.245   80.629
  519.000    9.975    0.373    0.208  206.108   80.260
  519.250   10.417    0.364    0.187  206.956   77.548
  519.500   10.585    0.366    0.199  206.857   77.772
  519.750   10.473    0.369    0.218  207.217   81.511
  520.000   10.460    0.370    0.228  207.089   84.380
  520.250   10.540    0.376    0.226  206.990   84.897
  520.500   11.200    0.385    0.206  207.364   73.693
  520.750   11.288    0.386    0.235  205.772   70.679
