~VERSION INFORMATION
 VERS.                 2.0:   CWLS LOG ASCII STANDARD -VERSION 2.0
 WRAP.                  NO:   ONE LINE PER DEPTH STEP
~WELL INFORMATION BLOCK
#MNEM.UNIT           DATA                    DESCRIPTION OF MNEMONIC
#---------    -------------------            -------------------------------
# Generated from Intellog Unique Number	CC_88_90/WELL/1062
WELL.         06-19-089-18W4                 : Well_name    - WELL
LOC .         00/06-19-089-18W4/0            : Location     - LOCATION
UWI .         00/06-19-089-18W400            : Uwi          - UNIQUE WELL ID
ENTR.         DW                             : Entered      - ENTERED BY
SRVC.         SCHLUMBERGER                   : Scn          - SERVICE COMPANY
STRT.M        89                             : top_depth    - START DEPTH
STOP.M        212.75                         : bot_depth    - STOP DEPTH
STEP.M        0.25                           : increment    - STEP LENGTH
 NULL. -999.2500:NULL Value
~CURVE INFORMATION BLOCK
#MNEM UNIT       ERCB CURVE CODE    CURVE DESCRIPTION
#-----------   ------------------   ----------------------------------
DEPT.M        00 001 00 00         : DEPTH        - DEPTH
GR  .API      00 310 00 00         : GR           - GAMMA RAY
DPHI.V/V      00 890 00 00         : PHID         - DENSITY POROSITY (SANDSTONE)
NPHI.V/V      00 330 00 00         : PHIN         - NEUTRON POROSITY (SANDSTONE)
ILD .OHMM     00 120 00 00         : RESD         - DEEP RESISTIVITY (DIL)
~PARAMETER INFORMATION
#MNEM.UNIT           DATA             DESCRIPTION OF MNEMONIC
#---------         -----------     ------------------------------
GL  .M        488.7                : gl           - GROUND LEVEL ELEVATION
EREF.M        491.7                : kb           - ELEVATION OF DEPTH REFERENCE
DATM.M        491.7                : datum        - DATUM ELEVATION
TDD .M        217                  : tdd          - TOTAL DEPTH DRILLER
RUN .         ONE                  : Run          - RUN NUMBER
ENG .         BILL                 : Engineer     - RECORDING ENGINEER
WIT .         JIM                  : Witness      - WITNESSED BY
MUD .         GEL                  : Mud_type     - MUD TYPE
MATR.         SANDSTONE            : Logunit      - NEUTRON MATRIX
TMAX.C        21.6                 : BHT          - MAXIMUM RECORDED TEMPERATURE
BHTD.M        217                  : BHTDEP       - MAXIMUM RECORDED TEMPERATURE
MATR.         1                    : LOGUNIT      - NEUTRON MATRIX
RMT .C        25                   : MDTP         - TEMPERATURE OF MUD
NEUT.         1                    : NEUTRON      - NEUTRON TYPE
RESI.         0                    : RESIST       - RESISTIVITY TYPE
RMC .OHMM     0.25                 : RMC          - RESISTIVITY OF MUD CAKE
RMF .OHMM     0.25                 : RMF          - RESISTIVITY OF MUD FILTRATE
SUFT.C        15                   : SUFT         - SURFACE TEMPERATURE
~A  DEPTH       GR     PHID     PHIN     RESD
# ...
  132.500  108.828    0.280    0.428    7.063
  132.750  109.117    0.288    0.441    7.082
  133.000  100.162    0.290    0.486    6.872
  133.250   89.026    0.224    0.476    6.776
  133.500   90.558    0.162    0.431    7.096
  133.750  101.965    0.174    0.427    7.746
  134.000  100.075    0.209    0.465    8.355
  134.250   77.791    0.283    0.479    8.602
  134.500   67.668    0.330    0.450    9.415
  134.750   68.456    0.313    0.425   12.374
  135.000   70.600    0.317    0.421   16.149
  135.250   78.146    0.357    0.412   19.100
  135.500   87.590    0.344    0.398   21.158
  135.750   77.038    0.352    0.411   20.665
  136.000   64.383    0.373    0.419   18.992
  136.250   64.795    0.383    0.424   18.197
  136.500   72.354    0.381    0.426   18.019
  136.750   76.013    0.351    0.413   17.769
  137.000   74.481    0.277    0.394   18.099
  137.250   69.927    0.235    0.380   18.717
  137.500   64.864    0.279    0.377   18.914
  137.750   61.756    0.333    0.386   19.975
  138.000   61.760    0.341    0.399   21.662
  138.250   63.607    0.321    0.407   22.917
  138.500   64.482    0.294    0.406   23.999
  138.750   64.452    0.271    0.387   24.822
  139.000   70.281    0.264    0.354   24.971
  139.250   73.266    0.282    0.370   24.753
  139.500   72.458    0.260    0.375   23.997
  139.750   75.384    0.201    0.331   22.163
  140.000   82.448    0.210    0.338   19.785
  140.250   88.801    0.267    0.386   18.263
  140.500   88.880    0.277    0.410   16.657
  140.750   92.821    0.268    0.412   15.299
  141.000   97.702    0.266    0.412   14.650
  141.250   95.371    0.251    0.410   14.564
  141.500   91.157    0.212    0.412   14.810
  141.750   88.382    0.186    0.417   15.046
  142.000   87.257    0.203    0.388   15.256
  142.250   88.423    0.245    0.366   15.550
  142.500   92.336    0.268    0.377   15.608
  142.750   95.772    0.262    0.399   15.275
  143.000   96.073    0.253    0.405   15.047
  143.250   98.949    0.259    0.388   15.244
  143.500  102.297    0.264    0.385   15.705
  143.750   97.328    0.263    0.389   16.200
  144.000   90.668    0.284    0.395   16.743
  144.250   91.623    0.326    0.404   17.196
  144.500   94.162    0.338    0.405   17.458
  144.750   91.633    0.304    0.384   18.043
  145.000   84.496    0.314    0.362   18.123
  145.250   79.201    0.308    0.365   18.253
  145.500   80.787    0.280    0.389   18.511
  145.750   88.387    0.293    0.406   18.378
  146.000   95.969    0.322    0.401   18.071
  146.250   97.882    0.306    0.394   17.849
  146.500   97.305    0.292    0.403   16.855
  146.750   94.626    0.296    0.412   15.989
  147.000   87.570    0.295    0.403   15.696
  147.250   80.088    0.281    0.385   15.400
  147.500   79.761    0.278    0.376   14.893
  147.750   84.412    0.305    0.389   14.583
  148.000   93.013    0.315    0.399   14.950
  148.250   95.273    0.293    0.390   15.336
  148.500   92.620    0.263    0.374   15.518
  148.750   91.162    0.238    0.364   15.776
  149.000   88.447    0.225    0.369   16.014
  149.250   86.602    0.274    0.401   16.043
  149.500   87.761    0.297    0.395   15.662
  149.750   91.434    0.285    0.379   14.900
  150.000   95.521    0.269    0.381   13.752
  150.250   98.037    0.260    0.395   12.481
  150.500   98.346    0.257    0.409   11.548
  150.750   96.654    0.261    0.384   10.815
  151.000   90.913    0.280    0.372   10.338
  151.250   83.023    0.263    0.403   10.408
  151.500   77.290    0.221    0.424   10.879
  151.750   75.983    0.224    0.406   11.396
  152.000   80.226    0.275    0.390   11.295
  152.250   92.387    0.309    0.389    9.521
  152.500  104.364    0.320    0.455    7.939
  152.750  107.525    0.320    0.522    4.883
  153.000  104.285    0.325    0.550    2.624
  153.250   98.677    0.329    0.551    2.968
  153.500   92.664    0.316    0.539    3.024
  153.750   94.979    0.304    0.522    3.948
  154.000   91.244    0.273    0.464    5.705
  154.250   82.363    0.211    0.420    7.520
  154.500   78.734    0.142    0.394    9.376
  154.750   86.301    0.130    0.367   11.051
  155.000   99.419    0.197    0.370   11.646
  155.250  103.268    0.240    0.396   11.473
  155.500  102.249    0.238    0.406   11.267
  155.750  102.424    0.235    0.405   11.030
  156.000  108.146    0.243    0.408   10.548
  156.250  114.088    0.249    0.411   10.118
  156.500  108.170    0.250    0.407   10.155
  156.750   94.308    0.241    0.384   10.309
  157.000   87.220    0.212    0.360   10.611
  157.250   88.161    0.197    0.346   11.787
  157.500   92.618    0.231    0.363   13.246
  157.750   93.896    0.282    0.386   14.591
  158.000   87.576    0.284    0.374   16.912
  158.250   81.419    0.238    0.394   19.946
  158.500   73.751    0.151    0.408   21.962
  158.750   65.636    0.098    0.301   25.032
  159.000   74.803    0.133    0.226   28.121
  159.250   93.932    0.215    0.303   29.593
  159.500   90.040    0.270    0.375   30.424
  159.750   76.852    0.299    0.407   29.005
  160.000   68.777    0.323    0.382   28.091
  160.250   72.616    0.323    0.381   26.154
  160.500   81.087    0.311    0.409   21.705
  160.750   84.598    0.309    0.421   17.660
  161.000   81.888    0.308    0.426   17.131
  161.250   74.221    0.293    0.433   17.221
  161.500   72.686    0.226    0.449   16.827
  161.750   75.348    0.139    0.392   21.359
  162.000   74.560    0.096    0.309   27.235
  162.250   72.662    0.088    0.277   28.612
  162.500   77.436    0.089    0.274   27.484
  162.750   83.464    0.189    0.324   23.687
  163.000   85.787    0.246    0.369   18.848
  163.250   87.191    0.278    0.383   16.290
  163.500   91.144    0.303    0.397   16.155
  163.750   91.387    0.305    0.411   16.420
  164.000   83.659    0.313    0.388   17.008
  164.250   82.033    0.312    0.381   19.250
  164.500   73.044    0.264    0.401   21.741
  164.750   64.872    0.182    0.417   24.029
  165.000   58.975    0.086    0.361   31.221
  165.250   54.294    0.029    0.255   41.494
  165.500   58.688    0.054    0.211   45.606
  165.750   62.255    0.074    0.221   46.301
  166.000   61.835    0.070    0.217   39.434
  166.250   63.330    0.123    0.234   30.635
  166.500   68.186    0.147    0.307   24.654
  166.750   71.349    0.093    0.351   20.488
  167.000   73.570    0.103    0.294   17.229
  167.250   83.662    0.181    0.285   15.578
  167.500   87.767    0.244    0.363   14.544
  167.750   86.276    0.255    0.421   13.871
  168.000   89.882    0.238    0.428   13.626
  168.250   95.674    0.222    0.412   14.122
  168.500   92.234    0.207    0.372   15.301
  168.750   89.800    0.199    0.365   15.592
  169.000   95.596    0.203    0.382   15.599
  169.250   97.682    0.230    0.399   15.464
  169.500   92.085    0.237    0.399   15.134
  169.750   86.355    0.198    0.393   14.537
  170.000   85.937    0.179    0.394   13.610
  170.250   92.155    0.236    0.372   12.936
  170.500   96.122    0.255    0.403   12.543
  170.750   96.180    0.220    0.438   11.981
  171.000   91.285    0.169    0.430   11.579
  171.250   84.327    0.168    0.401   11.688
  171.500   86.490    0.236    0.380   11.870
  171.750  100.408    0.249    0.381   12.037
  172.000  105.414    0.251    0.400   12.452
  172.250  102.276    0.235    0.396   13.520
  172.500   91.224    0.204    0.391   14.783
  172.750   74.184    0.178    0.408   15.559
  173.000   72.116    0.158    0.389   15.739
  173.250   97.547    0.177    0.351   15.271
  173.500  107.244    0.209    0.370   14.610
  173.750  100.272    0.210    0.400   13.730
  174.000   92.637    0.197    0.391   13.020
  174.250   95.220    0.206    0.366   12.642
  174.500  108.181    0.228    0.365   11.794
  174.750  108.018    0.233    0.408   10.325
  175.000   98.220    0.231    0.424    9.881
  175.250   96.513    0.230    0.409    9.916
  175.500   97.479    0.227    0.392    9.966
  175.750   95.384    0.219    0.381   10.413
