~VERSION INFORMATION
 VERS.                 2.0:   CWLS LOG ASCII STANDARD -VERSION 2.0
 WRAP.                  NO:   ONE LINE PER DEPTH STEP
~WELL INFORMATION BLOCK
#MNEM.UNIT           DATA                    DESCRIPTION OF MNEMONIC
#---------    -------------------            -------------------------------
# Generated from Intellog Unique Number	CW_70_72/WELL/2901
NULL.         -999.25                        : NULL_VALUE
COMP .        HOME OIL CO LTD                :  COMPANY
WELL.         SCURRY ET AL DOUCETTE          : Well_name    - WELL              
LOC .         06-29-077-02W5                 : Location     - LOCATION          
UWI .         00/06-29-077-02W5/0            : Uwi          - UNIQUE WELL ID    
ENTR.         MAX                            : Entered      - ENTERED BY        
SRVC.         COMPUTALOG                     : Scn          - SERVICE COMPANY   
DATE.         24 NOV 77                      : Date         - LOG DATE
STRT.M        375                            : top_depth    - START DEPTH       
STOP.M        625                            : bot_depth    - STOP DEPTH        
STEP.M        0.25                           : increment    - STEP LENGTH       
~CURVE INFORMATION BLOCK
#MNEM UNIT       ERCB CURVE CODE    CURVE DESCRIPTION
#-----------   ------------------   ----------------------------------
DEPT.M        00 001 00 00         : DEPTH        - DEPTH                       
ILD .OHMM     00 120 00 00         : RESD         - DEEP RESISTIVITY (DIL)      
NPHI.V/V      00 330 00 00         : PHIN         - NEUTRON POROSITY (SANDSTONE)
DPHI.V/V      00 890 00 00         : PHID         - DENSITY POROSITY (SANDSTONE)
CALI.MM       00 280 01 00         : CAL          - CALIPER                     
GR  .API      00 310 00 00         : GR           - GAMMA RAY                   
~PARAMETER INFORMATION       
#MNEM.UNIT           DATA             DESCRIPTION OF MNEMONIC
#---------         -----------     ------------------------------
GL  .M        678.3                : gl           - GROUND LEVEL ELEVATION      
EREF.M        683.7                : kb           - ELEVATION OF DEPTH REFERENCE
DATM.M        678.3                : datum        - DATUM ELEVATION             
TDD .M        639                  : tdd          - TOTAL DEPTH DRILLER         
RUN .         ONE                  : Run          - RUN NUMBER                  
ENG .         BILL                 : Engineer     - RECORDING ENGINEER          
WIT .         JIM                  : Witness      - WITNESSED BY                
MUD .         GEL                  : Mud_type     - MUD TYPE                    
MATR.         SANDSTONE            : Logunit      - NEUTRON MATRIX              
TMAX.C        36                   : BHT          - MAXIMUM RECORDED TEMPERATURE
BHTD.M        639                  : BHTDEP       - MAXIMUM RECORDED TEMPERATURE
RMT .C        12.5                 : MDTP         - TEMPERATURE OF MUD          
MUDD.KG/M     1160                 : MWT          - MUD DENSITY                 
NEUT.         1                    : NEUTRON      - NEUTRON TYPE                
RESI.         0                    : RESIST       - RESISTIVITY TYPE            
RM  .OHMM     5.1                  : RM           - RESISTIVITY OF MUD          
RMC .OHMM     5                    : RMC          - RESISTIVITY OF MUD CAKE     
RMF .OHMM     4                    : RMF          - RESISTIVITY OF MUD FILTRATE 
SUFT.C        -10                  : SUFT         - SURFACE TEMPERATURE         
~A  DEPTH     RESD     PHIN     PHID      CAL       GR
# ...
  557.500   11.488    0.380    0.211  215.044   80.351
  557.750   11.576    0.377    0.207  213.452   80.575
  558.000   11.352    0.376    0.211  211.358   76.390
  558.250   11.039    0.369    0.206  211.259   75.737
  558.500   10.260    0.367    0.188  211.633   79.191
  558.750    9.366    0.369    0.186  211.519   84.101
  559.000    8.865    0.369    0.198  213.344   84.903
  559.250    8.390    0.369    0.197  213.230   86.307
  559.500    8.225    0.371    0.191  212.629   87.109
  559.750    8.142    0.380    0.186  211.539   90.555
  560.000    8.129    0.380    0.192  210.951   90.194
  560.250    8.190    0.378    0.188  211.312   89.549
  560.500    8.178    0.372    0.180  213.122   96.216
  560.750    8.164    0.374    0.177  212.534   95.261
  561.000    8.080    0.375    0.176  209.980   95.787
  561.250    8.067    0.372    0.161  208.388   96.881
  561.500    8.054    0.367    0.155  208.289   97.993
  561.750    8.113    0.358    0.150  210.128   97.916
  562.000    8.176    0.348    0.161  212.454   96.961
  562.250    8.462    0.342    0.158  210.862   95.722
  562.500    9.076    0.332    0.175  206.830   93.604
  562.750   10.643    0.324    0.189  202.812   88.557
  563.000   11.211    0.317    0.203  200.272   84.381
  563.250   12.027    0.300    0.214  200.145   84.313
  563.500   13.253    0.290    0.220  200.519   83.065
  563.750   16.113    0.274    0.218  200.405   81.240
  564.000   18.731    0.268    0.212  200.278   78.243
  564.250   22.367    0.251    0.203  200.164   70.845
  564.500   25.082    0.232    0.186  200.553   61.967
  564.750   25.045    0.222    0.172  200.913   62.777
  565.000   22.872    0.227    0.168  201.273   67.118
  565.250   17.305    0.245    0.162  201.174   72.898
  565.500   14.576    0.256    0.163  201.477   75.767
  565.750   13.429    0.267    0.177  202.368   82.150
  566.000   13.429    0.275    0.182  203.259   86.466
  566.250   12.344    0.283    0.185  205.083   88.749
  566.500   10.593    0.289    0.188  205.946   89.852
  566.750    9.934    0.299    0.187  206.823   89.775
  567.000    9.829    0.313    0.182  208.647   87.950
  567.250    9.993    0.316    0.171  209.036   86.125
  567.500   10.248    0.316    0.162  208.922   84.291
  567.750   10.417    0.317    0.151  209.756   84.507
  568.000   10.401    0.317    0.144  211.121   87.953
  568.250   10.200    0.317    0.151  212.457   92.588
  568.500    9.915    0.318    0.154  212.832   94.862
  568.750    9.556    0.318    0.149  213.709   95.965
  569.000    8.961    0.318    0.149  215.533   97.938
  569.250    8.328    0.319    0.147  216.410  101.091
  569.500    7.883    0.327    0.151  217.760  105.416
  569.750    7.591    0.343    0.155  217.116  108.870
  570.000    7.650    0.359    0.163  214.591  100.293
  570.250    7.915    0.366    0.154  211.549   95.841
  570.500    8.266    0.353    0.138  208.492   89.907
  570.750    8.553    0.344    0.145  206.915   88.358
  571.000    8.686    0.337    0.180  206.787   85.361
  571.250    8.838    0.331    0.197  207.664   85.293
  571.500    8.825    0.335    0.205  208.038   87.869
  571.750    8.825    0.343    0.198  207.394   88.972
  572.000    8.714    0.350    0.175  207.309   84.503
  572.250    8.477    0.348    0.157  207.181   82.962
  572.500    8.387    0.348    0.122  207.081   82.593
  572.750    8.451    0.350    0.125  205.963   83.403
  573.000   10.002    0.352    0.146  206.338   86.857
  573.250   10.632    0.354    0.158  206.224   89.718
  573.500   15.047    0.349    0.161  205.622   80.571
  573.750   27.122    0.232    0.172  204.030   64.966
  574.000   43.513    0.191    0.228  203.443   52.874
  574.250   57.844    0.164    0.316  203.817   44.882
  574.500   76.911    0.140    0.405  204.178   38.380
  574.750   97.772    0.114    0.439  203.562   31.276
  575.000  110.668    0.112    0.434  204.424   25.049
  575.250  124.105    0.121    0.428  204.799   23.517
  575.500  131.950    0.135    0.428  206.149   24.026
  575.750  136.552    0.142    0.427  207.026   23.665
  576.000  126.886    0.151    0.425  207.386   23.890
  576.250  113.804    0.157    0.423  208.249   26.457
  576.500   95.004    0.161    0.420  208.637   27.853
  576.750   85.225    0.166    0.417  208.481   27.199
  577.000   66.829    0.173    0.405  208.481   26.821
  577.250   60.466    0.200    0.392  208.226   26.753
  577.500   60.387    0.253    0.378  208.169   26.685
  577.750   60.297    0.305    0.358  207.553   26.040
  578.000   60.196    0.322    0.351  207.439   25.971
  578.250   57.983    0.329    0.340  207.814   26.773
  578.500   53.909    0.332    0.326  208.174   27.876
  578.750   48.341    0.334    0.325  207.572   29.565
  579.000   44.131    0.339    0.324  207.473   31.237
  579.250   39.937    0.342    0.323  207.805   31.470
  579.500   37.124    0.340    0.323  207.720   30.799
  579.750   34.509    0.336    0.322  207.592   29.585
  580.000   31.793    0.331    0.321  207.492   28.622
  580.250   28.509    0.335    0.320  207.379   29.148
  580.500   26.031    0.337    0.320  206.763   29.372
  580.750   23.557    0.338    0.320  206.635   30.166
  581.000   20.750    0.341    0.319  206.034   30.976
  581.250   19.116    0.340    0.320  205.920   31.218
  581.500   16.540    0.340    0.321  205.792   30.263
  581.750   15.652    0.340    0.321  205.205   28.437
  582.000   14.287    0.341    0.322  205.565   27.189
  582.250   13.280    0.340    0.323  205.465   27.698
  582.500   12.237    0.339    0.323  205.352   29.396
  582.750   11.375    0.336    0.323  204.736   31.670
  583.000    9.930    0.332    0.322  204.134   31.895
  583.250    8.594    0.333    0.322  204.021   33.567
  583.500    7.568    0.338    0.322  203.879   32.904
  583.750    7.163    0.340    0.322  203.305   32.569
  584.000    6.656    0.340    0.320  202.704   30.442
  584.250    6.473    0.341    0.318  202.074   30.960
  584.500    6.124    0.341    0.316  202.936   30.590
  584.750    5.900    0.343    0.315  203.325   30.238
  585.000    5.533    0.342    0.311  203.211   28.697
  585.250    5.236    0.336    0.309  203.098   26.570
  585.500    4.952    0.332    0.313  203.444   28.259
  585.750    4.817    0.332    0.319  203.330   30.835
  586.000    4.681    0.335    0.324  203.690   33.110
  586.250    4.591    0.339    0.318  204.093   33.619
  586.500    4.626    0.339    0.318  203.951   32.086
  586.750    4.660    0.339    0.317  203.852   32.001
  587.000    4.865    0.338    0.315  204.226   33.406
  587.250    5.173    0.333    0.314  204.601   35.103
  587.500    5.547    0.319    0.312  203.985   36.783
  587.750    6.058    0.302    0.308  204.345   36.422
  588.000    7.703    0.261    0.296  205.236   33.719
  588.250    8.875    0.194    0.188  206.070   33.349
  588.500    9.519    0.164    0.097  205.971   32.411
  588.750    9.336    0.191    0.218  206.805   34.669
  589.000    6.877    0.276    0.245  207.667   34.032
  589.250    5.297    0.310    0.316  208.056   34.549
  589.500    4.880    0.329    0.316  208.431   34.456
  589.750    4.658    0.347    0.312  209.293   34.387
  590.000    4.564    0.351    0.309  210.615   34.336
  590.250    4.520    0.347    0.307  210.530   35.715
  590.500    4.520    0.343    0.302  210.402   39.471
  590.750    4.466    0.344    0.296  209.801   41.151
  591.000    4.421    0.342    0.296  209.687   39.920
  591.250    4.493    0.340    0.296  208.597   36.037
  591.500    4.569    0.340    0.299  207.005   35.969
  591.750    4.644    0.342    0.298  205.930   38.536
  592.000    4.720    0.347    0.298  204.338   43.730
  592.250    4.842    0.347    0.296  203.736   45.127
  592.500    4.842    0.350    0.292  203.106   45.937
  592.750    4.912    0.350    0.292  203.021   47.927
  593.000    5.176    0.346    0.290  202.334   50.202
  593.250    5.504    0.347    0.286  202.277   54.233
  593.500    5.797    0.348    0.281  202.163   55.621
  593.750    5.892    0.349    0.275  202.552   58.489
