~VERSION INFORMATION
 VERS.                 2.0:   CWLS LOG ASCII STANDARD -VERSION 2.0
 WRAP.                  NO:   ONE LINE PER DEPTH STEP
~WELL INFORMATION BLOCK
#MNEM.UNIT           DATA                    DESCRIPTION OF MNEMONIC
#---------    -------------------            -------------------------------
# Generated from Intellog Unique Number	CS_71_72/WELL/699
WELL.         AMOCO AEC IPIATIK              : Well_name    - WELL
LOC .         00/06-01-072-05W4/0            : Location     - LOCATION
UWI .         00/06-01-072-05W4/0            : Uwi          - UNIQUE WELL ID
ENTR.         SP                             : Entered      - ENTERED BY
SRVC.         SCHLUMBERGER                   : Scn          - SERVICE COMPANY
STRT.M        285                            : top_depth    - START DEPTH
STOP.M        505                            : bot_depth    - STOP DEPTH
STEP.M        0.25                           : increment    - STEP LENGTH
 NULL. -999.2500:NULL Value
~CURVE INFORMATION BLOCK
#MNEM UNIT       ERCB CURVE CODE    CURVE DESCRIPTION
#-----------   ------------------   ----------------------------------
DEPT.M        00 001 00 00         : DEPTH        - DEPTH
ILD .OHMM     00 120 00 00         : RESD         - DEEP RESISTIVITY (DIL)
DPHI.V/V      00 890 00 00         : PHID         - DENSITY POROSITY (LIMESTONE)
NPHI.V/V      00 330 00 00         : PHIN         - NEUTRON POROSITY (LIMESTONE)
GR  .API      00 310 00 00         : GR           - GAMMA RAY
~PARAMETER INFORMATION
#MNEM.UNIT           DATA             DESCRIPTION OF MNEMONIC
#---------         -----------     ------------------------------
GL  .M        671                  : gl           - GROUND LEVEL ELEVATION
EREF.M        674.85               : kb           - ELEVATION OF DEPTH REFERENCE
DATM.M        671                  : datum        - DATUM ELEVATION
TDD .M        517                  : tdd          - TOTAL DEPTH DRILLER
RUN .         ONE                  : Run          - RUN NUMBER
ENG .         BILL                 : Engineer     - RECORDING ENGINEER
WIT .         JIM                  : Witness      - WITNESSED BY
MUD .         GEL                  : Mud_type     - MUD TYPE
MATR.         LIMESTONE            : Logunit      - NEUTRON MATRIX
TMAX.C        22                   : BHT          - MAXIMUM RECORDED TEMPERATURE
BHTD.M        517                  : BHTDEP       - MAXIMUM RECORDED TEMPERATURE
MATR.         1                    : LOGUNIT      - NEUTRON MATRIX
RMT .C        25                   : MDTP         - TEMPERATURE OF MUD
NEUT.         1                    : NEUTRON      - NEUTRON TYPE
RESI.         0                    : RESIST       - RESISTIVITY TYPE
RMC .OHMM     0.25                 : RMC          - RESISTIVITY OF MUD CAKE
RMF .OHMM     0.25                 : RMF          - RESISTIVITY OF MUD FILTRATE
SUFT.C        15                   : SUFT         - SURFACE TEMPERATURE
~A  DEPTH     RESD     PHID     PHIN       GR
  285.000    3.082    0.221    0.537  103.429
  285.250    3.086    0.233    0.531  103.438
  285.500    3.144    0.240    0.532  102.224
  285.750    3.144    0.240    0.524  102.245
  286.000    3.144    0.233    0.473  100.439
  286.250    3.203    0.209    0.500   96.817
  286.500    3.203    0.216    0.520   91.382
  286.750    3.203    0.237    0.546   94.416
  287.000    3.264    0.235    0.561   98.658
  287.250    3.325    0.236    0.569  101.689
  287.500    3.325    0.236    0.556  105.932
  287.750    3.387    0.220    0.543  108.360
  288.000    3.450    0.223    0.541  110.182
  288.250    3.581    0.210    0.556  110.795
  288.500    3.716    0.209    0.564  108.989
  288.750    3.785    0.222    0.544  106.579
  289.000    3.928    0.232    0.549  106.587
  289.250    4.076    0.225    0.549  105.991
  289.500    4.152    0.193    0.556  102.974
  289.750    4.230    0.161    0.566   98.747
  290.000    4.310    0.135    0.559   95.126
  290.250    4.310    0.126    0.547   97.556
  290.500    4.310    0.169    0.532   99.982
  290.750    4.232    0.207    0.522  101.804
  291.000    4.079    0.222    0.519  103.628
  291.250    3.859    0.224    0.526  104.846
  291.500    3.651    0.228    0.531  104.853
  291.750    3.585    0.225    0.522  104.865
  292.000    3.520    0.231    0.513  104.870
  292.250    3.520    0.220    0.526  105.483
  292.500    3.586    0.221    0.537  101.864
  292.750    3.721    0.230    0.526  100.057
  293.000    3.721    0.220    0.516  101.274
  293.250    3.862    0.210    0.526  106.727
  293.500    3.862    0.206    0.534  106.736
  293.750    4.082    0.214    0.531  106.138
  294.000    4.159    0.220    0.521  104.937
  294.250    4.316    0.212    0.529  101.921
  294.500    4.316    0.210    0.514   98.907
  294.750    4.237    0.200    0.478   97.704
  295.000    4.009    0.198    0.461   97.106
  295.250    3.794    0.225    0.480  101.350
  295.500    3.794    0.220    0.508  103.776
  295.750    4.010    0.215    0.539  104.391
  296.000    4.736    0.212    0.522  103.187
  296.250    6.022    0.230    0.508   95.335
  296.500    7.517    0.261    0.421   90.504
  296.750   10.102    0.282    0.355   85.069
  297.000   15.450    0.300    0.327   82.050
  297.250   19.285    0.316    0.314   79.035
  297.500   20.765    0.319    0.318   77.835
  297.750   20.015    0.312    0.359   76.029
  298.000   17.916    0.364    0.435   74.827
  298.250   15.745    0.395    0.479   72.417
  298.500   14.897    0.423    0.464   70.609
  298.750   16.041    0.380    0.285   71.827
  299.000   18.596    0.312    0.219   68.207
  299.250   21.962    0.316    0.205   65.795
  299.500   23.648    0.331    0.198   63.987
  299.750   24.997    0.345    0.207   66.415
  300.000   26.917    0.330    0.216   68.238
  300.250   27.420    0.334    0.201   67.643
  300.500   28.985    0.340    0.196   66.441
  300.750   28.988    0.341    0.190   68.870
  301.000   27.427    0.354    0.201   70.690
  301.250   24.102    0.359    0.221   72.514
  301.500   20.039    0.348    0.245   72.521
  301.750   17.288    0.331    0.290   74.950
  302.000   14.915    0.287    0.340   77.379
  302.250   12.632    0.224    0.360   79.808
  302.500   12.174    0.185    0.382   79.815
  302.750   11.309    0.207    0.404   79.218
  303.000   10.504    0.240    0.422   80.434
  303.250   10.124    0.277    0.435   83.466
  303.500    9.939    0.274    0.428   85.895
  303.750    9.580    0.268    0.432   88.322
  304.000    9.581    0.265    0.430   90.749
  304.250    9.760    0.272    0.420   93.784
  304.500    9.582    0.268    0.418   95.606
  304.750    9.583    0.271    0.432   96.824
  305.000    9.584    0.270    0.426   97.437
  305.250    9.409    0.265    0.431   97.445
  305.500    8.740    0.252    0.443   99.269
  305.750    8.270    0.241    0.454  101.696
  306.000    7.825    0.231    0.449  103.517
  306.250    7.825    0.218    0.466  104.735
  306.500    7.826    0.208    0.474  105.347
  306.750    7.972    0.204    0.478  101.729
  307.000    8.427    0.212    0.457   98.711
  307.250    8.585    0.217    0.439   95.696
  307.500    8.909    0.202    0.419   95.704
  307.750    8.909    0.189    0.415   94.502
  308.000    9.077    0.194    0.413   95.116
  308.250    9.246    0.210    0.412   96.940
  308.500    9.247    0.227    0.410   98.156
  308.750    9.079    0.244    0.418  100.585
  309.000    9.079    0.256    0.420  101.197
  309.250    8.591    0.264    0.416  102.414
  309.500    8.128    0.273    0.430  106.657
  309.750    7.550    0.194    0.433  112.714
  310.000    6.759    0.172    0.436  116.956
  310.250    6.278    0.135    0.450  113.336
  310.500    5.831    0.106    0.458  109.109
  310.750    5.220    0.128    0.461  107.908
  311.000    4.673    0.159    0.502  114.571
  311.250    4.504    0.174    0.513  120.023
  311.500    4.183    0.159    0.516  123.660
  311.750    3.886    0.152    0.517  124.876
  312.000    3.745    0.168    0.529  126.094
  312.250    3.610    0.186    0.528  123.682
  312.500    3.353    0.197    0.516  119.457
  312.750    3.292    0.209    0.511  117.651
  313.000    3.292    0.220    0.512  117.661
  313.250    3.416    0.211    0.516  117.063
  313.500    3.888    0.215    0.510  113.443
  313.750    4.186    0.208    0.498  109.216
  314.000    4.765    0.212    0.475  104.385
  314.250    5.423    0.237    0.438   96.531
  314.500    6.059    0.250    0.434   85.651
  314.750    6.405    0.278    0.424   77.796
  315.000    6.646    0.304    0.445   74.781
  315.250    7.156    0.307    0.473   82.049
  315.500    7.426    0.284    0.486   87.499
  315.750    7.850    0.266    0.481   94.768
  316.000    7.997    0.252    0.462   97.193
  316.250    7.998    0.246    0.441  100.227
  316.500    7.998    0.246    0.422   99.023
  316.750    7.999    0.250    0.418   94.194
  317.000    8.000    0.270    0.401   87.549
  317.250    7.854    0.285    0.392   81.510
  317.500    7.711    0.307    0.383   77.282
  317.750    7.711    0.321    0.374   71.848
  318.000    8.002    0.289    0.376   70.040
  318.250    8.152    0.263    0.388   72.470
  318.500    8.153    0.254    0.398   75.501
  318.750    8.004    0.242    0.405   78.533
  319.000    7.715    0.219    0.407   80.962
  319.250    7.299    0.226    0.401   81.573
  319.500    7.035    0.254    0.402   76.744
  319.750    6.657    0.273    0.410   71.914
  320.000    6.535    0.292    0.413   68.291
  320.250    6.536    0.304    0.413   64.671
  320.500    6.909    0.285    0.410   64.679
  320.750    7.303    0.280    0.395   67.714
  321.000    7.579    0.262    0.366   68.931
  321.250    7.721    0.233    0.354   68.939
  321.500    7.580    0.210    0.353   71.369
  321.750    7.580    0.215    0.355   73.189
  322.000    7.306    0.220    0.366   75.616
  322.250    6.913    0.230    0.380   78.045
  322.500    6.421    0.242    0.400   79.867
  322.750    6.076    0.251    0.405   80.480
  323.000    5.643    0.261    0.419   75.651
  323.250    5.540    0.277    0.429   69.608
  323.500    5.541    0.285    0.420   61.149
  323.750    5.645    0.288    0.409   53.898
  324.000    5.751    0.266    0.400   59.352
  324.250    5.751    0.259    0.391   62.988
  324.500    5.751    0.251    0.388   67.232
  324.750    5.647    0.253    0.394   67.240
  325.000    5.544    0.256    0.407   66.642
  325.250    5.245    0.262    0.415   65.443
  325.500    5.055    0.276    0.421   63.031
  325.750    4.873    0.283    0.407   63.039
  326.000    4.784    0.285    0.397   64.863
  326.250    4.611    0.279    0.412   64.871
  326.500    4.527    0.283    0.409   64.273
  326.750    4.283    0.290    0.416   61.256
  327.000    4.205    0.290    0.436   57.636
  327.250    3.979    0.293    0.439   54.621
  327.500    3.979    0.300    0.423   53.418
  327.750    3.907    0.305    0.416   51.612
  328.000    3.907    0.312    0.411   49.807
  328.250    3.907    0.316    0.416   48.605
