~VERSION INFORMATION
 VERS.                 2.0:   CWLS LOG ASCII STANDARD -VERSION 2.0
 WRAP.                  NO:   ONE LINE PER DEPTH STEP
~WELL INFORMATION BLOCK
#MNEM.UNIT           DATA                    DESCRIPTION OF MNEMONIC
#---------    -------------------            -------------------------------
# Generated from Intellog Unique Number	CW_70_72/WELL/693
NULL.         -999.25                        : NULL_VALUE
WELL.         AMOCO MIAMI B-1 SPURFIELD 06-2 : Well_name    - WELL              
LOC .         06-22-071-02W5                 : Location     - LOCATION          
UWI .         00/06-22-071-02W5/0            : Uwi          - UNIQUE WELL ID    
ENTR.         JAYE                           : Entered      - ENTERED BY        
SRVC.         SCHLUMBERGER                   : Scn          - SERVICE COMPANY   
DATE.         12 MAR 75                      : Date         - LOG DATE          
STRT.M        365.76                         : top_depth    - START DEPTH       
STOP.M        615.76                         : bot_depth    - STOP DEPTH        
STEP.M        0.25                           : increment    - STEP LENGTH       
~CURVE INFORMATION BLOCK
#MNEM UNIT       ERCB CURVE CODE    CURVE DESCRIPTION
#-----------   ------------------   ----------------------------------
DEPT.M        00 001 00 00         : DEPTH        - DEPTH                       
DPHI.V/V      00 890 00 00         : PHID         - DENSITY POROSITY (SANDSTONE)
NPHI.V/V      00 330 00 00         : PHIN         - NEUTRON POROSITY (SANDSTONE)
GR  .API      00 310 00 00         : GR           - GAMMA RAY                   
CALI.MM       00 280 01 00         : CAL          - CALIPER                     
ILD .OHMM     00 120 00 00         : RESD         - DEEP RESISTIVITY (DIL)      
~PARAMETER INFORMATION       
#MNEM.UNIT           DATA             DESCRIPTION OF MNEMONIC
#---------         -----------     ------------------------------
GL  .M        584.911              : gl           - GROUND LEVEL ELEVATION      
EREF.M        589.026              : kb           - ELEVATION OF DEPTH REFERENCE
DATM.M        584.911              : datum        - DATUM ELEVATION             
TDD .M        614.172              : tdd          - TOTAL DEPTH DRILLER         
RUN .         ONE                  : Run          - RUN NUMBER                  
ENG .         JENSEN               : Engineer     - RECORDING ENGINEER          
WIT .         GIBSON               : Witness      - WITNESSED BY                
BASE.         R.D.                 : Branch       - HOME BASE OF LOGGING UNIT   
MATR.         SANDSTONE            : Logunit      - NEUTRON MATRIX              
TMAX.C        32.2222              : BHT          - MAXIMUM RECORDED TEMPERATURE
BHTD.M        613.867              : BHTDEP       - MAXIMUM RECORDED TEMPERATURE
RMT .C        23.3333              : MDTP         - TEMPERATURE OF MUD          
MUDD.KG/M     0                    : MWT          - MUD DENSITY                 
NEUT.         1                    : NEUTRON      - NEUTRON TYPE                
RESI.         0                    : RESIST       - RESISTIVITY TYPE            
RM  .OHMM     2                    : RM           - RESISTIVITY OF MUD          
RMC .OHMM     0                    : RMC          - RESISTIVITY OF MUD CAKE     
RMF .OHMM     1.95                 : RMF          - RESISTIVITY OF MUD FILTRATE 
SUFT.C        -17.7778             : SUFT         - SURFACE TEMPERATURE         
~A  DEPTH     PHID     PHIN       GR      CAL     RESD
# ...
  584.760    0.161    0.485   91.802  234.323    2.630
  585.010    0.138    0.478   93.015  235.445    3.030
  585.260    0.153    0.472   93.189  235.737    3.465
  585.510    0.153    0.464   94.401  235.412    3.846
  585.760    0.140    0.441   92.007  234.152    4.407
  586.010    0.109    0.391   86.741  233.412    4.992
  586.260    0.085    0.352   79.947  233.706    6.123
  586.510    0.058    0.345   81.281  234.207    6.874
  586.760    0.033    0.340   81.272  234.290    6.843
  587.010    0.059    0.339   82.545  234.277    6.423
  587.260    0.064    0.352   87.487  234.156    6.150
  587.510    0.095    0.365   92.978  233.932    6.076
  587.760    0.087    0.348   91.685  233.813    6.289
  588.010    0.092    0.332   86.846  233.486    6.702
  588.260    0.081    0.324   82.924  233.364    7.763
  588.510    0.064    0.311   79.797  233.142    8.274
  588.760    0.035    0.283   75.020  232.814    8.345
  589.010    0.006    0.320   77.639  232.384    7.817
  589.260    0.019    0.326   81.724  232.057    7.609
  589.510    0.074    0.364   84.648  231.831    7.788
  589.760    0.060    0.290   80.115  231.711    8.615
  590.010    0.020    0.263   75.460  231.697    8.735
  590.260   -0.004    0.290   82.113  231.885    8.226
  590.510    0.044    0.329   90.294  232.283    7.343
  590.760    0.079    0.391   95.052  233.613    6.603
  591.010    0.100    0.428   91.862  234.321    6.094
  591.260    0.100    0.386   86.780  234.098    5.933
  591.510    0.089    0.357   81.147  232.840    6.243
  591.760    0.078    0.370   77.713  231.683    6.828
  592.010    0.088    0.341   77.337  231.665    7.868
  592.260    0.089    0.322   78.122  231.857    8.448
  592.510    0.089    0.322   79.701  232.047    8.791
  592.760    0.107    0.324   81.464  232.135    8.914
  593.010    0.103    0.325   82.738  231.912    8.808
  593.260    0.089    0.331   84.439  232.103    7.922
  593.510    0.069    0.343   87.669  232.186    7.337
  593.760    0.058    0.355   89.922  231.966    6.858
  594.010    0.061    0.377   87.100  231.535    6.306
  594.260    0.086    0.382   77.921  231.311    5.734
  594.510    0.102    0.365   70.149  230.985    5.128
  594.760    0.125    0.337   58.219  226.516    4.330
  595.010    0.146    0.316   48.858  221.014    3.657
  595.260    0.169    0.331   39.191  220.377    3.307
  595.510    0.226    0.341   31.174  221.702    2.903
  595.760    0.257    0.345   30.064  222.724    2.563
  596.010    0.241    0.347   31.215  223.536    2.418
  596.260    0.241    0.352   33.039  223.933    2.363
  596.510    0.255    0.363   34.496  223.705    2.340
  596.760    0.251    0.355   35.402  223.381    2.333
  597.010    0.244    0.343   36.005  222.849    2.326
  597.260    0.245    0.336   36.728  222.106    2.351
  597.510    0.232    0.331   36.963  221.881    2.392
  597.760    0.219    0.336   36.953  221.762    2.417
  598.010    0.232    0.356   36.271  221.848    2.429
  598.260    0.236    0.363   34.978  222.041    2.440
  598.510    0.234    0.362   33.929  222.025    2.451
  598.760    0.224    0.357   33.919  222.008    2.458
  599.010    0.228    0.341   34.826  222.196    2.484
  599.260    0.240    0.331   35.426  222.490    2.500
  599.510    0.237    0.326   34.990  222.683    2.530
  599.760    0.243    0.334   33.391  222.766    2.538
  600.010    0.242    0.342   33.379  222.957    2.540
  600.260    0.228    0.342   33.797  223.045    2.557
  600.510    0.231    0.340   34.338  223.133    2.578
  600.760    0.250    0.340   35.490  223.324    2.596
  601.010    0.240    0.342   37.682  224.031    2.618
  601.260    0.239    0.339   37.733  224.947    2.634
  601.510    0.240    0.336   36.744  225.550    2.661
  601.760    0.232    0.336   37.346  225.532    2.704
  602.010    0.233    0.336   38.009  224.791    2.732
  602.260    0.235    0.335   39.222  223.637    2.750
  602.510    0.230    0.330   39.272  222.793    2.784
  602.760    0.229    0.354   38.958  222.259    2.812
  603.010    0.227    0.366   39.559  222.448    2.852
  603.260    0.222    0.362   41.076  222.848    2.886
  603.510    0.227    0.354   43.390  223.452    2.948
  603.760    0.232    0.350   43.992  224.056    3.029
  604.010    0.226    0.343   43.064  224.451    3.123
  604.260    0.213    0.336   44.522  224.331    3.238
  604.510    0.226    0.349   45.429  223.800    3.363
  604.760    0.232    0.347   44.503  222.539    3.486
  605.010    0.213    0.339   46.326  221.490    3.628
  605.260    0.193    0.343   48.578  220.438    3.747
  605.510    0.157    0.343   50.035  220.005    3.922
  605.760    0.137    0.342   51.064  220.093    4.036
  606.010    0.106    0.347   51.666  220.904    4.161
  606.260    0.158    0.341   51.473  221.819    4.259
  606.510    0.180    0.347   48.590  222.217    4.327
  606.760    0.189    0.345   36.600  222.926    4.355
  607.010    0.195    0.369   38.117  221.460    4.384
  607.260    0.200    0.381   40.736  218.856    4.404
  607.510    0.218    0.364   43.233  211.801    4.441
  607.760    0.215    0.351   45.913  202.262    4.495
  608.010    0.167    0.334   48.898  208.868    4.483
  608.260    0.153    0.353   51.517  214.960    4.554
  608.510    0.204    0.363   53.096  221.568    4.601
  608.760    0.186    0.358   53.941  224.448    4.666
  609.010    0.177    0.354   53.505  225.053    4.784
  609.260    0.166    0.364   54.655  225.553    5.025
  609.510    0.118    0.370   57.458  226.263    5.326
  609.760    0.133    0.372   61.788  226.967    5.646
  610.010    0.157    0.372   63.245  227.472    6.007
  610.260    0.166    0.371   62.746  228.281    6.403
  610.510    0.146    0.371   62.002  229.299    6.927
  610.760    0.132    0.370   64.866  230.113    7.412
  611.010    0.124    0.370   67.179  230.717    7.871
  611.260    0.136    0.370   64.969  230.803    8.375
  611.510    0.134    0.371   64.714  230.166    8.747
  611.760    0.117    0.371   66.049  229.631    8.934
  612.010    0.120    0.372   66.773  229.201    8.861
  612.260    0.105    0.372   67.435  229.288    8.177
  612.510    0.066    0.373   68.098  229.064    7.673
  612.760    0.118    0.373   68.638  226.564    7.444
  613.010    0.139    0.373   68.079  220.440    7.383
  613.260    0.209    0.372   65.808  213.179    7.349
  613.510    0.235    0.371   59.563  218.751    7.356
  613.760    0.212    0.367   55.274  225.670    7.391
  614.010    0.151    0.366   52.881  228.343    7.385
  614.260    0.097    0.379   52.627  225.947    7.447
  614.510    0.070    0.376   53.839  192.706    7.468
  614.760    0.080    0.373   54.684  192.065    7.490
  615.010    0.082    0.377   54.978  191.739    7.499
  615.260    0.089    0.369   55.093  191.414    7.518
  615.510    0.090    0.366   55.450  191.292    7.571
  615.760    0.088    0.382   55.318  191.483    7.620
