~VERSION INFORMATION
 VERS.                 2.0:   CWLS LOG ASCII STANDARD -VERSION 2.0
 WRAP.                  NO:   ONE LINE PER DEPTH STEP
~WELL INFORMATION BLOCK
#MNEM.UNIT           DATA                    DESCRIPTION OF MNEMONIC
#---------    -------------------            -------------------------------
# Generated from Intellog Unique Number	CS_69_70/WELL/618
WELL.         HUSKY AEC FISHER               : Well_name    - WELL
LOC .         00/05-12-069-06W4/0            : Location     - LOCATION
UWI .         00/05-12-069-06W4/0            : Uwi          - UNIQUE WELL ID
ENTR.         T                              : Entered      - ENTERED BY
SRVC.         SCHLUMBERGER                   : Scn          - SERVICE COMPANY
STRT.M        365                            : top_depth    - START DEPTH
STOP.M        570                            : bot_depth    - STOP DEPTH
STEP.M        0.25                           : increment    - STEP LENGTH
 NULL. -999.2500:NULL Value
~CURVE INFORMATION BLOCK
#MNEM UNIT       ERCB CURVE CODE    CURVE DESCRIPTION
#-----------   ------------------   ----------------------------------
DEPT.M        00 001 00 00         : DEPTH        - DEPTH
GR  .API      00 310 00 00         : GR           - GAMMA RAY
NPHI.V/V      00 330 00 00         : PHIN         - NEUTRON POROSITY (SANDSTONE)
DPHI.V/V      00 890 00 00         : PHID         - DENSITY POROSITY (SANDSTONE)
ILD .OHMM     00 120 00 00         : RESD         - DEEP RESISTIVITY (DIL)
~PARAMETER INFORMATION
#MNEM.UNIT           DATA             DESCRIPTION OF MNEMONIC
#---------         -----------     ------------------------------
GL  .M        716                  : gl           - GROUND LEVEL ELEVATION
EREF.M        719.6                : kb           - ELEVATION OF DEPTH REFERENCE
DATM.M        719.6                : datum        - DATUM ELEVATION
TDD .M        581                  : tdd          - TOTAL DEPTH DRILLER
RUN .         ONE                  : Run          - RUN NUMBER
ENG .         TIM                  : Engineer     - RECORDING ENGINEER
WIT .         JIM                  : Witness      - WITNESSED BY
MUD .         GEL                  : Mud_type     - MUD TYPE
MATR.         SANDSTONE            : Logunit      - NEUTRON MATRIX
TMAX.C        24                   : BHT          - MAXIMUM RECORDED TEMPERATURE
BHTD.M        581                  : BHTDEP       - MAXIMUM RECORDED TEMPERATURE
MATR.         1                    : LOGUNIT      - NEUTRON MATRIX
RMT .C        20                   : MDTP         - TEMPERATURE OF MUD
NEUT.         1                    : NEUTRON      - NEUTRON TYPE
RESI.         9.3                  : RESIST       - RESISTIVITY TYPE
RMC .OHMM     8.5                  : RMC          - RESISTIVITY OF MUD CAKE
RMF .OHMM     9.2                  : RMF          - RESISTIVITY OF MUD FILTRATE
SUFT.C        15                   : SUFT         - SURFACE TEMPERATURE
~A  DEPTH       GR     PHIN     PHID     RESD
# ...
  452.000   78.836    0.566    0.368    3.041
  452.250   73.984    0.584    0.357    2.990
  452.500   77.073    0.583    0.487    2.883
  452.750   78.306    0.575    0.552    2.781
  453.000   80.169    0.572    0.614    2.731
  453.250   79.593    0.563    0.616    2.839
  453.500   78.996    0.559    0.617    3.183
  453.750   78.413    0.557    0.619    3.500
  454.000   77.227    0.548    0.605    3.708
  454.250   75.424    0.535    0.587    3.784
  454.500   74.841    0.536    0.545    3.718
  454.750   74.257    0.535    0.524    3.653
  455.000   76.723    0.549    0.537    3.727
  455.250   79.183    0.566    0.566    3.949
  455.500   85.917    0.576    0.557    4.344
  455.750   90.829    0.519    0.503    4.515
  456.000   92.075    0.509    0.420    4.783
  456.250   92.108    0.504    0.358    5.067
  456.500   92.121    0.497    0.301    5.371
  456.750   92.758    0.487    0.288    5.479
  457.000   93.394    0.472    0.281    5.590
  457.250   91.598    0.464    0.307    5.705
  457.500   89.789    0.463    0.313    5.709
  457.750   86.767    0.464    0.319    5.717
  458.000   84.354    0.463    0.328    5.724
  458.250   81.338    0.473    0.348    5.729
  458.500   78.926    0.483    0.361    5.629
  458.750   77.123    0.499    0.399    5.531
  459.000   76.533    0.499    0.458    5.435
  459.250   78.389    0.499    0.501    5.142
  459.500   82.075    0.489    0.510    4.958
  459.750   83.328    0.476    0.476    4.781
  460.000   82.745    0.467    0.360    4.878
  460.250   83.997    0.465    0.338    5.267
  460.500   85.230    0.461    0.267    5.476
  460.750   86.477    0.465    0.269    5.693
  461.000   85.900    0.469    0.256    5.918
  461.250   85.317    0.469    0.251    6.040
  461.500   84.734    0.448    0.248    6.044
  461.750   84.760    0.455    0.248    5.942
  462.000   87.829    0.460    0.250    5.945
  462.250   88.472    0.462    0.267    5.843
  462.500   86.060    0.464    0.304    5.741
  462.750   83.044    0.478    0.341    5.748
  463.000   81.838    0.503    0.377    5.646
  463.250   80.645    0.540    0.409    5.549
  463.500   81.281    0.537    0.422    5.251
  463.750   81.925    0.510    0.400    5.063
  464.000   81.951    0.521    0.356    4.883
  464.250   81.978    0.546    0.364    4.886
  464.500   80.785    0.564    0.443    4.892
  464.750   79.599    0.575    0.493    4.807
  465.000   79.612    0.571    0.572    4.548
  465.250   77.206    0.570    0.484    4.225
  465.500   76.006    0.574    0.536    3.850
  465.750   74.814    0.580    0.574    3.575
  466.000   75.450    0.582    0.600    3.512
  466.250   77.306    0.584    0.558    3.790
  466.500   79.169    0.575    0.501    4.171
  466.750   76.763    0.521    0.436    4.255
  467.000   74.344    0.486    0.479    4.262
  467.250   71.924    0.507    0.510    4.186
  467.500   71.958    0.566    0.555    3.962
  467.750   75.650    0.591    0.589    3.820
  468.000   78.109    0.602    0.571    3.615
  468.250   81.185    0.592    0.561    3.486
  468.500   78.169    0.590    0.514    3.361
  468.750   80.025    0.589    0.487    3.495
  469.000   80.655    0.581    0.463    3.631
  469.250   81.291    0.558    0.427    4.072
  469.500   82.537    0.529    0.385    4.650
  469.750   85.620    0.475    0.314    5.115
  470.000   84.427    0.461    0.301    5.027
  470.250   69.812    0.475    0.305    4.847
  470.500   64.343    0.488    0.290    4.851
  470.750   54.613    0.467    0.236    5.542
  471.000   49.158    0.275    0.031   10.930
  471.250   53.447    0.230    0.021   13.717
  471.500   67.506    0.223    0.088   14.261
  471.750   70.595    0.282    0.125   11.828
  472.000   70.005    0.312    0.230    8.762
  472.250   66.989    0.333    0.293    6.999
  472.500   67.016    0.388    0.329    5.486
  472.750   67.652    0.452    0.346    4.815
  473.000   68.885    0.480    0.356    4.556
  473.250   68.912    0.472    0.359    4.477
  473.500   67.719    0.474    0.361    4.397
  473.750   68.362    0.488    0.361    4.402
  474.000   68.388    0.482    0.358    4.409
  474.250   68.415    0.475    0.356    4.414
  474.500   69.058    0.471    0.349    4.503
  474.750   70.291    0.478    0.342    4.955
  475.000   70.934    0.488    0.335    5.349
  475.250   67.912    0.478    0.326    5.356
  475.500   64.883    0.420    0.284    5.464
  475.750   64.300    0.333    0.142    5.897
  476.000   65.546    0.349    0.187    6.249
  476.250   66.792    0.385    0.300    5.803
  476.500   68.038    0.442    0.339    5.288
  476.750   68.065    0.461    0.356    5.002
  477.000   68.092    0.469    0.362    4.733
  477.250   70.558    0.455    0.361    4.565
  477.500   73.633    0.448    0.356    4.487
  477.750   74.879    0.444    0.350    4.489
  478.000   74.310    0.451    0.345    4.756
  478.250   73.720    0.460    0.341    5.136
  478.500   73.130    0.469    0.337    5.341
  478.750   72.547    0.473    0.336    5.549
  479.000   73.183    0.457    0.332    5.769
  479.250   73.210    0.448    0.332    5.776
  479.500   75.073    0.448    0.332    5.679
  479.750   78.142    0.466    0.332    5.684
  480.000   83.053    0.471    0.339    5.480
  480.250   86.129    0.457    0.347    5.385
  480.500   84.326    0.466    0.348    5.291
  480.750   80.701    0.487    0.345    5.101
  481.000   78.885    0.494    0.344    5.012
  481.250   77.082    0.478    0.344    4.833
  481.500   77.109    0.462    0.344    4.839
  481.750   77.135    0.450    0.344    4.845
  482.000   75.332    0.444    0.339    4.850
  482.250   82.683    0.444    0.335    4.856
  482.500   82.703    0.448    0.327    4.864
  482.750   82.730    0.463    0.315    4.869
  483.000   82.763    0.480    0.303    4.784
  483.250   82.790    0.495    0.300    4.790
  483.500   82.817    0.507    0.301    4.707
  483.750   79.788    0.532    0.302    4.712
  484.000   73.716    0.549    0.310    4.718
  484.250   73.140    0.569    0.332    4.380
  484.500   75.002    0.604    0.348    3.633
  484.750   75.626    0.613    0.369    3.129
  485.000   78.715    0.605    0.396    2.906
  485.250   80.577    0.594    0.433    2.855
  485.500   80.591    0.587    0.469    2.859
  485.750   79.398    0.593    0.447    2.809
  486.000   73.936    0.612    0.417    2.759
  486.250   70.304    0.627    0.404    2.764
  486.500   70.331    0.640    0.429    2.765
  486.750   74.023    0.640    0.438    2.770
  487.000   76.489    0.610    0.459    2.772
  487.250   78.954    0.594    0.471    2.777
  487.500   81.420    0.571    0.513    2.780
  487.750   83.886    0.531    0.497    2.835
  488.000   89.394    0.531    0.494    2.892
  488.250   98.568    0.541    0.487    3.183
  488.500   88.838    0.489    0.463    3.435
  488.750   74.839    0.460    0.337    4.311
  489.000   66.329    0.464    0.313    5.309
  489.250   60.860    0.480    0.264    7.052
  489.500   59.057    0.485    0.258    9.724
  489.750   57.255    0.471    0.244   12.912
  490.000   58.508    0.451    0.234   15.320
  490.250   60.974    0.439    0.240   16.229
  490.500   64.659    0.445    0.248   16.558
  490.750   67.741    0.452    0.256   15.380
  491.000   72.646    0.451    0.263   14.277
  491.250   73.886    0.444    0.287   12.768
  491.500   72.083    0.450    0.330   11.205
  491.750   70.287    0.452    0.369    9.647
  492.000   69.704    0.483    0.432    8.466
  492.250   69.121    0.510    0.474    7.571
  492.500   68.531    0.536    0.466    6.899
  492.750   67.954    0.549    0.393    6.171
  493.000   67.988    0.538    0.382    5.731
  493.250   68.611    0.548    0.411    5.321
  493.500   70.467    0.558    0.435    5.229
  493.750   74.152    0.558    0.458    5.136
  494.000   76.618    0.553    0.473    5.143
  494.250   77.255    0.542    0.505    5.054
  494.500   77.281    0.504    0.470    5.058
  494.750   77.314    0.478    0.412    5.162
  495.000   75.512    0.487    0.370    5.367
  495.250   74.929    0.492    0.479    5.579
