~VERSION INFORMATION
 VERS.                 2.0:   CWLS LOG ASCII STANDARD -VERSION 2.0
 WRAP.                  NO:   ONE LINE PER DEPTH STEP
~WELL INFORMATION BLOCK
#MNEM.UNIT           DATA                    DESCRIPTION OF MNEMONIC
#---------    -------------------            -------------------------------
# Generated from Intellog Unique Number	CS_77_79/WELL/853
WELL.         CANADIAN OCCIDENTAL            : Well_name    - WELL
LOC .         00/05-06-077-02W4/0            : Location     - LOCATION
UWI .         00/05-06-077-02W4/0            : Uwi          - UNIQUE WELL ID
ENTR.         SP                             : Entered      - ENTERED BY
SRVC.         SCHLUMBERGER                   : Scn          - SERVICE COMPANY
STRT.M        243.84                         : top_depth    - START DEPTH
STOP.M        527.09                         : bot_depth    - STOP DEPTH
STEP.M        0.25                           : increment    - STEP LENGTH
 NULL. -999.2500:NULL Value
~CURVE INFORMATION BLOCK
#MNEM UNIT       ERCB CURVE CODE    CURVE DESCRIPTION
#-----------   ------------------   ----------------------------------
DEPT.M        00 001 00 00         : DEPTH        - DEPTH
GR  .API      00 310 00 00         : GR           - GAMMA RAY
DPHI.V/V      00 890 00 00         : PHID         - DENSITY POROSITY (SANDSTONE)
NPHI.V/V      00 330 00 00         : PHIN         - NEUTRON POROSITY (SANDSTONE)
ILD .OHMM     00 120 00 00         : RESD         - DEEP RESISTIVITY (DIL)
~PARAMETER INFORMATION
#MNEM.UNIT           DATA             DESCRIPTION OF MNEMONIC
#---------         -----------     ------------------------------
GL  .M        612.648              : gl           - GROUND LEVEL ELEVATION
EREF.M        615.696              : kb           - ELEVATION OF DEPTH REFERENCE
DATM.M        612.648              : datum        - DATUM ELEVATION
TDD .M        536.448              : tdd          - TOTAL DEPTH DRILLER
RUN .         ONE                  : Run          - RUN NUMBER
ENG .         BILL                 : Engineer     - RECORDING ENGINEER
WIT .         JIM                  : Witness      - WITNESSED BY
MUD .         GEL                  : Mud_type     - MUD TYPE
MATR.         SANDSTONE            : Logunit      - NEUTRON MATRIX
TMAX.C        23.8889              : BHT          - MAXIMUM RECORDED TEMPERATURE
BHTD.M        536.448              : BHTDEP       - MAXIMUM RECORDED TEMPERATURE
MATR.         1                    : LOGUNIT      - NEUTRON MATRIX
RMT .C        25                   : MDTP         - TEMPERATURE OF MUD
NEUT.         1                    : NEUTRON      - NEUTRON TYPE
RESI.         0                    : RESIST       - RESISTIVITY TYPE
RMC .OHMM     0.25                 : RMC          - RESISTIVITY OF MUD CAKE
RMF .OHMM     0.25                 : RMF          - RESISTIVITY OF MUD FILTRATE
SUFT.C        15                   : SUFT         - SURFACE TEMPERATURE
~A  DEPTH       GR     PHID     PHIN     RESD
# ...
  330.840   50.579    0.340    0.451   14.254
  331.090   51.772    0.322    0.443   12.662
  331.340   56.335    0.271    0.420   10.916
  331.590   68.504    0.241    0.408   10.409
  331.840   72.344    0.198    0.396   10.486
  332.090   71.246    0.126    0.384   11.064
  332.340   68.764    0.228    0.388   11.853
  332.590   65.305    0.294    0.437   11.839
  332.840   61.828    0.302    0.427   11.283
  333.090   62.435    0.308    0.421    9.681
  333.340   68.301    0.297    0.431    8.704
  333.590   74.378    0.277    0.442    7.853
  333.840   80.536    0.290    0.435    7.123
  334.090   83.608    0.267    0.447    6.450
  334.340   86.047    0.249    0.459    5.960
  334.590   89.108    0.271    0.468    6.515
  334.840   93.028    0.269    0.493    8.082
  335.090   94.081    0.267    0.493   10.119
  335.340   90.997    0.284    0.436   12.147
  335.590   84.452    0.287    0.425   14.712
  335.840   80.308    0.264    0.428   15.916
  336.090   75.084    0.258    0.438   16.931
  336.340   63.045    0.268    0.442   17.671
  336.590   55.409    0.273    0.435   18.054
  336.840   54.905    0.273    0.426   18.008
  337.090   55.735    0.310    0.415   17.442
  337.340   56.213    0.312    0.406   17.433
  337.590   55.958    0.304    0.409   17.448
  337.840   56.883    0.311    0.421   17.458
  338.090   57.859    0.300    0.430   17.474
  338.340   58.832    0.306    0.431   17.489
  338.590   59.257    0.298    0.433   17.511
  338.840   59.447    0.309    0.445   17.612
  339.090   58.840    0.301    0.438   17.866
  339.340   57.024    0.313    0.445   17.530
  339.590   51.725    0.308    0.449   17.631
  339.840   50.505    0.317    0.434   17.905
  340.090   50.434    0.307    0.409   17.916
  340.340   51.187    0.289    0.397   17.930
  340.590   52.540    0.305    0.386   17.944
  340.840   55.955    0.316    0.399   17.960
  341.090   57.838    0.329    0.410   17.978
  341.340   59.942    0.346    0.418   17.771
  341.590   59.279    0.285    0.427   17.385
  341.840   55.818    0.294    0.420   16.739
  342.090   53.686    0.313    0.414   16.566
  342.340   52.183    0.324    0.410   16.498
  342.590   52.260    0.313    0.418   16.193
  342.840   53.981    0.300    0.421   16.238
  343.090   54.281    0.307    0.423   15.893
  343.340   55.824    0.308    0.435   15.930
  343.590   56.848    0.300    0.445   15.824
  343.840   57.123    0.290    0.449   15.374
  344.090   58.173    0.303    0.448   15.214
  344.340   59.385    0.316    0.446   14.508
  344.590   60.712    0.333    0.429   13.268
  344.840   61.288    0.329    0.410   11.380
  345.090   62.469    0.316    0.403    9.542
  345.340   65.414    0.292    0.410    7.306
  345.590   70.377    0.269    0.438    6.354
  345.840   75.039    0.235    0.464    5.801
  346.090   79.456    0.207    0.489    5.472
  346.340   85.786    0.218    0.495    5.147
  346.590   90.303    0.237    0.486    4.807
  346.840   93.710    0.256    0.472    4.206
  347.090   97.125    0.265    0.477    3.549
  347.340  100.432    0.237    0.559    3.076
  347.590  103.943    0.231    0.568    2.947
  347.840  104.363    0.248    0.572    3.033
  348.090   96.930    0.268    0.562    3.760
  348.340   86.587    0.291    0.542    4.823
  348.590   77.275    0.318    0.527    6.701
  348.840   66.267    0.329    0.501    8.640
  349.090   61.961    0.327    0.462   10.497
  349.340   60.065    0.339    0.442   11.542
  349.590   59.585    0.347    0.432   11.905
  349.840   59.542    0.331    0.452   11.656
  350.090   59.527    0.339    0.465   11.927
  350.340   59.529    0.333    0.488   11.559
  350.590   59.537    0.332    0.470   11.296
  350.840   59.547    0.328    0.454   11.321
  351.090   61.332    0.336    0.456   11.325
  351.340   65.309    0.333    0.456   11.273
  351.590   67.309    0.319    0.463   11.143
  351.840   66.797    0.304    0.464   11.153
  352.090   65.216    0.314    0.454   11.161
  352.340   64.311    0.325    0.450   11.174
  352.590   64.326    0.305    0.442   11.182
  352.840   64.350    0.301    0.445   11.184
  353.090   63.860    0.316    0.440   11.369
  353.340   63.156    0.328    0.437   11.751
  353.590   62.505    0.326    0.445   11.872
  353.840   62.569    0.324    0.446   12.093
  354.090   62.741    0.325    0.451   12.112
  354.340   63.773    0.342    0.455   11.878
  354.590   64.816    0.336    0.463   11.892
  354.840   65.016    0.325    0.469   11.851
  355.090   63.784    0.311    0.472   11.491
  355.340   64.129    0.325    0.458   11.658
  355.590   65.255    0.325    0.456   11.522
  355.840   66.146    0.313    0.458   11.731
  356.090   67.023    0.310    0.453   11.627
  356.340   68.678    0.318    0.456   11.541
  356.590   69.443    0.320    0.465   11.523
  356.840   64.633    0.317    0.446   11.790
  357.090   61.303    0.323    0.444   11.785
  357.340   62.908    0.311    0.452   12.176
  357.590   62.477    0.293    0.451   12.683
  357.840   58.386    0.270    0.405   13.668
  358.090   54.403    0.250    0.346   13.668
  358.340   52.482    0.185    0.382   13.638
  358.590   54.068    0.312    0.439   13.220
  358.840   58.327    0.338    0.467   12.579
  359.090   61.018    0.337    0.474   12.041
  359.340   61.923    0.329    0.473   11.656
  359.590   61.664    0.328    0.469   12.085
  359.840   62.158    0.315    0.461   12.863
  360.090   63.740    0.293    0.444   14.151
  360.340   62.303    0.232    0.387   14.690
  360.590   59.624    0.206    0.384   14.547
  360.840   62.587    0.234    0.439   13.737
  361.090   63.949    0.305    0.512   12.734
  361.340   65.004    0.333    0.499   12.172
  361.590   65.723    0.326    0.463   11.712
  361.840   67.068    0.345    0.428   11.062
  362.090   68.551    0.325    0.461   10.568
  362.340   69.557    0.310    0.476   10.238
  362.590   69.718    0.314    0.488   10.174
  362.840   68.742    0.313    0.488   10.163
  363.090   66.719    0.305    0.475   10.398
  363.340   66.884    0.298    0.447   10.399
  363.590   68.316    0.294    0.431   10.573
  363.840   69.452    0.287    0.442   10.792
  364.090   69.808    0.292    0.449   11.000
  364.340   70.268    0.290    0.447   11.142
  364.590   69.543    0.300    0.430   11.213
  364.840   70.288    0.294    0.435   11.228
  365.090   73.201    0.302    0.448   11.283
  365.340   69.958    0.294    0.456   10.809
  365.590   70.222    0.299    0.464   10.836
  365.840   72.322    0.301    0.474   10.885
  366.090   72.881    0.294    0.471   10.682
  366.340   72.971    0.287    0.464   10.689
  366.590   73.026    0.302    0.487   10.338
  366.840   74.727    0.308    0.516    9.727
  367.090   76.516    0.299    0.506    8.658
  367.340   76.505    0.280    0.478    7.167
  367.590   78.775    0.259    0.465    5.465
  367.840   83.163    0.239    0.494    4.576
  368.090   97.522    0.219    0.520    3.956
  368.340  105.657    0.216    0.543    3.302
  368.590  111.500    0.207    0.550    2.882
  368.840  110.296    0.206    0.552    2.774
  369.090  109.877    0.198    0.550    2.774
  369.340  111.346    0.187    0.539    2.839
  369.590  112.974    0.189    0.553    2.838
  369.840  114.983    0.206    0.565    2.893
  370.090  115.342    0.218    0.572    2.897
  370.340  112.868    0.224    0.573    2.841
  370.590  109.009    0.213    0.568    2.804
  370.840  106.532    0.202    0.561    2.858
  371.090  105.736    0.211    0.575    3.057
  371.340  104.601    0.243    0.575    3.223
  371.590  101.261    0.247    0.578    3.341
  371.840  100.459    0.252    0.586    3.555
  372.090   99.645    0.262    0.563    3.733
  372.340   96.544    0.246    0.521    3.920
  372.590   93.637    0.229    0.493    4.179
  372.840   90.850    0.204    0.504    4.292
  373.090   87.181    0.241    0.496    4.290
  373.340   89.643    0.251    0.488    4.302
  373.590   91.418    0.222    0.495    4.190
  373.840   92.610    0.215    0.507    4.072
  374.090   93.267    0.248    0.523    3.924
