~VERSION INFORMATION
 VERS.                 2.0:   CWLS LOG ASCII STANDARD -VERSION 2.0
 WRAP.                  NO:   ONE LINE PER DEPTH STEP
~WELL INFORMATION BLOCK
#MNEM.UNIT           DATA                    DESCRIPTION OF MNEMONIC
#---------    -------------------            -------------------------------
# Generated from Intellog Unique Number	CS_73_76/WELL/1079
WELL.         PETROFINA CANADA LTD.          : Well_name    - WELL
LOC .         00/06-25-075-12W4/0            : Location     - LOCATION
UWI .         00/06-25-075-12W4/0            : Uwi          - UNIQUE WELL ID
ENTR.         SP                             : Entered      - ENTERED BY
SRVC.         SCHLUMBERGER                   : Scn          - SERVICE COMPANY
STRT.M        298.704                        : top_depth    - START DEPTH
STOP.M        525.204                        : bot_depth    - STOP DEPTH
STEP.M        0.25                           : increment    - STEP LENGTH
 NULL. -999.2500:NULL Value
~CURVE INFORMATION BLOCK
#MNEM UNIT       ERCB CURVE CODE    CURVE DESCRIPTION
#-----------   ------------------   ----------------------------------
DEPT.M        00 001 00 00         : DEPTH        - DEPTH
GR  .API      00 310 00 00         : GR           - GAMMA RAY
DPHI.V/V      00 890 00 00         : PHID         - DENSITY POROSITY (SANDSTONE)
NPHI.V/V      00 330 00 00         : PHIN         - NEUTRON POROSITY (SANDSTONE)
ILD .OHMM     00 120 00 00         : RESD         - DEEP RESISTIVITY (DIL)
~PARAMETER INFORMATION
#MNEM.UNIT           DATA             DESCRIPTION OF MNEMONIC
#---------         -----------     ------------------------------
GL  .M        669.524              : gl           - GROUND LEVEL ELEVATION
EREF.M        672.602              : kb           - ELEVATION OF DEPTH REFERENCE
DATM.M        669.524              : datum        - DATUM ELEVATION
TDD .M        560.832              : tdd          - TOTAL DEPTH DRILLER
RUN .         ONE                  : Run          - RUN NUMBER
ENG .         BILL                 : Engineer     - RECORDING ENGINEER
WIT .         JIM                  : Witness      - WITNESSED BY
MUD .         GEL                  : Mud_type     - MUD TYPE
MATR.         SANDSTONE            : Logunit      - NEUTRON MATRIX
TMAX.C        16.6667              : BHT          - MAXIMUM RECORDED TEMPERATURE
BHTD.M        560.832              : BHTDEP       - MAXIMUM RECORDED TEMPERATURE
MATR.         1                    : LOGUNIT      - NEUTRON MATRIX
RMT .C        25                   : MDTP         - TEMPERATURE OF MUD
NEUT.         1                    : NEUTRON      - NEUTRON TYPE
RESI.         0                    : RESIST       - RESISTIVITY TYPE
RMC .OHMM     0.25                 : RMC          - RESISTIVITY OF MUD CAKE
RMF .OHMM     0.25                 : RMF          - RESISTIVITY OF MUD FILTRATE
SUFT.C        15                   : SUFT         - SURFACE TEMPERATURE
~A  DEPTH       GR     PHID     PHIN     RESD
# ...
  342.204   84.311    0.321    0.550    8.374
  342.454   76.778    0.361    0.565    9.603
  342.704   69.027    0.456    0.584   11.084
  342.954   60.007    0.516    0.609   12.250
  343.204   51.499    0.540    0.635   13.596
  343.454   55.385    0.441    0.654   14.737
  343.704   57.715    0.349    0.644   15.602
  343.954   59.352    0.274    0.444   16.060
  344.204   59.734    0.280    0.439   16.549
  344.454   60.023    0.290    0.449   17.026
  344.704   60.032    0.297    0.462   17.261
  344.954   59.780    0.304    0.473   17.659
  345.204   59.493    0.310    0.468   18.034
  345.454   60.491    0.316    0.459   18.590
  345.704   61.123    0.319    0.453   19.197
  345.954   60.694    0.323    0.450   19.392
  346.204   61.328    0.325    0.445   19.748
  346.454   61.281    0.322    0.436   20.266
  346.704   61.333    0.321    0.429   20.506
  346.954   59.627    0.323    0.428   20.747
  347.204   59.609    0.315    0.432   20.953
  347.454   60.101    0.307    0.434   21.290
  347.704   59.801    0.305    0.433   21.283
  347.954   59.551    0.307    0.431   21.283
  348.204   61.045    0.315    0.427   21.244
  348.454   62.859    0.319    0.425   21.723
  348.704   63.805    0.327    0.423   21.682
  348.954   63.385    0.325    0.422   21.681
  349.204   62.534    0.321    0.431   21.682
  349.454   62.571    0.321    0.440   21.682
  349.704   63.174    0.320    0.444   21.683
  349.954   63.899    0.325    0.438   21.683
  350.204   63.248    0.330    0.442   21.685
  350.454   61.941    0.334    0.452   21.727
  350.704   60.835    0.322    0.459   21.251
  350.954   61.796    0.326    0.457   21.281
  351.204   63.992    0.332    0.457   21.100
  351.454   63.795    0.336    0.466   20.897
  351.704   62.777    0.338    0.478   20.929
  351.954   62.101    0.335    0.483   20.466
  352.204   63.888    0.329    0.475   20.508
  352.454   64.428    0.330    0.469   20.550
  352.704   65.236    0.337    0.467   20.091
  352.954   66.880    0.345    0.466   20.133
  353.204   66.861    0.342    0.473   20.136
  353.454   66.703    0.337    0.475   20.152
  353.704   65.093    0.330    0.467   19.795
  353.954   66.049    0.335    0.462   19.772
  354.204   67.050    0.336    0.461   19.763
  354.454   67.583    0.337    0.464   19.763
  354.704   67.823    0.340    0.467   19.764
  354.954   68.171    0.344    0.466   19.764
  355.204   67.713    0.346    0.469   19.754
  355.454   67.573    0.345    0.476   19.641
  355.704   67.571    0.339    0.480   19.401
  355.954   66.922    0.335    0.484   19.399
  356.204   66.969    0.332    0.493   19.401
  356.454   66.978    0.338    0.497   19.403
  356.704   66.983    0.339    0.498   19.440
  356.954   66.980    0.335    0.496   19.014
  357.204   67.040    0.332    0.492   19.048
  357.454   66.389    0.334    0.490   19.046
  357.704   65.752    0.335    0.485   19.046
  357.954   65.361    0.337    0.482   19.046
  358.204   64.514    0.340    0.480   19.047
  358.454   64.559    0.332    0.477   19.048
  358.704   63.870    0.333    0.476   19.011
  358.954   64.651    0.324    0.475   19.451
  359.204   64.588    0.318    0.483   19.399
  359.454   64.213    0.315    0.490   19.812
  359.704   64.009    0.313    0.496   19.853
  359.954   63.993    0.315    0.501   20.158
  360.204   63.933    0.319    0.500   20.357
  360.454   64.642    0.324    0.490   20.553
  360.704   65.140    0.317    0.483   21.268
  360.954   65.429    0.312    0.469   21.483
  361.204   66.481    0.311    0.456   21.727
  361.454   66.462    0.308    0.452   22.104
  361.704   66.511    0.307    0.457   22.688
  361.954   65.858    0.312    0.455   23.385
  362.204   64.448    0.323    0.438   23.672
  362.454   63.257    0.312    0.414   23.783
  362.704   62.794    0.317    0.382   24.251
  362.954   65.115    0.313    0.402   24.213
  363.204   67.235    0.302    0.430   24.770
  363.454   68.832    0.305    0.448   24.726
  363.704   69.281    0.303    0.475   24.730
  363.954   68.898    0.300    0.481   24.731
  364.204   68.965    0.297    0.474   24.731
  364.454   68.909    0.291    0.466   24.732
  364.704   69.597    0.286    0.464   24.732
  364.954   69.622    0.295    0.474   24.736
  365.204   68.758    0.299    0.483   24.767
  365.454   67.772    0.296    0.475   24.284
  365.704   66.312    0.294    0.469   24.335
  365.954   65.748    0.298    0.463   23.783
  366.204   63.636    0.307    0.463   23.852
  366.454   62.236    0.295    0.467   23.150
  366.704   62.472    0.306    0.471   22.463
  366.954   63.533    0.311    0.473   21.786
  367.204   64.493    0.314    0.485   21.132
  367.454   64.766    0.324    0.495   20.498
  367.704   66.371    0.318    0.499   19.877
  367.954   66.856    0.325    0.487   19.255
  368.204   69.666    0.331    0.474   19.060
  368.454   71.440    0.333    0.482   18.485
  368.704   73.682    0.333    0.488   18.023
  368.954   75.134    0.330    0.487   17.707
  369.204   75.126    0.329    0.478   17.511
  369.454   75.034    0.333    0.478   17.394
  369.704   74.578    0.340    0.489   17.085
  369.954   73.878    0.332    0.497   17.087
  370.204   73.933    0.322    0.505   16.703
  370.454   74.431    0.314    0.495   17.029
  370.704   75.703    0.308    0.493   16.720
  370.954   77.072    0.303    0.492   16.410
  371.204   79.130    0.294    0.488   15.563
  371.454   81.327    0.272    0.481   13.252
  371.704   83.716    0.250    0.473   11.545
  371.954   87.874    0.231    0.470    9.712
  372.204   90.414    0.216    0.469    8.126
  372.454   93.942    0.213    0.476    6.544
  372.704   97.974    0.220    0.498    5.535
  372.954  101.191    0.228    0.527    4.917
  373.204  103.722    0.238    0.556    4.338
  373.454  106.226    0.237    0.573    3.837
  373.704  109.624    0.236    0.580    3.547
  373.954  113.335    0.239    0.595    3.172
  374.204  113.005    0.238    0.610    2.892
  374.454  110.564    0.232    0.620    2.750
  374.704  106.808    0.222    0.608    2.820
  374.954  105.621    0.231    0.596    2.933
  375.204  103.981    0.236    0.584    3.186
  375.454  103.386    0.230    0.596    3.415
  375.704  101.697    0.234    0.600    3.845
  375.954   98.683    0.246    0.591    4.276
  376.204   95.791    0.255    0.574    4.541
  376.454   96.055    0.265    0.537    4.939
  376.704   96.978    0.258    0.503    5.156
  376.954   97.840    0.249    0.505    5.439
  377.204   98.514    0.231    0.496    5.477
  377.454   98.087    0.220    0.504    5.560
  377.704   97.339    0.220    0.506    5.617
  377.954   99.104    0.228    0.497    5.688
  378.204  100.093    0.226    0.516    5.791
  378.454  101.083    0.218    0.529    5.910
  378.704  102.659    0.203    0.532    6.004
  378.954  104.390    0.207    0.521    6.207
  379.204  105.370    0.209    0.513    6.275
  379.454  105.841    0.213    0.509    6.590
  379.704  105.439    0.209    0.497    6.846
  379.954  101.842    0.196    0.484    7.114
  380.204   97.463    0.173    0.472    7.218
  380.454  100.477    0.148    0.460    7.246
  380.704  104.155    0.148    0.424    7.100
  380.954  108.616    0.173    0.468    6.648
  381.204  111.087    0.200    0.501    6.154
  381.454  111.948    0.200    0.520    5.708
  381.704  112.569    0.204    0.527    5.052
  381.954  113.303    0.213    0.534    4.645
  382.204  112.639    0.208    0.551    4.406
  382.454  112.137    0.194    0.574    4.021
  382.704  109.304    0.200    0.584    3.754
  382.954  107.843    0.211    0.572    3.654
  383.204  106.859    0.220    0.567    3.537
  383.454  105.868    0.231    0.564    3.504
  383.704  104.851    0.236    0.586    3.654
  383.954  103.598    0.240    0.593    3.803
  384.204   99.825    0.249    0.572    4.306
  384.454   97.029    0.261    0.542    4.938
  384.704   94.621    0.274    0.510    5.491
  384.954   93.177    0.265    0.487    6.108
  385.204   92.122    0.266    0.482    6.702
  385.454   91.843    0.258    0.488    7.164
