~VERSION INFORMATION
 VERS.                 2.0:   CWLS LOG ASCII STANDARD -VERSION 2.0
 WRAP.                  NO:   ONE LINE PER DEPTH STEP
~WELL INFORMATION BLOCK
#MNEM.UNIT           DATA                    DESCRIPTION OF MNEMONIC
#---------    -------------------            -------------------------------
# Generated from Intellog Unique Number	CW_70_72/WELL/3305
NULL.         -999.25                        : NULL_VALUE
WELL.         CHEVRON MGSU1 MITSUE           : Well_name    - WELL              
LOC .         08-24-070-04W5                 : Location     - LOCATION          
UWI .         00/08-24-070-04W5/0            : Uwi          - UNIQUE WELL ID    
ENTR.         CAMPBELL                       : Entered      - ENTERED BY        
SRVC.         WESTERN ATLAS                  : Scn          - SERVICE COMPANY   
DATE.         18 DEC. 1983                   : Date         - LOG DATE          
STRT.M        655                            : top_depth    - START DEPTH       
STOP.M        815                            : bot_depth    - STOP DEPTH        
STEP.M        0.25                           : increment    - STEP LENGTH       
~CURVE INFORMATION BLOCK
#MNEM UNIT       ERCB CURVE CODE    CURVE DESCRIPTION
#-----------   ------------------   ----------------------------------
DEPT.M        00 001 00 00         : DEPTH        - DEPTH                       
CALI.MM       00 280 01 00         : CAL          - CALIPER                     
DELT.US/F     00 520 00 00         : DELT         - SONIC TRAVEL TIME           
GR  .API      00 310 00 00         : GR           - GAMMA RAY                   
ILD .OHMM     00 120 00 00         : RESD         - DEEP RESISTIVITY (DIL)      
~PARAMETER INFORMATION       
#MNEM.UNIT           DATA             DESCRIPTION OF MNEMONIC
#---------         -----------     ------------------------------
GL  .M        132                  : gl           - GROUND LEVEL ELEVATION      
EREF.M        138.15               : kb           - ELEVATION OF DEPTH REFERENCE
DATM.M        138.15               : datum        - DATUM ELEVATION             
TDD .M        1852.3               : tdd          - TOTAL DEPTH DRILLER         
RUN .         ONE                  : Run          - RUN NUMBER                  
ENG .         ILAMBORN             : Engineer     - RECORDING ENGINEER          
WIT .         HALAB                : Witness      - WITNESSED BY                
MUD .         GEL                  : Mud_type     - MUD TYPE                    
MATR.         SANDSTONE            : Logunit      - NEUTRON MATRIX              
TMAX.C        40                   : BHT          - MAXIMUM RECORDED TEMPERATURE
BHTD.M        1852.3               : BHTDEP       - MAXIMUM RECORDED TEMPERATURE
RMT .C        15                   : MDTP         - TEMPERATURE OF MUD          
MUDD.KG/M     1125                 : MWT          - MUD DENSITY                 
NEUT.         1                    : NEUTRON      - NEUTRON TYPE                
RESI.         0                    : RESIST       - RESISTIVITY TYPE            
RM  .OHMM     0.9                  : RM           - RESISTIVITY OF MUD          
RMC .OHMM     1.3                  : RMC          - RESISTIVITY OF MUD CAKE     
RMF .OHMM     0.75                 : RMF          - RESISTIVITY OF MUD FILTRATE 
SUFT.C        -4                   : SUFT         - SURFACE TEMPERATURE         
~A  DEPTH      CAL     DELT       GR     RESD
# ...
  698.500    0.000    0.000    0.000    0.000
  698.750    0.000    0.000    0.000    0.000
  699.000    0.000    0.000    0.000    0.000
  699.250    0.000    0.000    0.000    0.000
  699.500    0.000    0.000    0.000    0.000
  699.750    0.000    0.000    0.000    0.000
  700.000    0.000    0.000    0.000    0.000
  700.250    0.000    0.000    0.000    0.000
  700.500    0.000    0.000    0.000    0.000
  700.750    0.000    0.000    0.000    0.000
  701.000    0.000    0.000    0.000    0.000
  701.250    0.000    0.000    0.000    0.000
  701.500    0.000    0.000    0.000    0.000
  701.750    0.000    0.000    0.000    0.000
  702.000    0.000    0.000    0.000    0.000
  702.250    0.000    0.000    0.000    0.000
  702.500    0.000    0.000    0.000    0.000
  702.750    0.000    0.000    0.000    0.000
  703.000    0.000    0.000    0.000    0.000
  703.250    0.000    0.000    0.000    0.000
  703.500    0.000    0.000    0.000    0.000
  703.750    0.000    0.000    0.000    0.000
  704.000    0.000    0.000    0.000    0.000
  704.250    0.000    0.000    0.000    0.000
  704.500    0.000    0.000    0.000    0.000
  704.750    0.000    0.000    0.000    0.000
  705.000    0.000    0.000    0.000    0.000
  705.250    0.000    0.000    0.000    0.000
  705.500    0.000    0.000    0.000    0.000
  705.750    0.000    0.000    0.000    0.000
  706.000    0.000    0.000    0.000    0.000
  706.250    0.000    0.000    0.000    0.000
  706.500    0.000    0.000    0.000    0.000
  706.750    0.000    0.000    0.000    0.000
  707.000    0.000    0.000    0.000    0.000
  707.250    0.000    0.000    0.000    0.000
  707.500    0.000    0.000    0.000    0.000
  707.750    0.000    0.000    0.000    0.000
  708.000    0.000    0.000    0.000    0.000
  708.250    0.000    0.000    0.000    0.000
  708.500    0.000    0.000    0.000    0.000
  708.750    0.000    0.000    0.000    0.000
  709.000    0.000    0.000    0.000    0.000
  709.250    0.000    0.000    0.000    0.000
  709.500    0.000    0.000    0.000    0.000
  709.750    0.000    0.000    0.000    0.000
  710.000    0.000    0.000    0.000    0.000
  710.250    0.000    0.000    0.000    0.000
  710.500    0.000    0.000    0.000    0.000
  710.750    0.000    0.000    0.000    0.000
  711.000    0.000    0.000    0.000    0.000
  711.250    0.000    0.000    0.000    0.000
  711.500    0.000    0.000    0.000    0.000
  711.750    0.000    0.000    0.000    0.000
  712.000    0.000    0.000    0.000    0.000
  712.250    0.000    0.000    0.000    0.000
  712.500    0.000    0.000    0.000    0.000
  712.750    0.000    0.000    0.000    0.000
  713.000    0.000    0.000    0.000    0.000
  713.250    0.000    0.000    0.000    0.000
  713.500    0.000    0.000    0.000    0.000
  713.750    0.000    0.000    0.000    0.000
  714.000    0.000    0.000    0.000    0.000
  714.250    0.000    0.000    0.000    0.000
  714.500    0.000    0.000    0.000    0.000
  714.750    0.000    0.000    0.000    0.000
  715.000    0.000    0.000    0.000    0.000
  715.250    0.000    0.000    0.000    0.000
  715.500    0.000    0.000    0.000    0.000
  715.750    0.000    0.000    0.000    0.000
  716.000    0.000    0.000    0.000    0.000
  716.250    0.000    0.000    0.000    0.000
  716.500    0.000    0.000    0.000    0.000
  716.750    0.000    0.000    0.000    0.000
  717.000    0.000    0.000    0.000    0.000
  717.250    0.000    0.000    0.000    0.000
  717.500    0.000    0.000    0.000    0.000
  717.750    0.000    0.000    0.000    0.000
  718.000    0.000    0.000    0.000    0.000
  718.250    0.000    0.000    0.000    0.000
  718.500    0.000    0.000    0.000    0.000
  718.750    0.000    0.000    0.000    0.000
  719.000    0.000    0.000    0.000    0.000
  719.250    0.000    0.000    0.000    0.000
  719.500    0.000    0.000    0.000    0.000
  719.750    0.000    0.000    0.000    0.000
  720.000    0.000    0.000    0.000    0.000
  720.250    0.000    0.000    0.000    0.000
  720.500    0.000    0.000    0.000    0.000
  720.750    0.000    0.000    0.000    0.000
  721.000    0.000    0.000    0.000    0.000
  721.250    0.000    0.000    0.000    0.000
  721.500    0.000    0.000    0.000    0.000
  721.750    0.000    0.000    0.000    0.000
  722.000    0.000    0.000    0.000    0.000
  722.250    0.000    0.000    0.000    0.000
  722.500    0.000    0.000    0.000    0.000
  722.750    0.000    0.000    0.000    0.000
  723.000    0.000    0.000    0.000    0.000
  723.250    0.000    0.000    0.000    0.000
  723.500    0.000    0.000    0.000    0.000
  723.750    0.000    0.000    0.000    0.000
  724.000    0.000    0.000    0.000    0.000
  724.250    0.000    0.000    0.000    0.000
  724.500    0.000    0.000    0.000    0.000
  724.750    0.000    0.000    0.000    0.000
  725.000    0.000    0.000    0.000    0.000
  725.250    0.000    0.000    0.000    0.000
  725.500    0.000    0.000    0.000    0.000
  725.750    0.000    0.000    0.000    0.000
  726.000    0.000    0.000    0.000    0.000
  726.250    0.000    0.000    0.000    0.000
  726.500    0.000    0.000    0.000    0.000
  726.750    0.000    0.000    0.000    0.000
  727.000    0.000    0.000    0.000    0.000
  727.250    0.000    0.000    0.000    0.000
  727.500    0.000    0.000    0.000    0.000
  727.750    0.000    0.000    0.000    0.000
  728.000    0.000    0.000    0.000    0.000
  728.250    0.000    0.000    0.000    0.000
  728.500    0.000    0.000    0.000    0.000
  728.750    0.000    0.000    0.000    0.000
  729.000    0.000    0.000    0.000    0.000
  729.250    0.000    0.000    0.000    0.000
  729.500    0.000    0.000    0.000    0.000
  729.750    0.000    0.000    0.000    0.000
  730.000    0.000    0.000    0.000    0.000
  730.250    0.000    0.000    0.000    0.000
  730.500    0.000    0.000    0.000    0.000
  730.750    0.000    0.000    0.000    0.000
  731.000    0.000    0.000    0.000    0.000
  731.250    0.000    0.000    0.000    0.000
  731.500    0.000    0.000    0.000    0.000
  731.750    0.000    0.000    0.000    0.000
  732.000    0.000    0.000    0.000    0.000
  732.250    0.000    0.000    0.000    0.000
  732.500    0.000    0.000    0.000    0.000
  732.750    0.000    0.000    0.000    0.000
  733.000    0.000    0.000    0.000    0.000
  733.250    0.000    0.000    0.000    0.000
  733.500    0.000    0.000    0.000    0.000
  733.750    0.000    0.000    0.000    0.000
  734.000    0.000    0.000    0.000    0.000
  734.250    0.000    0.000    0.000    0.000
  734.500    0.000    0.000    0.000    0.000
  734.750    0.000    0.000    0.000    0.000
  735.000    0.000    0.000    0.000    0.000
  735.250    0.000    0.000    0.000    0.000
  735.500    0.000    0.000    0.000    0.000
  735.750    0.000    0.000    0.000    0.000
  736.000    0.000    0.000    0.000    0.000
  736.250    0.000    0.000    0.000    0.000
  736.500    0.000    0.000    0.000    0.000
  736.750    0.000    0.000    0.000    0.000
  737.000    0.000    0.000    0.000    0.000
  737.250    0.000    0.000    0.000    0.000
  737.500    0.000    0.000    0.000    0.000
  737.750    0.000    0.000    0.000    0.000
  738.000    0.000    0.000    0.000    0.000
  738.250    0.000    0.000    0.000    0.000
  738.500    0.000    0.000    0.000    0.000
  738.750    0.000    0.000    0.000    0.000
  739.000    0.000    0.000    0.000    0.000
  739.250    0.000    0.000    0.000    0.000
  739.500    0.000    0.000    0.000    0.000
  739.750    0.000    0.000    0.000    0.000
  740.000    0.000    0.000    0.000    0.000
  740.250    0.000    0.000    0.000    0.000
  740.500    0.000    0.000    0.000    0.000
  740.750    0.000    0.000    0.000    0.000
  741.000    0.000    0.000    0.000    0.000
  741.250    0.000    0.000    0.000    0.000
  741.500    0.000    0.000    0.000    0.000
  741.750    0.000    0.000    0.000    0.000
