~VERSION INFORMATION
 VERS.                 2.0:   CWLS LOG ASCII STANDARD -VERSION 2.0
 WRAP.                  NO:   ONE LINE PER DEPTH STEP
~WELL INFORMATION BLOCK
#MNEM.UNIT           DATA                    DESCRIPTION OF MNEMONIC
#---------    -------------------            -------------------------------
# Generated from Intellog Unique Number	CS_69_70/WELL/774
WELL.         ET AL HEART LAKE               : Well_name    - WELL
LOC .         00/06-23-069-11W4/0            : Location     - LOCATION
UWI .         00/06-23-069-11W4/0            : Uwi          - UNIQUE WELL ID
ENTR.         SP                             : Entered      - ENTERED BY
SRVC.         SCHLUMBERGER                   : Scn          - SERVICE COMPANY
STRT.M        310                            : top_depth    - START DEPTH
STOP.M        505                            : bot_depth    - STOP DEPTH
STEP.M        0.25                           : increment    - STEP LENGTH
 NULL. -999.2500:NULL Value
~CURVE INFORMATION BLOCK
#MNEM UNIT       ERCB CURVE CODE    CURVE DESCRIPTION
#-----------   ------------------   ----------------------------------
DEPT.M        00 001 00 00         : DEPTH        - DEPTH
ILD .OHMM     00 120 00 00         : RESD         - DEEP RESISTIVITY (DIL)
DPHI.V/V      00 890 00 00         : PHID         - DENSITY POROSITY (LIMESTONE)
NPHI.V/V      00 330 00 00         : PHIN         - NEUTRON POROSITY (LIMESTONE)
GR  .API      00 310 00 00         : GR           - GAMMA RAY
~PARAMETER INFORMATION
#MNEM.UNIT           DATA             DESCRIPTION OF MNEMONIC
#---------         -----------     ------------------------------
GL  .M        634.4                : gl           - GROUND LEVEL ELEVATION
EREF.M        638.8                : kb           - ELEVATION OF DEPTH REFERENCE
DATM.M        634.4                : datum        - DATUM ELEVATION
TDD .M        507                  : tdd          - TOTAL DEPTH DRILLER
RUN .         ONE                  : Run          - RUN NUMBER
ENG .         BILL                 : Engineer     - RECORDING ENGINEER
WIT .         JIM                  : Witness      - WITNESSED BY
MUD .         GEL                  : Mud_type     - MUD TYPE
MATR.         LIMESTONE            : Logunit      - NEUTRON MATRIX
TMAX.C        20                   : BHT          - MAXIMUM RECORDED TEMPERATURE
BHTD.M        507                  : BHTDEP       - MAXIMUM RECORDED TEMPERATURE
MATR.         1                    : LOGUNIT      - NEUTRON MATRIX
RMT .C        25                   : MDTP         - TEMPERATURE OF MUD
NEUT.         1                    : NEUTRON      - NEUTRON TYPE
RESI.         0                    : RESIST       - RESISTIVITY TYPE
RMC .OHMM     0.25                 : RMC          - RESISTIVITY OF MUD CAKE
RMF .OHMM     0.25                 : RMF          - RESISTIVITY OF MUD FILTRATE
SUFT.C        15                   : SUFT         - SURFACE TEMPERATURE
~A  DEPTH     RESD     PHID     PHIN       GR
# ...
  397.000    7.187    0.298    0.463   63.181
  397.250    7.575    0.294    0.452   60.490
  397.500    7.747    0.292    0.438   59.574
  397.750    7.953    0.301    0.427   59.574
  398.000    8.104    0.308    0.442   62.451
  398.250    8.103    0.313    0.454   61.962
  398.500    8.057    0.314    0.464   61.902
  398.750    8.056    0.322    0.441   63.004
  399.000    7.965    0.330    0.426   63.862
  399.250    7.860    0.330    0.414   64.413
  399.500    7.801    0.329    0.433   64.047
  399.750    7.727    0.326    0.450   62.825
  400.000    7.683    0.329    0.460   59.889
  400.250    7.668    0.328    0.450   58.239
  400.500    7.667    0.316    0.434   59.280
  400.750    7.724    0.309    0.419   60.749
  401.000    8.630    0.315    0.422   62.952
  401.250   10.377    0.319    0.442   65.033
  401.500   12.383    0.088    0.459   61.303
  401.750   14.071    0.053    0.314   57.388
  402.000   15.227    0.028    0.268   54.881
  402.250   15.989    0.014    0.210   55.922
  402.500   15.138    0.205    0.294   57.759
  402.750   12.308    0.248    0.357   60.451
  403.000   10.215    0.277    0.387   63.205
  403.250    9.176    0.295    0.416   63.940
  403.500    8.320    0.308    0.442   60.883
  403.750    7.516    0.296    0.441   58.742
  404.000    7.197    0.247    0.430   57.214
  404.250    6.776    0.215    0.402   56.053
  404.500    6.489    0.223    0.346   58.929
  404.750    6.260    0.274    0.385   66.149
  405.000    6.063    0.294    0.409   73.797
  405.250    5.882    0.298    0.438   78.141
  405.500    5.849    0.308    0.453   77.530
  405.750    5.848    0.317    0.482   74.289
  406.000    5.859    0.298    0.475   72.210
  406.250    5.847    0.282    0.470   73.985
  406.500    5.836    0.302    0.485   73.130
  406.750    5.824    0.294    0.471   71.846
  407.000    5.780    0.283    0.459   74.906
  407.250    5.726    0.273    0.456   77.415
  407.500    5.672    0.257    0.438   79.435
  407.750    5.629    0.236    0.429   80.537
  408.000    5.575    0.239    0.455   81.211
  408.250    5.544    0.251    0.460   81.885
  408.500    5.543    0.237    0.449   80.662
  408.750    5.522    0.219    0.445   83.416
  409.000    5.542    0.207    0.449   85.253
  409.250    5.521    0.202    0.455   86.905
  409.500    5.541    0.213    0.463   85.377
  409.750    5.541    0.223    0.466   82.503
  410.000    5.603    0.234    0.459   80.424
  410.250    5.709    0.240    0.465   80.608
  410.500    5.806    0.229    0.479   82.077
  410.750    5.927    0.223    0.489   83.241
  411.000    6.016    0.237    0.477   81.162
  411.250    6.084    0.252    0.469   81.408
  411.500    6.107    0.268    0.483   82.816
  411.750    6.129    0.272    0.490   83.428
  412.000    6.163    0.279    0.494   81.961
  412.250    6.151    0.291    0.501   79.148
  412.500    6.081    0.300    0.483   77.314
  412.750    5.979    0.301    0.445   76.459
  413.000    5.503    0.290    0.432   76.398
  413.250    5.300    0.264    0.452   79.397
  413.500    5.191    0.247    0.471   84.659
  413.750    5.181    0.240    0.483   88.331
  414.000    5.180    0.235    0.485   90.595
  414.250    5.209    0.231    0.486   91.391
  414.500    5.258    0.224    0.478   91.392
  414.750    5.287    0.222    0.476   91.393
  415.000    5.347    0.225    0.482   91.578
  415.250    5.397    0.218    0.491   91.457
  415.500    5.427    0.214    0.485   90.540
  415.750    5.498    0.212    0.476   87.727
  416.000    5.529    0.204    0.472   87.606
  416.250    5.498    0.195    0.472   88.218
  416.500    5.405    0.206    0.481   91.033
  416.750    5.175    0.225    0.473   93.359
  417.000    4.675    0.240    0.461   88.344
  417.250    3.837    0.247    0.451   83.389
  417.500    3.038    0.250    0.443   86.816
  417.750    2.415    0.247    0.442   90.182
  418.000    2.133    0.246    0.566   92.630
  418.250    2.054    0.263    0.581   92.142
  418.500    2.097    0.280    0.569   90.307
  418.750    2.210    0.260    0.592   91.104
  419.000    2.464    0.244    0.609   92.940
  419.250    2.687    0.232    0.566   95.449
  419.500    3.059    0.216    0.529   93.982
  419.750    3.386    0.196    0.509   88.049
  420.000    3.727    0.238    0.519   83.278
  420.250    4.094    0.247    0.500   80.098
  420.500    4.339    0.255    0.485   79.916
  420.750    4.497    0.266    0.473   82.670
  421.000    4.608    0.265    0.477   85.240
  421.250    4.625    0.249    0.486   86.954
  421.500    4.624    0.234    0.481   87.322
  421.750    4.641    0.251    0.467   79.309
  422.000    4.650    0.272    0.456   74.539
  422.250    4.623    0.287    0.466   71.420
  422.500    4.520    0.278    0.485   74.174
  422.750    4.410    0.272    0.505   77.233
  423.000    4.287    0.267    0.497   74.665
  423.250    4.160    0.276    0.469   71.485
  423.500    4.097    0.283    0.450   70.813
  423.750    4.222    0.291    0.449   68.122
  424.000    4.375    0.307    0.448   65.921
  424.250    4.525    0.318    0.443   70.572
  424.500    4.620    0.302    0.436   73.264
  424.750    4.645    0.294    0.435   73.082
  425.000    4.628    0.284    0.453   70.575
  425.250    4.515    0.282    0.465   69.046
  425.500    4.365    0.290    0.453   65.927
  425.750    4.219    0.294    0.433   62.564
  426.000    4.055    0.293    0.444   64.400
  426.250    3.964    0.302    0.461   64.890
  426.500    3.905    0.304    0.457   64.708
  426.750    3.927    0.294    0.449   67.951
  427.000    4.077    0.279    0.464   70.521
  427.250    4.370    0.276    0.481   72.602
  427.500    4.747    0.287    0.462   68.749
  427.750    5.254    0.287    0.437   64.713
  428.000    6.107    0.157    0.463   68.017
  428.250    7.610    0.061    0.489   60.677
  428.500    8.632    0.032    0.213   50.095
  428.750    9.340    0.036    0.200   44.040
  429.000    9.080    0.082    0.268   51.627
  429.250    7.203    0.142    0.336   62.211
  429.500    6.047    0.176    0.388   73.284
  429.750    4.655    0.207    0.427   79.709
  430.000    4.261    0.230    0.458   80.566
  430.250    3.989    0.247    0.485   77.998
  430.500    3.813    0.249    0.506   78.427
  430.750    3.777    0.237    0.488   80.141
  431.000    3.892    0.227    0.468   81.733
  431.250    3.988    0.217    0.454   81.306
  431.500    4.033    0.210    0.450   80.695
  431.750    4.063    0.209    0.456   80.696
  432.000    4.109    0.210    0.459   81.370
  432.250    4.234    0.210    0.459   82.839
  432.500    4.346    0.222    0.439   80.026
  432.750    4.371    0.224    0.416   75.684
  433.000    4.436    0.217    0.403   72.687
  433.250    4.419    0.215    0.428   75.441
  433.500    4.224    0.220    0.443   78.195
  433.750    4.091    0.222    0.454   79.419
  434.000    3.991    0.231    0.468   77.891
  434.250    3.909    0.240    0.492   75.873
  434.500    3.902    0.240    0.484   76.853
  434.750    3.983    0.234    0.469   78.322
  435.000    4.112    0.231    0.454   79.669
  435.250    4.158    0.230    0.445   80.649
  435.500    4.166    0.237    0.457   81.445
  435.750    4.142    0.243    0.474   82.058
  436.000    4.111    0.237    0.484   82.671
  436.250    4.110    0.232    0.497   81.326
  436.500    4.118    0.235    0.483   79.920
  436.750    4.141    0.227    0.468   82.552
  437.000    4.172    0.219    0.458   86.039
  437.250    4.203    0.214    0.469   88.915
  437.500    4.258    0.211    0.477   91.119
  437.750    4.330    0.219    0.468   87.694
  438.000    4.387    0.227    0.459   86.288
  438.250    4.429    0.234    0.451   85.739
  438.500    4.420    0.229    0.457   87.391
  438.750    4.313    0.219    0.474   89.839
  439.000    4.083    0.212    0.488   90.330
  439.250    3.689    0.206    0.470   89.475
  439.500    3.389    0.210    0.478   90.026
  439.750    3.096    0.225    0.502   91.740
  440.000    2.915    0.238    0.521   93.392
  440.250    2.860    0.253    0.538   95.963
