~VERSION INFORMATION
 VERS.                 2.0:   CWLS LOG ASCII STANDARD -VERSION 2.0
 WRAP.                  NO:   ONE LINE PER DEPTH STEP
~WELL INFORMATION BLOCK
#MNEM.UNIT           DATA                    DESCRIPTION OF MNEMONIC
#---------    -------------------            -------------------------------
# Generated from Intellog Unique Number	CW_82_90/WELL/642
WELL.         08-09-082-21W4                 : Well_name    - WELL
LOC .         00/08-09-082-21W4/0            : Location     - LOCATION
UWI .         00/08-09-082-21W4/0            : Uwi          - UNIQUE WELL ID
ENTR.         JAYE                           : Entered      - ENTERED BY
SRVC.         SCHLUMBERGER                   : Scn          - SERVICE COMPANY
DATE.         01 FEB 1974                    : Date         - LOG DATE
STRT.M        234.696                        : top_depth    - START DEPTH
STOP.M        444.946                        : bot_depth    - STOP DEPTH
STEP.M        0.25                           : increment    - STEP LENGTH
 NULL. -999.2500:NULL Value
~CURVE INFORMATION BLOCK
#MNEM UNIT       ERCB CURVE CODE    CURVE DESCRIPTION
#-----------   ------------------   ----------------------------------
DEPT.M        00 001 00 00         : DEPTH        - DEPTH
CALI.MM       00 280 01 00         : CAL          - CALIPER
GR  .API      00 310 00 00         : GR           - GAMMA RAY
DPHI.V/V      00 890 00 00         : PHID         - DENSITY POROSITY (SANDSTONE)
NPHI.V/V      00 330 00 00         : PHIN         - NEUTRON POROSITY (SANDSTONE)
ILD .OHMM     00 120 00 00         : RESD         - DEEP RESISTIVITY (DLL)
~PARAMETER INFORMATION
#MNEM.UNIT           DATA             DESCRIPTION OF MNEMONIC
#---------         -----------     ------------------------------
GL  .M        631.241              : gl           - GROUND LEVEL ELEVATION
EREF.M        627.583              : kb           - ELEVATION OF DEPTH REFERENCE
DATM.M        631.241              : datum        - DATUM ELEVATION
TDD .M        458.724              : tdd          - TOTAL DEPTH DRILLER
RUN .         ONE                  : Run          - RUN NUMBER
ENG .         STRUYK               : Engineer     - RECORDING ENGINEER
BASE.         EDMONTON             : Branch       - HOME BASE OF LOGGING UNIT
MUD .         GEL CHEM             : Mud_type     - MUD TYPE
MATR.         SANDSTONE            : Logunit      - NEUTRON MATRIX
TMAX.C        11.6667              : BHT          - MAXIMUM RECORDED TEMPERATURE
BHTD.M        458.724              : BHTDEP       - MAXIMUM RECORDED TEMPERATURE
RMT .C        11.6667              : MDTP         - TEMPERATURE OF MUD
MUDD.KG/M     8900                 : MWT          - MUD DENSITY
NEUT.         0                    : NEUTRON      - NEUTRON TYPE
RESI.         1                    : RESIST       - RESISTIVITY TYPE
RM  .OHMM     4.2                  : RM           - RESISTIVITY OF MUD
RMC .OHMM     3.9                  : RMC          - RESISTIVITY OF MUD CAKE
RMF .OHMM     0.25                 : RMF          - RESISTIVITY OF MUD FILTRATE
SUFT.C        4                    : SUFT         - SURFACE TEMPERATURE
~A  DEPTH      CAL       GR     PHID     PHIN     RESD
# ...
  344.196  161.301   76.737    0.266    0.555    7.972
  344.446  161.184   78.676    0.266    0.545    8.191
  344.696  163.325   78.906    0.256    0.553    8.355
  344.946  165.054   77.433    0.257    0.552    8.096
  345.196  165.242   76.144    0.254    0.550    7.875
  345.446  164.501   77.471    0.247    0.549    7.603
  345.696  165.922   80.868    0.247    0.546    7.234
  345.946  167.035   84.267    0.236    0.548    6.770
  346.196  167.940   86.142    0.219    0.545    6.633
  346.446  166.994   86.984    0.212    0.534    6.631
  346.696  165.840   86.606    0.216    0.530    6.715
  346.946  166.336   85.316    0.236    0.531    6.950
  347.196  168.274   82.137    0.231    0.537    7.128
  347.446  169.795   80.602    0.230    0.552    7.218
  347.696  169.776   80.345    0.228    0.553    7.349
  347.946  169.448   80.576    0.217    0.532    7.481
  348.196  169.734   80.932    0.203    0.533    7.507
  348.446  170.439   81.832    0.198    0.505    7.504
  348.696  171.037   82.309    0.223    0.512    7.626
  348.946  171.325   83.758    0.226    0.526    7.652
  349.196  171.406   85.147    0.227    0.547    7.524
  349.446  171.592   86.110    0.215    0.539    7.159
  349.696  171.986   87.009    0.217    0.543    7.014
  349.946  172.169   87.303    0.223    0.558    7.115
  350.196  171.840   85.464    0.238    0.542    7.257
  350.446  171.718   82.775    0.240    0.555    7.322
  350.696  170.977   79.778    0.237    0.556    7.564
  350.946  170.029   78.487    0.236    0.530    7.660
  351.196  168.979   78.597    0.234    0.487    8.672
  351.446  167.208   77.549    0.225    0.475    8.894
  351.696  165.231   79.790    0.216    0.470    8.989
  351.946  163.563   82.215    0.225    0.487    8.986
  352.196  161.997   85.309    0.234    0.506    8.885
  352.446  161.151   86.150    0.220    0.516    8.408
  352.696  161.959   84.311    0.226    0.471    8.148
  352.946  163.070   82.776    0.220    0.469    8.652
  353.196  164.493   81.486    0.208    0.480   12.223
  353.446  165.500   73.800    0.191    0.452   17.556
  353.696  165.580   60.451    0.141    0.438   18.304
  353.946  165.976   57.393    0.068    0.222   20.347
  354.196  167.086   64.262    0.041    0.221   19.184
  354.446  167.585   67.906    0.086    0.255   17.058
  354.696  168.079   72.826    0.123    0.354   14.569
  354.946  168.469   77.382    0.184    0.460   13.146
  355.196  168.346   77.247    0.191    0.469   11.970
  355.446  167.194   78.027    0.194    0.465   11.728
  355.696  166.554   79.721    0.208    0.434   11.180
  355.946  166.225   82.632    0.193    0.410   10.755
  356.196  167.132   82.743    0.181    0.437   10.403
  356.446  168.966   84.008    0.188    0.464   10.062
  356.696  168.017   85.642    0.189    0.462    9.858
  356.946  167.589   89.407    0.220    0.478    9.712
  357.196  167.155   96.581    0.219    0.505    9.656
  357.446  166.722   99.249    0.216    0.533    9.741
  357.696  166.703   94.060    0.216    0.550    9.632
  357.946  166.165   85.218    0.208    0.534    9.385
  358.196  166.664   86.544    0.209    0.514    9.417
  358.446  167.256   89.882    0.216    0.506    9.500
  358.696  167.034   89.810    0.208    0.465   10.237
  358.946  166.703   90.588    0.199    0.429   10.442
  359.196  165.655   89.421    0.193    0.428   10.418
  359.446  164.398   86.789    0.208    0.453   10.359
  359.696  163.761   87.322    0.215    0.490   10.280
  359.946  162.607   88.105    0.222    0.511   10.182
  360.196  162.279   92.295    0.224    0.524   10.161
  360.446  162.152   93.137    0.221    0.527   10.083
  360.696  162.033   90.385    0.224    0.536    9.843
  360.946  161.392   87.021    0.219    0.544    9.556
  361.196  162.095   85.853    0.208    0.533    9.346
  361.446  163.001   85.170    0.204    0.511    9.190
  361.696  165.347   84.368    0.214    0.515    9.271
  361.946  165.124   82.040    0.210    0.525    9.422
  362.196  163.352   80.751    0.203    0.519    9.540
  362.446  162.098   78.972    0.195    0.481    9.731
  362.696  161.148   77.559    0.196    0.461    9.818
  362.946  160.612   78.520    0.211    0.455    9.778
  363.196  160.076   79.120    0.212    0.461    9.740
  363.446  159.750   78.255    0.219    0.490    9.525
  363.696  162.614   79.765    0.217    0.493    9.163
  363.946  164.447   82.067    0.220    0.490    8.798
  364.196  166.591   82.723    0.224    0.506    8.356
  364.446  167.806   82.714    0.229    0.505    7.778
  364.696  169.639   86.416    0.226    0.493    7.414
  364.946  171.367   84.029    0.219    0.501    7.277
  365.196  172.586   81.460    0.202    0.514    7.519
  365.446  171.949   77.490    0.192    0.516    7.911
  365.696  164.819   74.736    0.195    0.505    8.416
  365.946  162.427   74.785    0.214    0.498    8.743
  366.196  161.278   74.164    0.210    0.507    9.133
  366.446  160.537   71.474    0.211    0.507    9.575
  366.696  161.749   65.919    0.220    0.478   10.547
  366.946  162.553   61.035    0.208    0.437   11.853
  367.196  162.948   55.664    0.174    0.347   13.592
  367.446  162.720   51.450    0.125    0.268   17.913
  367.696  163.836   51.012    0.058    0.209   23.650
  367.946  164.330   56.602    0.030    0.198   34.279
  368.196  163.487   61.827    0.020    0.208   36.669
  368.446  161.611   68.027    0.029    0.225   35.469
  368.696  160.869   69.296    0.064    0.282   23.234
  368.946  161.051   69.343    0.101    0.338   17.426
  369.196  161.036   71.036    0.169    0.388   14.748
  369.446  160.811   73.036    0.161    0.404   12.619
  369.696  159.859   74.484    0.172    0.457   11.242
  369.946  159.016   75.873    0.163    0.494   10.368
  370.196  158.892   77.139    0.192    0.513    9.811
  370.446  158.462   77.981    0.214    0.508    9.879
  370.696  157.713   79.005    0.207    0.494    9.986
  370.946  157.179   79.906    0.206    0.509   10.241
  371.196  156.961   79.834    0.241    0.508   10.484
  371.446  158.279   79.638    0.242    0.490   10.675
  371.696  159.289   79.871    0.235    0.503   10.888
  371.946  159.681   81.076    0.226    0.510   11.025
  372.196  160.793   80.455    0.228    0.512   11.163
  372.446  161.701   79.590    0.233    0.512   11.242
  372.696  161.885   81.589    0.223    0.498   11.300
  372.946  161.861   82.913    0.214    0.479   11.296
  373.196  162.359   83.391    0.235    0.472   11.211
  373.446  162.853   80.823    0.227    0.470   11.124
  373.696  163.037   82.516    0.230    0.463   11.121
  373.946  162.814   83.721    0.224    0.459   11.138
  374.196  161.972   85.353    0.210    0.482   11.154
  374.446  161.125   83.454    0.198    0.506   11.090
  374.696  159.971   84.476    0.200    0.523   11.148
  374.946  157.579   86.411    0.209    0.523   11.205
  375.196  156.945   87.559    0.200    0.522   11.243
  375.446  157.954   91.019    0.213    0.510   11.177
  375.696  161.125   91.430    0.213    0.502   11.132
  375.946  163.887   90.507    0.206    0.489   11.109
  376.196  162.427   89.156    0.201    0.480   11.085
  376.446  163.128   88.718    0.220    0.488   11.101
  376.696  166.507   89.620    0.226    0.513   11.118
  376.946  166.691   89.486    0.207    0.523   11.034
  377.196  166.465   89.169    0.191    0.510   10.950
  377.446  166.239   89.157    0.225    0.495   11.006
  377.696  167.250   89.145    0.229    0.499   11.084
  377.946  169.701   90.046    0.211    0.522   11.121
  378.196  171.021   90.947    0.206    0.531   11.198
  378.446  170.484   91.058    0.195    0.524   11.155
  378.696  169.537   90.679    0.191    0.493   11.110
  378.946  168.486   89.389    0.182    0.472   11.127
  379.196  167.951   89.073    0.178    0.468   11.287
  379.446  167.929   90.096    0.182    0.495   11.513
  379.696  167.909   90.631    0.198    0.521   11.573
  379.946  167.789   89.890    0.209    0.542   11.358
  380.196  167.865   90.791    0.207    0.565   11.048
  380.446  167.644   91.206    0.202    0.553   10.843
