~VERSION INFORMATION
 VERS.                 2.0:   CWLS LOG ASCII STANDARD -VERSION 2.0
 WRAP.                  NO:   ONE LINE PER DEPTH STEP
~WELL INFORMATION BLOCK
#MNEM.UNIT           DATA                    DESCRIPTION OF MNEMONIC
#---------    -------------------            -------------------------------
# Generated from Intellog Unique Number	CS_73_76/WELL/771
WELL.         BOW VALLEY EXPLORATION         : Well_name    - WELL
LOC .         00/07-21-073-16W4/0            : Location     - LOCATION
UWI .         00/07-21-073-16W4/0            : Uwi          - UNIQUE WELL ID
ENTR.         SP                             : Entered      - ENTERED BY
SRVC.         SCHLUMBERGER                   : Scn          - SERVICE COMPANY
STRT.M        235                            : top_depth    - START DEPTH
STOP.M        439.5                          : bot_depth    - STOP DEPTH
STEP.M        0.25                           : increment    - STEP LENGTH
 NULL. -999.2500:NULL Value
~CURVE INFORMATION BLOCK
#MNEM UNIT       ERCB CURVE CODE    CURVE DESCRIPTION
#-----------   ------------------   ----------------------------------
DEPT.M        00 001 00 00         : DEPTH        - DEPTH
ILD .OHMM     00 120 00 00         : RESD         - DEEP RESISTIVITY (DIL)
DPHI.V/V      00 890 00 00         : PHID         - DENSITY POROSITY (LIMESTONE)
NPHI.V/V      00 330 00 00         : PHIN         - NEUTRON POROSITY (LIMESTONE)
GR  .API      00 310 00 00         : GR           - GAMMA RAY
~PARAMETER INFORMATION
#MNEM.UNIT           DATA             DESCRIPTION OF MNEMONIC
#---------         -----------     ------------------------------
GL  .M        570.65               : gl           - GROUND LEVEL ELEVATION
EREF.M        574.2                : kb           - ELEVATION OF DEPTH REFERENCE
DATM.M        570.65               : datum        - DATUM ELEVATION
TDD .M        448                  : tdd          - TOTAL DEPTH DRILLER
RUN .         ONE                  : Run          - RUN NUMBER
ENG .         BILL                 : Engineer     - RECORDING ENGINEER
WIT .         JIM                  : Witness      - WITNESSED BY
MUD .         GEL                  : Mud_type     - MUD TYPE
MATR.         LIMESTONE            : Logunit      - NEUTRON MATRIX
TMAX.C        21                   : BHT          - MAXIMUM RECORDED TEMPERATURE
BHTD.M        448                  : BHTDEP       - MAXIMUM RECORDED TEMPERATURE
MATR.         1                    : LOGUNIT      - NEUTRON MATRIX
RMT .C        25                   : MDTP         - TEMPERATURE OF MUD
NEUT.         1                    : NEUTRON      - NEUTRON TYPE
RESI.         0                    : RESIST       - RESISTIVITY TYPE
RMC .OHMM     0.25                 : RMC          - RESISTIVITY OF MUD CAKE
RMF .OHMM     0.25                 : RMF          - RESISTIVITY OF MUD FILTRATE
SUFT.C        15                   : SUFT         - SURFACE TEMPERATURE
~A  DEPTH     RESD     PHID     PHIN       GR
# ...
  365.500    5.215    0.328    0.387   71.905
  365.750    5.312    0.327    0.393   71.911
  366.000    5.312    0.321    0.403   71.317
  366.250    5.411    0.314    0.403   70.119
  366.500    5.513    0.310    0.397   68.921
  366.750    5.512    0.305    0.389   67.723
  367.000    5.616    0.301    0.401   67.735
  367.250    5.829    0.316    0.398   67.741
  367.500    6.164    0.327    0.384   67.143
  367.750    6.280    0.316    0.384   65.945
  368.000    6.641    0.294    0.366   63.542
  368.250    6.765    0.253    0.333   62.947
  368.500    7.022    0.217    0.317   64.763
  368.750    7.022    0.234    0.306   65.975
  369.000    6.764    0.281    0.337   67.188
  369.250    6.515    0.268    0.366   66.591
  369.500    6.276    0.217    0.379   66.601
  369.750    6.045    0.175    0.329   68.413
  370.000    5.715    0.220    0.326   72.035
  370.250    5.609    0.248    0.351   67.827
  370.500    5.505    0.277    0.392   65.424
  370.750    5.402    0.307    0.405   70.251
  371.000    5.302    0.305    0.413   73.270
  371.250    5.302    0.304    0.407   75.084
  371.500    5.301    0.304    0.393   73.886
  371.750    5.301    0.313    0.402   72.087
  372.000    5.300    0.321    0.407   71.495
  372.250    5.300    0.326    0.406   70.900
  372.500    5.299    0.322    0.396   70.907
  372.750    5.299    0.321    0.384   70.912
  373.000    5.298    0.317    0.388   70.317
  373.250    5.298    0.316    0.393   70.325
  373.500    5.297    0.328    0.397   70.330
  373.750    5.297    0.327    0.400   68.530
  374.000    5.296    0.323    0.394   65.527
  374.250    5.198    0.317    0.390   65.533
  374.500    5.197    0.324    0.390   65.540
  374.750    5.101    0.317    0.399   66.152
  375.000    5.100    0.301    0.400   67.966
  375.250    5.100    0.283    0.407   72.190
  375.500    5.005    0.274    0.413   77.016
  375.750    4.912    0.268    0.423   83.651
  376.000    4.821    0.260    0.431   87.272
  376.250    4.820    0.263    0.427   89.086
  376.500    4.731    0.266    0.425   91.507
  376.750    4.730    0.267    0.434   92.717
  377.000    4.730    0.252    0.444   93.928
  377.250    4.819    0.244    0.453   94.538
  377.500    4.818    0.262    0.457   95.753
  377.750    4.818    0.266    0.448   96.360
  378.000    4.817    0.261    0.429   96.970
  378.250    4.908    0.259    0.430   96.977
  378.500    4.907    0.255    0.433   94.576
  378.750    4.907    0.247    0.435   92.775
  379.000    4.999    0.241    0.435   92.784
  379.250    4.998    0.236    0.426   92.790
  379.500    4.998    0.233    0.423   92.193
  379.750    4.997    0.233    0.419   90.394
  380.000    5.091    0.229    0.418   90.402
  380.250    5.091    0.237    0.425   89.208
  380.500    5.090    0.254    0.434   89.214
  380.750    5.090    0.246    0.437   88.616
  381.000    5.089    0.239    0.420   88.625
  381.250    5.089    0.224    0.420   89.237
  381.500    4.994    0.219    0.426   89.843
  381.750    4.994    0.232    0.434   91.659
  382.000    4.810    0.240    0.437   92.870
  382.250    4.721    0.248    0.441   94.686
  382.500    4.633    0.240    0.448   95.293
  382.750    4.547    0.240    0.451   94.698
  383.000    4.632    0.248    0.442   91.094
  383.250    4.719    0.251    0.440   86.883
  383.500    4.898    0.252    0.427   83.276
  383.750    5.278    0.225    0.413   80.872
  384.000    5.903    0.204    0.401   79.072
  384.250    6.602    0.154    0.390   76.068
  384.500    6.982    0.125    0.374   71.257
  384.750    7.955    0.087    0.353   68.853
  385.000    8.257    0.097    0.327   73.680
  385.250    8.896    0.135    0.348   79.110
  385.500    9.234    0.164    0.359   82.128
  385.750    9.408    0.189    0.382   80.932
  386.000    9.584    0.187    0.391   77.928
  386.250    9.763    0.161    0.375   76.126
  386.500    9.762    0.107    0.325   78.546
  386.750    9.762    0.055    0.311   79.756
  387.000    9.761    0.078    0.327   80.365
  387.250    9.402    0.078    0.325   83.389
  387.500    9.227    0.098    0.313   86.409
  387.750    8.889    0.111    0.331   88.826
  388.000    8.248    0.132    0.338   90.638
  388.250    7.512    0.143    0.352   91.849
  388.500    7.373    0.150    0.365   89.446
  388.750    7.102    0.158    0.393   88.851
  389.000    7.101    0.166    0.395   89.460
  389.250    6.969    0.170    0.398   89.474
  389.500    6.969    0.176    0.389   89.481
  389.750    6.839    0.181    0.377   89.488
  390.000    6.838    0.184    0.380   90.095
  390.250    6.967    0.188    0.381   90.703
  390.500    6.966    0.186    0.379   91.915
  390.750    7.097    0.183    0.375   91.321
  391.000    7.366    0.178    0.377   89.521
  391.250    7.790    0.165    0.382   87.117
  391.500    8.085    0.137    0.366   84.112
  391.750    8.237    0.089    0.345   81.107
  392.000    8.236    0.096    0.333   86.535
  392.250    7.934    0.131    0.345   95.582
  392.500    7.501    0.156    0.365   99.804
  392.750    7.362    0.166    0.381   99.212
  393.000    7.225    0.174    0.394   98.613
  393.250    7.090    0.183    0.401   96.816
  393.500    7.223    0.181    0.409   93.812
  393.750    7.223    0.173    0.401   92.011
  394.000    7.358    0.156    0.382   92.016
  394.250    6.828    0.143    0.372   95.638
  394.500    6.827    0.166    0.359   98.659
  394.750    6.827    0.183    0.360   97.460
  395.000    6.955    0.204    0.374   95.660
  395.250    6.954    0.222    0.388   97.474
  395.500    6.954    0.208    0.378  101.102
  395.750    6.824    0.182    0.367  102.915
  396.000    6.824    0.167    0.369  101.714
  396.250    6.823    0.180    0.378   96.301
  396.500    6.696    0.189    0.394   92.693
  396.750    6.572    0.194    0.405   87.881
  397.000    6.450    0.102    0.410   86.081
  397.250    6.213    0.086    0.399   87.895
  397.500    5.659    0.136    0.389   89.106
  397.750    4.965    0.166    0.391   90.925
  398.000    4.438    0.183    0.399   90.929
  398.250    4.275    0.210    0.407   91.540
  398.500    3.751    0.241    0.410   90.943
  398.750    3.112    0.310    0.427   86.735
  399.000    2.834    0.366    0.434   89.754
  399.250    2.730    0.334    0.477   94.584
  399.500    2.534    0.307    0.492   95.792
  399.750    2.441    0.275    0.495   97.004
  400.000    2.351    0.259    0.496   98.219
  400.250    2.351    0.248    0.488   98.827
  400.500    2.440    0.251    0.473  100.040
  400.750    2.629    0.253    0.469   98.843
  401.000    2.780    0.248    0.458   96.441
  401.250    3.109    0.230    0.444   94.639
  401.500    3.610    0.209    0.417   89.229
  401.750    4.113    0.189    0.384   87.427
  402.000    4.601    0.169    0.370   84.422
  402.250    5.442    0.150    0.361   82.019
  402.500    6.437    0.139    0.352   85.640
  402.750    6.807    0.165    0.345   91.672
  403.000    7.198    0.197    0.369   89.269
  403.250    7.612    0.165    0.369   82.049
  403.500    8.202    0.106    0.337   77.236
  403.750    8.674    0.056    0.301   73.025
  404.000    9.003    0.032    0.280   75.442
  404.250    8.835    0.080    0.287   82.680
  404.500    7.898    0.114    0.308   89.917
  404.750    6.553    0.127    0.334   97.153
  405.000    5.336    0.131    0.359  101.375
  405.250    4.770    0.168    0.390  105.601
  405.500    4.344    0.197    0.409  106.812
  405.750    3.884    0.207    0.434  106.217
  406.000    3.537    0.215    0.440  104.416
  406.250    3.407    0.221    0.448  101.415
  406.500    3.471    0.227    0.452   99.012
  406.750    3.671    0.212    0.452   95.405
  407.000    3.882    0.197    0.441   93.000
  407.250    4.341    0.183    0.415   88.790
  407.500    4.591    0.153    0.388   84.581
  407.750    4.855    0.132    0.379   89.411
  408.000    5.533    0.154    0.380   92.428
  408.250    5.961    0.181    0.390   94.846
  408.500    6.187    0.181    0.398   96.056
  408.750    6.303    0.166    0.404   96.064
