~VERSION INFORMATION
 VERS.                 2.0:   CWLS LOG ASCII STANDARD -VERSION 2.0
 WRAP.                  NO:   ONE LINE PER DEPTH STEP
~WELL INFORMATION BLOCK
#MNEM.UNIT           DATA                    DESCRIPTION OF MNEMONIC
#---------    -------------------            -------------------------------
# Generated from Intellog Unique Number	CS_73_76/WELL/2391
WELL.         ALLIED ROXANA MINERALS LT      : Well_name    - WELL
LOC .         00/07-25-075-16W4/0            : Location     - LOCATION
UWI .         00/07-25-075-16W4/0            : Uwi          - UNIQUE WELL ID
ENTR.         SP                             : Entered      - ENTERED BY
SRVC.         SCHLUMBERGER                   : Scn          - SERVICE COMPANY
STRT.M        371.856                        : top_depth    - START DEPTH
STOP.M        581.856                        : bot_depth    - STOP DEPTH
STEP.M        0.25                           : increment    - STEP LENGTH
 NULL. -999.2500:NULL Value
~CURVE INFORMATION BLOCK
#MNEM UNIT       ERCB CURVE CODE    CURVE DESCRIPTION
#-----------   ------------------   ----------------------------------
DEPT.M        00 001 00 00         : DEPTH        - DEPTH
GR  .API      00 310 00 00         : GR           - GAMMA RAY
DPHI.V/V      00 890 00 00         : PHID         - DENSITY POROSITY (SANDSTONE)
NPHI.V/V      00 330 00 00         : PHIN         - NEUTRON POROSITY (SANDSTONE)
ILD .OHMM     00 120 00 00         : RESD         - DEEP RESISTIVITY (DIL)
~PARAMETER INFORMATION
#MNEM.UNIT           DATA             DESCRIPTION OF MNEMONIC
#---------         -----------     ------------------------------
GL  .M        742.493              : gl           - GROUND LEVEL ELEVATION
EREF.M        745.541              : kb           - ELEVATION OF DEPTH REFERENCE
DATM.M        742.493              : datum        - DATUM ELEVATION
TDD .M        600.456              : tdd          - TOTAL DEPTH DRILLER
RUN .         ONE                  : Run          - RUN NUMBER
ENG .         BILL                 : Engineer     - RECORDING ENGINEER
WIT .         JIM                  : Witness      - WITNESSED BY
MUD .         GEL                  : Mud_type     - MUD TYPE
MATR.         SANDSTONE            : Logunit      - NEUTRON MATRIX
TMAX.C        10.5556              : BHT          - MAXIMUM RECORDED TEMPERATURE
BHTD.M        448.056              : BHTDEP       - MAXIMUM RECORDED TEMPERATURE
MATR.         1                    : LOGUNIT      - NEUTRON MATRIX
RMT .C        25                   : MDTP         - TEMPERATURE OF MUD
NEUT.         1                    : NEUTRON      - NEUTRON TYPE
RESI.         0                    : RESIST       - RESISTIVITY TYPE
RMC .OHMM     0.25                 : RMC          - RESISTIVITY OF MUD CAKE
RMF .OHMM     0.25                 : RMF          - RESISTIVITY OF MUD FILTRATE
SUFT.C        15                   : SUFT         - SURFACE TEMPERATURE
~A  DEPTH       GR     PHID     PHIN     RESD
# ...
  545.856  103.901    0.232    0.546    2.097
  546.106  101.687    0.215    0.519    2.233
  546.356   97.272    0.195    0.480    2.411
  546.606   93.874    0.178    0.446    2.891
  546.856   96.658    0.158    0.428    3.275
  547.106   99.015    0.152    0.452    3.658
  547.356   97.843    0.171    0.467    4.259
  547.606   95.134    0.169    0.435    4.863
  547.856   93.213    0.151    0.398    5.459
  548.106   91.402    0.114    0.369    5.900
  548.356   91.938    0.124    0.390    6.334
  548.606   94.079    0.155    0.424    6.611
  548.856   94.971    0.185    0.427    6.496
  549.106   96.591    0.171    0.428    6.234
  549.356   93.921    0.165    0.422    6.077
  549.606   88.564    0.144    0.407    5.988
  549.856   86.326    0.106    0.403    5.998
  550.106   88.279    0.058    0.416    5.999
  550.356   90.260    0.161    0.422    6.010
  550.606   91.171    0.172    0.426    6.142
  550.856   91.135    0.168    0.428    6.429
  551.106   87.279    0.144    0.419    6.936
  551.356   83.930    0.125    0.383    7.668
  551.606   81.673    0.108    0.362    8.324
  551.856   87.151    0.068    0.373    8.886
  552.106   88.111    0.117    0.392    9.301
  552.356   88.112    0.134    0.398    9.519
  552.606   88.106    0.155    0.389    9.423
  552.856   90.071    0.150    0.375    8.914
  553.106   93.878    0.123    0.366    8.539
  553.356   96.318    0.106    0.380    7.935
  553.606   99.435    0.154    0.404    7.443
  553.856  103.865    0.157    0.419    7.026
  554.106  106.530    0.172    0.433    6.482
  554.356  102.004    0.178    0.429    6.311
  554.606   98.568    0.170    0.423    6.233
  554.856   94.955    0.155    0.413    6.289
  555.106   92.666    0.135    0.409    6.428
  555.356   97.181    0.124    0.421    6.472
  555.606  101.342    0.163    0.436    6.319
  555.856  103.211    0.184    0.454    6.034
  556.106  105.360    0.178    0.468    5.611
  556.356  108.608    0.179    0.481    5.181
  556.606  110.343    0.177    0.489    4.841
  556.856  106.813    0.183    0.469    4.798
  557.106  103.759    0.183    0.452    4.861
  557.356  102.993    0.159    0.437    5.238
  557.606   97.434    0.142    0.422    5.821
  557.856   91.107    0.143    0.379    6.558
  558.106   85.408    0.129    0.356    7.385
  558.356   78.385    0.113    0.360    8.123
  558.606   81.010    0.102    0.397    8.526
  558.856   84.978    0.144    0.434    8.699
  559.106   91.855    0.152    0.412    8.800
  559.356   96.408    0.182    0.393    8.593
  559.606   99.199    0.209    0.379    8.393
  559.856  102.790    0.197    0.383    8.287
  560.106  106.434    0.187    0.402    8.514
  560.356  107.899    0.174    0.418    9.048
  560.606  106.198    0.194    0.406    9.402
  560.856  105.234    0.184    0.398    9.843
  561.106  104.006    0.171    0.391   10.083
  561.356  108.814    0.184    0.388   10.014
  561.606  116.911    0.170    0.406    8.999
  561.856  122.951    0.151    0.417    8.392
  562.106  121.240    0.154    0.417    7.996
  562.356  112.813    0.155    0.405    7.897
  562.606  105.324    0.157    0.346    8.228
  562.856  101.258    0.169    0.338    9.124
  563.106   99.481    0.180    0.330   10.983
  563.356   97.440    0.200    0.316   16.595
  563.606   96.181    0.219    0.305   18.885
  563.856   94.352    0.244    0.305   25.927
  564.106   98.701    0.264    0.307   29.066
  564.356  102.508    0.279    0.306   30.413
  564.606  101.538    0.291    0.295   31.092
  564.856   95.316    0.264    0.304   31.034
  565.106   90.281    0.228    0.372   30.066
  565.356   92.090    0.189    0.378   29.139
  565.606   94.507    0.193    0.376   26.950
  565.856   99.089    0.213    0.375   16.624
  566.106  101.039    0.201    0.374   15.239
  566.356   97.118    0.187    0.372   14.111
  566.606   95.790    0.191    0.369   13.520
  566.856   95.784    0.200    0.367   13.218
  567.106   97.302    0.193    0.373   13.351
  567.356   90.045    0.175    0.379   13.758
  567.606   84.304    0.159    0.387   15.431
  567.856   78.799    0.162    0.376   16.023
  568.106   75.568    0.172    0.366   15.475
  568.356   78.664    0.189    0.365   14.678
  568.606   89.458    0.170    0.385   13.491
  568.856   98.947    0.130    0.404   12.504
  569.106  103.684    0.161    0.392   11.744
  569.356   99.436    0.187    0.378   11.159
  569.606  100.052    0.188    0.373   11.236
  569.856  103.592    0.186    0.383   11.430
  570.106  106.137    0.193    0.392   11.263
  570.356  107.453    0.169    0.399   10.396
  570.606  109.463    0.159    0.395    9.867
  570.856  110.880    0.175    0.398    9.569
  571.106  111.924    0.168    0.405    9.386
  571.356  114.211    0.155    0.411    9.247
  571.606  114.533    0.141    0.418    9.250
  571.856  110.228    0.143    0.415    9.263
  572.106  108.852    0.142    0.405    9.404
  572.356  108.138    0.142    0.401    9.446
  572.606  108.130    0.152    0.412    9.586
  572.856  108.728    0.162    0.423    9.643
  573.106  107.825    0.160    0.412    9.774
  573.356  106.850    0.155    0.404    9.807
  573.606  106.670    0.158    0.403    9.672
  573.856  109.311    0.162    0.407    9.615
  574.106  111.202    0.165    0.412    9.562
  574.356  109.079    0.168    0.416    9.481
  574.606  105.726    0.171    0.414    9.504
  574.856  103.350    0.172    0.405    9.642
  575.106  101.706    0.179    0.392    9.774
  575.356  100.732    0.184    0.393    9.921
  575.606  100.299    0.174    0.400   10.115
  575.856  100.084    0.154    0.403   10.244
  576.106   98.319    0.172    0.401   10.374
  576.356   97.963    0.191    0.402   10.505
  576.606   96.081    0.197    0.406   10.866
  576.856   94.055    0.189    0.408   11.799
  577.106   81.241    0.183    0.404   13.538
  577.356   60.684    0.165    0.369   26.652
  577.606   41.332    0.137    0.325   26.390
  577.856   40.444    0.060    0.320   29.954
  578.106   41.459    0.072    0.312   40.445
  578.356   39.117    0.044    0.295   56.526
  578.606   40.714    0.019    0.271   54.396
  578.856   47.459    0.002    0.230   50.364
  579.106   51.262   -0.000    0.242   47.212
  579.356   53.868   -0.000    0.258   42.793
  579.606   53.197   -0.000    0.262   39.401
  579.856   50.945    0.002    0.272   38.162
  580.106   44.048    0.006    0.252   38.821
  580.356   37.002    0.011    0.180   42.910
  580.606   32.603    0.014    0.173   50.078
  580.856   29.920    0.009    0.162   58.453
  581.106   26.432   -0.000    0.152   72.836
  581.356   23.277   -0.000    0.155   92.804
  581.606   21.755   -0.000    0.190  104.094
  581.856   22.696    0.000    0.222  111.721
