~VERSION INFORMATION
 VERS.                 2.0:   CWLS LOG ASCII STANDARD -VERSION 2.0
 WRAP.                  NO:   ONE LINE PER DEPTH STEP
~WELL INFORMATION BLOCK
#MNEM.UNIT           DATA                    DESCRIPTION OF MNEMONIC
#---------    -------------------            -------------------------------
# Generated from Intellog Unique Number	CW_70_72/WELL/3003
NULL.         -999.25                        : NULL_VALUE
WELL.         BRASCAN ET AL MEYER 04-11      : Well_name    - WELL              
LOC .         04-11-070-25W4                 : Location     - LOCATION          
UWI .         00/04-11-070-25W4/0            : Uwi          - UNIQUE WELL ID    
ENTR.         J                              : Entered      - ENTERED BY        
SRVC.         WESTERN ATLAS                  : Scn          - SERVICE COMPANY   
DATE.         27 JULY 80                     : Date         - LOG DATE          
STRT.M        485                            : top_depth    - START DEPTH       
STOP.M        685                            : bot_depth    - STOP DEPTH        
STEP.M        0.25                           : increment    - STEP LENGTH       
~CURVE INFORMATION BLOCK
#MNEM UNIT       ERCB CURVE CODE    CURVE DESCRIPTION
#-----------   ------------------   ----------------------------------
DEPT.M        00 001 00 00         : DEPTH        - DEPTH                       
ILD .OHMM     00 120 00 00         : RESD         - DEEP RESISTIVITY (DIL)      
CALI.MM       00 280 01 00         : CAL          - CALIPER                     
GR  .API      00 310 00 00         : GR           - GAMMA RAY                   
NPHI.V/V      00 330 00 00         : PHIN         - NEUTRON POROSITY (SANDSTONE)
DPHI.V/V      00 890 00 00         : PHID         - DENSITY POROSITY (SANDSTONE)
~PARAMETER INFORMATION       
#MNEM.UNIT           DATA             DESCRIPTION OF MNEMONIC
#---------         -----------     ------------------------------
GL  .M        670.9                : gl           - GROUND LEVEL ELEVATION      
EREF.M        674.46               : kb           - ELEVATION OF DEPTH REFERENCE
DATM.M        670.9                : datum        - DATUM ELEVATION             
TDD .M        726                  : tdd          - TOTAL DEPTH DRILLER         
RUN .         ONE                  : Run          - RUN NUMBER                  
ENG .         WEBER                : Engineer     - RECORDING ENGINEER          
WIT .         GOULD                : Witness      - WITNESSED BY                
MUD .         GEL CHEMX            : Mud_type     - MUD TYPE                    
MATR.         SANDSTONE            : Logunit      - NEUTRON MATRIX              
TMAX.C        35                   : BHT          - MAXIMUM RECORDED TEMPERATURE
BHTD.M        728.1                : BHTDEP       - MAXIMUM RECORDED TEMPERATURE
RMT .C        12                   : MDTP         - TEMPERATURE OF MUD          
MUDD.KG/M     9.5                  : MWT          - MUD DENSITY                 
NEUT.         1                    : NEUTRON      - NEUTRON TYPE                
RESI.         0                    : RESIST       - RESISTIVITY TYPE            
RM  .OHMM     3.9                  : RM           - RESISTIVITY OF MUD          
RMC .OHMM     4.5                  : RMC          - RESISTIVITY OF MUD CAKE     
RMF .OHMM     3.2                  : RMF          - RESISTIVITY OF MUD FILTRATE 
SUFT.C        0                    : SUFT         - SURFACE TEMPERATURE         
~A  DEPTH     RESD      CAL       GR     PHIN     PHID
  485.000    3.480  183.003  107.611    0.478    0.220
  485.250    3.429  182.458  106.298    0.492    0.230
  485.500    3.324  183.039  105.169    0.502    0.241
  485.750    3.209  185.158  100.713    0.507    0.248
  486.000    3.059  186.256  100.571    0.507    0.256
  486.250    2.953  186.521  101.350    0.504    0.255
  486.500    2.905  185.667  100.342    0.497    0.251
  486.750    2.933  183.995  102.232    0.489    0.257
  487.000    3.000  181.494  101.164    0.481    0.265
  487.250    3.162  181.360   99.479    0.466    0.263
  487.500    3.271  181.831   97.365    0.454    0.251
  487.750    3.383  181.805   93.896    0.433    0.239
  488.000    3.506  180.840   89.499    0.423    0.232
  488.250    3.633  179.888   85.843    0.415    0.223
  488.500    3.807  178.723   85.885    0.414    0.223
  488.750    4.111  177.142   85.621    0.414    0.230
  489.000    4.316  175.983   84.245    0.411    0.240
  489.250    4.548  174.199   82.497    0.409    0.247
  489.500    4.864  173.039   80.503    0.401    0.258
  489.750    5.321  171.971   76.852    0.391    0.270
  490.000    5.712  171.115   69.808    0.382    0.281
  490.250    5.953  169.850   70.157    0.368    0.300
  490.500    6.158  169.001   67.671    0.366    0.319
  490.750    6.194  168.556   62.597    0.382    0.327
  491.000    5.871  169.234   61.656    0.394    0.321
  491.250    5.564  170.017   67.669    0.403    0.316
  491.500    5.147  170.088   74.671    0.411    0.313
  491.750    4.842  170.047   78.779    0.417    0.313
  492.000    4.372  169.396   82.576    0.418    0.312
  492.250    4.159  169.568   84.407    0.416    0.314
  492.500    3.994  169.228   85.123    0.411    0.311
  492.750    3.892  168.998   81.777    0.408    0.305
  493.000    3.822  168.861   75.104    0.402    0.295
  493.250    3.788  168.930   69.355    0.398    0.288
  493.500    3.817  169.505   65.206    0.394    0.279
  493.750    3.817  169.880   61.548    0.389    0.272
  494.000    4.032  170.254   59.865    0.384    0.267
  494.250    4.085  170.424   63.848    0.373    0.263
  494.500    4.281  170.189   66.170    0.366    0.255
  494.750    4.744  169.843   67.134    0.363    0.250
  495.000    5.036  169.608   67.915    0.367    0.250
  495.250    5.036  169.572   67.896    0.378    0.249
  495.500    5.036  169.542   69.410    0.389    0.257
  495.750    5.036  169.290   72.654    0.401    0.265
  496.000    4.477  169.166   76.207    0.412    0.263
  496.250    4.291  169.841   77.727    0.419    0.258
  496.500    4.173  169.711   78.448    0.415    0.258
  496.750    4.022  169.775   78.551    0.402    0.259
  497.000    3.920  169.422   78.039    0.395    0.261
  497.250    3.870  169.303   74.506    0.393    0.262
  497.500    3.864  169.149   76.763    0.393    0.263
  497.750    3.895  169.226   77.421    0.397    0.261
  498.000    3.918  169.288   77.646    0.402    0.255
  498.250    4.030  169.260   81.076    0.404    0.247
  498.500    4.053  168.810   84.995    0.409    0.236
  498.750    4.139  168.677   89.162    0.411    0.231
  499.000    4.179  168.752   92.037    0.412    0.228
  499.250    4.172  170.146   92.388    0.412    0.231
  499.500    4.172  172.273   91.134    0.408    0.234
  499.750    4.114  173.988   88.959    0.403    0.237
  500.000    4.099  175.799   88.877    0.400    0.239
  500.250    4.100  175.561   90.826    0.398    0.239
  500.500    4.117  172.958   90.928    0.397    0.237
  500.750    4.211  170.563   89.675    0.397    0.239
  501.000    4.422  168.469   90.148    0.398    0.234
  501.250    4.473  167.616   92.898    0.398    0.225
  501.500    4.550  167.269   95.279    0.399    0.223
  501.750    4.534  167.653   95.815    0.398    0.231
  502.000    4.273  168.339   95.794    0.396    0.243
  502.250    4.005  170.357   94.234    0.390    0.259
  502.500    3.719  173.392   90.824    0.381    0.270
  502.750    3.466  175.625   84.766    0.370    0.278
  503.000    3.303  175.486   76.679    0.365    0.273
  503.250    3.142  171.755   69.512    0.361    0.262
  503.500    3.138  168.954   74.478    0.366    0.245
  503.750    3.174  166.964   80.620    0.368    0.231
  504.000    3.369  166.317   87.007    0.372    0.222
  504.250    3.591  166.484   93.758    0.380    0.217
  504.500    3.841  166.865   97.865    0.381    0.216
  504.750    3.980  166.417  100.737    0.387    0.218
  505.000    4.148  167.512  101.954    0.387    0.222
  505.250    4.315  168.607  103.287    0.396    0.226
  505.500    4.364  168.573  102.279    0.397    0.230
  505.750    4.325  169.759  100.598    0.405    0.232
  506.000    4.325  172.392   96.816    0.412    0.237
  506.250    3.921  174.420   96.611    0.426    0.242
  506.500    3.634  176.953   98.563    0.455    0.259
  506.750    3.356  177.433  102.548    0.470    0.274
  507.000    3.145  171.856  105.852    0.486    0.287
  507.250    2.948  167.714  105.523    0.497    0.284
  507.500    2.789  169.835  104.150    0.488    0.268
  507.750    2.713  173.497  108.314    0.462    0.327
  508.000    2.749  177.777  111.744    0.441    0.350
  508.250    2.919  183.898  115.356    0.419    0.337
  508.500    3.253  191.361  112.135    0.408    0.301
  508.750    3.544  192.248  101.457    0.401    0.263
  509.000    3.770  184.101   93.674    0.398    0.260
  509.250    3.914  178.216   86.141    0.399    0.274
  509.500    3.945  173.459   77.679    0.399    0.277
  509.750    3.953  170.035   73.533    0.399    0.279
  510.000    3.932  167.848   77.638    0.399    0.285
  510.250    3.904  166.579   83.592    0.397    0.293
  510.500    4.009  167.675   89.302    0.392    0.305
  510.750    4.116  169.182   90.078    0.387    0.311
  511.000    4.321  170.379   80.698    0.386    0.288
  511.250    4.470  169.833   78.272    0.387    0.259
  511.500    4.564  168.049   77.513    0.388    0.262
  511.750    4.573  167.708   74.228    0.388    0.268
  512.000    4.558  167.778   70.879    0.388    0.270
  512.250    4.542  167.948   69.381    0.389    0.262
  512.500    4.494  167.602   72.193    0.392    0.273
  512.750    4.470  167.365   75.806    0.395    0.263
  513.000    4.480  167.327   78.808    0.394    0.250
  513.250    4.473  167.708   82.048    0.387    0.240
  513.500    4.474  167.875   83.015    0.380    0.230
  513.750    4.459  167.846   79.236    0.361    0.224
  514.000    4.477  167.605   74.164    0.345    0.220
  514.250    4.487  167.363   68.476    0.348    0.213
  514.500    4.463  167.226   64.946    0.364    0.211
  514.750    4.448  167.090   73.981    0.376    0.216
  515.000    4.392  167.563   83.323    0.389    0.225
  515.250    4.336  167.845   92.416    0.409    0.225
  515.500    4.226  169.453   96.403    0.404    0.220
  515.750    4.050  171.675   96.627    0.400    0.233
  516.000    3.889  172.973   92.170    0.408    0.250
  516.250    3.713  172.939   86.664    0.415    0.266
  516.500    3.539  170.746   85.292    0.423    0.273
  516.750    3.430  168.865   85.949    0.430    0.277
  517.000    3.324  167.602   87.345    0.436    0.281
  517.250    3.198  167.664   88.247    0.445    0.290
  517.500    3.140  169.786   88.410    0.446    0.294
  517.750    3.088  172.828   86.295    0.430    0.292
  518.000    3.066  174.132   83.747    0.421    0.274
  518.250    3.062  172.768   83.424    0.420    0.263
  518.500    3.167  169.961   87.713    0.427    0.261
  518.750    3.300  167.048   96.315    0.432    0.255
  519.000    3.446  166.296  104.550    0.435    0.249
  519.250    3.571  165.539  109.890    0.435    0.237
  519.500    3.619  165.923  112.394    0.433    0.239
  519.750    3.600  166.604  111.937    0.428    0.251
  520.000    3.600  168.524  109.395    0.422    0.266
  520.250    3.394  171.466  104.202    0.418    0.275
  520.500    3.308  174.615   92.661    0.410    0.286
  520.750    3.211  178.065   83.152    0.397    0.299
  521.000    3.033  175.054   77.219    0.391    0.309
  521.250    2.896  171.530   75.845    0.395    0.322
