~VERSION INFORMATION
 VERS.                 2.0:   CWLS LOG ASCII STANDARD -VERSION 2.0
 WRAP.                  NO:   ONE LINE PER DEPTH STEP
~WELL INFORMATION BLOCK
#MNEM.UNIT           DATA                    DESCRIPTION OF MNEMONIC
#---------    -------------------            -------------------------------
# Generated from Intellog Unique Number	CW_70_72/WELL/3017
NULL.         -999.25                        : NULL_VALUE
WELL.         MESA SULPETRO CALL 07-30       : Well_name    - WELL              
LOC .         07-30-070-22W4                 : Location     - LOCATION          
UWI .         00/07-30-070-22W4/0            : Uwi          - UNIQUE WELL ID    
ENTR.         jj                             : Entered      - ENTERED BY        
SRVC.         SCHLUMBERGER                   : Scn          - SERVICE COMPANY   
DATE.         14 JAN 78                      : Date         - LOG DATE          
STRT.M        411.48                         : top_depth    - START DEPTH       
STOP.M        636.98                         : bot_depth    - STOP DEPTH        
STEP.M        0.25                           : increment    - STEP LENGTH       
~CURVE INFORMATION BLOCK
#MNEM UNIT       ERCB CURVE CODE    CURVE DESCRIPTION
#-----------   ------------------   ----------------------------------
DEPT.M        00 001 00 00         : DEPTH        - DEPTH                       
ILD .OHMM     00 120 00 00         : RESD         - DEEP RESISTIVITY (DIL)      
CALI.MM       00 280 01 00         : CAL          - CALIPER                     
GR  .API      00 310 00 00         : GR           - GAMMA RAY                   
NPHI.V/V      00 330 00 00         : PHIN         - NEUTRON POROSITY (SANDSTONE)
DPHI.V/V      00 890 00 00         : PHID         - DENSITY POROSITY (SANDSTONE)
~PARAMETER INFORMATION       
#MNEM.UNIT           DATA             DESCRIPTION OF MNEMONIC
#---------         -----------     ------------------------------
GL  .M        659.282              : gl           - GROUND LEVEL ELEVATION      
EREF.M        662.33               : kb           - ELEVATION OF DEPTH REFERENCE
DATM.M        659.282              : datum        - DATUM ELEVATION             
TDD .M        652.882              : tdd          - TOTAL DEPTH DRILLER         
RUN .         ONE                  : Run          - RUN NUMBER                  
ENG .         RUMSEY               : Engineer     - RECORDING ENGINEER          
WIT .         STRANDBERG           : Witness      - WITNESSED BY                
BASE.         EDM                  : Branch       - HOME BASE OF LOGGING UNIT   
MUD .         GEL CHEM             : Mud_type     - MUD TYPE                    
MATR.         SANDSTONE            : Logunit      - NEUTRON MATRIX              
TMAX.C        25                   : BHT          - MAXIMUM RECORDED TEMPERATURE
BHTD.M        652.882              : BHTDEP       - MAXIMUM RECORDED TEMPERATURE
RMT .C        15.5556              : MDTP         - TEMPERATURE OF MUD          
MUDD.KG/M     1008                 : MWT          - MUD DENSITY                 
NEUT.         1                    : NEUTRON      - NEUTRON TYPE                
RESI.         0                    : RESIST       - RESISTIVITY TYPE            
RM  .OHMM     2.88                 : RM           - RESISTIVITY OF MUD          
RMC .OHMM     2.5                  : RMC          - RESISTIVITY OF MUD CAKE     
RMF .OHMM     3.34                 : RMF          - RESISTIVITY OF MUD FILTRATE 
SUFT.C        -17.7778             : SUFT         - SURFACE TEMPERATURE         
~A  DEPTH     RESD      CAL       GR     PHIN     PHID
# ...
  557.480    3.680  173.586   95.995    0.524    0.193
  557.730    3.772  174.673   98.390    0.517    0.193
  557.980    3.691  175.230  102.046    0.497    0.196
  558.230    3.610  175.997  103.188    0.462    0.210
  558.480    3.632  175.173  101.259    0.442    0.187
  558.730    3.787  169.889  100.210    0.444    0.185
  558.980    3.955  171.507  100.788    0.460    0.212
  559.230    4.224  169.310  102.245    0.478    0.223
  559.480    4.412  165.194  100.191    0.494    0.154
  559.730    4.523  162.564   94.376    0.495    0.115
  559.980    4.602  161.099   88.120    0.456    0.094
  560.230    4.629  159.850   82.928    0.396    0.054
  560.480    4.614  158.819   83.885    0.383    0.153
  560.730    4.625  158.735   92.492    0.400    0.168
  560.980    4.777  158.868   95.581    0.412    0.173
  561.230    5.102  159.637   92.525    0.420    0.162
  561.480    5.379  160.087   88.969    0.408    0.170
  561.730    5.372  159.901   87.224    0.407    0.164
  561.980    5.110  159.189   85.483    0.415    0.142
  562.230    4.906  158.258   83.365    0.423    0.132
  562.480    4.826  157.116   83.194    0.435    0.109
  562.730    4.765  156.613   86.597    0.443    0.131
  562.980    4.749  156.428   89.306    0.447    0.178
  563.230    4.769  156.561   90.390    0.418    0.151
  563.480    4.771  157.222   89.527    0.436    0.134
  563.730    4.756  160.223   90.735    0.450    0.141
  563.980    4.776  162.051   88.177    0.461    0.111
  564.230    4.742  162.927   88.067    0.446    0.110
  564.480    4.745  163.702   91.659    0.408    0.123
  564.730    4.773  164.571   93.994    0.398    0.135
  564.980    4.848  165.872   94.448    0.398    0.117
  565.230    4.969  166.746   96.471    0.407    0.133
  565.480    5.123  166.565   99.183    0.417    0.152
  565.730    5.241  165.098   95.308    0.413    0.151
  565.980    5.332  160.880   89.620    0.388    0.151
  566.230    5.072  159.846   85.368    0.376    0.140
  566.480    4.682  159.761   82.751    0.385    0.082
  566.730    4.404  160.852   80.634    0.394    0.068
  566.980    4.309  162.469   80.148    0.408    0.103
  567.230    4.334  163.561   87.877    0.418    0.144
  567.480    4.443  163.476   93.221    0.433    0.162
  567.730    4.563  163.399   96.562    0.415    0.171
  567.980    4.748  163.209   95.135    0.413    0.159
  568.230    4.904  162.816   91.138    0.423    0.149
  568.480    4.971  162.624   89.210    0.409    0.127
  568.730    5.010  162.331   88.972    0.401    0.090
  568.980    5.127  162.149   91.872    0.403    0.096
  569.230    5.304  162.281   94.209    0.416    0.149
  569.480    5.676  162.416   96.043    0.408    0.136
  569.730    6.259  162.445   95.493    0.420    0.148
  569.980    7.707  162.360   88.986    0.424    0.145
  570.230    9.472  162.597   83.170    0.398    0.098
  570.480   11.048  162.410   75.221    0.366    0.074
  570.730   11.517  161.797   66.833    0.323    0.019
  570.980   10.772  159.806   59.322    0.228    0.016
  571.230    9.227  157.924   64.670    0.249    0.055
  571.480    7.860  156.995   71.645    0.273    0.070
  571.730    6.846  156.384   71.661    0.273    0.046
  571.980    5.965  155.774   69.481    0.270    0.050
  572.230    5.495  155.902   76.018    0.343    0.081
  572.480    5.188  156.033   85.004    0.397    0.117
  572.730    5.190  156.062   88.592    0.415    0.124
  572.980    5.502  156.197   83.906    0.392    0.097
  573.230    5.889  156.431   80.094    0.360    0.079
  573.480    5.980  156.670   77.602    0.372    0.091
  573.730    5.625  157.016   77.804    0.389    0.115
  573.980    5.271  157.257   80.391    0.390    0.092
  574.230    5.051  157.067   83.855    0.363    0.070
  574.480    4.997  156.986   88.511    0.392    0.107
  574.730    5.065  157.334   92.352    0.425    0.148
  574.980    5.192  157.463   88.481    0.426    0.124
  575.230    5.263  157.704   86.615    0.398    0.102
  575.480    5.149  157.728   85.251    0.367    0.109
  575.730    4.981  157.650   83.634    0.370    0.131
  575.980    4.936  157.570   83.776    0.385    0.119
  576.230    5.088  157.489   84.732    0.396    0.141
  576.480    5.375  157.517   85.625    0.404    0.159
  576.730    5.817  157.540   86.518    0.411    0.142
  576.980    6.225  157.572   84.590    0.405    0.122
  577.230    6.513  157.486   80.781    0.379    0.107
  577.480    6.790  157.512   79.101    0.378    0.115
  577.730    6.730  157.431   81.440    0.370    0.087
  577.980    6.178  156.614   80.136    0.356    0.071
  578.230    5.524  155.792   79.903    0.346    0.057
  578.480    5.071  155.599   80.166    0.335    0.068
  578.730    4.707  155.836   83.006    0.367    0.115
  578.980    4.478  155.863   86.093    0.383    0.148
  579.230    4.547  155.678   85.984    0.387    0.158
  579.480    4.626  155.923   86.688    0.376    0.150
  579.730    4.742  156.689   92.098    0.369    0.161
  579.980    5.037  158.622   95.561    0.410    0.126
  580.230    5.734  165.341   96.078    0.413    0.117
  580.480    6.650  165.473   87.567    0.378    0.101
  580.730    6.972  158.489   83.441    0.339    0.063
  580.980    6.558  154.694   78.629    0.320   -0.014
  581.230    6.020  154.190   79.459    0.330    0.051
  581.480    5.303  156.443   85.055    0.355    0.113
  581.730    4.655  159.128   89.084    0.380    0.156
  581.980    4.613  160.637   89.099    0.397    0.147
  582.230    4.791  161.938   89.305    0.409    0.125
  582.480    5.243  160.481   87.126    0.416    0.105
  582.730    5.053  156.999   83.879    0.412    0.088
  582.980    3.825  158.512   79.944    0.349    0.046
  583.230    3.046  159.174   77.763    0.323    0.014
  583.480    2.509  153.998   87.501    0.360    0.154
  583.730    2.269  158.697   97.110    0.437    0.198
  583.980    2.270  162.757  106.155    0.498    0.187
  584.230    2.545  160.552  105.107    0.541    0.182
  584.480    3.187  157.500  100.167    0.547    0.172
  584.730    3.910  156.894   92.093    0.526    0.158
  584.980    4.459  157.131   86.462    0.481    0.133
  585.230    5.048  158.646   79.392    0.419    0.110
  585.480    5.639  160.159   76.334    0.393    0.048
  585.730    5.404  161.774   80.802    0.378    0.047
  585.980    4.814  162.969   86.526    0.373    0.072
  586.230    4.109  163.630   90.930    0.400    0.145
  586.480    3.757  163.550   93.707    0.421    0.172
  586.730    3.456  161.876   94.221    0.430    0.150
  586.980    3.306  164.239   93.233    0.436    0.131
  587.230    3.264  173.719   90.869    0.447    0.164
  587.480    3.454  179.160   87.748    0.456    0.148
  587.730    3.917  173.664   87.072    0.457    0.127
  587.980    4.698  168.171   85.019    0.437    0.067
  588.230    5.961  163.629   80.078    0.405    0.011
  588.480    7.312  159.511   68.366    0.288   -0.018
  588.730    7.357  155.716   63.615    0.271    0.042
  588.980    6.531  155.531   72.348    0.359    0.089
  589.230    5.646  155.767   81.833    0.391    0.139
  589.480    4.421  156.007   88.310    0.415    0.167
  589.730    3.773  155.820   90.330    0.422    0.182
  589.980    3.418  156.588   89.406    0.424    0.162
  590.230    3.288  161.393   91.866    0.434    0.164
  590.480    3.265  163.226   94.767    0.445    0.189
  590.730    3.266  159.536   96.350    0.458    0.189
  590.980    3.367  159.134   97.059    0.478    0.178
  591.230    3.570  163.092   96.886    0.492    0.166
  591.480    3.743  168.325   96.647    0.504    0.149
  591.730    3.737  171.955   95.533    0.475    0.164
  591.980    3.608  164.553   91.975    0.443    0.147
  592.230    3.432  165.426   92.240    0.430    0.153
  592.480    3.326  175.010   93.700    0.450    0.180
  592.730    3.260  175.354   93.276    0.465    0.146
  592.980    3.213  165.399   91.409    0.468    0.159
  593.230    3.185  165.316   91.238    0.481    0.169
  593.480    3.180  168.958   92.256    0.490    0.187
  593.730    3.242  170.258   92.524    0.486    0.185
