~VERSION INFORMATION
 VERS.                 2.0:   CWLS LOG ASCII STANDARD -VERSION 2.0
 WRAP.                  NO:   ONE LINE PER DEPTH STEP
~WELL INFORMATION BLOCK
#MNEM.UNIT           DATA                    DESCRIPTION OF MNEMONIC
#---------    -------------------            -------------------------------
# Generated from Intellog Unique Number	CW_70_72/WELL/3013
NULL.         -999.25                        : NULL_VALUE
WELL.         MESA MEYER 06-33               : Well_name    - WELL              
LOC .         06-33-070-24W4                 : Location     - LOCATION          
UWI .         00/06-33-070-24W4/0            : Uwi          - UNIQUE WELL ID    
ENTR.         J                              : Entered      - ENTERED BY        
SRVC.         SCHLUMBERGER                   : Scn          - SERVICE COMPANY   
DATE.         20 FEB 76                      : Date         - LOG DATE          
STRT.M        390.144                        : top_depth    - START DEPTH       
STOP.M        606.644                        : bot_depth    - STOP DEPTH        
STEP.M        0.25                           : increment    - STEP LENGTH       
~CURVE INFORMATION BLOCK
#MNEM UNIT       ERCB CURVE CODE    CURVE DESCRIPTION
#-----------   ------------------   ----------------------------------
DEPT.M        00 001 00 00         : DEPTH        - DEPTH                       
ILD .OHMM     00 120 00 00         : RESD         - DEEP RESISTIVITY (DIL)      
CALI.MM       00 280 01 00         : CAL          - CALIPER                     
GR  .API      00 310 00 00         : GR           - GAMMA RAY                   
NPHI.V/V      00 330 00 00         : PHIN         - NEUTRON POROSITY (SANDSTONE)
DPHI.V/V      00 890 00 00         : PHID         - DENSITY POROSITY (SANDSTONE)
~PARAMETER INFORMATION       
#MNEM.UNIT           DATA             DESCRIPTION OF MNEMONIC
#---------         -----------     ------------------------------
GL  .M        601.98               : gl           - GROUND LEVEL ELEVATION      
EREF.M        605.638              : kb           - ELEVATION OF DEPTH REFERENCE
DATM.M        601.98               : datum        - DATUM ELEVATION             
TDD .M        624.84               : tdd          - TOTAL DEPTH DRILLER         
RUN .         ONE                  : Run          - RUN NUMBER                  
ENG .         SLUSARCHUK           : Engineer     - RECORDING ENGINEER          
WIT .         HOVER                : Witness      - WITNESSED BY                
BASE.         EDM                  : Branch       - HOME BASE OF LOGGING UNIT   
MUD .         GEL CHEM             : Mud_type     - MUD TYPE                    
MATR.         SANDSTONE            : Logunit      - NEUTRON MATRIX              
TMAX.C        28.3333              : BHT          - MAXIMUM RECORDED TEMPERATURE
BHTD.M        625.45               : BHTDEP       - MAXIMUM RECORDED TEMPERATURE
RMT .C        16.1111              : MDTP         - TEMPERATURE OF MUD          
MUDD.KG/M     1080                 : MWT          - MUD DENSITY                 
NEUT.         1                    : NEUTRON      - NEUTRON TYPE                
RESI.         0                    : RESIST       - RESISTIVITY TYPE            
RM  .OHMM     4.6                  : RM           - RESISTIVITY OF MUD          
RMC .OHMM     0.25                 : RMC          - RESISTIVITY OF MUD CAKE     
RMF .OHMM     4.22                 : RMF          - RESISTIVITY OF MUD FILTRATE 
SUFT.C        -17.7778             : SUFT         - SURFACE TEMPERATURE         
~A  DEPTH     RESD      CAL       GR     PHIN     PHID
# ...
  572.644    3.699  166.462  129.926    0.456    0.120
  572.894    3.574  165.956  130.186    0.438    0.115
  573.144    3.503  165.032  129.517    0.418    0.108
  573.394    3.467  164.007  127.730    0.407    0.096
  573.644    3.444  163.502  125.322    0.405    0.075
  573.894    3.466  163.211  124.901    0.409    0.021
  574.144    3.521  162.806  123.361    0.408    0.037
  574.394    3.658  162.514  127.595    0.396    0.060
  574.644    3.779  162.114  130.214    0.366    0.086
  574.894    3.897  161.712  127.369    0.381    0.114
  575.144    4.018  161.426  126.948    0.403    0.107
  575.394    4.167  161.442  132.735    0.403    0.059
  575.644    4.305  161.885  135.475    0.405    0.116
  575.894    4.481  162.217  141.570    0.428    0.101
  576.144    4.664  162.453  142.575    0.432    0.091
  576.394    4.774  162.575  139.733    0.427    0.115
  576.644    4.877  162.284  142.353    0.420    0.119
  576.894    4.862  161.568  144.848    0.413    0.136
  577.144    4.967  161.172  146.784    0.398    0.124
  577.394    5.142  160.453  128.487    0.397    0.103
  577.644    5.493  157.953  101.318    0.399    0.089
  577.894    6.025  154.929   91.214    0.392    0.083
  578.144    6.658  152.849   57.155    0.360    0.111
  578.394    7.166  152.552   51.086    0.294    0.134
  578.644    7.642  152.682   55.320    0.263    0.174
  578.894    8.120  152.698   58.994    0.247    0.239
  579.144    8.516  152.721   58.447    0.243    0.208
  579.394    8.699  153.164   56.472    0.246    0.194
  579.644    8.854  154.447   75.290    0.253    0.203
  579.894    8.928  157.198   89.701    0.257    0.182
  580.144    8.903  159.111  103.180    0.268    0.153
  580.394    8.877  158.503   95.375    0.290    0.124
  580.644    8.865  157.051   80.740    0.295    0.139
  580.894    8.857  156.341   67.658    0.244    0.169
  581.144    8.797  156.252   60.657    0.237    0.180
  581.394    8.657  155.644   58.993    0.236    0.177
  581.644    8.347  155.568   68.812    0.230    0.168
  581.894    8.092  156.007   72.921    0.229    0.161
  582.144    7.775  156.130   70.016    0.235    0.158
  582.394    7.634  155.730   62.147    0.240    0.169
  582.644    7.471  154.595   70.353    0.251    0.200
  582.894    7.190  153.460   75.453    0.259    0.196
  583.144    7.009  152.640   78.817    0.266    0.143
  583.394    6.797  151.404   71.259    0.283    0.127
  583.644    6.650  150.795   60.908    0.281    0.132
  583.894    6.485  150.502   55.148    0.267    0.156
  584.144    6.275  150.623   47.217    0.257    0.193
  584.394    6.163  151.276   44.311    0.252    0.223
  584.644    6.088  152.873   51.833    0.249    0.212
  584.894    6.106  154.790   62.521    0.253    0.228
  585.144    6.156  156.495   78.110    0.260    0.226
  585.394    6.346  157.776   94.382    0.275    0.194
  585.644    6.883  158.947  123.254    0.287    0.191
  585.894    7.495  160.547  141.761    0.302    0.150
  586.144    7.772  161.195  137.926    0.331    0.089
  586.394    8.043  159.538  126.395    0.343    0.103
  586.644    8.263  155.882  106.920    0.324    0.120
  586.894    7.630  155.479   91.603    0.325    0.133
  587.144    6.515  157.604   82.182    0.333    0.149
  587.394    5.960  161.725   72.949    0.336    0.167
  587.644    5.383  160.800   66.633    0.325    0.208
  587.894    5.018  157.246   61.990    0.312    0.254
  588.144    4.866  155.172   61.629    0.313    0.292
  588.394    4.761  155.397   66.420    0.351    0.281
  588.644    4.634  158.465   89.022    0.333    0.259
  588.894    4.525  159.645  117.893    0.326    0.240
  589.144    4.420  160.190  127.713    0.328    0.216
  589.394    4.310  167.147  129.650    0.349    0.155
  589.644    4.233  168.115  131.030    0.388    0.107
  589.894    4.128  167.399  132.094    0.385    0.077
  590.144    4.062  170.578  133.970    0.375    0.037
  590.394    3.945  169.651  136.217    0.360    0.067
  590.644    3.949  163.261  141.254    0.353    0.099
  590.894    4.004  164.437  194.267    0.355    0.120
  591.144    4.008  166.980  220.346    0.362    0.129
  591.394    4.025  165.742  222.160    0.362    0.137
  591.644    4.028  170.700  224.032    0.357    0.155
  591.894    3.994  172.196  228.203    0.346    0.145
  592.144    3.945  167.067  301.449    0.357    0.101
  592.394    3.883  162.683  310.522    0.384    0.104
  592.644    3.821  161.224  310.473    0.414    0.115
  592.894    3.711  156.094  302.727    0.447    0.105
  593.144    3.585  151.284  196.242    0.446    0.065
  593.394    3.430  153.614  181.670    0.427    0.021
  593.644    3.276  159.100  175.787    0.421    0.096
  593.894    3.152  162.695  173.255    0.424    0.137
  594.144    3.011  158.203  166.751    0.435    0.153
  594.394    2.882  155.172  156.275    0.447    0.167
  594.644    2.773  151.835   54.196    0.461    0.194
  594.894    2.693  150.489   51.292    0.465    0.240
  595.144    2.601  150.507   69.429    0.434    0.201
  595.394    2.574  151.052  107.298    0.383    0.186
  595.644    2.586  150.867  135.299    0.375    0.143
  595.894    2.677  150.464  139.532    0.462    0.182
  596.144    2.760  149.749  123.594    0.484    0.227
  596.394    2.716  149.039  106.106    0.454    0.208
  596.644    2.566  149.687  123.373    0.401    0.188
  596.894    2.501  150.865  139.148    0.372    0.192
  597.144    2.484  155.405  145.616    0.385    0.208
  597.394    2.543  162.047  146.682    0.400    0.197
  597.644    2.588  165.225  152.032    0.407    0.190
  597.894    2.679  165.979  214.540    0.413    0.171
  598.144    2.762  166.525  303.054    0.410    0.182
  598.394    2.886  166.756  302.507    0.395    0.136
  598.644    3.010  165.727  299.478    0.375    0.166
  598.894    3.162  164.802  294.154    0.387    0.197
  599.144    3.359  163.042  283.429    0.383    0.172
  599.394    3.596  161.592  272.954    0.359    0.189
  599.644    3.694  160.563  263.408    0.346    0.228
  599.894    3.583  159.844  111.122    0.345    0.190
  600.144    3.578  158.710  119.825    0.355    0.182
  600.394    3.534  157.786  123.125    0.367    0.176
  600.644    3.491  156.653  118.174    0.373    0.169
  600.894    3.379  155.728  111.730    0.413    0.170
  601.144    3.294  155.009  109.447    0.390    0.152
  601.394    3.230  154.617  129.071    0.372    0.166
  601.644    3.190  155.158  123.374    0.374    0.201
  601.894    3.128  156.543  130.276    0.383    0.197
  602.144    3.107  158.877  140.529    0.340    0.163
  602.394    3.109  160.160  138.554    0.360    0.160
  602.644    3.135  160.499  126.280    0.384    0.184
  602.894    3.179  160.624  139.076    0.358    0.168
  603.144    3.241  160.649  148.273    0.348    0.142
  603.394    3.374  160.773  144.438    0.362    0.159
  603.644    3.345  162.053  132.597    0.373    0.159
  603.894    3.083  164.493  115.295    0.380    0.159
  604.144    2.995  166.508  103.391    0.390    0.163
  604.394    2.981  168.843   90.744    0.395    0.142
  604.644    3.039  168.549   47.934    0.391    0.143
  604.894    3.199  164.366   33.053    0.431    0.142
  605.144    3.444  152.300   23.072    0.441    0.099
  605.394    3.577  152.537   19.237    0.415    0.081
  605.644    3.607  153.712   18.754    0.379    0.100
  605.894    3.504  154.786   19.882    0.362    0.127
  606.144    3.170  155.538   20.082    0.380    0.148
  606.394    2.758  157.350   19.596    0.394    0.167
  606.644    2.575  158.208   19.050    0.402    0.158
