~VERSION INFORMATION
 VERS.                 2.0:   CWLS LOG ASCII STANDARD -VERSION 2.0
 WRAP.                  NO:   ONE LINE PER DEPTH STEP
~WELL INFORMATION BLOCK
#MNEM.UNIT           DATA                    DESCRIPTION OF MNEMONIC
#---------    -------------------            -------------------------------
# Generated from Intellog Unique Number	CX_WELLS/WELL/3038
WELL.         ASHLAND HOUSE R                : Well_name    - WELL
LOC .         00/06-06-082-13W4/0            : Location     - LOCATION
UWI .         00/06-06-082-13W4/0            : Uwi          - UNIQUE WELL ID
ENTR.         T                              : Entered      - ENTERED BY
SRVC.         SCHLUMBERGER                   : Scn          - SERVICE COMPANY
STRT.F        500                            : top_depth    - START DEPTH
STOP.F        1260.33                        : bot_depth    - STOP DEPTH
STEP.F        0.82                           : increment    - STEP LENGTH
 NULL. -999.2500:NULL Value
~CURVE INFORMATION BLOCK
#MNEM UNIT       ERCB CURVE CODE    CURVE DESCRIPTION
#-----------   ------------------   ----------------------------------
DEPT.F        00 001 00 00         : DEPTH        - DEPTH
GR  .API      00 310 00 00         : GR           - GAMMA RAY
NPHI.V/V      00 330 00 00         : PHIN         - NEUTRON POROSITY (SANDSTONE)
ILD .OHMM     00 120 00 00         : RESD         - DEEP RESISTIVITY (OTHER)
~PARAMETER INFORMATION
#MNEM.UNIT           DATA             DESCRIPTION OF MNEMONIC
#---------         -----------     ------------------------------
GL  .F        1960                 : gl           - GROUND LEVEL ELEVATION
EREF.F        1974                 : kb           - ELEVATION OF DEPTH REFERENCE
DATM.F        1974                 : datum        - DATUM ELEVATION
TDD .F        1268                 : tdd          - TOTAL DEPTH DRILLER
RUN .         ONE                  : Run          - RUN NUMBER
ENG .         BILL                 : Engineer     - RECORDING ENGINEER
WIT .         JIM                  : Witness      - WITNESSED BY
MUD .         GEL                  : Mud_type     - MUD TYPE
MATR.         SANDSTONE            : Logunit      - NEUTRON MATRIX
TMAX.F        68                   : BHT          - MAXIMUM RECORDED TEMPERATURE
BHTD.F        1668                 : BHTDEP       - MAXIMUM RECORDED TEMPERATURE
MATR.         1                    : LOGUNIT      - NEUTRON MATRIX
RMT .F        68                   : MDTP         - TEMPERATURE OF MUD
NEUT.         1                    : NEUTRON      - NEUTRON TYPE
RESI.         1.88                 : RESIST       - RESISTIVITY TYPE
RMC .OHMM     3.4                  : RMC          - RESISTIVITY OF MUD CAKE
RMF .OHMM     1.88                 : RMF          - RESISTIVITY OF MUD FILTRATE
SUFT.F        37.4                 : SUFT         - SURFACE TEMPERATURE
~A  DEPTH       GR     PHIN     RESD
# ...
  855.971   73.746    0.586    6.136
  856.791   75.561    0.594    5.394
  857.612   79.787    0.605    4.741
  858.432   83.407    0.611    4.324
  859.252   87.625    0.606    3.944
  860.072   88.839    0.598    3.732
  860.892   85.242    0.584    3.732
  861.713   82.849    0.571    3.664
  862.533   84.072    0.561    3.732
  863.353   84.681    0.553    3.944
  864.173   85.895    0.548    4.093
  864.993   85.904    0.543    4.742
  865.814   85.317    0.535    5.012
  866.634   84.129    0.526    5.597
  867.454   82.337    0.520    6.486
  868.274   81.143    0.513    7.244
  869.094   79.951    0.511    8.394
  869.915   78.162    0.507    9.036
  870.735   78.171    0.508    9.037
  871.555   78.182    0.509    8.872
  872.375   80.605    0.510    8.395
  873.196   81.819    0.513    8.092
  874.016   83.634    0.514    7.944
  874.836   84.848    0.516    7.657
  875.656   87.268    0.524    7.518
  876.476   88.479    0.533    7.518
  877.297   89.693    0.532    7.381
  878.117   91.512    0.526    7.381
  878.937   92.723    0.521    7.114
  879.757   93.940    0.517    6.984
  880.577   94.553    0.509    6.857
  881.398   91.555    0.498    6.732
  882.218   80.144    0.497    6.732
  883.038   76.551    0.510    6.609
  883.858   79.566    0.506    6.732
  884.678   83.790    0.499    6.858
  885.499   86.206    0.494    6.985
  886.319   85.619    0.494    7.115
  887.139   83.220    0.499    7.382
  887.959   78.424    0.504    7.520
  888.780   78.435    0.501    7.520
  889.600   79.051    0.507    7.383
  890.420   77.863    0.513    7.248
  891.240   76.064    0.510    7.116
  892.060   73.671    0.499    6.987
  892.881   71.878    0.505    6.987
  893.701   77.307    0.506    6.859
  894.521   79.721    0.507    6.859
  895.341   79.733    0.508    6.734
  896.161   76.738    0.510    6.735
  896.982   74.945    0.508    6.735
  897.802   75.564    0.505    6.735
  898.622   77.376    0.505    6.735
  899.442   79.799    0.507    6.735
  900.262   80.409    0.508    6.735
  901.083   81.019    0.507    6.613
  901.903   83.441    0.507    6.613
  902.723   83.450    0.506    6.613
  903.543   83.464    0.507    6.613
  904.364   82.273    0.512    6.492
  905.184   81.079    0.518    6.374
  906.004   79.888    0.529    6.374
  906.824   80.501    0.536    6.258
  907.644   81.120    0.544    6.258
  908.465   81.131    0.551    6.258
  909.285   80.538    0.548    6.144
  910.105   79.949    0.538    6.144
  910.925   78.760    0.532    6.144
  911.745   78.775    0.528    6.032
  912.566   79.382    0.532    6.033
  913.386   80.605    0.542    5.923
  914.206   81.215    0.552    5.923
  915.026   81.825    0.563    5.923
  915.846   81.842    0.538    6.033
  916.667   81.847    0.531    6.145
  917.487   81.862    0.521    6.376
  918.307   82.475    0.509    6.495
  919.127   83.090    0.502    6.864
  919.948   83.700    0.496    6.864
  920.768   84.313    0.493    6.992
  921.588   85.533    0.491    6.992
  922.408   86.143    0.490    6.992
  923.228   87.354    0.488    6.865
  924.049   89.178    0.487    6.865
  924.869   89.785    0.489    6.740
  925.689   90.999    0.492    6.740
  926.509   91.615    0.500    6.740
  927.329   91.627    0.526    6.496
  928.150   92.237    0.544    6.496
  928.970   92.852    0.548    6.378
  929.790   92.265    0.546    6.262
  930.610   92.274    0.536    6.148
  931.430   91.086    0.531    6.036
  932.251   90.493    0.534    5.711
  933.071   89.903    0.537    5.505
  933.891   89.918    0.542    5.209
  934.711   89.932    0.539    5.114
  935.531   89.944    0.528    4.929
  936.352   90.556    0.514    4.929
  937.172   90.568    0.497    5.021
  937.992   88.174    0.482    5.405
  938.812   86.379    0.455    6.037
  939.633   82.785    0.435    6.619
  940.453   79.192    0.499    7.258
  941.273   76.795    0.496    7.958
  942.093   76.208    0.491    8.726
  942.913   78.625    0.491    9.053
  943.734   82.846    0.491    9.054
  944.554   85.266    0.488    8.889
  945.374   85.274    0.482    8.727
  946.194   85.288    0.477    8.567
  947.014   85.303    0.472    8.411
  947.835   85.309    0.472    8.258
  948.655   84.719    0.474    8.108
  949.475   84.736    0.478    7.960
  950.295   84.751    0.485    7.815
  951.115   85.358    0.495    7.815
  951.936   87.774    0.501    7.672
  952.756   89.593    0.499    7.673
  953.576   90.208    0.497    7.533
  954.396   90.217    0.494    7.533
  955.217   89.032    0.494    7.396
  956.037   87.835    0.496    7.261
  956.857   84.840    0.497    6.998
  957.677   85.453    0.502    6.622
  958.497   87.271    0.510    6.383
  959.318   88.491    0.526    5.715
  960.138   89.101    0.539    5.213
  960.958   92.720    0.541    4.754
  961.778   95.738    0.545    4.582
  962.598   97.551    0.539    4.668
  963.419   96.961    0.512    4.754
  964.239   92.769    0.506    5.025
  965.059   90.372    0.495    5.213
  965.879   87.981    0.483    5.509
  966.699   87.389    0.477    6.041
  967.520   86.198    0.480    6.503
  968.340   85.611    0.502    6.747
  969.160   85.021    0.508    6.873
  969.980   86.839    0.511    6.873
  970.801   88.050    0.513    6.504
  971.621   91.670    0.513    6.269
  972.441   98.296    0.512    6.154
  973.261  103.722    0.518    6.154
  974.081  100.126    0.520    6.155
  974.902   97.735    0.519    6.155
  975.722   97.743    0.507    6.269
  976.542   98.957    0.461    6.505
  977.362  100.773    0.431    6.749
  978.182  101.987    0.411    7.400
  979.003  103.803    0.405    8.265
  979.823  102.614    0.402    9.402
  980.643   98.419    0.429   10.309
  981.463   94.222    0.447   11.098
  982.283   93.629    0.471   11.098
  983.104   95.448    0.477   10.697
  983.924   96.659    0.483   10.502
  984.744   99.078    0.493    9.756
  985.564  100.295    0.501    9.403
  986.385  100.908    0.504    8.420
  987.205  100.920    0.499    8.116
  988.025  100.327    0.487    7.968
  988.845   99.743    0.478    7.540
  989.665   99.749    0.452    7.402
  990.486   96.762    0.416    7.402
  991.306   94.369    0.376    7.540
  992.126   91.374    0.321    7.823
  992.946   89.575    0.258    8.421
  993.766   86.580    0.253    9.406
  994.587   82.984    0.286   11.101
  995.407   81.192    0.316   13.847
  996.227   77.000    0.362   16.046
  997.047   77.609    0.388   17.921
  997.867   78.824    0.453   17.273
  998.688   81.842    0.489   14.635
  999.508   86.664    0.497   12.631
 1000.330   93.293    0.494   11.103
 1001.150   95.108    0.489    9.760
 1001.970   93.316    0.486    8.423
 1002.790   90.925    0.484    7.825
 1003.610   89.132    0.483    7.825
 1004.430   88.543    0.481    7.826
 1005.250   88.554    0.478    7.826
 1006.070   90.372    0.477    7.971
 1006.890   91.586    0.477    7.972
 1007.710   92.801    0.478    8.120
 1008.530   93.416    0.478    8.120
 1009.350   93.422    0.476    8.271
 1010.170   92.832    0.475    8.425
 1010.990   92.248    0.475    8.582
 1011.810   91.057    0.472    8.742
 1012.630   89.265    0.467    8.904
 1013.450   87.469    0.467    9.070
 1014.270   86.281    0.470    9.411
 1015.090   86.293    0.472    9.411
 1015.910   87.507    0.477    9.586
 1016.730   88.120    0.477    9.764
 1017.550   87.533    0.479    9.764
 1018.370   85.139    0.480    9.946
 1019.190   83.344    0.483    9.946
 1020.010   80.950    0.485    9.765
 1020.830   79.157    0.485    9.765
 1021.650   77.371    0.489    9.765
 1022.470   76.781    0.492    9.587
 1023.290   77.394    0.497    9.588
 1024.110   79.209    0.502    9.241
 1024.930   81.626    0.502    9.073
 1025.750   81.640    0.499    8.907
 1026.570   81.655    0.493    8.585
 1027.400   82.262    0.491    7.976
 1028.220   82.877    0.492    7.688
 1029.040   84.696    0.498    7.011
 1029.860   85.907    0.502    6.395
 1030.680   86.517    0.506    5.941
 1031.500   88.335    0.512    5.621
 1032.320   91.963    0.516    5.034
 1033.140   93.172    0.512    4.852
