~VERSION INFORMATION
 VERS.                 2.0:   CWLS LOG ASCII STANDARD -VERSION 2.0
 WRAP.                  NO:   ONE LINE PER DEPTH STEP
~WELL INFORMATION BLOCK
#MNEM.UNIT           DATA                    DESCRIPTION OF MNEMONIC
#---------    -------------------            -------------------------------
# Generated from Intellog Unique Number	CW_76_78/WELL/694
WELL.         NORTHSTAR ET AL MARTEN HILLS 0 : Well_name    - WELL
LOC .         00/08-09-076-03W5/0            : Location     - LOCATION
UWI .         00/08-09-076-03W5/0            : Uwi          - UNIQUE WELL ID
ENTR.         JAYE                           : Entered      - ENTERED BY
SRVC.         COMPUTALOG                     : Scn          - SERVICE COMPANY
DATE.         19 FEB 81                      : Date         - LOG DATE
STRT.M        520                            : top_depth    - START DEPTH
STOP.M        730                            : bot_depth    - STOP DEPTH
STEP.M        0.25                           : increment    - STEP LENGTH
 NULL. -999.2500:NULL Value
~CURVE INFORMATION BLOCK
#MNEM UNIT       ERCB CURVE CODE    CURVE DESCRIPTION
#-----------   ------------------   ----------------------------------
DEPT.M        00 001 00 00         : DEPTH        - DEPTH
ILD .OHMM     00 120 00 00         : RESD         - DEEP RESISTIVITY (DIL)
NPHI.V/V      00 330 00 00         : PHIN         - NEUTRON POROSITY (SANDSTONE)
DPHI.V/V      00 890 00 00         : PHID         - DENSITY POROSITY (SANDSTONE)
GR  .API      00 310 00 00         : GR           - GAMMA RAY
CALI.MM       00 280 01 00         : CAL          - CALIPER
~PARAMETER INFORMATION
#MNEM.UNIT           DATA             DESCRIPTION OF MNEMONIC
#---------         -----------     ------------------------------
GL  .M        793.13               : gl           - GROUND LEVEL ELEVATION
EREF.M        796.43               : kb           - ELEVATION OF DEPTH REFERENCE
DATM.M        793.13               : datum        - DATUM ELEVATION
TDD .M        743                  : tdd          - TOTAL DEPTH DRILLER
RUN .         ONE                  : Run          - RUN NUMBER
ENG .         HUDSON               : Engineer     - RECORDING ENGINEER
WIT .         HOLT/FITZIMMONS      : Witness      - WITNESSED BY
BASE.         EDM                  : Branch       - HOME BASE OF LOGGING UNIT
MUD .         GEL BASE             : Mud_type     - MUD TYPE
MATR.         SANDSTONE            : Logunit      - NEUTRON MATRIX
TMAX.C        32                   : BHT          - MAXIMUM RECORDED TEMPERATURE
BHTD.M        745                  : BHTDEP       - MAXIMUM RECORDED TEMPERATURE
RMT .C        12                   : MDTP         - TEMPERATURE OF MUD
MUDD.KG/M     1120                 : MWT          - MUD DENSITY
NEUT.         1                    : NEUTRON      - NEUTRON TYPE
RESI.         0                    : RESIST       - RESISTIVITY TYPE
RM  .OHMM     5.4                  : RM           - RESISTIVITY OF MUD
RMC .OHMM     10                   : RMC          - RESISTIVITY OF MUD CAKE
RMF .OHMM     9.3                  : RMF          - RESISTIVITY OF MUD FILTRATE
SUFT.C        0                    : SUFT         - SURFACE TEMPERATURE
~A  DEPTH     RESD     PHIN     PHID       GR      CAL
# ...
  702.500    8.983    0.297    0.101  118.903  187.776
  702.750    9.224    0.283    0.075  104.437  186.892
  703.000    9.224    0.265    0.050   94.703  181.960
  703.250    9.104    0.253    0.057   85.351  177.663
  703.500    9.225    0.290    0.095   93.831  167.725
  703.750    9.586    0.287    0.105  106.211  166.839
  704.000   10.108    0.305    0.110  115.458  168.399
  704.250   10.711    0.319    0.118  115.181  170.608
  704.500   10.711    0.306    0.115  110.496  169.937
  704.750   10.350    0.253    0.088  104.406  158.396
  705.000    9.707    0.243    0.071   99.592  159.323
  705.250    9.025    0.273    0.083   99.828  163.227
  705.500    8.423    0.281    0.108  103.067  170.760
  705.750    8.142    0.272    0.121  106.243  177.865
  706.000    7.861    0.271    0.124  108.267  179.853
  706.250    7.660    0.265    0.114  110.230  179.181
  706.500    7.540    0.291    0.103  114.107  177.125
  706.750    7.379    0.281    0.090  116.261  177.836
  707.000    7.259    0.253    0.082  112.469  177.166
  707.250    7.139    0.243    0.074  109.893  176.383
  707.500    6.978    0.266    0.090  110.385  176.132
  707.750    6.737    0.274    0.099  116.819  176.214
  708.000    6.577    0.256    0.106  121.338  176.814
  708.250    6.216    0.246    0.103  123.171  177.314
  708.500    5.975    0.276    0.089  123.597  177.278
  708.750    5.694    0.284    0.070  124.601  177.889
  709.000    5.413    0.291    0.100  119.915  179.880
  709.250    5.172    0.308    0.153  119.766  181.020
  709.500    4.851    0.332    0.177  131.124  182.048
  709.750    4.611    0.356    0.199  132.319  184.469
  710.000    4.490    0.386    0.231  117.791  189.653
  710.250    4.450    0.313    0.255  104.988  192.603
  710.500    4.450    0.286    0.244   86.816  182.553
  710.750    4.491    0.274    0.228   65.577  177.088
  711.000    4.491    0.284    0.238   53.349  172.476
  711.250    4.531    0.291    0.234   39.459  162.536
  711.500    4.571    0.288    0.222   39.056  159.731
  711.750    4.612    0.278    0.209   41.145  158.633
  712.000    4.692    0.261    0.208   45.855  158.603
  712.250    4.732    0.255    0.214   46.600  159.741
  712.500    4.813    0.257    0.217   44.791  160.453
  712.750    4.933    0.276    0.216   44.962  158.926
  713.000    5.134    0.264    0.210   45.965  158.675
  713.250    5.416    0.270    0.202   47.352  158.538
  713.500    5.697    0.267    0.192   50.208  159.145
  713.750    6.259    0.267    0.182   54.407  159.537
  714.000    6.982    0.260    0.164   59.628  159.933
  714.250    7.665    0.263    0.149   69.195  160.750
  714.500    8.347    0.251    0.131   75.821  161.782
  714.750    8.508    0.226    0.101   78.166  163.241
  715.000    8.348    0.210    0.070   79.744  165.547
  715.250    7.906    0.198    0.001   81.449  167.434
  715.500    7.384    0.268    0.055   83.155  166.870
  715.750    6.983    0.302    0.125   84.798  164.387
  716.000    6.782    0.283    0.155   85.353  167.548
  716.250    6.541    0.280    0.163   78.109  170.178
  716.500    6.381    0.270    0.171   71.380  162.582
  716.750    6.261    0.268    0.174   67.141  166.168
  717.000    6.140    0.251    0.172   70.380  165.176
  717.250    6.060    0.233    0.172   72.469  156.517
  717.500    6.020    0.237    0.178   72.897  158.610
  717.750    5.940    0.253    0.184   71.599  160.923
  718.000    5.900    0.256    0.186   70.873  161.530
  718.250    5.860    0.245    0.182   70.600  160.426
  718.500    5.860    0.249    0.173   70.836  159.223
  718.750    5.860    0.275    0.167   74.076  160.786
  719.000    5.941    0.295    0.169   81.725  163.633
  719.250    6.182    0.279    0.174   83.494  165.303
  719.500    6.463    0.260    0.154   82.452  163.459
  719.750    6.463    0.243    0.128   83.070  163.314
  720.000    5.700    0.228    0.104   84.200  163.597
  720.250    4.175    0.214    0.091   85.267  164.212
  720.500    3.532    0.242    0.104   92.790  165.133
  720.750    3.211    0.265    0.133  109.387  167.127
  721.000    3.131    0.353    0.153  118.954  175.292
  721.250    3.131    0.372    0.170  129.545  180.800
  721.500    3.172    0.382    0.163  132.976  185.560
  721.750    3.332    0.351    0.181  131.293  189.045
  722.000    3.573    0.359    0.208  130.123  182.086
  722.250    3.814    0.348    0.208  132.594  191.322
  722.500    4.015    0.340    0.184  132.256  189.262
  722.750    4.136    0.320    0.159  134.218  188.376
  723.000    4.216    0.297    0.135  134.454  190.476
  723.250    4.297    0.287    0.126  131.813  191.720
  723.500    4.337    0.280    0.160  129.939  192.111
  723.750    4.418    0.260    0.176  127.171  184.410
  724.000    4.498    0.286    0.146  125.234  192.687
  724.250    4.659    0.375    0.099  130.326  197.552
  724.500    5.261    0.338    0.057  134.909  196.880
  724.750    5.864    0.240    0.022  141.151  181.614
  725.000    6.586    0.160   -0.006  143.752  179.448
  725.250    7.791    0.126   -0.023  113.309  175.263
  725.500   10.522    0.115   -0.029   96.992  166.278
  725.750   11.365    0.110   -0.031   84.125  165.923
  726.000   11.004    0.111   -0.011   85.447  165.147
  726.250   10.562    0.127   -0.002   97.314  164.470
  726.500   10.161    0.142    0.004  106.369  164.547
  726.750    9.519    0.156    0.012  111.142  164.835
  727.000    8.997    0.159    0.026  114.126  166.072
  727.250    8.635    0.162    0.024  117.304  167.005
  727.500    8.475    0.169    0.018  119.841  168.142
  727.750    8.274    0.174    0.020  118.733  168.644
  728.000    8.034    0.175    0.025  115.007  169.780
  728.250    7.833    0.176    0.020  111.791  171.666
  728.500    7.592    0.181    0.015  111.514  172.804
  728.750    7.432    0.191    0.021  124.982  173.941
  729.000    7.231    0.189    0.034  132.886  174.336
  729.250    6.990    0.182    0.036  137.916  173.970
  729.500    6.790    0.178    0.043  135.659  173.406
  729.750    6.629    0.179    0.053  134.230  173.272
  730.000    6.388    0.180    0.058  133.953  174.521
