~VERSION INFORMATION
 VERS.                 2.0:   CWLS LOG ASCII STANDARD -VERSION 2.0
 WRAP.                  NO:   ONE LINE PER DEPTH STEP
~WELL INFORMATION BLOCK
#MNEM.UNIT           DATA                    DESCRIPTION OF MNEMONIC
#---------    -------------------            -------------------------------
# Generated from Intellog Unique Number	CW_82_90/WELL/693
WELL.         08-34-083-24W4                 : Well_name    - WELL
LOC .         00/08-34-083-24W4/0            : Location     - LOCATION
UWI .         00/08-34-083-24W4/0            : Uwi          - UNIQUE WELL ID
ENTR.         JAYE                           : Entered      - ENTERED BY
SRVC.         SCHLUMBERGER                   : Scn          - SERVICE COMPANY
DATE.         01 MAR 86                      : Date         - LOG DATE
STRT.M        180                            : top_depth    - START DEPTH
STOP.M        395                            : bot_depth    - STOP DEPTH
STEP.M        0.25                           : increment    - STEP LENGTH
 NULL. -999.2500:NULL Value
~CURVE INFORMATION BLOCK
#MNEM UNIT       ERCB CURVE CODE    CURVE DESCRIPTION
#-----------   ------------------   ----------------------------------
DEPT.M        00 001 00 00         : DEPTH        - DEPTH
CALI.MM       00 280 01 00         : CAL          - CALIPER
GR  .API      00 310 00 00         : GR           - GAMMA RAY
NPHI.V/V      00 330 00 00         : PHIN         - NEUTRON POROSITY (SANDSTONE)
DPHI.V/V      00 890 00 00         : PHID         - DENSITY POROSITY (SANDSTONE)
ILD .OHMM     00 120 00 00         : RESD         - DEEP RESISTIVITY (DIL)
~PARAMETER INFORMATION
#MNEM.UNIT           DATA             DESCRIPTION OF MNEMONIC
#---------         -----------     ------------------------------
GL  .M        564.16               : gl           - GROUND LEVEL ELEVATION
EREF.M        567.76               : kb           - ELEVATION OF DEPTH REFERENCE
DATM.M        564.16               : datum        - DATUM ELEVATION
TDD .M        398                  : tdd          - TOTAL DEPTH DRILLER
RUN .         ONE                  : Run          - RUN NUMBER
ENG .         MILROSS              : Engineer     - RECORDING ENGINEER
WIT .         DZIUBA               : Witness      - WITNESSED BY
BASE.         SL                   : Branch       - HOME BASE OF LOGGING UNIT
MUD .         GEL CHEM             : Mud_type     - MUD TYPE
MATR.         SANDSTONE            : Logunit      - NEUTRON MATRIX
TMAX.C        21                   : BHT          - MAXIMUM RECORDED TEMPERATURE
BHTD.M        398                  : BHTDEP       - MAXIMUM RECORDED TEMPERATURE
RMT .C        18                   : MDTP         - TEMPERATURE OF MUD
MUDD.KG/M     1130                 : MWT          - MUD DENSITY
NEUT.         1                    : NEUTRON      - NEUTRON TYPE
RESI.         0                    : RESIST       - RESISTIVITY TYPE
RM  .OHMM     4.99                 : RM           - RESISTIVITY OF MUD
RMC .OHMM     0                    : RMC          - RESISTIVITY OF MUD CAKE
RMF .OHMM     4.75                 : RMF          - RESISTIVITY OF MUD FILTRATE
SUFT.C        0                    : SUFT         - SURFACE TEMPERATURE
~A  DEPTH      CAL       GR     PHIN     PHID     RESD
# ...
  216.500  261.170   60.736    0.421    0.317   27.380
  216.750  260.549   59.840    0.420    0.321   28.875
  217.000  259.328   58.075    0.418    0.326   30.003
  217.250  258.875   57.989    0.415    0.333   30.645
  217.500  260.120   58.155    0.434    0.324   31.550
  217.750  261.131   58.011    0.440    0.323   32.108
  218.000  261.470   58.541    0.443    0.328   32.798
  218.250  262.210   59.647    0.453    0.333   33.629
  218.500  262.335   59.434    0.449    0.337   34.607
  218.750  262.523   57.293    0.438    0.339   35.955
  219.000  262.461   55.584    0.443    0.342   37.786
  219.250  262.057   54.378    0.473    0.343   38.520
  219.500  261.975   54.233    0.475    0.341   39.653
  219.750  261.339   55.152    0.481    0.339   40.203
  220.000  261.075   55.185    0.475    0.340   40.842
  220.250  260.318   55.346    0.464    0.343   41.415
  220.500  259.593   56.508    0.447    0.342   41.916
  220.750  259.506   57.610    0.450    0.341   42.008
  221.000  259.280   56.781    0.457    0.347   42.275
  221.250  258.743   55.765    0.456    0.352   42.470
  221.500  258.157   55.793    0.444    0.351   42.337
  221.750  257.747   56.519    0.423    0.350   42.372
  222.000  257.874   57.618    0.408    0.349   42.093
  222.250  259.202   57.969    0.428    0.350   41.806
  222.500  261.274   57.704    0.483    0.354   41.446
  222.750  261.812   57.301    0.497    0.353   41.236
  223.000  263.072   56.529    0.483    0.354   40.577
  223.250  263.188   55.885    0.465    0.356   39.558
  223.500  263.163   54.805    0.455    0.359   38.561
  223.750  261.188   53.660    0.463    0.361   37.515
  224.000  260.901   52.577    0.470    0.360   37.515
  224.250  260.771   51.989    0.454    0.352   37.164
  224.500  262.182   51.592    0.439    0.346   37.738
  224.750  263.960   52.880    0.424    0.346   38.630
  225.000  264.076   54.541    0.416    0.348   38.382
  225.250  264.153   56.582    0.430    0.348   38.032
  225.500  263.306   57.302    0.459    0.349   34.486
  225.750  262.310   56.218    0.448    0.352   34.366
  226.000  258.561   54.826    0.450    0.346   34.320
  226.250  256.419   55.302    0.460    0.344   35.059
  226.500  253.683   55.159    0.457    0.344   37.886
  226.750  252.230   54.510    0.455    0.342   40.332
  227.000  252.262   54.737    0.443    0.341   42.939
  227.250  253.787   55.961    0.431    0.339   44.443
  227.500  255.820   56.809    0.432    0.342   44.443
  227.750  259.161   56.852    0.428    0.351   44.443
  228.000  259.275   56.388    0.427    0.355   46.077
  228.250  260.179   56.430    0.431    0.350   46.361
  228.500  260.462   57.593    0.437    0.345   46.746
  228.750  261.034   57.321    0.438    0.349   47.033
  229.000  261.620   55.737    0.430    0.345   47.073
  229.250  262.623   55.470    0.417    0.341   47.019
  229.500  264.351   56.376    0.406    0.343   46.884
  229.750  264.942   57.228    0.400    0.345   46.916
  230.000  264.107   57.336    0.415    0.346   46.770
  230.250  263.516   57.434    0.451    0.351   46.367
  230.500  263.062   57.221    0.471    0.354   45.878
  230.750  263.025   56.263    0.476    0.361   43.400
  231.000  264.473   54.995    0.484    0.360   40.605
  231.250  265.029   58.712    0.480    0.342   39.382
  231.500  265.409   62.308    0.465    0.304   39.242
  231.750  265.685   65.401    0.457    0.277   39.047
  232.000  265.685   68.746    0.475    0.311   38.858
  232.250  266.658   71.343    0.489    0.332   37.665
  232.500  266.303   69.265    0.467    0.327   35.632
  232.750  265.244   70.248    0.454    0.319   33.646
  233.000  264.569   80.755    0.502    0.304   32.009
  233.250  264.010   86.532    0.513    0.303   30.289
  233.500  263.463   69.986    0.496    0.309   29.249
  233.750  261.795   60.794    0.479    0.342   28.350
  234.000  261.211   57.219    0.473    0.336   27.636
  234.250  259.738   66.110    0.468    0.326   26.990
  234.500  259.480   73.391    0.463    0.316   27.264
  234.750  260.264   76.792    0.455    0.311   27.696
  235.000  262.435   77.458    0.451    0.312   28.079
  235.250  263.311   69.766    0.467    0.327   29.009
  235.500  264.102   65.063    0.473    0.340   29.913
  235.750  264.168   64.044    0.479    0.339   30.502
  236.000  262.177   63.084    0.484    0.332   30.816
  236.250  262.432   62.064    0.480    0.326   30.717
  236.500  264.057   60.798    0.472    0.331   29.947
  236.750  265.685   58.903    0.466    0.342   29.575
  237.000  266.368   55.511    0.457    0.339   29.161
  237.250  265.919   51.310    0.428    0.321   29.013
  237.500  266.510   48.921    0.253    0.181   28.981
  237.750  267.508   48.521    0.240    0.116   28.950
  238.000  268.718   49.203    0.249    0.086   29.077
  238.250  268.718   47.919    0.256    0.085   29.316
  238.500  269.088   45.707    0.245    0.080   30.746
  238.750  269.026   44.440    0.206    0.058   33.349
  239.000  268.276   44.476    0.171    0.034   36.102
  239.250  267.185   46.832    0.140    0.018   39.305
  239.500  266.425   46.429    0.116    0.002   42.873
  239.750  266.531   44.727    0.099   -0.012   46.944
  240.000  266.762   43.643    0.088   -0.020   50.918
  240.250  267.066   42.574    0.090   -0.025   55.226
  240.500  267.209   41.915    0.091   -0.030   61.267
  240.750  268.781   40.577    0.095   -0.035   65.710
  241.000  269.213   39.434    0.105   -0.017   65.880
  241.250  270.846   41.217    0.115    0.005   62.453
  241.500  271.317   43.318    0.135    0.025   60.074
  241.750  271.394   43.734    0.163    0.040   56.304
  242.000  270.105   43.152    0.184    0.066   49.886
  242.250  267.534   43.310    0.227    0.106   44.948
  242.500  267.748   48.215    0.253    0.145   38.505
  242.750  268.336   52.992    0.296    0.192   30.092
  243.000  270.997   55.718    0.346    0.297   24.188
  243.250  274.076   58.872    0.439    0.312   20.412
  243.500  277.051   65.092    0.458    0.306   19.565
  243.750  279.296   64.690    0.468    0.294   19.435
  244.000  277.706   64.106    0.474    0.287   19.557
  244.250  274.550   65.955    0.459    0.290   19.866
  244.500  270.773   68.800    0.436    0.292   20.523
  244.750  268.460   68.531    0.463    0.295   21.244
  245.000  268.443   65.263    0.455    0.305   21.947
  245.250  268.592   62.122    0.443    0.315   22.589
  245.500  267.616   62.230    0.439    0.328   23.291
  245.750  260.009   62.076    0.473    0.330   24.155
  246.000  258.049   61.178    0.493    0.326   24.444
  246.250  258.163   59.916    0.491    0.324   24.463
  246.500  259.275   59.703    0.465    0.323   24.342
  246.750  259.755   59.621    0.431    0.322   24.363
  247.000  260.234   59.344    0.421    0.326   24.196
  247.250  260.234   59.198    0.443    0.329   23.940
  247.500  261.526   60.982    0.443    0.327   23.558
  247.750  261.476   63.514    0.436    0.329   22.882
  248.000  262.268   66.489    0.430    0.336   22.138
  248.250  261.729   69.085    0.451    0.334   21.100
  248.500  261.577   70.878    0.469    0.326   19.812
  248.750  261.743   71.530    0.461    0.327   18.707
  249.000  261.403   72.572    0.453    0.332   17.599
  249.250  260.857   74.046    0.450    0.327   16.964
  249.500  259.784   73.278    0.481    0.324   16.786
  249.750  260.357   67.886    0.497    0.341   17.181
  250.000  260.653   64.745    0.491    0.348   17.618
  250.250  260.695   62.672    0.481    0.350   17.997
  250.500  260.705   62.329    0.464    0.348   18.111
  250.750  260.628   64.926    0.454    0.344   18.025
  251.000  260.790   65.715    0.452    0.341   17.834
  251.250  260.914   66.254    0.454    0.337   17.716
  251.500  260.822   67.734    0.482    0.337   17.302
  251.750  260.578   68.090    0.504    0.338   17.023
  252.000  260.578   67.817    0.493    0.342   16.689
  252.250  261.144   67.105    0.467    0.342   16.608
  252.500  261.360   67.146    0.454    0.339   16.806
  252.750  261.368   67.617    0.479    0.335   17.139
