~VERSION INFORMATION
 VERS.                 2.0:   CWLS LOG ASCII STANDARD -VERSION 2.0
 WRAP.                  NO:   ONE LINE PER DEPTH STEP
~WELL INFORMATION BLOCK
#MNEM.UNIT           DATA                    DESCRIPTION OF MNEMONIC
#---------    -------------------            -------------------------------
# Generated from Intellog Unique Number	CS_67_68/WELL/714
WELL.         ET AL TWEEDIE                  : Well_name    - WELL
LOC .         00/06-31-068-12W4/0            : Location     - LOCATION
UWI .         00/06-31-068-12W4/0            : Uwi          - UNIQUE WELL ID
ENTR.         SP                             : Entered      - ENTERED BY
SRVC.         SCHLUMBERGER                   : Scn          - SERVICE COMPANY
STRT.M        289.56                         : top_depth    - START DEPTH
STOP.M        502.560                        : bot_depth    - STOP DEPTH
STEP.M        0.25                           : increment    - STEP LENGTH
 NULL. -999.2500:NULL Value
~CURVE INFORMATION BLOCK
#MNEM UNIT       ERCB CURVE CODE    CURVE DESCRIPTION
#-----------   ------------------   ----------------------------------
DEPT.M        00 001 00 00         : DEPTH        - DEPTH
GR  .API      00 310 00 00         : GR           - GAMMA RAY
DPHI.V/V      00 890 00 00         : PHID         - DENSITY POROSITY (SANDSTONE)
NPHI.V/V      00 330 00 00         : PHIN         - NEUTRON POROSITY (SANDSTONE)
ILD .OHMM     00 120 00 00         : RESD         - DEEP RESISTIVITY (DIL)
~PARAMETER INFORMATION
#MNEM.UNIT           DATA             DESCRIPTION OF MNEMONIC
#---------         -----------     ------------------------------
GL  .M        591.922              : gl           - GROUND LEVEL ELEVATION
EREF.M        594.665              : kb           - ELEVATION OF DEPTH REFERENCE
DATM.M        591.922              : datum        - DATUM ELEVATION
TDD .M        504.749              : tdd          - TOTAL DEPTH DRILLER
RUN .         ONE                  : Run          - RUN NUMBER
ENG .         BILL                 : Engineer     - RECORDING ENGINEER
WIT .         JIM                  : Witness      - WITNESSED BY
MUD .         GEL                  : Mud_type     - MUD TYPE
MATR.         SANDSTONE            : Logunit      - NEUTRON MATRIX
TMAX.C        22.2222              : BHT          - MAXIMUM RECORDED TEMPERATURE
BHTD.M        504.749              : BHTDEP       - MAXIMUM RECORDED TEMPERATURE
MATR.         1                    : LOGUNIT      - NEUTRON MATRIX
RMT .C        25                   : MDTP         - TEMPERATURE OF MUD
NEUT.         1                    : NEUTRON      - NEUTRON TYPE
RESI.         0                    : RESIST       - RESISTIVITY TYPE
RMC .OHMM     0.25                 : RMC          - RESISTIVITY OF MUD CAKE
RMF .OHMM     0.25                 : RMF          - RESISTIVITY OF MUD FILTRATE
SUFT.C        15                   : SUFT         - SURFACE TEMPERATURE
~A  DEPTH       GR     PHID     PHIN     RESD
# ...
  376.560   70.770    0.082    0.254    3.689
  376.810   69.638    0.064    0.202    4.710
  377.060   68.749    0.054    0.183    5.673
  377.310   67.573    0.043    0.169    8.173
  377.560   66.072    0.031    0.182    9.974
  377.810   64.845    0.038    0.206   12.652
  378.060   65.928    0.068    0.278   15.408
  378.310   78.451    0.146    0.335   12.713
  378.560   87.728    0.217    0.414    8.994
  378.810   92.774    0.321    0.495    5.273
  379.060   93.932    0.336    0.500    3.697
  379.310   91.894    0.333    0.487    2.958
  379.560   87.487    0.329    0.478    2.539
  379.810   86.144    0.333    0.482    2.291
  380.060   86.969    0.328    0.487    2.185
  380.310   87.947    0.322    0.492    2.133
  380.560   84.835    0.313    0.484    2.119
  380.810   83.608    0.305    0.489    2.116
  381.060   86.002    0.297    0.495    2.104
  381.310   87.557    0.297    0.498    2.087
  381.560   87.424    0.304    0.503    2.067
  381.810   85.921    0.302    0.511    2.040
  382.060   86.597    0.300    0.515    2.033
  382.310   87.605    0.309    0.510    2.026
  382.560   88.636    0.326    0.504    2.021
  382.810   87.692    0.334    0.502    2.023
  383.060   86.879    0.320    0.489    2.036
  383.310   89.777    0.303    0.481    2.058
  383.560   93.056    0.290    0.477    2.078
  383.810   95.862    0.279    0.480    2.123
  384.060   97.296    0.269    0.486    2.227
  384.310   94.257    0.273    0.473    2.307
  384.560   88.192    0.265    0.452    2.486
  384.810   80.020    0.223    0.438    2.598
  385.060   75.316    0.096    0.333    2.764
  385.310   72.558    0.087    0.303    2.869
  385.560   77.974    0.118    0.345    2.864
  385.810   84.672    0.285    0.434    2.855
  386.060   89.900    0.279    0.464    2.786
  386.310   92.685    0.264    0.475    2.730
  386.560   95.347    0.251    0.489    2.745
  386.810   97.909    0.240    0.509    2.831
  387.060   99.939    0.229    0.505    2.967
  387.310  100.843    0.223    0.488    3.159
  387.560  100.563    0.227    0.475    3.304
  387.810   99.424    0.236    0.470    3.436
  388.060   98.052    0.232    0.477    3.525
  388.310   96.539    0.230    0.485    3.588
  388.560   95.787    0.237    0.494    3.596
  388.810   98.196    0.235    0.506    3.569
  389.060  101.613    0.231    0.516    3.538
  389.310  102.663    0.228    0.525    3.490
  389.560  101.691    0.218    0.519    3.467
  389.810  101.751    0.204    0.501    3.472
  390.060  102.951    0.199    0.491    3.498
  390.310  103.469    0.206    0.480    3.544
  390.560  102.029    0.211    0.469    3.635
  390.810  103.051    0.207    0.472    3.730
  391.060  103.104    0.205    0.469    3.822
  391.310  101.069    0.202    0.462    3.927
  391.560  101.190    0.209    0.470    4.067
  391.810  102.712    0.217    0.479    4.008
  392.060  104.975    0.223    0.484    3.843
  392.310  107.019    0.225    0.491    3.676
  392.560  108.794    0.226    0.499    3.578
  392.810  109.658    0.219    0.483    3.555
  393.060  110.552    0.214    0.474    3.559
  393.310  111.189    0.210    0.475    3.585
  393.560  111.869    0.213    0.482    3.605
  393.810  112.473    0.218    0.486    3.614
  394.060  112.791    0.225    0.486    3.612
  394.310  113.648    0.223    0.486    3.599
  394.560  115.566    0.215    0.488    3.611
  394.810  117.636    0.218    0.489    3.616
  395.060  119.621    0.218    0.492    3.615
  395.310  120.970    0.216    0.504    3.444
  395.560  118.913    0.219    0.517    3.043
  395.810  112.796    0.236    0.515    2.686
  396.060  110.493    0.250    0.529    2.361
  396.310  109.334    0.270    0.565    2.098
  396.560  108.529    0.291    0.589    1.943
  396.810  107.527    0.289    0.595    1.810
  397.060  106.116    0.266    0.588    1.723
  397.310  104.786    0.247    0.599    1.855
  397.560  104.605    0.243    0.567    2.003
  397.810  105.498    0.215    0.531    2.226
  398.060  107.326    0.198    0.521    2.385
  398.310  109.175    0.194    0.531    2.549
  398.560  108.752    0.207    0.532    2.695
  398.810  104.797    0.225    0.486    2.799
  399.060  102.446    0.245    0.466    2.899
  399.310  100.368    0.248    0.450    2.955
  399.560  102.136    0.238    0.447    2.982
  399.810  105.779    0.223    0.466    2.998
  400.060  105.846    0.212    0.477    3.000
  400.310  103.986    0.205    0.484    2.987
  400.560  100.213    0.216    0.487    2.956
  400.810   95.091    0.228    0.487    2.872
  401.060   92.578    0.239    0.487    2.727
  401.310   89.701    0.222    0.483    2.603
  401.560   88.370    0.226    0.480    2.447
  401.810   88.265    0.248    0.489    2.296
  402.060   83.245    0.267    0.485    2.174
  402.310   77.117    0.262    0.474    2.048
  402.560   75.584    0.274    0.471    1.948
  402.810   70.887    0.284    0.478    1.884
  403.060   67.335    0.283    0.471    1.867
  403.310   64.729    0.268    0.472    1.993
  403.560   63.374    0.122    0.181    2.243
  403.810   61.884    0.070    0.145    2.548
  404.060   57.179    0.024    0.133    2.872
  404.310   52.428   -0.008    0.139    2.696
  404.560   51.616   -0.013    0.260    2.469
  404.810   56.776    0.057    0.345    2.175
  405.060   61.070    0.234    0.410    2.067
  405.310   65.253    0.264    0.452    2.011
  405.560   69.900    0.263    0.477    1.982
  405.810   72.540    0.265    0.472    1.980
  406.060   73.116    0.274    0.472    1.995
  406.310   73.248    0.277    0.458    2.019
  406.560   72.945    0.274    0.444    2.056
  406.810   72.657    0.282    0.443    2.090
  407.060   73.409    0.281    0.455    2.110
  407.310   73.958    0.284    0.467    2.111
  407.560   73.968    0.312    0.476    2.083
  407.810   73.197    0.291    0.473    2.022
  408.060   72.942    0.284    0.466    1.962
  408.310   72.629    0.302    0.458    1.908
  408.560   72.656    0.313    0.466    1.861
  408.810   72.277    0.325    0.472    1.850
  409.060   72.031    0.320    0.478    1.850
  409.310   72.210    0.161    0.437    1.874
  409.560   72.534    0.091    0.370    2.021
  409.810   72.238    0.048    0.278    2.298
  410.060   69.846    0.036    0.222    2.777
  410.310   69.307    0.043    0.231    3.367
  410.560   84.401    0.069    0.252    3.026
  410.810   94.480    0.168    0.285    4.411
  411.060  100.838    0.194    0.438    5.169
  411.310  108.252    0.195    0.461    3.693
  411.560  114.282    0.194    0.485    2.436
  411.810  116.661    0.204    0.484    1.998
  412.060  115.594    0.212    0.479    1.729
  412.310  112.991    0.216    0.476    1.528
  412.560  108.711    0.205    0.485    1.325
  412.810  105.455    0.206    0.495    1.163
  413.060  105.289    0.213    0.497    0.981
  413.310  106.967    0.206    0.489    0.865
  413.560  109.288    0.203    0.496    0.817
  413.810  110.441    0.197    0.503    0.790
  414.060  111.046    0.188    0.498    0.758
  414.310  110.768    0.181    0.488    0.714
  414.560  108.892    0.184    0.480    0.737
  414.810  106.906    0.191    0.475    0.780
  415.060  106.164    0.196    0.474    0.822
  415.310  105.950    0.205    0.478    0.998
  415.560  106.370    0.207    0.480    1.594
  415.810  107.197    0.200    0.478    2.391
  416.060  105.460    0.194    0.472    3.057
  416.310  102.631    0.184    0.464    3.472
  416.560  100.480    0.173    0.456    3.801
  416.810  100.108    0.164    0.456    3.976
  417.060  102.319    0.150    0.462    4.004
  417.310  105.534    0.184    0.471    3.817
  417.560  108.281    0.204    0.461    3.588
  417.810  110.618    0.210    0.474    3.345
  418.060  111.621    0.212    0.500    3.044
  418.310  113.127    0.209    0.529    2.756
  418.560  114.970    0.246    0.548    2.579
  418.810  117.604    0.258    0.563    2.425
  419.060  118.397    0.231    0.569    2.302
  419.310  114.196    0.244    0.573    2.209
  419.560  112.223    0.260    0.577    2.114
  419.810  114.925    0.268    0.581    2.060
