~VERSION INFORMATION
 VERS.                 2.0:   CWLS LOG ASCII STANDARD -VERSION 2.0
 WRAP.                  NO:   ONE LINE PER DEPTH STEP
~WELL INFORMATION BLOCK
#MNEM.UNIT           DATA                    DESCRIPTION OF MNEMONIC
#---------    -------------------            -------------------------------
# Generated from Intellog Unique Number	CW_70_72/WELL/532
NULL.         -999.25                        : NULL_VALUE
WELL.         MIKAS CALLING LAKE 06-02       : Well_name    - WELL              
LOC .         06-02-072-20W4                 : Location     - LOCATION          
UWI .         00/06-02-072-20W4/0            : Uwi          - UNIQUE WELL ID    
ENTR.         JAYE                           : Entered      - ENTERED BY        
SRVC.         SCHLUMBERGER                   : Scn          - SERVICE COMPANY   
DATE.         15 FEB 72                      : Date         - LOG DATE          
STRT.M        316.992                        : top_depth    - START DEPTH       
STOP.M        508.992                        : bot_depth    - STOP DEPTH        
STEP.M        0.25                           : increment    - STEP LENGTH       
~CURVE INFORMATION BLOCK
#MNEM UNIT       ERCB CURVE CODE    CURVE DESCRIPTION
#-----------   ------------------   ----------------------------------
DEPT.M        00 001 00 00         : DEPTH        - DEPTH                       
DPHI.V/V      00 890 00 00         : PHID         - DENSITY POROSITY (SANDSTONE)
NPHI.V/V      00 330 00 00         : PHIN         - NEUTRON POROSITY (SANDSTONE)
GR  .API      00 310 00 00         : GR           - GAMMA RAY                   
CALI.MM       00 280 01 00         : CAL          - CALIPER                     
ILD .OHMM     00 120 00 00         : RESD         - DEEP RESISTIVITY (DIL)      
~PARAMETER INFORMATION       
#MNEM.UNIT           DATA             DESCRIPTION OF MNEMONIC
#---------         -----------     ------------------------------
GL  .M        589.483              : gl           - GROUND LEVEL ELEVATION      
EREF.M        593.446              : kb           - ELEVATION OF DEPTH REFERENCE
DATM.M        589.483              : datum        - DATUM ELEVATION             
TDD .M        534.619              : tdd          - TOTAL DEPTH DRILLER         
RUN .         ONE                  : Run          - RUN NUMBER                  
ENG .         COVENY               : Engineer     - RECORDING ENGINEER          
WIT .         ANDERSON             : Witness      - WITNESSED BY                
BASE.         EDM                  : Branch       - HOME BASE OF LOGGING UNIT   
MUD .         GEL                  : Mud_type     - MUD TYPE                    
MATR.         SANDSTONE            : Logunit      - NEUTRON MATRIX              
TMAX.C        23.8889              : BHT          - MAXIMUM RECORDED TEMPERATURE
BHTD.M        535.534              : BHTDEP       - MAXIMUM RECORDED TEMPERATURE
RMT .C        1.66667              : MDTP         - TEMPERATURE OF MUD          
MUDD.KG/M     1164                 : MWT          - MUD DENSITY                 
NEUT.         1                    : NEUTRON      - NEUTRON TYPE                
RESI.         0                    : RESIST       - RESISTIVITY TYPE            
RM  .OHMM     1.97                 : RM           - RESISTIVITY OF MUD          
RMC .OHMM     0                    : RMC          - RESISTIVITY OF MUD CAKE     
RMF .OHMM     1.69                 : RMF          - RESISTIVITY OF MUD FILTRATE 
SUFT.C        -17.7778             : SUFT         - SURFACE TEMPERATURE         
~A  DEPTH     PHID     PHIN       GR      CAL     RESD
# ...
  353.492    0.238    0.388  105.327  171.790    5.243
  353.742    0.263    0.378  110.066  168.315    4.995
  353.992    0.278    0.421  110.923  167.201    4.587
  354.242    0.235    0.442  111.600  170.708    3.934
  354.492    0.191    0.455  114.338  176.574    3.443
  354.742    0.150    0.464  112.528  183.571    3.121
  354.992    0.180    0.466  117.933  179.171    2.930
  355.242    0.227    0.471  125.642  182.680    2.897
  355.492    0.238    0.474  128.682  184.441    2.943
  355.742    0.254    0.473  122.993  188.561    3.150
  355.992    0.255    0.465  109.118  185.189    3.364
  356.242    0.279    0.455   99.123  168.059    3.592
  356.492    0.293    0.436   95.193  161.915    3.966
  356.742    0.296    0.406   94.959  159.674    4.419
  356.992    0.276    0.395   94.543  158.867    4.817
  357.242    0.262    0.397   93.159  158.473    5.041
  357.492    0.244    0.389   91.713  159.516    5.114
  357.742    0.215    0.347   89.782  160.864    5.244
  357.992    0.193    0.295   89.063  163.754    5.705
  358.242    0.211    0.322   90.104  167.774    6.195
  358.492    0.207    0.370   94.114  164.299    6.703
  358.742    0.214    0.377   99.217  161.341    6.937
  358.992    0.233    0.368  102.317  162.176    6.832
  359.242    0.244    0.398  100.023  164.141    6.439
  359.492    0.248    0.416   97.243  165.596    6.088
  359.742    0.262    0.432   95.676  165.507    5.790
  359.992    0.262    0.429   94.533  165.112    5.619
  360.242    0.256    0.415   95.876  164.512    5.544
  360.492    0.249    0.412   89.580  163.912    5.490
  360.742    0.235    0.410   80.920  163.311    5.427
  360.992    0.238    0.417   76.988  162.816    5.354
  361.242    0.278    0.412   78.150  162.522    5.244
  361.492    0.297    0.378   82.888  161.923    5.052
  361.742    0.293    0.384   85.201  161.732    4.894
  361.992    0.288    0.400   85.695  161.541    4.785
  362.242    0.281    0.395   86.977  161.871    4.703
  362.492    0.287    0.391   89.836  162.189    4.674
  362.742    0.303    0.387   92.028  162.209    4.637
  362.992    0.306    0.381   93.795  162.530    4.576
  363.242    0.308    0.375   96.351  163.161    4.506
  363.492    0.313    0.369   92.359  164.102    4.439
  363.742    0.318    0.355   91.156  164.628    4.379
  363.992    0.306    0.359   88.618  164.852    4.345
  364.242    0.303    0.367   83.838  164.146    4.310
  364.492    0.301    0.383   88.333  163.032    4.332
  364.742    0.296    0.386   92.284  163.769    4.345
  364.992    0.283    0.389   94.476  165.016    4.434
  365.242    0.272    0.395   92.788  166.571    4.512
  365.492    0.260    0.397   94.979  168.126    4.723
  365.742    0.248    0.391   97.110  169.682    4.943
  365.992    0.223    0.383   99.545  170.827    5.115
  366.242    0.230    0.412  103.010  171.458    5.248
  366.492    0.229    0.426  105.142  169.012    5.292
  366.742    0.239    0.438  104.484  166.975    5.309
  366.992    0.270    0.448  104.553  168.220    5.229
  367.242    0.387    0.460  106.442  172.752    5.056
  367.492    0.630    0.470  101.055  176.874    5.052
  367.742    0.702    0.472   87.241  169.807    5.318
  367.992    0.738    0.473   72.215  170.232    5.774
  368.242    0.746    0.472   66.646  170.659    6.482
  368.492    0.744    0.471   66.413  171.087    7.675
  368.742    0.739    0.472   70.363  171.104   10.170
  368.992    0.733    0.477   73.404  171.116   13.155
  369.242    0.725    0.480   75.839  170.928   16.433
  369.492    0.709    0.481   75.969  170.945   17.326
  369.742    0.696    0.477   75.008  170.858   16.910
  369.992    0.681    0.472   74.714  170.771   16.439
  370.242    0.674    0.468   75.936  170.683   15.953
  370.492    0.689    0.465   78.127  170.903   15.509
  370.742    0.697    0.461   75.772  171.537   15.022
  370.992    0.680    0.457   76.934  171.447   14.524
  371.242    0.650    0.456   78.944  171.258   14.020
  371.492    0.628    0.455   81.681  171.273   13.628
  371.742    0.641    0.478   84.843  171.188   13.127
  371.992    0.560    0.439   83.518  171.305   12.234
  372.242    0.510    0.414   81.527  173.065   11.253
  372.492    0.395    0.405   84.992  176.572    9.599
  372.742    0.315    0.398   93.004  179.053    7.026
  372.992    0.291    0.395   99.197  181.120    5.386
  373.242    0.296    0.394   99.449  182.265    4.420
  373.492    0.300    0.393  100.672  180.741    4.043
  373.742    0.290    0.397  102.257  178.292    4.101
  373.992    0.289    0.400  101.114  176.050    4.471
  374.242    0.299    0.400   96.758  173.910    4.863
  374.492    0.276    0.396   98.344  173.925    5.291
  374.742    0.258    0.389  100.354  175.686    5.578
  374.992    0.275    0.381   99.636  177.551    5.711
  375.242    0.292    0.379   95.704  179.106    5.770
  375.492    0.300    0.384   90.195  176.554    5.746
  375.742    0.267    0.392   83.839  170.513    5.525
  375.992    0.320    0.433   77.968  167.552    5.216
  376.242    0.337    0.435   72.944  165.720    4.878
  376.492    0.330    0.425   72.165  165.119    4.497
  376.742    0.333    0.419   71.629  164.620    4.277
  376.992    0.332    0.426   70.910  164.227    4.195
  377.242    0.334    0.439   70.193  163.833    4.117
  377.492    0.338    0.445   69.838  163.437    4.092
  377.742    0.336    0.437   70.514  163.246    4.089
  377.992    0.329    0.463   71.554  162.751    4.081
  378.242    0.320    0.432   72.898  162.048    4.093
  378.492    0.310    0.418   73.028  161.756    4.122
  378.742    0.324    0.414   70.733  161.157    4.150
  378.992    0.336    0.433   71.409  161.071    4.186
  379.242    0.335    0.441   72.449  161.088    4.214
  379.492    0.329    0.448   73.974  160.895    4.251
  379.742    0.320    0.455   75.378  160.812    4.288
  379.992    0.311    0.457   78.116  160.722    4.333
  380.242    0.298    0.454   81.216  160.633    4.356
  380.492    0.282    0.451   84.985  160.647    4.385
  380.742    0.279    0.448   86.874  160.664    4.456
  380.992    0.293    0.447   82.942  160.579    4.513
  381.242    0.306    0.434   78.829  160.286    4.551
  381.492    0.306    0.433   77.382  160.300    4.590
  381.742    0.308    0.441   77.210  160.316    4.623
  381.992    0.313    0.461   78.674  160.432    4.636
  382.242    0.310    0.465   80.442  160.759    4.651
  382.492    0.312    0.468   82.148  160.979    4.692
  382.742    0.318    0.468   84.037  161.612    4.742
  382.992    0.317    0.467   85.017  162.036    4.774
  383.242    0.312    0.466   86.117  162.359    4.816
  383.492    0.303    0.464   85.823  162.786    4.814
  383.742    0.296    0.461   83.650  162.904    4.828
  383.992    0.291    0.459   80.204  162.919    4.844
  384.242    0.302    0.457   77.787  163.039    4.876
  384.492    0.310    0.453   79.858  162.951    4.929
  384.742    0.305    0.445   81.505  162.863    4.953
  384.992    0.315    0.436   81.938  162.779    4.978
  385.242    0.318    0.423   83.038  162.896    4.966
  385.492    0.318    0.406   83.594  163.013    4.936
  385.742    0.320    0.393   82.451  163.444    4.933
  385.992    0.328    0.395   80.520  163.558    4.905
  386.242    0.327    0.411   77.498  163.473    4.883
  386.492    0.320    0.417   75.143  163.385    4.837
  386.742    0.314    0.416   74.060  163.503    4.807
  386.992    0.313    0.428   74.251  163.417    4.760
  387.242    0.314    0.409   75.048  163.327    4.705
  387.492    0.316    0.389   74.816  163.551    4.618
  387.742    0.311    0.399   73.976  163.771    4.572
  387.992    0.315    0.421   73.015  163.991    4.520
  388.242    0.328    0.408   73.995  164.623    4.476
  388.492    0.340    0.392   75.761  165.972    4.457
  388.742    0.336    0.387   77.347  166.810    4.463
  388.992    0.325    0.382   71.052  167.032    4.469
  389.242    0.325    0.378   66.392  167.046    4.466
  389.492    0.323    0.362   65.796  167.062    4.473
  389.742    0.298    0.377   68.109  166.873    4.453
