~VERSION INFORMATION
 VERS.                 2.0:   CWLS LOG ASCII STANDARD -VERSION 2.0
 WRAP.                  NO:   ONE LINE PER DEPTH STEP
~WELL INFORMATION BLOCK
#MNEM.UNIT           DATA                    DESCRIPTION OF MNEMONIC
#---------    -------------------            -------------------------------
# Generated from Intellog Unique Number	CS_69_70/WELL/702
NULL.         -999.25                        : NULL_VALUE
WELL.         HUSKY OIL OPERATION LTD        : Well_name    - WELL              
LOC .         00/05-23-070-06W4/0            : Location     - LOCATION          
UWI .         00/05-23-070-06W4/0            : Uwi          - UNIQUE WELL ID    
ENTR.         SP                             : Entered      - ENTERED BY        
SRVC.         SCHLUMBERGER                   : Scn          - SERVICE COMPANY   
STRT.M        300                            : top_depth    - START DEPTH       
STOP.M        540                            : bot_depth    - STOP DEPTH        
STEP.M        0.25                           : increment    - STEP LENGTH       
~CURVE INFORMATION BLOCK
#MNEM UNIT       ERCB CURVE CODE    CURVE DESCRIPTION
#-----------   ------------------   ----------------------------------
DEPT.M        00 001 00 00         : DEPTH        - DEPTH                       
ILD .OHMM     00 120 00 00         : RESD         - DEEP RESISTIVITY (DIL)      
DPHI.V/V      00 890 00 00         : PHID         - DENSITY POROSITY (LIMESTONE)
NPHI.V/V      00 330 00 00         : PHIN         - NEUTRON POROSITY (LIMESTONE)
GR  .API      00 310 00 00         : GR           - GAMMA RAY                   
~PARAMETER INFORMATION       
#MNEM.UNIT           DATA             DESCRIPTION OF MNEMONIC
#---------         -----------     ------------------------------
GL  .M        657                  : gl           - GROUND LEVEL ELEVATION      
EREF.M        660.6                : kb           - ELEVATION OF DEPTH REFERENCE
DATM.M        657                  : datum        - DATUM ELEVATION             
TDD .M        545                  : tdd          - TOTAL DEPTH DRILLER         
RUN .         ONE                  : Run          - RUN NUMBER                  
ENG .         BILL                 : Engineer     - RECORDING ENGINEER          
WIT .         JIM                  : Witness      - WITNESSED BY                
MUD .         GEL                  : Mud_type     - MUD TYPE                    
MATR.         LIMESTONE            : Logunit      - NEUTRON MATRIX              
TMAX.C        25                   : BHT          - MAXIMUM RECORDED TEMPERATURE
BHTD.M        545                  : BHTDEP       - MAXIMUM RECORDED TEMPERATURE
MATR.         1                    : LOGUNIT      - NEUTRON MATRIX              
RMT .C        25                   : MDTP         - TEMPERATURE OF MUD          
NEUT.         1                    : NEUTRON      - NEUTRON TYPE                
RESI.         0                    : RESIST       - RESISTIVITY TYPE            
RMC .OHMM     0.25                 : RMC          - RESISTIVITY OF MUD CAKE     
RMF .OHMM     0.25                 : RMF          - RESISTIVITY OF MUD FILTRATE 
SUFT.C        15                   : SUFT         - SURFACE TEMPERATURE         
~A  DEPTH     RESD     PHID     PHIN       GR
# ...
  430.500   13.678    0.283    0.428   58.588
  430.750   12.703    0.267    0.450   55.571
  431.000   12.241    0.284    0.465   59.209
  431.250   11.367    0.324    0.447   61.029
  431.500   11.369    0.339    0.441   65.271
  431.750   11.372    0.341    0.456   67.696
  432.000   11.806    0.337    0.445   69.517
  432.250   12.030    0.331    0.441   68.921
  432.500   12.032    0.326    0.431   68.926
  432.750   12.033    0.323    0.425   68.327
  433.000   11.597    0.330    0.425   67.732
  433.250   11.178    0.334    0.439   67.735
  433.500   10.773    0.312    0.432   62.903
  433.750   10.774    0.306    0.425   62.307
  434.000   10.578    0.297    0.415   65.340
  434.250   10.386    0.302    0.417   67.763
  434.500    9.645    0.313    0.431   69.585
  434.750    9.295    0.321    0.439   69.592
  435.000    8.957    0.321    0.438   68.389
  435.250    8.474    0.330    0.453   69.604
  435.500    8.017    0.336    0.460   74.451
  435.750    7.871    0.320    0.454   77.481
  436.000    7.872    0.306    0.451   79.302
  436.250    7.874    0.301    0.457   79.310
  436.500    8.173    0.307    0.455   76.293
  436.750    8.484    0.307    0.443   71.460
  437.000    9.140    0.263    0.435   65.418
  437.250   10.032    0.219    0.431   62.401
  437.500   11.010    0.231    0.335   64.222
  437.750   12.541    0.246    0.271   63.021
  438.000   13.764    0.217    0.261   58.793
  438.250   14.025    0.124    0.315   56.379
  438.500   14.027    0.105    0.371   63.040
  438.750   12.551    0.169    0.424   70.911
  439.000    9.680    0.211    0.420   77.570
  439.250    7.748    0.270    0.407   85.439
  439.500    6.933    0.256    0.426   90.889
  439.750    6.089    0.281    0.457   90.293
  440.000    5.551    0.327    0.475   87.878
  440.250    5.349    0.349    0.462   84.861
  440.500    5.252    0.330    0.455   82.449
  440.750    5.156    0.310    0.453   80.641
  441.000    5.158    0.328    0.464   78.228
  441.250    5.255    0.321    0.451   75.212
  441.500    5.662    0.304    0.443   74.008
  441.750    5.877    0.296    0.445   73.411
  442.000    6.100    0.291    0.434   74.023
  442.250    6.216    0.259    0.422   76.450
  442.500    5.459    0.234    0.439   77.665
  442.750    4.057    0.313    0.481   78.881
  443.000    3.698    0.360    0.510   77.681
  443.250    3.130    0.391    0.530   77.685
  443.500    2.906    0.400    0.549   80.111
  443.750    2.649    0.374    0.538   84.352
  444.000    2.650    0.327    0.497   86.778
  444.250    3.018    0.293    0.479   83.156
  444.500    3.251    0.280    0.465   80.138
  444.750    3.989    0.288    0.452   80.148
  445.000    4.544    0.287    0.437   82.572
  445.250    4.895    0.294    0.414   83.183
  445.500    5.081    0.326    0.444   81.376
  445.750    5.178    0.346    0.474   80.173
  446.000    5.179    0.235    0.393   77.759
  446.250    5.180    0.198    0.363   73.535
  446.500    4.901    0.238    0.391   75.355
  446.750    4.723    0.355    0.429   77.783
  447.000    4.551    0.366    0.419   78.999
  447.250    4.226    0.295    0.426   82.636
  447.500    3.782    0.270    0.445   85.668
  447.750    3.384    0.255    0.470   86.275
  448.000    3.201    0.255    0.474   87.492
  448.250    3.448    0.256    0.460   88.103
  448.500    4.153    0.249    0.440   84.482
  448.750    4.644    0.243    0.429   77.232
  449.000    5.289    0.268    0.422   71.188
  449.250    6.138    0.278    0.419   62.727
  449.500    6.612    0.282    0.420   54.871
  449.750    7.393    0.293    0.408   53.668
  450.000    7.533    0.298    0.403   59.119
  450.250    7.534    0.289    0.406   62.150
  450.500    7.262    0.284    0.385   64.577
  450.750    7.130    0.274    0.363   65.793
  451.000    6.871    0.202    0.353   69.431
  451.250    6.622    0.160    0.362   71.855
  451.500    6.264    0.187    0.391   76.095
  451.750    5.502    0.222    0.426   84.572
  452.000    5.109    0.231    0.461   88.205
  452.250    4.487    0.223    0.503   97.285
  452.500    3.797    0.225    0.532   99.712
  452.750    3.398    0.225    0.454   97.904
  453.000    3.399    0.228    0.433   96.095
  453.250    3.098    0.239    0.447   94.288
  453.500    3.042    0.229    0.472   94.295
  453.750    3.042    0.225    0.494   98.536
  454.000    3.277    0.217    0.505  102.173
  454.250    3.803    0.215    0.477   98.549
  454.500    4.252    0.222    0.452   91.297
  454.750    5.314    0.210    0.426   81.021
  455.000    6.283    0.177    0.395   66.513
  455.250    6.768    0.148    0.354   65.311
  455.500    7.157    0.164    0.394   73.787
  455.750    7.027    0.209    0.411   77.419
  456.000    6.173    0.237    0.422   84.686
  456.250    6.173    0.251    0.436   87.715
  456.500    6.775    0.247    0.427   79.861
  456.750    7.862    0.234    0.404   72.004
  457.000    9.469    0.240    0.381   64.148
  457.250   10.201    0.255    0.392   59.318
  457.500   11.195    0.264    0.400   58.718
  457.750   11.621    0.256    0.410   61.143
  458.000   11.410    0.250    0.387   64.177
  458.250   11.412    0.247    0.370   64.786
  458.500   11.629    0.255    0.383   64.797
  458.750   12.071    0.255    0.387   64.801
  459.000   13.004    0.257    0.379   66.017
  459.250   13.752    0.261    0.369   67.838
  459.500   14.275    0.235    0.349   67.240
  459.750   14.546    0.188    0.329   63.014
  460.000   13.762    0.156    0.354   61.811
  460.250   12.544    0.201    0.369   63.028
  460.500   11.866    0.231    0.372   66.056
  460.750    9.677    0.234    0.374   70.299
  461.000    8.820    0.225    0.370   73.935
  461.250    9.157    0.216    0.358   75.150
  461.500    9.504    0.210    0.371   73.947
  461.750   10.050    0.225    0.391   75.163
  462.000   11.031    0.254    0.393   72.751
  462.250   11.666    0.278    0.381   69.128
  462.500   12.110    0.298    0.387   75.793
  462.750   12.112    0.281    0.395   77.006
  463.000   11.892    0.282    0.405   79.432
  463.250   11.460    0.292    0.407   83.069
  463.500   10.446    0.293    0.411   87.309
  463.750    9.175    0.282    0.403   91.549
  464.000    8.679    0.265    0.387   90.346
  464.250    8.211    0.258    0.369   87.331
  464.500    8.213    0.243    0.347   86.730
  464.750    8.369    0.232    0.343   89.764
  465.000    8.527    0.229    0.366   90.979
  465.250   10.080    0.230    0.386   91.590
  465.500   12.598    0.236    0.395   90.388
  465.750   17.279    0.258    0.411   86.160
  466.000   25.055    0.287    0.400   71.045
  466.250   36.330    0.309    0.378   45.044
  466.500   56.742    0.330    0.365   31.745
  466.750   91.977    0.344    0.354   31.146
  467.000  106.729    0.333    0.356   38.415
  467.250  100.969    0.317    0.350   42.656
  467.500   73.653    0.302    0.338   47.502
  467.750   55.759    0.291    0.332   52.346
  468.000   39.191    0.281    0.338   54.769
  468.250   29.125    0.276    0.337   59.618
  468.500   26.057    0.280    0.331   60.226
  468.750   22.885    0.283    0.328   59.023
  469.000   22.469    0.271    0.322   57.215
  469.250   29.148    0.260    0.323   52.384
  469.500   33.821    0.280    0.345   49.970
  469.750   44.694    0.293    0.356   52.397
  470.000   61.300    0.298    0.359   58.452
  470.250   75.205    0.300    0.350   53.622
  470.500   84.088    0.311    0.345   51.209
  470.750   90.592    0.315    0.339   49.402
  471.000   94.039    0.310    0.334   53.037
  471.250   94.050    0.305    0.331   57.276
  471.500   94.079    0.303    0.329   56.679
  471.750   92.365    0.305    0.328   43.985
  472.000   90.688    0.310    0.327   38.549
  472.250   89.035    0.311    0.326   35.532
  472.500   84.229    0.313    0.327   33.722
  472.750   76.775    0.313    0.333   41.594
  473.000   69.983    0.312    0.335   45.227
  473.250   66.203    0.311    0.329   50.677
  473.500   64.996    0.310    0.328   51.894
  473.750   76.840    0.307    0.328   47.062
