~VERSION INFORMATION
 VERS.                 2.0:   CWLS LOG ASCII STANDARD -VERSION 2.0
 WRAP.                  NO:   ONE LINE PER DEPTH STEP
~WELL INFORMATION BLOCK
#MNEM.UNIT           DATA                    DESCRIPTION OF MNEMONIC
#---------    -------------------            -------------------------------
# Generated from Intellog Unique Number	CS_71_72/WELL/770
WELL.         SULPETRO LIMITED               : Well_name    - WELL
LOC .         00/06-19-071-10W4/0            : Location     - LOCATION
UWI .         00/06-19-071-10W4/0            : Uwi          - UNIQUE WELL ID
ENTR.         SP                             : Entered      - ENTERED BY
SRVC.         SCHLUMBERGER                   : Scn          - SERVICE COMPANY
STRT.M        300                            : top_depth    - START DEPTH
STOP.M        525                            : bot_depth    - STOP DEPTH
STEP.M        0.25                           : increment    - STEP LENGTH
 NULL. -999.2500:NULL Value
~CURVE INFORMATION BLOCK
#MNEM UNIT       ERCB CURVE CODE    CURVE DESCRIPTION
#-----------   ------------------   ----------------------------------
DEPT.M        00 001 00 00         : DEPTH        - DEPTH
ILD .OHMM     00 120 00 00         : RESD         - DEEP RESISTIVITY (DIL)
DPHI.V/V      00 890 00 00         : PHID         - DENSITY POROSITY (LIMESTONE)
NPHI.V/V      00 330 00 00         : PHIN         - NEUTRON POROSITY (LIMESTONE)
GR  .API      00 310 00 00         : GR           - GAMMA RAY
~PARAMETER INFORMATION
#MNEM.UNIT           DATA             DESCRIPTION OF MNEMONIC
#---------         -----------     ------------------------------
GL  .M        648.81               : gl           - GROUND LEVEL ELEVATION
EREF.M        651.64               : kb           - ELEVATION OF DEPTH REFERENCE
DATM.M        648.81               : datum        - DATUM ELEVATION
TDD .M        538                  : tdd          - TOTAL DEPTH DRILLER
RUN .         ONE                  : Run          - RUN NUMBER
ENG .         BILL                 : Engineer     - RECORDING ENGINEER
WIT .         JIM                  : Witness      - WITNESSED BY
MUD .         GEL                  : Mud_type     - MUD TYPE
MATR.         LIMESTONE            : Logunit      - NEUTRON MATRIX
TMAX.C        24                   : BHT          - MAXIMUM RECORDED TEMPERATURE
BHTD.M        538                  : BHTDEP       - MAXIMUM RECORDED TEMPERATURE
MATR.         1                    : LOGUNIT      - NEUTRON MATRIX
RMT .C        25                   : MDTP         - TEMPERATURE OF MUD
NEUT.         1                    : NEUTRON      - NEUTRON TYPE
RESI.         0                    : RESIST       - RESISTIVITY TYPE
RMC .OHMM     0.25                 : RMC          - RESISTIVITY OF MUD CAKE
RMF .OHMM     0.25                 : RMF          - RESISTIVITY OF MUD FILTRATE
SUFT.C        15                   : SUFT         - SURFACE TEMPERATURE
~A  DEPTH     RESD     PHID     PHIN       GR
# ...
  474.000    4.888    0.201    0.356   72.272
  474.250    5.238    0.218    0.330   67.591
  474.500    5.582    0.232    0.332   65.946
  474.750    5.849    0.241    0.342   63.816
  475.000    6.140    0.235    0.346   65.936
  475.250    6.386    0.228    0.342   72.671
  475.500    6.507    0.225    0.336   77.343
  475.750    6.755    0.223    0.329   73.208
  476.000    6.960    0.232    0.321   68.891
  476.250    7.185    0.125    0.314   66.579
  476.500    7.321    0.091    0.306   64.691
  476.750    7.335    0.072    0.311   68.451
  477.000    7.066    0.141    0.334   73.669
  477.250    6.694    0.159    0.357   79.068
  477.500    6.426    0.171    0.379   75.116
  477.750    6.272    0.174    0.382   74.929
  478.000    6.272    0.172    0.357   79.478
  478.250    6.391    0.177    0.331   81.356
  478.500    6.585    0.186    0.328   84.569
  478.750    6.760    0.192    0.319   86.508
  479.000    7.070    0.199    0.305   80.793
  479.250    7.244    0.199    0.294   81.274
  479.500    7.395    0.189    0.302   84.670
  479.750    7.634    0.180    0.314   79.625
  480.000    7.837    0.190    0.329   72.940
  480.250    8.105    0.203    0.335   71.842
  480.500    8.525    0.204    0.340   75.298
  480.750    9.101    0.196    0.345   71.892
  481.000    9.918    0.203    0.347   69.216
  481.250   10.568    0.207    0.352   71.457
  481.500   11.304    0.202    0.346   66.837
  481.750   12.023    0.225    0.331   60.576
  482.000   12.669    0.250    0.318   55.896
  482.250   13.029    0.248    0.310   52.916
  482.500   13.079    0.228    0.327   58.133
  482.750   12.838    0.230    0.344   61.407
  483.000   12.720    0.243    0.329   59.155
  483.250   12.792    0.250    0.317   57.388
  483.500   13.009    0.255    0.332   55.258
  483.750   12.463    0.251    0.352   56.832
  484.000   11.503    0.247    0.363   59.195
  484.250   10.557    0.242    0.345   60.162
  484.500    9.853    0.234    0.329   66.351
  484.750    9.059    0.219    0.321   76.912
  485.000    8.439    0.211    0.360   83.770
  485.250    7.774    0.218    0.381   87.955
  485.500    7.162    0.251    0.376   80.481
  485.750    6.622    0.269    0.358   70.334
  486.000    6.238    0.268    0.344   62.495
  486.250    5.899    0.273    0.349   64.312
  486.500    5.568    0.268    0.344   68.558
  486.750    5.284    0.261    0.330   72.014
  487.000    5.006    0.255    0.314   75.166
  487.250    4.877    0.251    0.324   78.379
  487.500    4.850    0.247    0.333   80.379
  487.750    4.961    0.242    0.345   79.889
  488.000    5.217    0.227    0.321   81.037
  488.250    5.549    0.201    0.301   91.842
  488.500    6.070    0.171    0.286  102.464
  488.750    6.420    0.163    0.276  102.884
  489.000    6.665    0.164    0.276   97.596
  489.250    6.997    0.171    0.285   92.550
  489.500    7.183    0.177    0.300   87.141
  489.750    7.277    0.190    0.309   80.698
  490.000    7.278    0.207    0.295   75.896
  490.250    7.224    0.225    0.283   76.923
  490.500    7.171    0.230    0.291   79.894
  490.750    7.039    0.194    0.310   81.832
  491.000    6.909    0.178    0.338   83.465
  491.250    6.807    0.194    0.356   83.826
  491.500    6.719    0.216    0.369   80.117
  491.750    6.645    0.236    0.377   77.014
  492.000    6.547    0.242    0.371   73.973
  492.250    6.331    0.236    0.355   70.627
  492.500    6.088    0.232    0.332   68.376
  492.750    5.843    0.201    0.322   79.423
  493.000    5.714    0.168    0.368   90.045
  493.250    5.693    0.144    0.380   95.202
  493.500    5.736    0.153    0.353  100.420
  493.750    5.780    0.158    0.343   98.350
  494.000    5.823    0.103    0.351   94.033
  494.250    5.900    0.142    0.326   88.442
  494.500    5.716    0.162    0.317   92.201
  494.750    5.749    0.172    0.304   96.204
  495.000    5.781    0.171    0.350   96.260
  495.250    5.836    0.184    0.373   90.608
  495.500    5.858    0.206    0.341   84.590
  495.750    5.892    0.200    0.301   81.184
  496.000    5.881    0.179    0.280   82.698
  496.250    5.837    0.166    0.300   90.526
  496.500    5.773    0.188    0.338   92.222
  496.750    5.698    0.207    0.349   91.487
  497.000    5.709    0.220    0.329   87.778
  497.250    5.828    0.226    0.325   84.190
  497.500    5.927    0.212    0.344   81.695
  497.750    5.785    0.210    0.349   80.354
  498.000    5.532    0.199    0.361   80.350
  498.250    5.300    0.185    0.372   83.077
  498.500    5.164    0.176    0.383   87.141
  498.750    5.154    0.184    0.358   86.164
  499.000    5.232    0.190    0.323   83.730
  499.250    5.272    0.195    0.325   85.729
  499.500    5.331    0.188    0.359   87.606
  499.750    5.382    0.206    0.386   82.683
  500.000    5.372    0.226    0.378   76.848
  500.250    5.332    0.242    0.360   73.077
  500.500    5.176    0.226    0.369   79.206
  500.750    4.987    0.202    0.375   84.788
  501.000    4.831    0.194    0.378   91.098
  501.250    4.611    0.195    0.364   89.818
  501.500    4.434    0.189    0.334   85.441
  501.750    4.360    0.173    0.367   92.723
  502.000    4.280    0.169    0.389  101.402
  502.250    4.257    0.171    0.376  107.044
  502.500    4.281    0.171    0.358  107.950
  502.750    4.313    0.175    0.347  101.508
  503.000    4.305    0.180    0.345   95.977
  503.250    4.281    0.177    0.318  100.101
  503.500    4.210    0.168    0.301   97.424
  503.750    4.087    0.158    0.320   92.865
  504.000    3.996    0.147    0.339   96.320
  504.250    3.894    0.135    0.335   97.166
  504.500    3.765    0.143    0.363   97.282
  504.750    3.655    0.165    0.348   92.055
  505.000    3.587    0.183    0.380   82.030
  505.250    3.482    0.207    0.360   71.944
  505.500    3.268    0.232    0.341   65.684
  505.750    3.090    0.233    0.353   60.882
  506.000    2.933    0.229    0.387   68.467
  506.250    2.810    0.265    0.412   73.260
  506.500    2.707    0.298    0.419   60.381
  506.750    2.618    0.325    0.381   50.538
  507.000    2.589    0.266    0.367   58.488
  507.250    2.584    0.257    0.360   68.139
  507.500    2.633    0.270    0.346   75.117
  507.750    2.683    0.278    0.333   64.545
  508.000    2.718    0.284    0.315   61.747
  508.250    2.729    0.277    0.323   69.272
  508.500    2.708    0.259    0.371   75.644
  508.750    2.658    0.240    0.419   74.909
  509.000    2.674    0.250    0.420   68.832
  509.250    2.734    0.272    0.381   63.119
  509.500    2.855    0.292    0.346   58.681
  509.750    2.969    0.295    0.322   62.926
  510.000    3.164    0.265    0.317   71.544
  510.250    3.365    0.234    0.305   78.827
  510.500    3.480    0.198    0.307   84.773
  510.750    3.681    0.182    0.328   85.618
  511.000    3.757    0.189    0.350   82.759
  511.250    3.836    0.205    0.362   89.252
  511.500    3.908    0.188    0.348   99.145
  511.750    3.945    0.171    0.352  103.391
  512.000    3.931    0.165    0.330  104.782
  512.250    3.887    0.161    0.348  105.567
  512.500    3.887    0.182    0.368   97.242
  512.750    3.902    0.203    0.387   79.869
  513.000    3.991    0.249    0.341   68.326
  513.250    4.120    0.229    0.315   82.774
  513.500    4.253    0.195    0.317   97.222
  513.750    4.358    0.172    0.343  104.322
  514.000    4.457    0.159    0.366  103.710
  514.250    4.440    0.152    0.381   99.757
  514.500    4.375    0.147    0.369  101.028
  514.750    4.326    0.143    0.379  105.456
  515.000    4.286    0.140    0.394  108.851
  515.250    4.247    0.145    0.404  111.033
  515.500    4.247    0.152    0.421  110.359
  515.750    4.161    0.156    0.404  110.780
  516.000    3.964    0.153    0.373  112.293
  516.250    3.769    0.152    0.369  114.231
  516.500    3.545    0.154    0.414  111.189
  516.750    3.389    0.213    0.429   96.671
  517.000    3.271    0.255    0.364   76.444
  517.250    3.117    0.268    0.337   72.005
