~VERSION INFORMATION
 VERS.                 2.0:   CWLS LOG ASCII STANDARD -VERSION 2.0
 WRAP.                  NO:   ONE LINE PER DEPTH STEP
~WELL INFORMATION BLOCK
#MNEM.UNIT           DATA                    DESCRIPTION OF MNEMONIC
#---------    -------------------            -------------------------------
# Generated from Intellog Unique Number	CS_69_70/WELL/810
WELL.         HUSKY OIL OPERATIONS           : Well_name    - WELL
LOC .         00/06-36-069-06W4/0            : Location     - LOCATION
UWI .         00/06-36-069-06W4/0            : Uwi          - UNIQUE WELL ID
ENTR.         SP                             : Entered      - ENTERED BY
SRVC.         SCHLUMBERGER                   : Scn          - SERVICE COMPANY
STRT.M        340                            : top_depth    - START DEPTH
STOP.M        585                            : bot_depth    - STOP DEPTH
STEP.M        0.25                           : increment    - STEP LENGTH
 NULL. -999.2500:NULL Value
~CURVE INFORMATION BLOCK
#MNEM UNIT       ERCB CURVE CODE    CURVE DESCRIPTION
#-----------   ------------------   ----------------------------------
DEPT.M        00 001 00 00         : DEPTH        - DEPTH
ILD .OHMM     00 120 00 00         : RESD         - DEEP RESISTIVITY (DIL)
DPHI.V/V      00 890 00 00         : PHID         - DENSITY POROSITY (LIMESTONE)
NPHI.V/V      00 330 00 00         : PHIN         - NEUTRON POROSITY (LIMESTONE)
GR  .API      00 310 00 00         : GR           - GAMMA RAY
~PARAMETER INFORMATION
#MNEM.UNIT           DATA             DESCRIPTION OF MNEMONIC
#---------         -----------     ------------------------------
GL  .M        692.4                : gl           - GROUND LEVEL ELEVATION
EREF.M        696                  : kb           - ELEVATION OF DEPTH REFERENCE
DATM.M        692.4                : datum        - DATUM ELEVATION
TDD .M        592                  : tdd          - TOTAL DEPTH DRILLER
RUN .         ONE                  : Run          - RUN NUMBER
ENG .         BILL                 : Engineer     - RECORDING ENGINEER
WIT .         JIM                  : Witness      - WITNESSED BY
MUD .         GEL                  : Mud_type     - MUD TYPE
MATR.         LIMESTONE            : Logunit      - NEUTRON MATRIX
TMAX.C        25                   : BHT          - MAXIMUM RECORDED TEMPERATURE
BHTD.M        592                  : BHTDEP       - MAXIMUM RECORDED TEMPERATURE
MATR.         1                    : LOGUNIT      - NEUTRON MATRIX
RMT .C        25                   : MDTP         - TEMPERATURE OF MUD
NEUT.         1                    : NEUTRON      - NEUTRON TYPE
RESI.         0                    : RESIST       - RESISTIVITY TYPE
RMC .OHMM     0.25                 : RMC          - RESISTIVITY OF MUD CAKE
RMF .OHMM     0.25                 : RMF          - RESISTIVITY OF MUD FILTRATE
SUFT.C        15                   : SUFT         - SURFACE TEMPERATURE
~A  DEPTH     RESD     PHID     PHIN       GR
  340.000    2.695    0.255    0.507   98.894
  340.250    2.681    0.252    0.522   99.510
  340.500    2.764    0.250    0.532   99.157
  340.750    2.844    0.249    0.506   94.807
  341.000    2.959    0.257    0.494   90.941
  341.250    3.039    0.257    0.485   98.945
  341.500    3.110    0.243    0.483   97.624
  341.750    3.224    0.231    0.495   95.937
  342.000    3.323    0.221    0.497   94.860
  342.250    3.362    0.213    0.489   94.685
  342.500    3.377    0.210    0.482   94.094
  342.750    3.378    0.223    0.471   94.101
  343.000    3.367    0.231    0.463   94.110
  343.250    3.362    0.236    0.476   92.182
  343.500    3.332    0.226    0.474   89.285
  343.750    3.334    0.202    0.470   85.359
  344.000    3.404    0.185    0.479   91.425
  344.250    3.543    0.208    0.486   95.613
  344.500    3.585    0.227    0.486   97.319
  344.750    3.586    0.234    0.497  100.418
  345.000    3.561    0.238    0.506   98.734
  345.250    3.509    0.240    0.489   97.168
  345.500    3.484    0.239    0.470  108.623
  345.750    3.377    0.236    0.456   94.282
  346.000    3.187    0.239    0.437   89.507
  346.250    3.077    0.244    0.451   92.244
  346.500    2.977    0.242    0.481   96.249
  346.750    2.972    0.252    0.500   92.565
  347.000    3.924    0.256    0.514   81.433
  347.250    4.735    0.255    0.525   71.754
  347.500    6.490    0.268    0.420   63.528
  347.750    9.463    0.288    0.298   53.363
  348.000   13.566    0.323    0.258   43.623
  348.250   18.770    0.358    0.211   51.143
  348.500   23.035    0.401    0.234   55.089
  348.750   21.500    0.397    0.251   57.521
  349.000   12.259    0.392    0.269   60.076
  349.250    8.885    0.385    0.305   62.507
  349.500    7.370    0.379    0.355   65.121
  349.750    6.626    0.375    0.390   68.282
  350.000    6.255    0.372    0.419   69.138
  350.250    6.061    0.370    0.438   66.122
  350.500    5.997    0.389    0.434   60.620
  350.750    6.044    0.425    0.441   56.270
  351.000    6.301    0.407    0.463   51.496
  351.250    6.387    0.369    0.396   49.568
  351.500    6.366    0.336    0.354   48.247
  351.750    6.274    0.317    0.358   47.468
  352.000    6.137    0.329    0.364   45.662
  352.250    5.948    0.335    0.360   44.401
  352.500    5.905    0.334    0.356   44.471
  352.750    5.776    0.324    0.355   45.691
  353.000    5.682    0.322    0.385   45.278
  353.250    5.684    0.320    0.394   51.828
  353.500    5.795    0.321    0.398   51.656
  353.750    5.896    0.320    0.375   60.630
  354.000    6.090    0.310    0.358   71.903
  354.250    6.161    0.287    0.351   82.392
  354.500    6.327    0.265    0.388   88.639
  354.750    6.462    0.241    0.405   92.282
  355.000    6.599    0.221    0.423   91.626
  355.250    6.566    0.235    0.423   88.609
  355.500    6.519    0.251    0.415   83.350
  355.750    6.401    0.266    0.409   78.335
  356.000    6.309    0.295    0.407   75.740
  356.250    6.229    0.310    0.402   76.173
  356.500    6.185    0.302    0.397   78.908
  356.750    6.188    0.297    0.400   83.521
  357.000    6.237    0.305    0.407   87.832
  357.250    6.310    0.310    0.419   89.173
  357.500    6.420    0.305    0.419   90.213
  357.750    6.495    0.301    0.417   95.007
  358.000    6.547    0.308    0.416   99.378
  358.250    6.577    0.316    0.419  101.749
  358.500    6.577    0.281    0.432   95.461
  358.750    6.581    0.248    0.445   91.233
  359.000    6.595    0.230    0.425   88.396
  359.250    6.686    0.225    0.406   85.923
  359.500    6.802    0.224    0.399   84.479
  359.750    6.973    0.224    0.395   88.911
  360.000    7.015    0.221    0.387   90.739
  360.250    6.979    0.219    0.381   91.171
  360.500    6.969    0.232    0.383   97.845
  360.750    6.920    0.249    0.404  103.425
  361.000    6.845    0.269    0.420  108.824
  361.250    6.585    0.285    0.446  113.619
  361.500    6.380    0.285    0.459  115.566
  361.750    6.001    0.203    0.450  103.891
  362.000    5.376    0.160    0.443   96.875
  362.250    5.247    0.142    0.443   97.186
  362.500    4.789    0.132    0.464  104.646
  362.750    4.504    0.140    0.479  109.562
  363.000    3.983    0.166    0.493  112.054
  363.250    3.939    0.203    0.491  112.427
  363.500    3.718    0.225    0.486  114.134
  363.750    3.576    0.236    0.485  116.566
  364.000    3.485    0.246    0.491  118.454
  364.250    3.586    0.260    0.509  112.710
  364.500    4.090    0.274    0.530  102.485
  364.750    4.605    0.284    0.548   91.051
  365.000    5.233    0.291    0.433   82.400
  365.250    5.858    0.271    0.404   72.418
  365.500    6.412    0.236    0.391   78.060
  365.750    7.085    0.206    0.384   86.247
  366.000    7.236    0.175    0.374   91.949
  366.250    7.212    0.207    0.396   96.379
  366.500    6.936    0.257    0.426   90.212
  366.750    6.634    0.297    0.452   67.088
  367.000    6.322    0.328    0.415   46.629
  367.250    6.126    0.346    0.383   34.043
  367.500    6.026    0.353    0.360   28.178
  367.750    5.939    0.348    0.362   33.823
  368.000    5.908    0.339    0.383   36.435
  368.250    5.889    0.338    0.390   40.202
  368.500    5.913    0.342    0.388   42.935
  368.750    5.950    0.345    0.388   46.277
  369.000    5.997    0.344    0.391   48.831
  369.250    6.044    0.339    0.393   50.051
  369.500    6.150    0.336    0.379   50.303
  369.750    6.245    0.334    0.370   48.435
  370.000    6.451    0.331    0.362   52.322
  370.250    6.600    0.326    0.379   60.085
  370.500    6.715    0.318    0.392   64.820
  370.750    6.871    0.304    0.400   66.644
  371.000    6.978    0.295    0.402   63.869
  371.250    6.993    0.285    0.392   63.757
  371.500    6.777    0.293    0.386   62.980
  371.750    6.532    0.309    0.398   59.962
  372.000    6.364    0.320    0.414   55.250
  372.250    6.191    0.327    0.415   52.837
  372.500    6.034    0.330    0.406   55.391
  372.750    5.980    0.328    0.399   58.913
  373.000    5.915    0.326    0.403   62.376
  373.250    5.907    0.331    0.409   60.327
  373.500    5.649    0.341    0.413   55.854
  373.750    5.673    0.349    0.405   54.411
  374.000    5.773    0.353    0.403   55.511
  374.250    5.796    0.355    0.409   57.580
  374.500    5.897    0.354    0.409   60.195
  374.750    5.978    0.346    0.409   62.627
  375.000    6.116    0.340    0.411   64.575
  375.250    6.293    0.339    0.417   69.551
  375.500    6.561    0.335    0.411   76.344
  375.750    6.840    0.327    0.405   80.653
  376.000    6.999    0.317    0.405   83.691
  376.250    7.041    0.311    0.422   86.669
  376.500    7.084    0.303    0.431   93.522
  376.750    7.303    0.286    0.438   98.437
  377.000    7.528    0.274    0.425   89.908
  377.250    7.761    0.243    0.378   78.050
  377.500    8.000    0.216    0.360   72.549
  377.750    8.110    0.191    0.391   75.404
  378.000    8.129    0.230    0.414   78.382
  378.250    7.966    0.271    0.422   78.816
  378.500    7.562    0.299    0.426   82.701
  378.750    7.246    0.289    0.415   85.982
  379.000    7.022    0.276    0.410   88.961
  379.250    6.741    0.270    0.412   90.362
  379.500    6.472    0.269    0.420   91.159
  379.750    6.224    0.284    0.440   91.171
  380.000    6.032    0.297    0.455   90.817
  380.250    5.845    0.295    0.464   91.190
  380.500    5.870    0.293    0.478   93.138
  380.750    6.052    0.293    0.487   94.481
  381.000    6.333    0.294    0.458   94.672
  381.250    6.714    0.294    0.449   89.111
  381.500    7.066    0.277    0.469   82.459
  381.750    7.366    0.269    0.460   78.292
  382.000    7.523    0.270    0.451   75.939
  382.250    7.640    0.271    0.441   74.980
  382.500    7.715    0.264    0.434   76.081
  382.750    7.776    0.270    0.441   76.938
  383.000    7.809    0.271    0.450   78.159
  383.250    7.696    0.249    0.456   81.803
