~VERSION INFORMATION
 VERS.                 2.0:   CWLS LOG ASCII STANDARD -VERSION 2.0
 WRAP.                  NO:   ONE LINE PER DEPTH STEP
~WELL INFORMATION BLOCK
#MNEM.UNIT           DATA                    DESCRIPTION OF MNEMONIC
#---------    -------------------            -------------------------------
# Generated from Intellog Unique Number	CS_71_72/WELL/701
WELL.         SULPETRO ET AL IPIATIK         : Well_name    - WELL
LOC .         00/06-01-072-11W4/0            : Location     - LOCATION
UWI .         00/06-01-072-11W4/0            : Uwi          - UNIQUE WELL ID
ENTR.         SP                             : Entered      - ENTERED BY
SRVC.         SCHLUMBERGER                   : Scn          - SERVICE COMPANY
STRT.M        295                            : top_depth    - START DEPTH
STOP.M        525                            : bot_depth    - STOP DEPTH
STEP.M        0.25                           : increment    - STEP LENGTH
 NULL. -999.2500:NULL Value
~CURVE INFORMATION BLOCK
#MNEM UNIT       ERCB CURVE CODE    CURVE DESCRIPTION
#-----------   ------------------   ----------------------------------
DEPT.M        00 001 00 00         : DEPTH        - DEPTH
ILD .OHMM     00 120 00 00         : RESD         - DEEP RESISTIVITY (DIL)
DPHI.V/V      00 890 00 00         : PHID         - DENSITY POROSITY (LIMESTONE)
NPHI.V/V      00 330 00 00         : PHIN         - NEUTRON POROSITY (LIMESTONE)
GR  .API      00 310 00 00         : GR           - GAMMA RAY
~PARAMETER INFORMATION
#MNEM.UNIT           DATA             DESCRIPTION OF MNEMONIC
#---------         -----------     ------------------------------
GL  .M        644.9                : gl           - GROUND LEVEL ELEVATION
EREF.M        648.4                : kb           - ELEVATION OF DEPTH REFERENCE
DATM.M        644.9                : datum        - DATUM ELEVATION
TDD .M        529                  : tdd          - TOTAL DEPTH DRILLER
RUN .         ONE                  : Run          - RUN NUMBER
ENG .         BILL                 : Engineer     - RECORDING ENGINEER
WIT .         JIM                  : Witness      - WITNESSED BY
MUD .         GEL                  : Mud_type     - MUD TYPE
MATR.         LIMESTONE            : Logunit      - NEUTRON MATRIX
TMAX.C        20                   : BHT          - MAXIMUM RECORDED TEMPERATURE
BHTD.M        529                  : BHTDEP       - MAXIMUM RECORDED TEMPERATURE
MATR.         1                    : LOGUNIT      - NEUTRON MATRIX
RMT .C        25                   : MDTP         - TEMPERATURE OF MUD
NEUT.         1                    : NEUTRON      - NEUTRON TYPE
RESI.         0                    : RESIST       - RESISTIVITY TYPE
RMC .OHMM     0.25                 : RMC          - RESISTIVITY OF MUD CAKE
RMF .OHMM     0.25                 : RMF          - RESISTIVITY OF MUD FILTRATE
SUFT.C        15                   : SUFT         - SURFACE TEMPERATURE
~A  DEPTH     RESD     PHID     PHIN       GR
# ...
  425.500    5.820    0.272    0.416   81.487
  425.750    6.044    0.259    0.409   83.305
  426.000    6.275    0.240    0.408   84.515
  426.250    6.516    0.230    0.412   85.726
  426.500    6.640    0.233    0.418   86.329
  426.750    6.641    0.258    0.419   81.466
  427.000    6.768    0.271    0.414   74.781
  427.250    6.644    0.262    0.403   71.134
  427.500    6.645    0.248    0.398   69.915
  427.750    6.646    0.241    0.404   74.160
  428.000    6.524    0.240    0.409   75.371
  428.250    6.286    0.251    0.410   78.401
  428.500    6.170    0.263    0.432   80.219
  428.750    6.056    0.250    0.432   82.645
  429.000    5.727    0.250    0.430   85.675
  429.250    5.622    0.252    0.433   86.281
  429.500    5.416    0.259    0.420   82.632
  429.750    4.934    0.258    0.420   77.162
  430.000    4.843    0.251    0.429   77.157
  430.250    4.579    0.246    0.435   78.974
  430.500    4.412    0.242    0.443   78.363
  430.750    4.330    0.247    0.443   79.574
  431.000    4.331    0.251    0.441   80.784
  431.250    4.332    0.258    0.454   78.349
  431.500    4.415    0.269    0.466   74.701
  431.750    4.499    0.277    0.477   73.483
  432.000    4.585    0.286    0.459   77.121
  432.250    4.586    0.262    0.441   80.759
  432.500    4.586    0.250    0.421   81.365
  432.750    4.674    0.241    0.411   84.395
  433.000    4.853    0.225    0.411   86.820
  433.250    4.946    0.210    0.409   86.208
  433.500    5.040    0.234    0.418   83.168
  433.750    5.233    0.242    0.425   78.913
  434.000    5.333    0.247    0.426   75.263
  434.250    5.538    0.248    0.418   74.045
  434.500    5.644    0.245    0.415   74.041
  434.750    5.751    0.238    0.418   74.036
  435.000    5.861    0.236    0.420   74.033
  435.250    5.973    0.247    0.418   74.632
  435.500    5.974    0.256    0.417   74.629
  435.750    5.975    0.268    0.417   75.233
  436.000    5.865    0.263    0.412   75.836
  436.250    5.866    0.236    0.407   77.046
  436.500    5.759    0.218    0.399   78.255
  436.750    5.548    0.200    0.390   78.860
  437.000    5.149    0.198    0.405   80.675
  437.250    4.960    0.216    0.417   81.887
  437.500    4.518    0.224    0.417   85.525
  437.750    3.890    0.230    0.417   88.558
  438.000    3.350    0.238    0.464   88.554
  438.250    3.051    0.232    0.484   84.906
  438.500    2.831    0.244    0.504   85.509
  438.750    2.579    0.241    0.516   89.755
  439.000    2.484    0.241    0.524   94.001
  439.250    2.485    0.229    0.504   90.961
  439.500    2.532    0.222    0.448   87.313
  439.750    2.942    0.217    0.436   88.523
  440.000    3.231    0.234    0.422   88.519
  440.250    3.549    0.250    0.410   86.085
  440.500    3.898    0.263    0.410   84.866
  440.750    4.362    0.252    0.413   78.788
  441.000    4.615    0.260    0.414   76.355
  441.250    4.792    0.270    0.418   77.564
  441.500    4.617    0.274    0.422   78.775
  441.750    4.532    0.268    0.427   79.985
  442.000    4.449    0.267    0.416   80.588
  442.250    4.449    0.278    0.410   79.975
  442.500    4.368    0.289    0.412   78.150
  442.750    4.368    0.277    0.416   81.180
  443.000    4.452    0.250    0.418   82.392
  443.250    4.453    0.229    0.419   85.425
  443.500    4.623    0.210    0.425   84.813
  443.750    4.712    0.225    0.435   80.556
  444.000    4.893    0.233    0.451   78.123
  444.250    4.986    0.244    0.464   76.903
  444.500    5.177    0.245    0.479   76.292
  444.750    5.477    0.242    0.414   75.681
  445.000    5.581    0.237    0.410   75.070
  445.250    5.905    0.222    0.406   76.886
  445.500    6.365    0.174    0.406   78.702
  445.750    6.487    0.139    0.407   79.912
  446.000    6.735    0.106    0.398   81.732
  446.250    6.611    0.163    0.384   84.157
  446.500    6.251    0.190    0.394   86.581
  446.750    5.802    0.200    0.412   87.184
  447.000    5.590    0.210    0.433   87.787
  447.250    5.487    0.197    0.454   86.568
  447.500    5.488    0.192    0.405   85.957
  447.750    5.489    0.188    0.401   85.345
  448.000    5.490    0.186    0.405   87.769
  448.250    5.594    0.187    0.406   88.372
  448.500    5.596    0.209    0.405   87.154
  448.750    5.597    0.226    0.415   84.113
  449.000    5.598    0.237    0.419   81.072
  449.250    5.599    0.248    0.409   78.638
  449.500    5.600    0.220    0.411   84.704
  449.750    5.601    0.211    0.422   85.309
  450.000    5.602    0.205    0.433   85.303
  450.250    5.603    0.216    0.417   83.479
  450.500    5.604    0.220    0.406   86.509
  450.750    5.605    0.213    0.410   88.935
  451.000    5.606    0.208    0.412   93.789
  451.250    5.607    0.201    0.411   97.428
  451.500    5.714    0.213    0.407   93.171
  451.750    5.715    0.216    0.407   90.131
  452.000    5.716    0.227    0.403   87.698
  452.250    5.717    0.222    0.397   89.515
  452.500    5.406    0.218    0.400   93.761
  452.750    5.017    0.210    0.403   96.795
  453.000    4.743    0.204    0.403   99.826
  453.250    4.240    0.198    0.401  102.251
  453.500    3.862    0.201    0.417  104.069
  453.750    3.584    0.202    0.434   97.383
  454.000    3.145    0.205    0.437   93.736
  454.250    2.864    0.210    0.432   91.910
  454.500    2.609    0.222    0.435   88.868
  454.750    2.332    0.235    0.439   86.435
  455.000    2.289    0.241    0.449   90.681
  455.250    2.124    0.239    0.475  104.037
  455.500    2.125    0.231    0.516  110.712
  455.750    2.125    0.225    0.535  108.887
  456.000    2.207    0.238    0.522   97.951
  456.250    2.424    0.237    0.553   96.125
  456.500    2.612    0.230    0.596   98.550
  456.750    2.816    0.215    0.600   97.331
  457.000    3.093    0.215    0.570   87.002
  457.250    3.397    0.218    0.479   83.355
  457.500    3.527    0.229    0.425   84.564
  457.750    3.802    0.232    0.415   86.382
  458.000    3.948    0.225    0.414   86.377
  458.250    3.876    0.221    0.414   82.728
  458.500    3.804    0.223    0.404   86.974
  458.750    3.805    0.223    0.397   89.399
  459.000    3.878    0.223    0.410   91.825
  459.250    3.952    0.223    0.416   92.427
  459.500    4.181    0.227    0.404   86.958
  459.750    4.341    0.177    0.392   80.273
  460.000    4.342    0.151    0.387   76.018
  460.250    4.425    0.138    0.388   77.834
  460.500    4.344    0.159    0.388   80.259
  460.750    4.263    0.186    0.388   79.041
  461.000    4.031    0.203    0.391   77.215
  461.250    3.812    0.217    0.392   80.245
  461.500    3.673    0.224    0.394   82.062
  461.750    3.538    0.230    0.400   84.486
  462.000    3.346    0.213    0.415   86.305
  462.250    3.223    0.198    0.425   88.124
  462.500    3.105    0.190    0.416   92.976
  462.750    2.992    0.191    0.442   95.401
  463.000    2.882    0.196    0.455   97.219
  463.250    2.829    0.202    0.449  102.072
  463.500    2.726    0.201    0.467  103.284
  463.750    2.627    0.195    0.474  104.493
  464.000    2.627    0.191    0.451  103.273
  464.250    2.579    0.189    0.442  102.663
  464.500    2.628    0.203    0.431  100.229
  464.750    2.628    0.212    0.431   95.972
  465.000    2.679    0.206    0.445   94.146
  465.250    2.730    0.202    0.460   92.929
  465.500    2.781    0.197    0.462   92.925
  465.750    2.835    0.199    0.464   88.060
  466.000    2.943    0.216    0.467   85.628
  466.250    3.056    0.206    0.465   86.837
  466.500    3.057    0.190    0.441   87.441
  466.750    3.057    0.191    0.422   85.614
  467.000    3.001    0.208    0.436   88.037
  467.250    2.946    0.223    0.447   90.463
  467.500    2.734    0.218    0.455   95.317
  467.750    2.634    0.214    0.462   98.350
  468.000    2.444    0.211    0.471  105.025
  468.250    2.400    0.213    0.476  109.272
  468.500    2.587    0.222    0.461  105.015
  468.750    2.736    0.226    0.473  100.153
