~VERSION INFORMATION
 VERS.                 2.0:   CWLS LOG ASCII STANDARD -VERSION 2.0
 WRAP.                  NO:   ONE LINE PER DEPTH STEP
~WELL INFORMATION BLOCK
#MNEM.UNIT           DATA                    DESCRIPTION OF MNEMONIC
#---------    -------------------            -------------------------------
# Generated from Intellog Unique Number	CS_77_79/WELL/892
WELL.         BOW VALLEY INDUSTRIES LTD      : Well_name    - WELL
LOC .         00/07-07-077-14W4/0            : Location     - LOCATION
UWI .         00/07-07-077-14W4/0            : Uwi          - UNIQUE WELL ID
ENTR.         SP                             : Entered      - ENTERED BY
SRVC.         SCHLUMBERGER                   : Scn          - SERVICE COMPANY
STRT.M        260                            : top_depth    - START DEPTH
STOP.M        510                            : bot_depth    - STOP DEPTH
STEP.M        0.25                           : increment    - STEP LENGTH
 NULL. -999.2500:NULL Value
~CURVE INFORMATION BLOCK
#MNEM UNIT       ERCB CURVE CODE    CURVE DESCRIPTION
#-----------   ------------------   ----------------------------------
DEPT.M        00 001 00 00         : DEPTH        - DEPTH
ILD .OHMM     00 120 00 00         : RESD         - DEEP RESISTIVITY (DIL)
DPHI.V/V      00 890 00 00         : PHID         - DENSITY POROSITY (LIMESTONE)
NPHI.V/V      00 330 00 00         : PHIN         - NEUTRON POROSITY (LIMESTONE)
GR  .API      00 310 00 00         : GR           - GAMMA RAY
~PARAMETER INFORMATION
#MNEM.UNIT           DATA             DESCRIPTION OF MNEMONIC
#---------         -----------     ------------------------------
GL  .M        657                  : gl           - GROUND LEVEL ELEVATION
EREF.M        660.5                : kb           - ELEVATION OF DEPTH REFERENCE
DATM.M        657                  : datum        - DATUM ELEVATION
TDD .M        535                  : tdd          - TOTAL DEPTH DRILLER
RUN .         ONE                  : Run          - RUN NUMBER
ENG .         BILL                 : Engineer     - RECORDING ENGINEER
WIT .         JIM                  : Witness      - WITNESSED BY
MUD .         GEL                  : Mud_type     - MUD TYPE
MATR.         LIMESTONE            : Logunit      - NEUTRON MATRIX
TMAX.C        25                   : BHT          - MAXIMUM RECORDED TEMPERATURE
BHTD.M        535                  : BHTDEP       - MAXIMUM RECORDED TEMPERATURE
MATR.         1                    : LOGUNIT      - NEUTRON MATRIX
RMT .C        25                   : MDTP         - TEMPERATURE OF MUD
NEUT.         1                    : NEUTRON      - NEUTRON TYPE
RESI.         0                    : RESIST       - RESISTIVITY TYPE
RMC .OHMM     0.25                 : RMC          - RESISTIVITY OF MUD CAKE
RMF .OHMM     0.25                 : RMF          - RESISTIVITY OF MUD FILTRATE
SUFT.C        15                   : SUFT         - SURFACE TEMPERATURE
~A  DEPTH     RESD     PHID     PHIN       GR
# ...
  347.000   12.723    0.326    0.456   49.126
  347.250   12.490    0.345    0.456   49.767
  347.500   12.036    0.343    0.458   50.395
  347.750   11.815    0.358    0.469   50.416
  348.000   11.817    0.353    0.468   50.445
  348.250   11.819    0.354    0.463   49.246
  348.500   11.821    0.355    0.456   50.495
  348.750   11.823    0.353    0.466   52.345
  349.000   11.824    0.353    0.486   54.208
  349.250   11.608    0.354    0.491   54.837
  349.500   11.395    0.359    0.484   54.864
  349.750   11.398    0.360    0.471   53.671
  350.000   11.399    0.362    0.476   53.699
  350.250   11.401    0.364    0.483   54.339
  350.500   11.403    0.367    0.482   54.356
  350.750   11.405    0.367    0.482   56.225
  351.000   11.407    0.364    0.479   56.850
  351.250   11.624    0.353    0.479   59.322
  351.500   11.626    0.350    0.489   60.559
  351.750   11.628    0.347    0.490   62.418
  352.000   11.630    0.346    0.489   63.046
  352.250   10.999    0.341    0.491   63.677
  352.500   10.597    0.334    0.495   64.932
  352.750   10.021    0.323    0.504   66.175
  353.000    9.302    0.316    0.514   67.412
  353.250    8.962    0.307    0.521   69.276
  353.500    9.306    0.284    0.528   67.465
  353.750    9.661    0.272    0.508   64.443
  354.000   10.808    0.223    0.496   63.247
  354.250   11.867    0.163    0.422   63.881
  354.500   12.321    0.197    0.434   66.346
  354.750   12.095    0.324    0.480   71.254
  355.000   11.227    0.341    0.509   76.157
  355.250   10.618    0.337    0.511   78.010
  355.500   10.619    0.331    0.505   76.819
  355.750   10.232    0.330    0.503   77.460
  356.000    9.321    0.338    0.500   79.316
  356.250    8.335    0.328    0.495   81.168
  356.500    7.453    0.320    0.485   80.579
  356.750    6.918    0.320    0.490   81.215
  357.000    6.421    0.314    0.499   81.851
  357.250    6.543    0.303    0.516   83.098
  357.500    5.851    0.247    0.524   82.515
  357.750    5.232    0.206    0.511   83.156
  358.000    4.766    0.195    0.471   84.390
  358.250    4.342    0.200    0.488   86.852
  358.500    3.956    0.238    0.517   89.316
  358.750    3.812    0.241    0.527   89.959
  359.000    3.812    0.247    0.497   90.596
  359.250    4.109    0.234    0.498   91.226
  359.500    4.033    0.228    0.501   90.028
  359.750    3.959    0.219    0.499   89.452
  360.000    3.475    0.223    0.496   90.084
  360.250    3.476    0.217    0.499   90.109
  360.500    3.542    0.231    0.490   89.528
  360.750    3.962    0.235    0.499   88.945
  361.000    4.191    0.221    0.511   88.974
  361.250    4.433    0.238    0.517   88.989
  361.500    5.054    0.233    0.520   90.233
  361.750    5.345    0.230    0.524   91.480
  362.000    5.550    0.241    0.534   91.507
  362.250    5.655    0.251    0.533   90.922
  362.500    5.762    0.254    0.523   92.169
  362.750    5.763    0.242    0.521   93.412
  363.000    5.553    0.237    0.527   92.826
  363.250    5.154    0.275    0.518   92.248
  363.500    4.696    0.283    0.525   92.269
  363.750    4.441    0.301    0.528   91.685
  364.000    4.525    0.318    0.528   91.706
  364.250    4.787    0.345    0.541   92.346
  364.500    4.970    0.368    0.554   91.149
  364.750    5.457    0.364    0.556   88.741
  365.000    5.772    0.333    0.548   86.936
  365.250    6.221    0.339    0.522   83.913
  365.500    6.340    0.340    0.512   82.103
  365.750    6.108    0.311    0.502   83.348
  366.000    5.361    0.318    0.505   85.818
  366.250    4.532    0.320    0.515   90.117
  366.500    3.832    0.320    0.532   95.626
  366.750    3.426    0.291    0.566   99.309
  367.000    2.843    0.284    0.584  100.553
  367.250    2.542    0.286    0.603   98.756
  367.500    2.273    0.282    0.615   98.790
  367.750    2.150    0.290    0.618   99.413
  368.000    2.072    0.280    0.615   99.436
  368.250    2.034    0.265    0.608   97.629
  368.500    2.034    0.269    0.603   97.656
  368.750    2.152    0.279    0.597  100.736
  369.000    2.234    0.275    0.592  100.756
  369.250    2.319    0.266    0.599   99.561
  369.500    2.408    0.252    0.597   99.598
  369.750    2.547    0.246    0.576   99.011
  370.000    2.797    0.253    0.559   97.814
  370.250    2.904    0.257    0.554   95.400
  370.500    3.015    0.255    0.549   92.984
  370.750    3.310    0.253    0.546   89.349
  371.000    3.773    0.264    0.535   86.325
  371.250    3.991    0.276    0.527   83.308
  371.500    4.382    0.284    0.512   82.714
  371.750    4.635    0.271    0.507   87.018
  372.000    5.186    0.244    0.520   86.426
  372.250    5.486    0.242    0.521   82.793
  372.500    5.590    0.254    0.510   79.768
  372.750    5.696    0.261    0.492   76.141
  373.000    6.139    0.256    0.444   74.334
  373.250    7.263    0.251    0.404   71.307
  373.500    9.979    0.224    0.342   68.288
  373.750   11.164    0.074    0.292   64.649
  374.000   12.257    0.031    0.222   59.188
  374.250   13.971    0.045    0.229   56.161
  374.500   15.341    0.080    0.280   58.629
  374.750   13.718    0.112    0.313   62.317
  375.000   11.598    0.146    0.343   64.783
  375.250    9.272    0.184    0.370   65.413
  375.500    7.694    0.280    0.403   60.561
  375.750    6.880    0.305    0.431   58.144
  376.000    6.881    0.301    0.436   58.169
  376.250    6.756    0.301    0.450   58.810
  376.500    7.014    0.302    0.455   58.844
  376.750    7.281    0.308    0.457   58.252
  377.000    7.419    0.318    0.444   58.277
  377.250    7.561    0.318    0.450   58.307
  377.500    7.562    0.307    0.455   58.321
  377.750    7.852    0.303    0.457   58.348
  378.000    8.001    0.301    0.455   58.377
  378.250    8.002    0.294    0.442   57.179
  378.500    8.003    0.289    0.438   57.815
  378.750    7.156    0.288    0.445   60.278
  379.000    6.768    0.309    0.441   62.749
  379.250    6.521    0.309    0.434   64.612
  379.500    6.401    0.301    0.447   65.237
  379.750    6.284    0.307    0.455   66.488
  380.000    6.285    0.321    0.464   67.126
  380.250    6.287    0.331    0.469   68.987
  380.500    6.288    0.336    0.471   70.223
  380.750    6.289    0.338    0.471   72.091
  381.000    6.173    0.340    0.473   73.329
  381.250    6.174    0.350    0.471   73.954
  381.500    6.061    0.341    0.470   74.591
  381.750    5.950    0.332    0.473   75.835
  382.000    5.951    0.334    0.480   77.690
  382.250    5.952    0.329    0.486   79.551
  382.500    6.065    0.318    0.491   81.406
  382.750    5.954    0.313    0.502   82.032
  383.000    5.955    0.319    0.506   82.062
  383.250    5.846    0.318    0.500   81.478
  383.500    5.847    0.299    0.498   81.498
  383.750    5.848    0.282    0.509   76.650
  384.000    5.849    0.278    0.516   74.234
  384.250    5.742    0.278    0.516   73.037
  384.500    5.637    0.277    0.511   74.288
  384.750    5.637    0.280    0.508   76.760
  385.000    5.534    0.286    0.506   77.993
  385.250    5.332    0.295    0.505   79.848
  385.500    5.138    0.301    0.506   82.316
  385.750    4.951    0.293    0.518   82.952
  386.000    4.951    0.291    0.534   81.760
  386.250    5.045    0.318    0.535   79.947
  386.500    5.046    0.321    0.521   76.925
  386.750    5.048    0.313    0.509   77.564
  387.000    5.048    0.310    0.502   79.418
  387.250    5.049    0.304    0.508   81.275
  387.500    5.050    0.292    0.506   84.351
  387.750    4.957    0.297    0.489   86.203
  388.000    4.866    0.301    0.483   84.403
  388.250    4.777    0.335    0.493   82.597
  388.500    4.778    0.349    0.505   81.398
  388.750    5.055    0.346    0.519   79.597
  389.000    5.247    0.319    0.520   79.024
  389.250    5.347    0.276    0.513   79.042
  389.500    5.449    0.266    0.501   79.065
  389.750    5.349    0.272    0.491   80.304
  390.000    5.251    0.284    0.483   82.782
  390.250    5.155    0.271    0.487   83.404
