~VERSION INFORMATION
 VERS.                 2.0:   CWLS LOG ASCII STANDARD -VERSION 2.0
 WRAP.                  NO:   ONE LINE PER DEPTH STEP
~WELL INFORMATION BLOCK
#MNEM.UNIT           DATA                    DESCRIPTION OF MNEMONIC
#---------    -------------------            -------------------------------
# Generated from Intellog Unique Number	CS_67_68/WELL/2187
WELL.         08-29-067-07W4                 : Well_name    - WELL
LOC .         00/08-29-067-07W4/0            : Location     - LOCATION
UWI .         00/08-29-067-07W4/0            : Uwi          - UNIQUE WELL ID
ENTR.         SP                             : Entered      - ENTERED BY
SRVC.         SCHLUMBERGER                   : Scn          - SERVICE COMPANY
STRT.M        365                            : top_depth    - START DEPTH
STOP.M        595                            : bot_depth    - STOP DEPTH
STEP.M        0.25                           : increment    - STEP LENGTH
 NULL. -999.2500:NULL Value
~CURVE INFORMATION BLOCK
#MNEM UNIT       ERCB CURVE CODE    CURVE DESCRIPTION
#-----------   ------------------   ----------------------------------
DEPT.M        00 001 00 00         : DEPTH        - DEPTH
ILD .OHMM     00 120 00 00         : RESD         - DEEP RESISTIVITY (DIL)
DPHI.V/V      00 890 00 00         : PHID         - DENSITY POROSITY (LIMESTONE)
NPHI.V/V      00 330 00 00         : PHIN         - NEUTRON POROSITY (LIMESTONE)
GR  .API      00 310 00 00         : GR           - GAMMA RAY
CALI.MM       00 280 01 00         : CAL          - CALIPER
~PARAMETER INFORMATION
#MNEM.UNIT           DATA             DESCRIPTION OF MNEMONIC
#---------         -----------     ------------------------------
GL  .M        686.24               : gl           - GROUND LEVEL ELEVATION
EREF.M        690.14               : kb           - ELEVATION OF DEPTH REFERENCE
DATM.M        690.14               : datum        - DATUM ELEVATION
TDD .M        612                  : tdd          - TOTAL DEPTH DRILLER
RUN .         ONE                  : Run          - RUN NUMBER
ENG .         BILL                 : Engineer     - RECORDING ENGINEER
WIT .         JIM                  : Witness      - WITNESSED BY
MUD .         GEL                  : Mud_type     - MUD TYPE
MATR.         LIMESTONE            : Logunit      - NEUTRON MATRIX
TMAX.C        25                   : BHT          - MAXIMUM RECORDED TEMPERATURE
BHTD.M        612                  : BHTDEP       - MAXIMUM RECORDED TEMPERATURE
MATR.         1                    : LOGUNIT      - NEUTRON MATRIX
RMT .C        25                   : MDTP         - TEMPERATURE OF MUD
NEUT.         1                    : NEUTRON      - NEUTRON TYPE
RESI.         0                    : RESIST       - RESISTIVITY TYPE
RMC .OHMM     0.25                 : RMC          - RESISTIVITY OF MUD CAKE
RMF .OHMM     0.25                 : RMF          - RESISTIVITY OF MUD FILTRATE
SUFT.C        15                   : SUFT         - SURFACE TEMPERATURE
~A  DEPTH     RESD     PHID     PHIN       GR      CAL
# ...
  547.500    7.108    0.182    0.369  111.494  250.152
  547.750    6.974    0.188    0.361  106.131  252.337
  548.000    6.778    0.204    0.363  101.816  253.388
  548.250    6.688    0.201    0.365   97.933  254.027
  548.500    6.599    0.214    0.370   92.693  253.633
  548.750    6.624    0.232    0.381   90.541  252.211
  549.000    6.636    0.228    0.390  101.371  250.585
  549.250    6.723    0.216    0.371  111.643  248.749
  549.500    6.968    0.201    0.362  124.076  245.988
  549.750    7.291    0.187    0.395  127.302  241.585
  550.000    7.529    0.203    0.425  119.961  238.512
  550.250    7.877    0.224    0.408  113.236  234.208
  550.500    8.165    0.244    0.382  106.141  229.595
  550.750    8.462    0.241    0.359  100.528  224.877
  551.000    8.804    0.215    0.339  105.795  219.335
  551.250    9.177    0.193    0.333   97.711  215.539
  551.500    9.494    0.213    0.345   89.938  209.482
  551.750    9.877    0.238    0.356   86.857  197.038
  552.000   10.008    0.258    0.359   81.803  187.377
  552.250    9.950    0.267    0.343   76.745  178.229
  552.500    9.294    0.264    0.338   69.712  171.554
  552.750    7.721    0.266    0.337   65.275  166.939
  553.000    6.905    0.274    0.324   58.057  165.208
  553.250    6.175    0.281    0.315   53.124  165.747
  553.500    5.681    0.268    0.314   61.357  167.722
  553.750    5.542    0.241    0.320   84.915  170.732
  554.000    5.458    0.209    0.326   98.650  174.460
  554.250    5.562    0.180    0.330  104.841  179.426
  554.500    5.798    0.212    0.331   95.831  184.595
  554.750    6.135    0.237    0.325   86.757  190.177
  555.000    6.444    0.250    0.317   87.450  196.171
  555.250    6.768    0.220    0.308  106.003  204.844
  555.500    7.055    0.175    0.300  117.881  212.900
  555.750    7.271    0.163    0.314  124.507  218.895
  556.000    7.381    0.170    0.321  121.490  224.065
  556.250    7.422    0.174    0.313  116.805  228.413
  556.500    7.463    0.176    0.316  112.244  231.113
  556.750    7.519    0.172    0.330  119.119  233.295
  557.000    7.476    0.160    0.345  126.175  234.448
  557.250    7.279    0.133    0.365  131.503  233.752
  557.500    7.142    0.123    0.379  124.407  232.738
  557.750    7.128    0.132    0.370  112.800  230.698
  558.000    7.167    0.146    0.361  101.379  228.761
  558.250    7.248    0.159    0.359   95.087  225.796
  558.500    7.330    0.166    0.360   95.843  220.873
  558.750    7.455    0.172    0.351   97.028  216.462
  559.000    7.568    0.197    0.359   97.967  209.375
  559.250    7.582    0.197    0.366   97.979  202.391
  559.500    7.524    0.189    0.364   95.334  194.275
  559.750    7.354    0.186    0.358   96.768  187.393
  560.000    7.215    0.192    0.355  100.921  182.473
  560.250    7.160    0.194    0.359  105.075  179.707
  560.500    7.146    0.192    0.356  109.598  177.050
  560.750    7.199    0.186    0.342  114.000  174.806
  561.000    7.618    0.171    0.328  109.376  172.251
  561.250    7.896    0.155    0.316  103.455  170.004
  561.500    7.821    0.164    0.335   99.080  167.862
  561.750    7.487    0.200    0.347   99.709  165.926
  562.000    7.047    0.209    0.353   98.671  164.092
  562.250    6.570    0.235    0.353   92.440  162.773
  562.500    6.195    0.254    0.354   87.447  161.458
  562.750    5.743    0.265    0.361   82.762  160.860
  563.000    5.425    0.284    0.365   76.594  160.363
  563.250    5.174    0.298    0.360   68.633  160.284
  563.500    5.010    0.294    0.358   61.538  160.095
  563.750    4.897    0.284    0.363   57.286  160.320
  564.000    4.777    0.285    0.368   58.906  160.035
  564.250    4.741    0.286    0.355   60.835  160.052
  564.500    4.740    0.283    0.340   61.835  159.665
  564.750    4.722    0.290    0.326   58.141  159.373
  565.000    4.730    0.277    0.330   56.173  159.291
  565.250    4.765    0.257    0.322   68.298  159.003
  565.500    4.967    0.235    0.316   79.437  158.404
  565.750    5.277    0.228    0.311   88.657  158.013
  566.000    5.532    0.223    0.319   98.558  157.621
  566.250    5.755    0.211    0.332  105.492  156.200
  566.500    5.920    0.216    0.343  109.769  154.469
  566.750    6.021    0.230    0.331  108.112  153.252
  567.000    6.077    0.219    0.334  104.787  152.553
  567.250    6.042    0.201    0.342  103.255  152.265
  567.500    5.985    0.191    0.352  101.413  152.490
  567.750    5.861    0.188    0.362   98.026  152.615
  568.000    5.611    0.191    0.369   93.588  152.634
  568.250    5.182    0.213    0.374   90.944  152.655
  568.500    4.767    0.239    0.379   90.338  153.190
  568.750    4.453    0.277    0.377   89.607  153.831
  569.000    4.199    0.297    0.364   85.850  154.263
  569.250    3.974    0.307    0.355   76.839  154.282
  569.500    3.776    0.291    0.344   60.411  153.889
  569.750    3.663    0.264    0.337   50.906  153.600
  570.000    3.607    0.266    0.335   55.491  153.936
  570.250    3.546    0.286    0.341   49.014  154.265
  570.500    3.434    0.303    0.346   41.919  154.489
  570.750    3.306    0.310    0.350   35.256  154.507
  571.000    3.231    0.314    0.354   30.819  154.321
  571.250    3.158    0.319    0.348   31.265  154.755
  571.500    3.093    0.317    0.345   33.007  155.086
  571.750    3.052    0.316    0.349   34.380  155.824
  572.000    3.023    0.315    0.354   35.626  156.259
  572.250    3.034    0.316    0.359   36.073  156.485
  572.500    3.062    0.320    0.364   37.753  156.710
  572.750    3.126    0.323    0.370   41.104  156.939
  573.000    3.162    0.325    0.375   41.733  156.751
  573.250    3.167    0.326    0.381   36.184  156.772
  573.500    3.161    0.346    0.387   32.919  157.410
  573.750    3.143    0.375    0.398   34.044  158.154
  574.000    3.119    0.376    0.423   36.775  158.481
  574.250    3.083    0.360    0.444   33.513  158.707
  574.500    3.048    0.353    0.422   31.237  159.037
  574.750    3.013    0.362    0.400   32.178  159.469
  575.000    2.904    0.338    0.378   26.780  177.493
  575.250    2.872    0.334    0.367   25.093  161.955
  575.500    2.862    0.337    0.359   24.587  161.628
  575.750    2.863    0.342    0.350   27.746  161.507
  576.000    2.864    0.334    0.358   30.594  161.179
  576.250    2.870    0.325    0.360   33.566  161.059
  576.500    2.909    0.324    0.359   35.669  161.250
  576.750    3.005    0.335    0.366   34.603  161.648
  577.000    3.070    0.346    0.370   31.983  161.941
  577.250    3.147    0.351    0.363   32.594  161.821
  577.500    3.245    0.345    0.382   34.511  161.909
  577.750    3.277    0.340    0.385   33.754  161.788
  578.000    3.210    0.337    0.374   31.508  161.665
  578.250    3.115    0.337    0.364   31.188  161.444
  578.500    3.023    0.333    0.371   31.984  160.910
  578.750    2.984    0.344    0.380   32.720  159.854
  579.000    2.923    0.352    0.373   33.581  159.737
  579.250    2.896    0.351    0.362   34.254  159.409
  579.500    2.886    0.343    0.360   34.554  158.979
  579.750    2.881    0.336    0.364   34.669  158.445
  580.000    2.871    0.338    0.366   33.789  162.777
  580.250    2.861    0.341    0.358   32.038  160.792
  580.500    2.862    0.331    0.352   30.787  159.637
  580.750    2.906    0.325    0.353   30.031  158.481
  581.000    2.929    0.334    0.352   30.580  157.843
  581.250    2.919    0.339    0.343   32.496  157.206
  581.500    2.903    0.337    0.348   34.599  156.566
  581.750    2.866    0.335    0.354   36.143  155.825
  582.000    2.834    0.333    0.352   33.647  154.667
  582.250    2.819    0.331    0.355   31.090  154.135
  582.500    2.809    0.328    0.359   31.887  153.911
  582.750    2.847    0.323    0.356   33.430  154.411
  583.000    2.870    0.324    0.351   34.912  154.913
  583.250    2.881    0.331    0.359   36.083  155.310
  583.500    2.871    0.326    0.368   35.077  156.020
  583.750    2.839    0.319    0.373   34.261  156.934
