~VERSION INFORMATION
 VERS.                 2.0:   CWLS LOG ASCII STANDARD -VERSION 2.0
 WRAP.                  NO:   ONE LINE PER DEPTH STEP
~WELL INFORMATION BLOCK
#MNEM.UNIT           DATA                    DESCRIPTION OF MNEMONIC
#---------    -------------------            -------------------------------
# Generated from Intellog Unique Number	CS_73_76/WELL/785
WELL.         AMOCO KIRBY                    : Well_name    - WELL
LOC .         00/09-25-073-05W4/0            : Location     - LOCATION
UWI .         00/09-25-073-05W4/0            : Uwi          - UNIQUE WELL ID
ENTR.         SP                             : Entered      - ENTERED BY
SRVC.         SCHLUMBERGER                   : Scn          - SERVICE COMPANY
STRT.M        285                            : top_depth    - START DEPTH
STOP.M        500                            : bot_depth    - STOP DEPTH
STEP.M        0.25                           : increment    - STEP LENGTH
 NULL. -999.2500:NULL Value
~CURVE INFORMATION BLOCK
#MNEM UNIT       ERCB CURVE CODE    CURVE DESCRIPTION
#-----------   ------------------   ----------------------------------
DEPT.M        00 001 00 00         : DEPTH        - DEPTH
ILD .OHMM     00 120 00 00         : RESD         - DEEP RESISTIVITY (DIL)
DPHI.V/V      00 890 00 00         : PHID         - DENSITY POROSITY (LIMESTONE)
NPHI.V/V      00 330 00 00         : PHIN         - NEUTRON POROSITY (LIMESTONE)
GR  .API      00 310 00 00         : GR           - GAMMA RAY
~PARAMETER INFORMATION
#MNEM.UNIT           DATA             DESCRIPTION OF MNEMONIC
#---------         -----------     ------------------------------
GL  .M        682.7                : gl           - GROUND LEVEL ELEVATION
EREF.M        686.9                : kb           - ELEVATION OF DEPTH REFERENCE
DATM.M        682.7                : datum        - DATUM ELEVATION
TDD .M        845.3                : tdd          - TOTAL DEPTH DRILLER
RUN .         ONE                  : Run          - RUN NUMBER
ENG .         BILL                 : Engineer     - RECORDING ENGINEER
WIT .         JIM                  : Witness      - WITNESSED BY
MUD .         GEL                  : Mud_type     - MUD TYPE
MATR.         LIMESTONE            : Logunit      - NEUTRON MATRIX
TMAX.C        18                   : BHT          - MAXIMUM RECORDED TEMPERATURE
BHTD.M        845.3                : BHTDEP       - MAXIMUM RECORDED TEMPERATURE
MATR.         1                    : LOGUNIT      - NEUTRON MATRIX
RMT .C        25                   : MDTP         - TEMPERATURE OF MUD
NEUT.         1                    : NEUTRON      - NEUTRON TYPE
RESI.         0                    : RESIST       - RESISTIVITY TYPE
RMC .OHMM     0.25                 : RMC          - RESISTIVITY OF MUD CAKE
RMF .OHMM     0.25                 : RMF          - RESISTIVITY OF MUD FILTRATE
SUFT.C        15                   : SUFT         - SURFACE TEMPERATURE
~A  DEPTH     RESD     PHID     PHIN       GR
  285.000    2.662    0.256    0.498   82.527
  285.250    2.566    0.267    0.518   80.715
  285.500    2.430    0.285    0.542   84.927
  285.750    2.386    0.283    0.471   86.729
  286.000    2.344    0.302    0.474   85.522
  286.250    2.345    0.303    0.498   81.903
  286.500    2.434    0.292    0.512   80.091
  286.750    2.481    0.289    0.506   77.678
  287.000    2.623    0.307    0.500   76.469
  287.250    2.723    0.299    0.499   82.489
  287.500    2.827    0.283    0.489   83.086
  287.750    2.935    0.275    0.470   80.071
  288.000    2.936    0.266    0.469   77.657
  288.250    2.992    0.249    0.473   76.448
  288.500    2.939    0.263    0.488   74.034
  288.750    2.886    0.278    0.506   74.030
  289.000    2.835    0.307    0.459   73.424
  289.250    2.784    0.325    0.464   71.612
  289.500    2.685    0.276    0.493   68.596
  289.750    2.541    0.351    0.496   68.592
  290.000    2.496    0.396    0.457   68.588
  290.250    2.689    0.348    0.452   64.969
  290.500    3.235    0.336    0.472   64.965
  290.750    4.350    0.353    0.484   60.745
  291.000    4.862    0.336    0.368   55.318
  291.250    4.602    0.284    0.356   51.700
  291.500    4.198    0.278    0.366   48.081
  291.750    4.048    0.298    0.375   45.065
  292.000    4.361    0.314    0.389   44.459
  292.250    4.526    0.308    0.395   48.069
  292.500    4.446    0.301    0.402   48.667
  292.750    4.208    0.291    0.408   51.675
  293.000    4.210    0.267    0.397   55.285
  293.250    4.370    0.237    0.403   54.678
  293.500    4.796    0.241    0.408   55.879
  293.750    5.072    0.260    0.413   60.090
  294.000    5.265    0.241    0.393   62.497
  294.250    5.170    0.250    0.401   66.107
  294.500    4.894    0.264    0.412   69.115
  294.750    4.720    0.279    0.420   71.520
  295.000    4.635    0.293    0.413   73.323
  295.250    4.637    0.289    0.412   76.933
  295.500    4.640    0.271    0.412   75.723
  295.750    4.728    0.287    0.397   75.116
  296.000    4.819    0.269    0.380   75.114
  296.250    4.911    0.281    0.373   78.121
  296.500    4.913    0.276    0.368   79.924
  296.750    4.737    0.283    0.374   81.125
  297.000    4.401    0.289    0.383   78.107
  297.250    3.942    0.294    0.379   79.308
  297.500    3.596    0.293    0.396   82.317
  297.750    3.341    0.283    0.410   87.132
  298.000    4.022    0.266    0.435   87.128
  298.250    4.663    0.277    0.467   79.291
  298.500    5.023    0.306    0.408   74.468
  298.750    4.582    0.281    0.397   70.850
  299.000    4.180    0.283    0.400   64.219
  299.250    3.813    0.292    0.409   65.421
  299.500    3.478    0.302    0.414   72.645
  299.750    3.611    0.312    0.418   73.243
  300.000    4.036    0.318    0.400   75.649
  300.250    4.114    0.320    0.384   74.440
  300.500    3.893    0.328    0.378   70.820
  300.750    3.686    0.328    0.384   69.611
  301.000    3.687    0.311    0.377   67.800
  301.250    3.689    0.295    0.371   64.182
  301.500    3.623    0.287    0.368   60.564
  301.750    3.430    0.282    0.365   53.934
  302.000    3.187    0.280    0.379   58.146
  302.250    3.072    0.275    0.391   59.949
  302.500    3.131    0.271    0.389   65.969
  302.750    3.250    0.262    0.390   75.602
  303.000    3.437    0.260    0.425   84.030
  303.250    3.703    0.246    0.455   87.040
  303.500    3.916    0.227    0.480   88.240
  303.750    3.917    0.196    0.502   92.453
  304.000    3.919    0.240    0.485  100.279
  304.250    3.709    0.273    0.501  104.492
  304.500    3.322    0.291    0.508  108.102
  304.750    2.975    0.299    0.525  106.291
  305.000    2.764    0.309    0.520  103.274
  305.250    2.616    0.291    0.509   99.655
  305.500    2.618    0.297    0.524   96.640
  305.750    2.619    0.309    0.551   91.214
  306.000    2.572    0.329    0.591   86.994
  306.250    2.390    0.345    0.591   86.989
  306.500    2.140    0.371    0.526   92.405
  306.750    2.102    0.383    0.509   96.017
  307.000    2.103    0.390    0.465   99.627
  307.250    2.351    0.344    0.448   99.020
  307.500    2.936    0.279    0.452   97.209
  307.750    3.468    0.262    0.454   88.169
  308.000    4.252    0.287    0.430   84.551
  308.250    4.840    0.282    0.398   79.727
  308.500    4.582    0.292    0.370   74.903
  308.750    4.337    0.294    0.360   70.682
  309.000    4.502    0.305    0.346   68.270
  309.250    4.761    0.309    0.335   67.059
  309.500    5.036    0.314    0.330   67.055
  309.750    5.037    0.317    0.348   68.256
  310.000    4.856    0.329    0.360   68.251
  310.250    4.430    0.339    0.360   68.248
  310.500    4.599    0.344    0.370   67.039
  310.750    4.687    0.345    0.388   65.830
  311.000    4.866    0.329    0.400   64.019
  311.250    5.241    0.322    0.362   63.411
  311.500    5.968    0.318    0.342   63.408
  311.750    6.428    0.341    0.341   65.211
  312.000    6.798    0.355    0.358   67.014
  312.250    6.434    0.345    0.372   70.624
  312.500    5.762    0.334    0.380   74.836
  312.750    4.973    0.344    0.385   77.844
  313.000    4.537    0.310    0.391   76.032
  313.250    4.215    0.292    0.374   68.801
  313.500    4.064    0.291    0.364   61.567
  313.750    4.143    0.282    0.340   57.345
  314.000    4.300    0.268    0.341   56.137
  314.250    4.547    0.250    0.344   56.134
  314.500    4.809    0.268    0.330   57.334
  314.750    4.810    0.295    0.322   42.270
  315.000    5.377    0.308    0.311   37.446
  315.250    6.010    0.323    0.304   35.634
  315.500    7.100    0.332    0.287   36.233
  315.750    8.235    0.339    0.251   34.422
  316.000    9.375    0.364    0.234   32.009
  316.250   10.875    0.362    0.230   30.197
  316.500   11.933    0.362    0.246   32.602
  316.750   12.853    0.376    0.262   38.622
  317.000   13.593    0.384    0.268   45.244
  317.250   13.852    0.387    0.284   46.445
  317.500   13.605    0.388    0.292   46.440
  317.750   12.641    0.379    0.280   49.449
  318.000   11.532    0.364    0.270   51.854
  318.250   11.118    0.363    0.266   53.054
  318.500    9.957    0.369    0.287   55.460
  318.750    8.436    0.348    0.305   63.286
  319.000    7.280    0.308    0.323   66.294
  319.250    6.401    0.283    0.340   65.687
  319.500    5.226    0.269    0.355   64.478
  319.750    4.189    0.266    0.364   65.077
  320.000    3.549    0.261    0.370   68.084
  320.250    3.063    0.255    0.374   69.886
  320.500    2.953    0.249    0.366   70.485
  320.750    3.010    0.261    0.363   70.480
  321.000    3.067    0.273    0.384   69.875
  321.250    2.798    0.285    0.396   68.062
  321.500    2.506    0.309    0.394   66.855
  321.750    2.163    0.328    0.382   63.235
  322.000    1.901    0.321    0.382   62.629
  322.250    1.671    0.312    0.376   63.226
  322.500    1.612    0.307    0.373   63.826
  322.750    1.583    0.309    0.391   63.219
  323.000    1.613    0.319    0.398   63.818
  323.250    1.675    0.324    0.376   69.235
  323.500    1.556    0.329    0.373   74.652
  323.750    1.446    0.320    0.396   78.263
  324.000    1.343    0.296    0.408   86.089
  324.250    1.421    0.267    0.417   92.710
  324.500    1.617    0.252    0.422   97.526
  324.750    1.876    0.228    0.431   99.328
  325.000    2.343    0.220    0.449   99.324
  325.250    2.717    0.225    0.444   98.116
  325.500    2.927    0.232    0.437   95.099
  325.750    3.038    0.261    0.455   92.084
  326.000    2.930    0.293    0.476   87.260
  326.250    2.877    0.312    0.502   83.039
  326.500    2.723    0.314    0.515   79.421
  326.750    2.485    0.330    0.508   77.610
  327.000    2.395    0.344    0.484   80.015
  327.250    2.309    0.364    0.462   83.023
  327.500    2.442    0.348    0.469   84.826
  327.750    2.583    0.342    0.490   86.026
  328.000    2.834    0.396    0.452   85.420
  328.250    2.888    0.341    0.415   83.607
