~VERSION INFORMATION
 VERS.                 2.0:   CWLS LOG ASCII STANDARD -VERSION 2.0
 WRAP.                  NO:   ONE LINE PER DEPTH STEP
~WELL INFORMATION BLOCK
#MNEM.UNIT           DATA                    DESCRIPTION OF MNEMONIC
#---------    -------------------            -------------------------------
# Generated from Intellog Unique Number	CS_69_70/WELL/850
NULL.         -999.25                        : NULL_VALUE
WELL.         KISSINGER POETROLEUMS          : Well_name    - WELL              
LOC .         00/07-35-070-11W4/0            : Location     - LOCATION          
UWI .         00/07-35-070-11W4/0            : Uwi          - UNIQUE WELL ID    
ENTR.         SP                             : Entered      - ENTERED BY        
SRVC.         SCHLUMBERGER                   : Scn          - SERVICE COMPANY   
STRT.M        290                            : top_depth    - START DEPTH       
STOP.M        515                            : bot_depth    - STOP DEPTH        
STEP.M        0.25                           : increment    - STEP LENGTH       
~CURVE INFORMATION BLOCK
#MNEM UNIT       ERCB CURVE CODE    CURVE DESCRIPTION
#-----------   ------------------   ----------------------------------
DEPT.M        00 001 00 00         : DEPTH        - DEPTH                       
ILD .OHMM     00 120 00 00         : RESD         - DEEP RESISTIVITY (DIL)      
DPHI.V/V      00 890 00 00         : PHID         - DENSITY POROSITY (LIMESTONE)
NPHI.V/V      00 330 00 00         : PHIN         - NEUTRON POROSITY (LIMESTONE)
GR  .API      00 310 00 00         : GR           - GAMMA RAY                   
~PARAMETER INFORMATION       
#MNEM.UNIT           DATA             DESCRIPTION OF MNEMONIC
#---------         -----------     ------------------------------
GL  .M        622                  : gl           - GROUND LEVEL ELEVATION      
EREF.M        625.35               : kb           - ELEVATION OF DEPTH REFERENCE
DATM.M        622                  : datum        - DATUM ELEVATION             
TDD .M        515                  : tdd          - TOTAL DEPTH DRILLER         
RUN .         ONE                  : Run          - RUN NUMBER                  
ENG .         BILL                 : Engineer     - RECORDING ENGINEER          
WIT .         JIM                  : Witness      - WITNESSED BY                
MUD .         GEL                  : Mud_type     - MUD TYPE                    
MATR.         LIMESTONE            : Logunit      - NEUTRON MATRIX              
TMAX.C        18                   : BHT          - MAXIMUM RECORDED TEMPERATURE
BHTD.M        515                  : BHTDEP       - MAXIMUM RECORDED TEMPERATURE
MATR.         1                    : LOGUNIT      - NEUTRON MATRIX              
RMT .C        25                   : MDTP         - TEMPERATURE OF MUD          
NEUT.         1                    : NEUTRON      - NEUTRON TYPE                
RESI.         0                    : RESIST       - RESISTIVITY TYPE            
RMC .OHMM     0.25                 : RMC          - RESISTIVITY OF MUD CAKE     
RMF .OHMM     0.25                 : RMF          - RESISTIVITY OF MUD FILTRATE 
SUFT.C        15                   : SUFT         - SURFACE TEMPERATURE         
~A  DEPTH     RESD     PHID     PHIN       GR
# ...
  333.500    7.488    0.320    0.422   99.258
  333.750    7.287    0.292    0.424  101.688
  334.000    7.084    0.286    0.428   98.496
  334.250    6.939    0.298    0.422   97.358
  334.500    6.833    0.308    0.421  101.240
  334.750    6.775    0.290    0.426  104.881
  335.000    6.692    0.288    0.438  107.372
  335.250    6.676    0.279    0.448  109.441
  335.500    6.618    0.259    0.433  112.175
  335.750    6.584    0.243    0.421  114.001
  336.000    6.559    0.244    0.420  110.928
  336.250    6.413    0.240    0.420  107.674
  336.500    6.387    0.223    0.408  107.504
  336.750    6.466    0.250    0.405  108.967
  337.000    6.568    0.272    0.409  108.680
  337.250    6.663    0.281    0.422  108.628
  337.500    6.718    0.284    0.436  108.641
  337.750    6.716    0.272    0.426  109.077
  338.000    6.570    0.261    0.431  110.176
  338.250    6.328    0.256    0.415  111.519
  338.500    6.318    0.287    0.402  111.772
  338.750    6.549    0.321    0.391  107.610
  339.000    6.860    0.334    0.389  100.121
  339.250    7.267    0.340    0.397   94.630
  339.500    7.675    0.339    0.406   93.069
  339.750    7.857    0.335    0.412   96.105
  340.000    7.872    0.317    0.416   98.657
  340.250    7.806    0.276    0.414  100.665
  340.500    7.869    0.265    0.400  103.096
  340.750    8.075    0.282    0.393  101.838
  341.000    8.186    0.284    0.398  100.095
  341.250    8.240    0.283    0.408  103.859
  341.500    8.207    0.308    0.417  104.717
  341.750    8.205    0.315    0.409  103.518
  342.000    8.236    0.321    0.387  100.990
  342.250    8.266    0.314    0.381   99.307
  342.500    8.297    0.308    0.370  100.288
  342.750    8.319    0.303    0.360  101.272
  343.000    8.365    0.292    0.369  102.493
  343.250    8.444    0.275    0.379  103.649
  343.500    8.547    0.259    0.379  105.355
  343.750    8.649    0.256    0.377  106.940
  344.000    8.736    0.260    0.379  108.402
  344.250    8.790    0.264    0.394  109.564
  344.500    8.741    0.252    0.403  108.426
  344.750    8.547    0.239    0.408  106.140
  345.000    8.248    0.240    0.411  106.939
  345.250    7.982    0.234    0.415  108.220
  345.500    7.788    0.236    0.420  110.047
  345.750    7.714    0.242    0.418  113.203
  346.000    7.633    0.243    0.409  113.034
  346.250    7.503    0.229    0.401  114.135
  346.500    7.125    0.213    0.407  117.714
  346.750    6.802    0.216    0.429  122.566
  347.000    6.504    0.234    0.430  124.815
  347.250    6.142    0.255    0.422  123.012
  347.500    5.844    0.263    0.418  115.889
  347.750    5.722    0.263    0.416  111.181
  348.000    5.568    0.296    0.424  108.350
  348.250    5.302    0.292    0.422  103.885
  348.500    5.012    0.264    0.409  105.834
  348.750    4.954    0.272    0.407  108.626
  349.000    5.281    0.271    0.425  110.151
  349.250    6.201    0.298    0.435  110.707
  349.500    6.953    0.317    0.425  102.735
  349.750    8.002    0.331    0.406   95.065
  350.000    8.665    0.338    0.392   88.968
  350.250    9.056    0.324    0.383   94.425
  350.500    9.023    0.316    0.386   98.608
  350.750    8.685    0.308    0.390   97.653
  351.000    8.691    0.305    0.374   97.241
  351.250    8.697    0.311    0.365  100.096
  351.500    8.752    0.300    0.367  102.044
  351.750    8.831    0.310    0.378  104.233
  352.000    8.909    0.317    0.389  101.220
  352.250    8.867    0.324    0.401   96.757
  352.500    8.593    0.304    0.390   94.109
  352.750    8.279    0.288    0.384   94.662
  353.000    8.013    0.287    0.384   98.183
  353.250    7.803    0.286    0.377  100.192
  353.500    7.873    0.280    0.387  101.291
  353.750    8.216    0.277    0.397  101.000
  354.000    8.536    0.305    0.401   98.471
  354.250    8.911    0.324    0.390   93.886
  354.500    9.198    0.329    0.376   88.153
  354.750    9.469    0.328    0.392   88.224
  355.000    9.555    0.327    0.399   90.413
  355.250    9.033    0.328    0.404   92.301
  355.500    7.676    0.325    0.416   94.189
  355.750    6.857    0.316    0.425   94.261
  356.000    5.998    0.309    0.431   93.968
  356.250    6.125    0.314    0.422   96.461
  356.500    6.668    0.326    0.420   98.833
  356.750    7.139    0.335    0.417  100.174
  357.000    8.492    0.332    0.417   93.231
  357.250    9.116    0.333    0.428   90.763
  357.500    9.740    0.340    0.431   89.987
  357.750   10.027    0.345    0.420   89.213
  358.000   10.354    0.344    0.427   88.075
  358.250   10.400    0.348    0.436   85.307
  358.500   10.479    0.352    0.442   83.986
  358.750   10.581    0.354    0.430   82.486
  359.000   10.652    0.353    0.420   80.323
  359.250   10.714    0.349    0.416   78.521
  359.500   10.753    0.345    0.409   76.779
  359.750   10.783    0.349    0.398   75.162
  360.000   10.822    0.354    0.395   73.963
  360.250   10.860    0.353    0.387   73.064
  360.500   10.899    0.357    0.397   72.286
  360.750   10.953    0.350    0.389   71.147
  361.000   11.016    0.356    0.395   71.643
  361.250   11.054    0.359    0.402   72.018
  361.500   10.892    0.361    0.400   71.425
  361.750   10.738    0.358    0.390   71.256
  362.000   10.624    0.364    0.386   71.273
  362.250   10.534    0.364    0.395   71.404
  362.500   10.501    0.361    0.402   71.416
  362.750   10.507    0.363    0.400   71.252
  363.000   10.586    0.371    0.388   71.141
  363.250   10.649    0.374    0.382   71.205
  363.500   10.743    0.372    0.387   70.491
  363.750   10.822    0.370    0.394   66.813
  364.000   10.844    0.368    0.385   67.249
  364.250   10.843    0.367    0.381   67.986
  364.500   10.793    0.362    0.380   69.089
  364.750   10.735    0.359    0.371   69.891
  365.000   10.694    0.356    0.367   70.320
  365.250   10.740    0.355    0.371   70.092
  365.500   10.786    0.356    0.385   69.558
  365.750   10.825    0.357    0.394   69.025
  366.000   10.855    0.357    0.388   69.521
  366.250   10.862    0.360    0.375   70.743
  366.500   10.828    0.356    0.371   72.632
  366.750   10.762    0.362    0.377   73.916
  367.000   10.689    0.371    0.376   74.409
  367.250   10.623    0.368    0.382   74.418
  367.500   10.629    0.355    0.394   73.645
  367.750   10.620    0.349    0.399   72.024
  368.000   10.658    0.349    0.403   70.221
  368.250   10.664    0.351    0.409   70.474
  368.500   10.639    0.359    0.422   72.846
  368.750   10.437    0.361    0.432   74.672
  369.000   10.155    0.363    0.412   76.741
  369.250    9.800    0.363    0.399   78.145
  369.500    9.430    0.357    0.405   79.006
  369.750    9.004    0.363    0.427   79.078
  370.000    8.561    0.375    0.431   78.058
  370.250    8.343    0.385    0.418   74.923
  370.500    8.350    0.393    0.415   73.544
  370.750    8.501    0.404    0.422   73.375
  371.000    8.812    0.432    0.432   73.330
  371.250    8.906    0.430    0.439   73.157
  371.500    8.648    0.383    0.422   72.812
  371.750    8.294    0.281    0.409   72.818
  372.000    7.932    0.280    0.396   70.228
  372.250    7.810    0.334    0.387   69.211
  372.500    8.097    0.360    0.379   70.855
  372.750    8.760    0.332    0.373   72.140
  373.000    9.584    0.295    0.381   71.790
  373.250    9.967    0.290    0.378   71.375
  373.500   10.070    0.326    0.388   71.029
  373.750    9.515    0.356    0.393   71.096
  374.000    9.033    0.372    0.381   71.840
  374.250    8.711    0.363    0.380   72.578
  374.500    8.428    0.366    0.375   72.646
  374.750    8.451    0.371    0.369   73.028
  375.000    8.794    0.368    0.372   73.037
  375.250    9.137    0.363    0.385   72.861
  375.500    9.408    0.358    0.392   71.603
  375.750    9.559    0.353    0.411   72.704
  376.000    9.645    0.357    0.419   73.320
  376.250    9.668    0.365    0.403   73.639
  376.500    9.634    0.353    0.404   73.528
  376.750    9.568    0.344    0.399   73.297
