~VERSION INFORMATION
 VERS.                 2.0:   CWLS LOG ASCII STANDARD -VERSION 2.0
 WRAP.                  NO:   ONE LINE PER DEPTH STEP
~WELL INFORMATION BLOCK
#MNEM.UNIT           DATA                    DESCRIPTION OF MNEMONIC
#---------    -------------------            -------------------------------
# Generated from Intellog Unique Number	CN_91_93/WELL/3015
WELL.         PARAMOUNT RESOURCES LTD.       : Well_name    - WELL
LOC .         00/05-31-093-20W4/0            : Location     - LOCATION
UWI .         00/05-31-093-20W4/0            : Uwi          - UNIQUE WELL ID
ENTR.         JOETTE                         : Entered      - ENTERED BY
SRVC.         COMPUTALOG                     : Scn          - SERVICE COMPANY
DATE.         04/09/92                       : Date         - LOG DATE
STRT.M        150                            : top_depth    - START DEPTH
STOP.M        333                            : bot_depth    - STOP DEPTH
STEP.M        0.25                           : increment    - STEP LENGTH
 NULL. -999.2500:NULL Value
~CURVE INFORMATION BLOCK
#MNEM UNIT       ERCB CURVE CODE    CURVE DESCRIPTION
#-----------   ------------------   ----------------------------------
DEPT.M        00 001 00 00         : DEPTH        - DEPTH
CALI.MM       00 280 01 00         : CAL          - CALIPER
GR  .API      00 310 00 00         : GR           - GAMMA RAY
NPHI.V/V      00 330 00 00         : PHIN         - NEUTRON POROSITY (SANDSTONE)
DPHI.V/V      00 890 00 00         : PHID         - DENSITY POROSITY (SANDSTONE)
ILD .OHMM     00 120 00 00         : RESD         - DEEP RESISTIVITY (DIL)
~PARAMETER INFORMATION
#MNEM.UNIT           DATA             DESCRIPTION OF MNEMONIC
#---------         -----------     ------------------------------
GL  .M        638                  : gl           - GROUND LEVEL ELEVATION
EREF.M        641.4                : kb           - ELEVATION OF DEPTH REFERENCE
DATM.M        641.4                : datum        - DATUM ELEVATION
TDD .M        331.6                : tdd          - TOTAL DEPTH DRILLER
RUN .         ONE                  : Run          - RUN NUMBER
ENG .         BILL                 : Engineer     - RECORDING ENGINEER
WIT .         JIM                  : Witness      - WITNESSED BY
MUD .         GEL                  : Mud_type     - MUD TYPE
MATR.         SANDSTONE            : Logunit      - NEUTRON MATRIX
TMAX.C        29                   : BHT          - MAXIMUM RECORDED TEMPERATURE
BHTD.M        331.6                : BHTDEP       - MAXIMUM RECORDED TEMPERATURE
RMT .C        10                   : MDTP         - TEMPERATURE OF MUD
MUDD.KG/M     1150                 : MWT          - MUD DENSITY
NEUT.         1                    : NEUTRON      - NEUTRON TYPE
RESI.         0                    : RESIST       - RESISTIVITY TYPE
RM  .OHMM     4.7                  : RM           - RESISTIVITY OF MUD
RMC .OHMM     4.7                  : RMC          - RESISTIVITY OF MUD CAKE
RMF .OHMM     4.7                  : RMF          - RESISTIVITY OF MUD FILTRATE
SUFT.C        -20                  : SUFT         - SURFACE TEMPERATURE
~A  DEPTH      CAL       GR     PHIN     PHID     RESD
# ...
  296.000  173.986  111.842    0.375    0.184    9.862
  296.250  172.437  108.149    0.364    0.156   11.023
  296.500  163.730  104.764    0.355    0.131   11.760
  296.750  161.665  106.898    0.358    0.129   12.088
  297.000  165.729  112.401    0.363    0.207   12.305
  297.250  166.215  112.081    0.359    0.210   12.183
  297.500  166.192  108.697    0.348    0.206   11.725
  297.750  167.192  107.764    0.340    0.202   10.971
  298.000  166.148  110.815    0.342    0.206   10.862
  298.250  163.571  111.413    0.352    0.208   10.854
  298.500  162.014  109.866    0.355    0.206   11.050
  298.750  164.548  107.404    0.354    0.207   11.143
  299.000  168.101  103.098    0.352    0.214   11.137
  299.250  166.033  100.939    0.350    0.222   11.551
  299.500  161.927   97.556    0.340    0.183   12.209
  299.750  163.945   90.493    0.328    0.116   12.785
  300.000  166.988   87.720    0.336    0.066   13.016
  300.250  172.587  103.645    0.361    0.181   12.410
  300.500  172.565  113.746    0.385    0.197   11.399
  300.750  171.515  115.262    0.410    0.200   10.180
  301.000  174.052  112.491    0.411    0.192    8.922
  301.250  173.516  109.413    0.406    0.189    8.428
  301.500  171.454  106.028    0.413    0.190    8.036
  301.750  170.920  107.239    0.398    0.194    7.955
  302.000  174.982  112.131    0.390    0.194    8.023
  302.250  174.449  115.794    0.401    0.193    8.323
  302.500  172.380  106.280    0.409    0.194    9.048
  302.750  168.277   96.767    0.375    0.161   10.209
  303.000  161.103   88.478    0.335    0.131   10.997
  303.250  161.081   90.917    0.323    0.158   12.294
  303.500  165.656   99.485    0.324    0.215   13.237
  303.750  169.720  105.601    0.333    0.183   13.229
  304.000  168.162  110.185    0.349    0.160   11.923
  304.250  164.564  107.413    0.352    0.154   11.159
  304.500  167.099  108.011    0.372    0.185   10.741
  304.750  170.139  110.450    0.376    0.208   10.632
  305.000  169.608  113.499    0.369    0.215   10.724
  305.250  169.072  114.714    0.361    0.209   10.418
  305.500  170.071  113.476    0.352    0.200   10.122
  305.750  173.111  114.993    0.354    0.192    9.742
  306.000  174.113  120.498    0.375    0.193    9.643
  306.250  170.002  120.483    0.387    0.187    9.817
  306.500  169.468  111.582    0.372    0.162   10.185
  306.750  169.957  111.876    0.365    0.142   10.565
  307.000  170.959  113.700    0.371    0.177   10.755
  307.250  172.977  113.382    0.373    0.197    9.971
  307.500  172.952  111.835    0.384    0.208    9.331
  307.750  172.935  113.962    0.400    0.201    8.898
  308.000  173.932  115.794    0.414    0.197    9.059
  308.250  174.420  120.378    0.403    0.191    9.666
  308.500  174.400  123.734    0.378    0.157   10.408
  308.750  172.335  106.557    0.361    0.116   10.498
  309.000  165.672   95.204    0.343    0.081   10.104
  309.250  165.644   95.497    0.341    0.099    9.368
  309.500  168.178  108.356    0.351    0.184    8.366
  309.750  169.181  113.553    0.355    0.206    6.997
  310.000  170.180  119.669    0.367    0.218    5.798
  310.250  170.155  122.721    0.429    0.226    4.895
  310.500  170.646  116.576    0.458    0.218    4.538
  310.750  172.153  111.047    0.468    0.201    4.751
  311.000  173.663  106.743    0.470    0.178    5.214
  311.250  173.635  103.971    0.418    0.168    6.052
  311.500  171.578  103.345    0.390    0.164    7.858
  311.750  167.469   99.040    0.350    0.143    9.122
  312.000  166.420   91.671    0.322    0.099   10.488
  312.250  166.400   90.432    0.345    0.124   10.678
  312.500  168.418  102.678    0.363    0.176    9.716
  312.750  169.931  112.166    0.388    0.186    8.676
  313.000  169.909  108.779    0.403    0.186    8.044
  313.250  169.884  107.538    0.418    0.180    7.528
  313.500  169.864  106.301    0.427    0.176    7.593
  313.750  169.836  108.126    0.432    0.174    7.803
  314.000  170.327  116.078    0.434    0.188    8.170
  314.250  171.840  116.373    0.430    0.185    8.554
  314.500  172.839  114.521    0.409    0.181    9.043
  314.750  170.774  111.446    0.388    0.179   11.101
  315.000  167.176  107.446    0.357    0.156   11.844
  315.250  162.553  104.061    0.335    0.103   13.117
  315.500  165.088  100.981    0.323    0.040   13.229
  315.750  168.130  103.728    0.329    0.104   12.733
  316.000  169.127  111.375    0.350    0.153   11.914
  316.250  168.596  114.735    0.362    0.191   11.468
  316.500  168.058  116.254    0.373    0.192   10.936
  316.750  168.041  115.321    0.374    0.196   10.625
  317.000  168.019  113.775    0.369    0.191   10.420
  317.250  167.993  116.520    0.359    0.183   10.412
  317.500  167.971  120.491    0.365    0.177   10.502
  317.750  167.952  122.008    0.365    0.165   10.793
  318.000  167.924  120.769    0.363    0.158   11.195
  318.250  167.390  117.386    0.368    0.163   11.831
  318.500  167.365  113.693    0.372    0.170   12.742
  318.750  167.348  114.294    0.368    0.175   13.851
  319.000  165.794  110.296    0.342    0.159   14.916
  319.250  165.261  102.314    0.318    0.138   15.767
  319.500  169.319   96.478    0.318    0.178   16.662
  319.750  171.346  107.191    0.328    0.195   16.807
  320.000  169.280  113.614    0.338    0.196   16.792
  320.250  166.701  117.583    0.353    0.180   16.162
  320.500  168.214  121.249    0.370    0.179   15.269
  320.750  169.210  121.541    0.361    0.159   14.831
  321.000  168.166  119.690    0.336    0.113   15.388
  321.250  165.587  110.482    0.318    0.083   16.729
  321.500  164.035   98.207    0.309    0.127   18.183
  321.750  163.502   92.982    0.302    0.181   20.137
  322.000  165.012   94.503    0.288    0.212   21.087
  322.250  164.992  100.313    0.285    0.239   22.287
  322.500  161.394  101.219    0.292    0.253   22.906
  322.750  160.855   95.995    0.288    0.220   23.318
  323.000  160.839   92.609    0.284    0.193   22.867
  323.250  162.854   93.821    0.286    0.177   21.599
  323.500  165.896   97.794    0.313    0.207   20.026
  323.750  167.412  101.765    0.321    0.217   18.224
  324.000  167.390  102.058    0.335    0.221   16.275
  324.250  166.857  103.269    0.368    0.224   14.808
  324.500  167.850  108.161    0.387    0.192   13.602
  324.750  168.344  114.275    0.392    0.148   12.260
  325.000  169.338  113.036    0.389    0.014   11.157
  325.250  168.297  109.959    0.392    0.021    9.869
  325.500  167.764  107.494    0.401    0.128    9.497
  325.750  167.741  106.866    0.391    0.159    9.493
  326.000  167.713  107.466    0.382    0.158    9.572
  326.250  167.691  105.921    0.377    0.171    9.657
  326.500  167.674  104.988    0.382    0.177    9.558
  326.750  167.649  104.669    0.409    0.178    9.115
  327.000  167.627  103.123    0.418    0.150    9.278
  327.250  167.091   94.832    0.406    0.114    9.808
  327.500  166.563   86.850    0.393    0.041   10.365
  327.750  166.027   83.772    0.427    0.104   10.259
  328.000  163.962   81.612    0.451    0.149    9.875
  328.250  162.407   80.679    0.434    0.128   10.056
  328.500  162.384   79.438    0.398    0.129   10.829
  328.750  164.405   78.813    0.392    0.173   10.619
  329.000  166.429   79.108    0.395    0.160   10.611
  329.250  166.407   81.240    0.393    0.152   10.406
  329.500  163.314   84.598    0.390    0.175   10.016
  329.750  160.737   88.569    0.387    0.185    9.730
  330.000  161.740   99.282    0.388    0.180    9.723
  330.250  163.763  104.169    0.426    0.180    9.624
  330.500  165.784  104.772    0.446    0.180    9.617
  330.750  166.273  105.370    0.457    0.166    9.791
  331.000  164.204  106.276    0.473    0.160   10.062
  331.250  162.649  107.795    0.441    0.150   10.633
  331.500  161.092  110.234    0.464    0.151   10.827
  331.750  159.537  112.059    0.464    0.151   10.818
  332.000  153.388  110.513    0.457    0.147   10.709
  332.250  152.854  109.276    0.457    0.144    9.835
