~VERSION INFORMATION
 VERS.                 2.0:   CWLS LOG ASCII STANDARD -VERSION 2.0
 WRAP.                  NO:   ONE LINE PER DEPTH STEP
~WELL INFORMATION BLOCK
#MNEM.UNIT           DATA                    DESCRIPTION OF MNEMONIC
#---------    -------------------            -------------------------------
# Generated from Intellog Unique Number	CW_73_75/WELL/702
WELL.         MIAMI AMOCO MARTEN HILLS 07-19 : Well_name    - WELL
LOC .         00/07-19-074-01W5/0            : Location     - LOCATION
UWI .         00/07-19-074-01W5/0            : Uwi          - UNIQUE WELL ID
ENTR.         JAYE                           : Entered      - ENTERED BY
SRVC.         SCHLUMBERGER                   : Scn          - SERVICE COMPANY
DATE.         2 FEB 74                       : Date         - LOG DATE
STRT.M        420.624                        : top_depth    - START DEPTH
STOP.M        633.874                        : bot_depth    - STOP DEPTH
STEP.M        0.25                           : increment    - STEP LENGTH
 NULL. -999.2500:NULL Value
~CURVE INFORMATION BLOCK
#MNEM UNIT       ERCB CURVE CODE    CURVE DESCRIPTION
#-----------   ------------------   ----------------------------------
DEPT.M        00 001 00 00         : DEPTH        - DEPTH
ILD .OHMM     00 120 00 00         : RESD         - DEEP RESISTIVITY (DIL)
NPHI.V/V      00 330 00 00         : PHIN         - NEUTRON POROSITY (SANDSTONE)
DPHI.V/V      00 890 00 00         : PHID         - DENSITY POROSITY (SANDSTONE)
GR  .API      00 310 00 00         : GR           - GAMMA RAY
CALI.MM       00 280 01 00         : CAL          - CALIPER
~PARAMETER INFORMATION
#MNEM.UNIT           DATA             DESCRIPTION OF MNEMONIC
#---------         -----------     ------------------------------
GL  .M        673.608              : gl           - GROUND LEVEL ELEVATION
EREF.M        677.57               : kb           - ELEVATION OF DEPTH REFERENCE
DATM.M        673.608              : datum        - DATUM ELEVATION
TDD .M        639.166              : tdd          - TOTAL DEPTH DRILLER
RUN .         ONE                  : Run          - RUN NUMBER
ENG .         WILLIGER             : Engineer     - RECORDING ENGINEER
WIT .         RUDD                 : Witness      - WITNESSED BY
BASE.         RD                   : Branch       - HOME BASE OF LOGGING UNIT
MUD .         GEL CHEM             : Mud_type     - MUD TYPE
MATR.         SANDSTONE            : Logunit      - NEUTRON MATRIX
TMAX.C        25                   : BHT          - MAXIMUM RECORDED TEMPERATURE
BHTD.M        637.946              : BHTDEP       - MAXIMUM RECORDED TEMPERATURE
RMT .C        20                   : MDTP         - TEMPERATURE OF MUD
MUDD.KG/M     1164                 : MWT          - MUD DENSITY
NEUT.         1                    : NEUTRON      - NEUTRON TYPE
RESI.         0                    : RESIST       - RESISTIVITY TYPE
RM  .OHMM     2.38                 : RM           - RESISTIVITY OF MUD
RMC .OHMM     0                    : RMC          - RESISTIVITY OF MUD CAKE
RMF .OHMM     1.89                 : RMF          - RESISTIVITY OF MUD FILTRATE
SUFT.C        -17.7778             : SUFT         - SURFACE TEMPERATURE
~A  DEPTH     RESD     PHIN     PHID       GR      CAL
# ...
  530.124    5.206    0.446    0.251   84.649  163.428
  530.374    5.208    0.447    0.266   84.404  163.324
  530.624    5.058    0.479    0.247   80.577  163.521
  530.874    4.885    0.506    0.252   74.755  163.701
  531.124    4.718    0.501    0.255   73.904  164.120
  531.374    4.625    0.494    0.243   74.934  164.324
  531.624    4.722    0.504    0.234   76.573  164.306
  531.874    4.838    0.497    0.221   77.955  164.099
  532.124    4.958    0.478    0.210   77.647  164.101
  532.374    4.887    0.463    0.204   78.196  164.403
  532.624    4.835    0.476    0.213   80.128  164.504
  532.874    4.891    0.489    0.222   82.739  164.720
  533.124    4.956    0.488    0.214   83.043  164.895
  533.374    5.014    0.459    0.211   80.851  165.209
  533.624    5.090    0.436    0.188   79.760  165.189
  533.874    5.092    0.415    0.186   82.423  165.288
  534.124    5.103    0.439    0.205   86.788  165.091
  534.374    5.134    0.452    0.208   88.303  165.483
  534.624    5.203    0.473    0.193   87.629  165.895
  534.874    5.272    0.474    0.196   86.899  165.920
  535.124    5.284    0.494    0.210   88.049  165.802
  535.374    5.296    0.480    0.219   90.473  165.877
  535.624    5.288    0.469    0.219   93.262  166.293
  535.874    5.290    0.468    0.212   94.349  166.810
  536.124    5.341    0.480    0.207   93.925  167.711
  536.374    5.363    0.478    0.218   93.682  169.145
  536.624    5.445    0.462    0.189   95.008  170.392
  536.874    5.518    0.433    0.194   96.706  171.105
  537.124    5.623    0.405    0.187   99.069  171.925
  537.374    5.751    0.411    0.197  101.308  173.031
  537.624    5.850    0.424    0.198  102.462  174.052
  537.874    5.906    0.437    0.184  101.729  174.893
  538.124    5.931    0.451    0.173   99.784  174.968
  538.374    5.955    0.434    0.171   97.962  174.962
  538.624    5.968    0.417    0.176   97.958  174.756
  538.874    6.060    0.409    0.156  100.079  174.759
  539.124    6.141    0.403    0.156  102.690  174.543
  539.374    6.304    0.397    0.166   99.225  174.441
  539.624    6.544    0.387    0.174   91.887  174.025
  539.874    6.743    0.386    0.164   86.420  173.510
  540.124    6.974    0.393    0.142   83.081  172.783
  540.374    7.348    0.393    0.115   79.201  171.748
  540.624    8.062    0.258    0.084   74.403  171.436
  540.874    9.456    0.234    0.059   69.794  171.227
  541.124   12.624    0.218    0.007   66.331  171.730
  541.374   17.457    0.207    0.036   63.354  172.963
  541.624   19.841    0.199    0.018   61.049  173.587
  541.874   19.234    0.184    0.010   59.768  173.681
  542.124   18.102    0.227    0.032   65.531  173.778
  542.374   16.266    0.244    0.050   71.472  173.867
  542.624   14.086    0.257    0.066   76.321  173.864
  542.874   11.886    0.277    0.067   80.817  173.557
  543.124    9.955    0.266    0.041   81.231  173.238
  543.374    8.401    0.263    0.061   84.448  172.640
  543.624    7.102    0.278    0.080   89.598  172.304
  543.874    6.381    0.298    0.098   93.476  171.897
  544.124    5.907    0.320    0.126   98.995  171.483
  544.374    5.768    0.507    0.141   98.990  170.445
  544.624    6.191    0.520    0.176   95.891  169.523
  544.874    6.297    0.529    0.192   95.040  169.201
  545.124    5.949    0.472    0.185   96.135  168.591
  545.374    5.682    0.456    0.171   98.681  168.275
  545.624    5.467    0.502    0.189  101.044  168.264
  545.874    5.271    0.512    0.170  101.765  168.062
  546.124    5.157    0.498    0.146  100.975  168.051
  546.374    5.121    0.489    0.173  101.335  167.840
  546.624    5.095    0.503    0.170  104.182  167.428
  546.874    5.096    0.512    0.180  106.361  166.902
  547.124    5.136    0.518    0.185  106.723  166.795
  547.374    5.166    0.512    0.164  104.535  168.023
  547.624    5.226    0.501    0.179  102.957  169.147
  547.874    5.277    0.480    0.179  102.772  171.406
  548.124    5.298    0.488    0.144  102.834  171.601
  548.374    5.369    0.495    0.165  101.739  170.893
  548.624    5.431    0.489    0.159  101.792  170.161
  548.874    5.565    0.503    0.176  103.125  169.226
  549.124    5.777    0.494    0.165  103.366  168.604
  549.374    6.189    0.481    0.157  100.694  169.121
  549.624    6.365    0.453    0.160   95.474  168.509
  549.874    6.571    0.419    0.180   95.231  169.212
  550.124    6.709    0.421    0.163   97.774  169.100
  550.374    6.862    0.441    0.157  101.833  168.911
  550.624    7.018    0.426    0.148   98.556  168.169
  550.874    7.367    0.414    0.144   97.707  167.760
  551.124    7.675    0.409    0.136   99.161  167.849
  551.374    7.778    0.422    0.129  101.158  167.950
  551.624    7.133    0.435    0.129  100.365  169.382
  551.874    6.664    0.403    0.132   95.817  170.412
  552.124    6.306    0.376    0.166   99.389  171.330
  552.374    5.902    0.414    0.181  103.815  172.352
  552.624    5.565    0.419    0.161  107.702  173.984
  552.874    5.345    0.415    0.154  110.239  174.807
  553.124    5.230    0.442    0.166  113.149  172.957
  553.374    5.280    0.452    0.148  110.660  173.052
  553.624    5.411    0.441    0.137  107.866  174.378
  553.874    5.453    0.432    0.152  107.262  176.038
  554.124    5.486    0.432    0.165  107.135  175.717
  554.374    5.611    0.427    0.175  106.587  175.491
  554.624    5.613    0.426    0.189  103.611  175.817
  554.874    5.471    0.452    0.176   99.000  175.696
  555.124    5.433    0.447    0.176  106.032  175.294
  555.374    5.619    0.452    0.181  110.275  174.653
  555.624    6.086    0.474    0.179  108.330  173.935
  555.874    6.581    0.498    0.206   99.228  173.313
  556.124    6.946    0.526    0.243   87.826  172.195
  556.374    7.278    0.556    0.288   76.293  171.260
  556.624    7.485    0.536    0.296   68.950  170.017
  556.874    7.571    0.503    0.273   69.443  169.390
  557.124    7.588    0.483    0.259   70.522  168.372
  557.374    7.619    0.474    0.249   72.766  167.449
  557.624    7.694    0.467    0.240   75.672  167.126
  557.874    7.811    0.466    0.231   73.607  166.711
  558.124    7.959    0.431    0.223   71.303  166.493
  558.374    8.216    0.441    0.216   69.363  166.606
  558.624    8.657    0.416    0.212   67.231  166.681
  558.874    9.036    0.429    0.213   63.473  166.897
  559.124    9.415    0.450    0.220   63.101  166.886
  559.374    9.436    0.440    0.230   63.587  167.188
  559.624    9.164    0.431    0.237   64.672  167.094
  559.874    8.966    0.439    0.242   65.218  166.985
  560.124    8.564    0.455    0.248   65.455  166.979
  560.374    8.256    0.431    0.254   65.945  166.756
  560.624    7.945    0.414    0.267   67.515  166.862
  560.874    7.759    0.405    0.262   69.999  167.477
  561.124    7.633    0.412    0.255   71.450  167.891
  561.374    7.428    0.426    0.246   72.360  168.293
  561.624    7.240    0.444    0.256   72.420  168.783
  561.874    7.150    0.470    0.272   71.804  168.902
  562.124    7.139    0.479    0.283   70.227  168.480
  562.374    7.425    0.478    0.271   69.496  168.083
  562.624    7.808    0.453    0.243   70.346  168.062
  562.874    8.287    0.445    0.231   72.584  168.565
  563.124    8.715    0.438    0.208   76.284  168.979
  563.374    9.013    0.439    0.213   75.738  169.491
  563.624    9.168    0.428    0.211   75.063  169.678
  563.874    9.343    0.424    0.199   75.370  169.875
  564.124    9.346    0.432    0.204   75.728  170.079
  564.374    9.401    0.423    0.201   75.965  170.183
  564.624    9.440    0.426    0.198   76.030  169.971
  564.874    9.443    0.436    0.199   75.721  168.953
  565.124    9.325    0.464    0.178   75.959  168.422
  565.374    8.990    0.427    0.207   76.500  168.406
  565.624    8.715    0.426    0.208   77.162  168.219
  565.874    8.293    0.443    0.193   79.230  168.100
  566.124    7.790    0.442    0.199   78.370  167.887
  566.374    7.292    0.431    0.230   78.431  167.279
