~VERSION INFORMATION
 VERS.                 2.0:   CWLS LOG ASCII STANDARD -VERSION 2.0
 WRAP.                  NO:   ONE LINE PER DEPTH STEP
~WELL INFORMATION BLOCK
#MNEM.UNIT           DATA                    DESCRIPTION OF MNEMONIC
#---------    -------------------            -------------------------------
# Generated from Intellog Unique Number	CS_73_76/WELL/1040
WELL.         ANDERSON EXPLORATION LTD       : Well_name    - WELL
LOC .         00/06-13-075-12W4/0            : Location     - LOCATION
UWI .         00/06-13-075-12W4/0            : Uwi          - UNIQUE WELL ID
ENTR.         SP                             : Entered      - ENTERED BY
SRVC.         SCHLUMBERGER                   : Scn          - SERVICE COMPANY
STRT.M        295                            : top_depth    - START DEPTH
STOP.M        533                            : bot_depth    - STOP DEPTH
STEP.M        0.25                           : increment    - STEP LENGTH
 NULL. -999.2500:NULL Value
~CURVE INFORMATION BLOCK
#MNEM UNIT       ERCB CURVE CODE    CURVE DESCRIPTION
#-----------   ------------------   ----------------------------------
DEPT.M        00 001 00 00         : DEPTH        - DEPTH
GR  .API      00 310 00 00         : GR           - GAMMA RAY
NPHI.V/V      00 330 00 00         : PHIN         - NEUTRON POROSITY (LIMESTONE)
DPHI.V/V      00 890 00 00         : PHID         - DENSITY POROSITY (LIMESTONE)
ILD .OHMM     00 120 00 00         : RESD         - DEEP RESISTIVITY (DIL)
~PARAMETER INFORMATION
#MNEM.UNIT           DATA             DESCRIPTION OF MNEMONIC
#---------         -----------     ------------------------------
GL  .M        672.6                : gl           - GROUND LEVEL ELEVATION
EREF.M        676.1                : kb           - ELEVATION OF DEPTH REFERENCE
DATM.M        672.6                : datum        - DATUM ELEVATION
TDD .M        533                  : tdd          - TOTAL DEPTH DRILLER
RUN .         ONE                  : Run          - RUN NUMBER
ENG .         BILL                 : Engineer     - RECORDING ENGINEER
WIT .         JIM                  : Witness      - WITNESSED BY
MUD .         GEL                  : Mud_type     - MUD TYPE
MATR.         LIMESTONE            : Logunit      - NEUTRON MATRIX
TMAX.C        23.5                 : BHT          - MAXIMUM RECORDED TEMPERATURE
BHTD.M        533                  : BHTDEP       - MAXIMUM RECORDED TEMPERATURE
MATR.         1                    : LOGUNIT      - NEUTRON MATRIX
RMT .C        25                   : MDTP         - TEMPERATURE OF MUD
NEUT.         1                    : NEUTRON      - NEUTRON TYPE
RESI.         0                    : RESIST       - RESISTIVITY TYPE
RMC .OHMM     0.25                 : RMC          - RESISTIVITY OF MUD CAKE
RMF .OHMM     0.25                 : RMF          - RESISTIVITY OF MUD FILTRATE
SUFT.C        15                   : SUFT         - SURFACE TEMPERATURE
~A  DEPTH       GR     PHIN     PHID     RESD
  295.000   95.189    0.566    0.247    3.588
  295.250   95.795    0.573    0.254    3.792
  295.500   97.006    0.578    0.239    3.934
  295.750   97.014    0.511    0.234    4.081
  296.000   96.418    0.516    0.236    4.313
  296.250   97.027    0.526    0.216    4.393
  296.500   96.432    0.530    0.220    4.557
  296.750   94.027    0.502    0.236    4.556
  297.000   92.829    0.484    0.234    4.554
  297.250   95.245    0.481    0.209    4.469
  297.500   95.856    0.494    0.212    4.305
  297.750   95.862    0.499    0.208    4.148
  298.000   94.663    0.499    0.220    3.922
  298.250   94.669    0.503    0.228    3.849
  298.500   94.677    0.519    0.244    3.778
  298.750   94.683    0.526    0.243    3.847
  299.000   95.292    0.539    0.250    3.918
  299.250   97.107    0.515    0.252    3.917
  299.500   97.717    0.519    0.237    3.916
  299.750   97.118    0.514    0.228    3.843
  300.000   95.921    0.525    0.223    3.771
  300.250   96.529    0.539    0.222    3.701
  300.500   97.138    0.548    0.235    3.700
  300.750   97.748    0.535    0.234    3.768
  301.000   97.758    0.521    0.221    3.909
  301.250   97.761    0.511    0.205    4.131
  301.500   96.562    0.520    0.216    4.130
  301.750   92.956    0.531    0.198    4.128
  302.000   90.551    0.508    0.171    3.977
  302.250   88.149    0.488    0.136    3.832
  302.500   88.758    0.464    0.177    3.624
  302.750   91.776    0.500    0.210    3.829
  303.000   91.182    0.510    0.222    4.440
  303.250   89.982    0.517    0.232    6.548
  303.500   80.952    0.522    0.255    8.642
  303.750   69.513    0.481    0.306   12.283
  304.000   58.073    0.427    0.349   22.209
  304.250   49.042    0.391    0.383   43.245
  304.500   37.603    0.343    0.422   55.000
  304.750   33.995    0.132    0.409   59.210
  305.000   33.400    0.123    0.380   55.994
  305.250   35.214    0.139    0.376   58.090
  305.500   38.234    0.155    0.365   57.006
  305.750   39.444    0.170    0.359   52.922
  306.000   43.066    0.169    0.365   59.120
  306.250   49.099    0.166    0.363   53.875
  306.500   50.909    0.158    0.383   47.314
  306.750   55.736    0.156    0.396   39.301
  307.000   61.165    0.155    0.400   35.819
  307.250   65.389    0.163    0.409   31.455
  307.500   69.011    0.184    0.416   27.113
  307.750   69.618    0.210    0.419   25.173
  308.000   69.624    0.244    0.381   22.105
  308.250   70.836    0.281    0.257   17.370
  308.500   69.639    0.315    0.202   14.429
  308.750   69.042    0.335    0.125   12.909
  309.000   73.868    0.361    0.133   11.128
  309.250   80.503    0.384    0.180   10.523
  309.500   82.316    0.408    0.246   10.327
  309.750   84.732    0.417    0.267   10.324
  310.000   89.560    0.415    0.251   10.709
  310.250   91.973    0.410    0.241   10.707
  310.500   93.788    0.410    0.230   10.314
  310.750   93.192    0.417    0.236    9.754
  311.000   95.005    0.427    0.247    9.398
  311.250   98.630    0.428    0.242    8.724
  311.500   99.237    0.420    0.235    8.562
  311.750   99.845    0.417    0.234    9.047
  312.000   98.045    0.417    0.222    9.215
  312.250   97.448    0.421    0.219   10.486
  312.500   94.443    0.426    0.235   10.879
  312.750   89.630    0.415    0.252   11.712
  313.000   86.022    0.396    0.274   12.150
  313.250   81.812    0.402    0.291   12.373
  313.500   80.010    0.431    0.296   12.601
  313.750   85.440    0.448    0.280   12.833
  314.000   88.459    0.456    0.273   13.312
  314.250   89.669    0.437    0.273   13.810
  314.500   87.870    0.450    0.276   14.066
  314.750   83.058    0.461    0.280   15.140
  315.000   77.641    0.441    0.279   15.138
  315.250   64.394    0.410    0.276   15.705
  315.500   52.954    0.374    0.265   15.699
  315.750   42.116    0.352    0.247   15.408
  316.000   45.739    0.358    0.237   14.572
  316.250   49.961    0.354    0.232   13.278
  316.500   59.005    0.348    0.224   12.325
  316.750   66.242    0.364    0.226   12.097
  317.000   70.463    0.375    0.243   11.440
  317.250   72.880    0.397    0.257   10.818
  317.500   68.673    0.405    0.270   10.422
  317.750   67.472    0.417    0.269   10.228
  318.000   66.273    0.415    0.254   10.036
  318.250   69.897    0.399    0.266    9.849
  318.500   72.916    0.401    0.249    9.489
  318.750   72.318    0.421    0.248    9.141
  319.000   69.314    0.427    0.244    8.971
  319.250   68.716    0.430    0.217    8.643
  319.500   72.940    0.416    0.202    8.482
  319.750   75.959    0.407    0.218    8.479
  320.000   75.965    0.402    0.227    8.475
  320.250   74.766    0.411    0.240    8.473
  320.500   74.172    0.413    0.231    8.629
  320.750   72.972    0.424    0.219    8.627
  321.000   71.172    0.433    0.230    8.625
  321.250   69.371    0.425    0.246    8.622
  321.500   70.583    0.418    0.236    8.620
  321.750   74.806    0.412    0.221    8.778
  322.000   77.825    0.417    0.230    8.776
  322.250   74.820    0.421    0.238    8.937
  322.500   79.648    0.411    0.241    9.101
  322.750   79.051    0.427    0.238    9.269
  323.000   73.635    0.435    0.258    9.439
  323.250   68.821    0.447    0.265    9.264
  323.500   67.021    0.441    0.273    9.261
  323.750   72.451    0.431    0.255    9.258
  324.000   74.867    0.425    0.218    9.256
  324.250   75.475    0.428    0.229    9.252
  324.500   74.276    0.417    0.242    9.250
  324.750   76.693    0.419    0.233    9.246
  325.000   77.904    0.428    0.237    9.418
  325.250   74.899    0.434    0.260    9.770
  325.500   71.292    0.424    0.271   10.325
  325.750   69.489    0.424    0.262   10.910
  326.000   67.088    0.447    0.260   11.112
  326.250   67.093    0.440    0.271   11.527
  326.500   67.101    0.439    0.279   11.740
  326.750   66.505    0.446    0.288   11.521
  327.000   66.512    0.435    0.290   11.100
  327.250   67.725    0.429    0.264    9.747
  327.500   68.934    0.429    0.283    8.402
  327.750   71.954    0.443    0.279    7.657
  328.000   76.778    0.448    0.234    7.242
  328.250   85.822    0.441    0.220    6.848
  328.500   99.083    0.451    0.194    6.974
  328.750  109.330    0.465    0.163    7.508
  329.000  113.553    0.472    0.203    7.935
  329.250  112.355    0.472    0.225    9.029
  329.500  109.954    0.466    0.221    9.368
  329.750  105.143    0.452    0.234   10.084
  330.000  102.737    0.446    0.234   10.270
  330.250   99.731    0.440    0.240   10.654
  330.500   97.328    0.442    0.257   10.651
  330.750   94.322    0.453    0.262   10.848
  331.000   90.715    0.455    0.266   10.845
  331.250   87.711    0.449    0.267   10.447
  331.500   85.907    0.454    0.271    9.880
  331.750   87.121    0.442    0.274    9.171
  332.000   92.548    0.433    0.266    8.674
  332.250   99.784    0.435    0.228    8.512
  332.500  103.406    0.454    0.242    8.510
  332.750  106.425    0.464    0.245    8.507
  333.000  108.841    0.454    0.235    8.664
  333.250  110.051    0.445    0.228    9.155
  333.500  104.037    0.442    0.225    9.497
  333.750  101.029    0.431    0.222    9.853
  334.000   94.410    0.427    0.222   10.035
  334.250   88.993    0.425    0.250   10.033
  334.500   84.179    0.424    0.266   10.029
  334.750   87.200    0.420    0.279    9.841
  335.000   90.218    0.416    0.266    9.838
  335.250   89.624    0.414    0.256    9.836
  335.500   90.231    0.415    0.248    9.834
  335.750   91.441    0.417    0.231    9.830
  336.000   90.845    0.432    0.220    9.828
  336.250   87.840    0.444    0.237    9.825
  336.500   84.233    0.443    0.244    9.822
  336.750   82.432    0.445    0.222    9.820
  337.000   85.450    0.457    0.210    9.636
  337.250   89.071    0.463    0.220    9.634
  337.500   88.478    0.470    0.223    9.631
  337.750   87.277    0.473    0.226    9.451
  338.000   86.078    0.479    0.229    9.105
  338.250   89.703    0.485    0.239    8.936
