~VERSION INFORMATION
 VERS.                 2.0:   CWLS LOG ASCII STANDARD -VERSION 2.0
 WRAP.                  NO:   ONE LINE PER DEPTH STEP
~WELL INFORMATION BLOCK
#MNEM.UNIT           DATA                    DESCRIPTION OF MNEMONIC
#---------    -------------------            -------------------------------
# Generated from Intellog Unique Number	CW_82_90/WELL/3059
WELL.         TOTAL ET AL LIVOCK             : Well_name    - WELL
LOC .         00/06-36-085-23W4/0            : Location     - LOCATION
UWI .         00/06-36-085-23W4/0            : Uwi          - UNIQUE WELL ID
ENTR.         JAYE                           : Entered      - ENTERED BY
SRVC.         SCHLUMBERGER                   : Scn          - SERVICE COMPANY
DATE.         16 JAN 78                      : Date         - LOG DATE
STRT.M        188.976                        : top_depth    - START DEPTH
STOP.M        393.226                        : bot_depth    - STOP DEPTH
STEP.M        0.25                           : increment    - STEP LENGTH
 NULL. -999.2500:NULL Value
~CURVE INFORMATION BLOCK
#MNEM UNIT       ERCB CURVE CODE    CURVE DESCRIPTION
#-----------   ------------------   ----------------------------------
DEPT.M        00 001 00 00         : DEPTH        - DEPTH
CALI.MM       00 280 01 00         : CAL          - CALIPER
GR  .API      00 310 00 00         : GR           - GAMMA RAY
NPHI.V/V      00 330 00 00         : PHIN         - NEUTRON POROSITY (SANDSTONE)
DPHI.V/V      00 890 00 00         : PHID         - DENSITY POROSITY (SANDSTONE)
ILD .OHMM     00 120 00 00         : RESD         - DEEP RESISTIVITY (DIL)
~PARAMETER INFORMATION
#MNEM.UNIT           DATA             DESCRIPTION OF MNEMONIC
#---------         -----------     ------------------------------
GL  .M        565.404              : gl           - GROUND LEVEL ELEVATION
EREF.M        568.452              : kb           - ELEVATION OF DEPTH REFERENCE
DATM.M        565.404              : datum        - DATUM ELEVATION
TDD .M        408.432              : tdd          - TOTAL DEPTH DRILLER
RUN .         ONE                  : Run          - RUN NUMBER
ENG .         BUSHMAN              : Engineer     - RECORDING ENGINEER
WIT .         KIRKPATRICK          : Witness      - WITNESSED BY
BASE.         EDMONTON             : Branch       - HOME BASE OF LOGGING UNIT
MUD .         GEL CHEM             : Mud_type     - MUD TYPE
MATR.         SANDSTONE            : Logunit      - NEUTRON MATRIX
TMAX.C        21.1111              : BHT          - MAXIMUM RECORDED TEMPERATURE
BHTD.M        408.432              : BHTDEP       - MAXIMUM RECORDED TEMPERATURE
RMT .C        -17.7778             : MDTP         - TEMPERATURE OF MUD
MUDD.KG/M     8700                 : MWT          - MUD DENSITY
NEUT.         1                    : NEUTRON      - NEUTRON TYPE
RESI.         0                    : RESIST       - RESISTIVITY TYPE
RM  .OHMM     2.5                  : RM           - RESISTIVITY OF MUD
RMC .OHMM     2.5                  : RMC          - RESISTIVITY OF MUD CAKE
RMF .OHMM     6.28                 : RMF          - RESISTIVITY OF MUD FILTRATE
SUFT.C        4                    : SUFT         - SURFACE TEMPERATURE
~A  DEPTH      CAL       GR     PHIN     PHID     RESD
# ...
  334.976  231.067  109.912    0.463    0.190    7.385
  335.226  228.938  107.969    0.453    0.188    7.514
  335.476  228.613  109.530    0.425    0.176    8.016
  335.726  228.714  113.781    0.405    0.156    8.487
  335.976  228.708  117.720    0.411    0.222    9.070
  336.226  228.808  122.535    0.450    0.220   10.398
  336.476  229.013  125.786    0.450    0.228   11.740
  336.726  227.840  118.773    0.445    0.242   13.818
  336.976  223.803   74.528    0.444    0.218   18.323
  337.226  221.676   61.445    0.441    0.292   22.021
  337.476  219.549   52.743    0.417    0.295   27.851
  337.726  218.376   44.918    0.382    0.301   36.102
  337.976  217.731   40.408    0.386    0.315   46.533
  338.226  217.726   39.341    0.392    0.314   49.267
  338.476  218.144   39.400    0.379    0.304   49.096
  338.726  218.559   40.898    0.372    0.299   48.381
  338.976  219.084   43.961    0.412    0.307   47.400
  339.226  219.503   48.275    0.425    0.312   44.968
  339.476  220.343   53.778    0.428    0.300   31.462
  339.726  220.657   59.282    0.416    0.299   25.514
  339.976  220.756   66.036    0.398    0.297   21.164
  340.226  221.173   75.419    0.388    0.280   19.261
  340.476  221.910   87.180    0.397    0.278   18.729
  340.726  226.357   97.565    0.416    0.253   19.643
  340.976  224.230   95.308    0.410    0.294   23.386
  341.226  211.285   73.465    0.413    0.329   27.422
  341.476  211.277   70.082    0.368    0.349   32.336
  341.726  211.697   70.203    0.350    0.343   46.423
  341.976  211.371   69.387    0.349    0.329   51.339
  342.226  211.152   64.690    0.411    0.307   51.452
  342.476  211.146   59.117    0.456    0.307   48.723
  342.726  211.034   57.862    0.448    0.301   43.761
  342.976  211.876   60.173    0.439    0.294   39.673
  343.226  214.095   63.486    0.450    0.260   34.049
  343.476  215.256   67.175    0.446    0.236   30.872
  343.726  216.311   73.367    0.435    0.230   29.179
  343.976  217.152   84.126    0.419    0.200   31.130
  344.226  217.889   92.070    0.409    0.188   33.906
  344.476  218.517  109.776    0.438    0.312   43.949
  344.726  219.466  121.850    0.450    0.323   53.421
  344.976  220.520  134.925    0.439    0.315   63.236
  345.226  221.469  163.206    0.443    0.302   62.545
  345.476  221.992  160.386    0.434    0.292   55.537
  345.726  222.409  143.487    0.432    0.283   46.684
  345.976  222.828  105.687    0.448    0.288   36.937
  346.226  223.032   84.720    0.458    0.301   29.727
  346.476  222.814   68.383    0.451    0.307   23.476
  346.726  222.809   61.997    0.440    0.268   22.657
  346.976  222.693   60.553    0.425    0.239   23.673
  347.226  222.902   57.421    0.407    0.253   25.783
  347.476  222.895   52.787    0.391    0.266   27.612
  347.726  223.100   54.098    0.396    0.269   27.883
  347.976  223.199   60.727    0.412    0.268   26.502
  348.226  223.192   61.162    0.428    0.267   19.926
  348.476  223.081   66.227    0.442    0.257   18.305
  348.726  220.847   73.670    0.438    0.234   16.102
  348.976  218.825   80.613    0.433    0.194   14.461
  349.226  218.183   83.362    0.441    0.190   13.694
  349.476  217.433   75.724    0.440    0.202   14.776
  349.726  217.746   71.153    0.437    0.250   16.746
  349.976  221.981   68.834    0.418    0.259   19.638
  350.226  215.611   73.523    0.406    0.276   20.870
  350.476  214.331   74.833    0.424    0.254   21.036
  350.726  214.113   77.083    0.417    0.222   20.727
  350.976  213.789   80.897    0.396    0.194   19.776
  351.226  212.404   90.217    0.380    0.179   14.344
  351.476  212.079  103.855    0.375    0.191   13.278
  351.726  214.194  109.922    0.406    0.212   12.813
  351.976  214.186  106.163    0.419    0.199   13.852
  352.226  213.438   81.943    0.418    0.191   14.973
  352.476  209.827   66.357    0.390    0.190   16.402
  352.726  204.517   63.412    0.367    0.192   18.873
  352.976  202.601   66.913    0.366    0.236   20.518
  353.226  202.808   70.101    0.372    0.270   21.117
  353.476  203.650   70.410    0.396    0.276   21.204
  353.726  206.400   72.659    0.404    0.281   21.051
  353.976  208.409   74.345    0.415    0.271   20.317
  354.226  210.630   74.279    0.424    0.255   19.791
  354.476  212.425   71.960    0.434    0.248   19.538
  354.726  205.950   63.759    0.422    0.245   20.144
  354.976  204.459   52.429    0.404    0.228   22.236
  355.226  204.028   46.418    0.407    0.251   22.971
  355.476  204.657   52.672    0.390    0.281   23.021
  355.726  205.606   60.804    0.377    0.289   23.161
  355.976  206.448   73.941    0.371    0.274   23.434
  356.226  206.123   74.751    0.387    0.249   23.708
  356.476  205.586   72.495    0.416    0.253   23.053
  356.726  207.595   73.805    0.419    0.274   21.914
  356.976  206.846   72.863    0.435    0.268   21.797
  357.226  206.627   69.480    0.428    0.254   22.347
  357.476  207.364   64.783    0.419    0.244   22.397
  357.726  209.903   62.902    0.399    0.233   21.944
  357.976  214.244   69.281    0.395    0.277   20.779
  358.226  217.525   74.534    0.392    0.277   19.641
  358.476  220.063   75.720    0.401    0.268   19.834
  358.726  220.058   72.212    0.428    0.245   20.489
  358.976  219.309   66.451    0.448    0.247   21.941
  359.226  220.362   56.623    0.442    0.256   22.969
  359.476  223.218   50.675    0.431    0.305   23.369
  359.726  225.121   53.236    0.407    0.310   23.555
  359.976  226.706   59.178    0.388    0.304   21.725
  360.226  228.821   67.497    0.377    0.295   20.339
  360.476  229.450   71.060    0.381    0.275   18.757
  360.726  225.308   75.875    0.403    0.254   17.397
  360.976  223.074   80.753    0.408    0.218   16.599
  361.226  223.068   87.320    0.408    0.209   15.336
  361.476  223.803   88.504    0.398    0.197   14.689
  361.726  224.856   87.312    0.406    0.192   15.318
  361.976  223.684   81.615    0.416    0.216   16.813
  362.226  214.134   74.102    0.431    0.241   17.500
  362.476  208.082   68.529    0.445    0.266   17.637
  362.726  204.682   83.606    0.435    0.295   17.446
  362.976  207.009   90.737    0.421    0.212   16.552
  363.226  212.941   96.803    0.404    0.121   15.526
  363.476  215.478  100.616    0.407    0.022   14.701
  363.726  216.215  108.685    0.402    0.024   13.609
  363.976  217.480  112.311    0.395    0.134   12.768
  364.226  218.216  112.120    0.388    0.187   12.485
  364.476  218.636  111.741    0.385    0.192   12.465
  364.726  211.417  111.048    0.393    0.203   12.422
  364.976  204.942  110.232    0.404    0.217   12.545
  365.226  206.632  107.725    0.410    0.229   12.837
  365.476  209.595  106.971    0.422    0.254   13.186
  365.726  215.104  106.591    0.459    0.309   13.495
  365.976  204.492  107.902    0.476    0.340   13.550
  366.226  203.742  110.589    0.445    0.288   13.480
  366.476  204.478  111.962    0.425    0.259   13.307
  366.726  205.426  107.766    0.428    0.249   13.135
  366.976  205.632  103.570    0.435    0.236   12.896
  367.226  205.308  102.940    0.428    0.212   12.874
  367.476  205.089  102.561    0.399    0.168   13.124
  367.726  206.143  100.993    0.380    0.164   13.557
  367.976  208.470   98.924    0.380    0.204   14.600
  368.226  212.811   95.041    0.392    0.187   17.381
  368.476  212.063   85.901    0.405    0.138   26.261
  368.726  203.360   60.492    0.397    0.056   36.508
  368.976  201.230   32.328    0.361    0.024   45.653
  369.226  201.014   35.078    0.314    0.035   52.430
  369.476  200.901   38.766    0.319    0.104   56.570
  369.726  200.364   37.824    0.321    0.160   60.695
  369.976  198.343   33.190    0.339    0.173   62.939
  370.226  195.685   31.684    0.354    0.250   64.408
  370.476  194.618   31.054    0.417    0.267   65.041
  370.726  195.884   31.740    0.460    0.228   65.061
  370.976  197.892   33.926    0.454    0.203   60.801
  371.226  197.249   41.620    0.394    0.126   53.784
