~VERSION INFORMATION
 VERS.                 2.0:   CWLS LOG ASCII STANDARD -VERSION 2.0
 WRAP.                  NO:   ONE LINE PER DEPTH STEP
~WELL INFORMATION BLOCK
#MNEM.UNIT           DATA                    DESCRIPTION OF MNEMONIC
#---------    -------------------            -------------------------------
# Generated from Intellog Unique Number	CW_76_78/WELL/528
WELL.         ASHLAND ET AL PELICAN 06-17    : Well_name    - WELL
LOC .         00/06-17-076-19W4/0            : Location     - LOCATION
UWI .         00/06-17-076-19W4/0            : Uwi          - UNIQUE WELL ID
ENTR.         JAYE                           : Entered      - ENTERED BY
SRVC.         SCHLUMBERGER                   : Scn          - SERVICE COMPANY
DATE.         18 FEB 73                      : Date         - LOG DATE
STRT.M        243.84                         : top_depth    - START DEPTH
STOP.M        417.59                         : bot_depth    - STOP DEPTH
STEP.M        0.25                           : increment    - STEP LENGTH
 NULL. -999.2500:NULL Value
~CURVE INFORMATION BLOCK
#MNEM UNIT       ERCB CURVE CODE    CURVE DESCRIPTION
#-----------   ------------------   ----------------------------------
DEPT.M        00 001 00 00         : DEPTH        - DEPTH
ILD .OHMM     00 120 00 00         : RESD         - DEEP RESISTIVITY (DIL)
NPHI.V/V      00 330 00 00         : PHIN         - NEUTRON POROSITY (SANDSTONE)
DPHI.V/V      00 890 00 00         : PHID         - DENSITY POROSITY (SANDSTONE)
GR  .API      00 310 00 00         : GR           - GAMMA RAY
CALI.MM       00 280 01 00         : CAL          - CALIPER
~PARAMETER INFORMATION
#MNEM.UNIT           DATA             DESCRIPTION OF MNEMONIC
#---------         -----------     ------------------------------
GL  .M        577.596              : gl           - GROUND LEVEL ELEVATION
EREF.M        581.558              : kb           - ELEVATION OF DEPTH REFERENCE
DATM.M        577.596              : datum        - DATUM ELEVATION
TDD .M        507.492              : tdd          - TOTAL DEPTH DRILLER
RUN .         ONE                  : Run          - RUN NUMBER
ENG .         KEITH                : Engineer     - RECORDING ENGINEER
BASE.         EDM                  : Branch       - HOME BASE OF LOGGING UNIT
MUD .         GEL CHEM             : Mud_type     - MUD TYPE
MATR.         SANDSTONE            : Logunit      - NEUTRON MATRIX
TMAX.C        21.1111              : BHT          - MAXIMUM RECORDED TEMPERATURE
BHTD.M        507.797              : BHTDEP       - MAXIMUM RECORDED TEMPERATURE
RMT .C        13.8889              : MDTP         - TEMPERATURE OF MUD
MUDD.KG/M     0                    : MWT          - MUD DENSITY
NEUT.         1                    : NEUTRON      - NEUTRON TYPE
RESI.         0                    : RESIST       - RESISTIVITY TYPE
RM  .OHMM     2.32                 : RM           - RESISTIVITY OF MUD
RMC .OHMM     0                    : RMC          - RESISTIVITY OF MUD CAKE
RMF .OHMM     2.38                 : RMF          - RESISTIVITY OF MUD FILTRATE
SUFT.C        -17.7778             : SUFT         - SURFACE TEMPERATURE
~A  DEPTH     RESD     PHIN     PHID       GR      CAL
# ...
  280.340    0.355    0.568    0.292   86.130  184.208
  280.590    0.356    0.551    0.364   84.583  184.400
  280.840    0.350    0.526    0.275   81.822  171.178
  281.090    0.348    0.530    0.252   80.457  164.444
  281.340    0.347    0.540    0.280   80.183  160.790
  281.590    0.344    0.520    0.289   82.650  160.848
  281.840    0.336    0.524    0.258   86.204  163.168
  282.090    0.330    0.508    0.265   88.975  166.106
  282.340    0.327    0.486    0.253   94.660  169.654
  282.590    0.334    0.492    0.227  103.081  171.880
  282.840    0.355    0.498    0.209  109.737  174.609
  283.090    0.384    0.526    0.244  108.191  177.652
  283.340    0.414    0.543    0.236  100.383  181.818
  283.590    0.439    0.553    0.282   88.503  185.379
  283.840    0.455    0.533    0.301   76.625  172.262
  284.090    0.454    0.509    0.293   60.067  170.877
  284.340    0.412    0.494    0.275   59.611  172.987
  284.590    0.366    0.516    0.265   62.014  177.573
  284.840    0.342    0.481    0.231   64.117  177.938
  285.090    0.328    0.462    0.185   67.003  170.483
  285.340    0.320    0.491    0.215   69.774  176.913
  285.590    0.311    0.576    0.284   73.392  181.194
  285.840    0.306    0.547    0.263   80.110  180.317
  286.090    0.300    0.509    0.306   85.249  178.321
  286.340    0.296    0.477    0.284   84.612  174.158
  286.590    0.292    0.446    0.250   83.369  171.333
  286.840    0.282    0.481    0.276   82.735  174.577
  287.090    0.265    0.507    0.263   83.801  181.221
  287.340    0.257    0.561    0.387   86.933  196.714
  287.590    0.255    0.580    0.381   86.418  184.523
  287.840    0.260    0.518    0.260   82.501  169.655
  288.090    0.267    0.497    0.312   80.284  177.738
  288.340    0.275    0.475    0.337   72.417  179.339
  288.590    0.286    0.493    0.294   64.912  160.356
  288.840    0.298    0.527    0.283   62.455  163.905
  289.090    0.309    0.548    0.271   60.605  165.304
  289.340    0.322    0.491    0.265   57.235  163.612
  289.590    0.333    0.460    0.273   52.649  160.060
  289.840    0.343    0.488    0.241   50.066  158.257
  290.090    0.352    0.484    0.254   50.340  157.388
  290.340    0.355    0.494    0.305   51.348  157.240
  290.590    0.352    0.516    0.291   53.326  157.298
  290.840    0.350    0.517    0.307   56.763  158.283
  291.090    0.345    0.502    0.330   61.048  159.978
  291.340    0.343    0.503    0.308   64.912  161.891
  291.590    0.338    0.513    0.295   71.629  163.183
  291.840    0.336    0.525    0.248   75.737  163.751
  292.090    0.335    0.523    0.246   77.228  164.636
  292.340    0.336    0.516    0.255   76.773  165.305
  292.590    0.335    0.506    0.234   77.598  165.257
  292.840    0.336    0.491    0.237   81.277  164.696
  293.090    0.338    0.508    0.267   86.231  163.922
  293.340    0.341    0.499    0.289   83.592  163.578
  293.590    0.345    0.482    0.284   75.907  164.354
  293.840    0.348    0.487    0.266   69.133  169.247
  294.090    0.349    0.486    0.276   71.596  168.992
  294.340    0.348    0.468    0.292   71.022  165.653
  294.590    0.342    0.451    0.289   74.397  166.429
  294.840    0.334    0.503    0.271   79.049  169.978
  295.090    0.329    0.554    0.317   79.747  172.302
  295.340    0.325    0.620    0.345   79.174  177.504
  295.590    0.320    0.636    0.432   78.784  190.015
  295.840    0.320    0.601    0.381   81.549  182.455
  296.090    0.321    0.571    0.261   84.439  179.830
  296.340    0.319    0.545    0.269   85.203  183.180
  296.590    0.316    0.520    0.322   84.506  180.458
  296.840    0.316    0.495    0.238   86.606  166.624
  297.090    0.317    0.504    0.201   91.683  171.927
  297.340    0.318    0.528    0.185   97.551  176.099
  297.590    0.318    0.548    0.237   96.975  175.744
  297.840    0.318    0.574    0.214   94.395  183.724
  298.090    0.318    0.585    0.245   91.085  177.810
  298.340    0.318    0.568    0.245   88.506  170.664
  298.590    0.318    0.550    0.209   90.178  173.808
  298.840    0.308    0.535    0.206   95.622  180.655
  299.090    0.294    0.551    0.222   93.163  196.662
  299.340    0.285    0.557    0.232   90.520  178.091
  299.590    0.278    0.554    0.232   93.773  174.442
  299.840    0.269    0.597    0.261   96.362  170.684
  300.090    0.264    0.597    0.261   91.349  175.579
  300.340    0.258    0.596    0.289   87.127  176.460
  300.590    0.252    0.599    0.288   86.794  170.540
  300.840    0.248    0.608    0.253   87.195  174.515
  301.090    0.249    0.617    0.291   83.945  182.695
  301.340    0.256    0.616    0.303   78.995  189.134
  301.590    0.266    0.607    0.280   81.519  173.343
  301.840    0.277    0.608    0.307   91.945  164.755
  302.090    0.290    0.612    0.293  100.061  166.355
  302.340    0.304    0.620    0.302   92.557  170.522
  302.590    0.317    0.620    0.268   85.177  169.452
  302.840    0.330    0.621    0.264   82.414  167.551
  303.090    0.341    0.614    0.292   78.922  165.238
  303.340    0.348    0.593    0.305   73.606  163.542
  303.590    0.354    0.574    0.283   67.927  163.598
  303.840    0.355    0.551    0.310   61.821  164.474
  304.090    0.356    0.530    0.285   57.418  164.427
  304.340    0.353    0.506    0.302   54.046  164.697
  304.590    0.346    0.502    0.301   51.042  164.639
  304.840    0.337    0.508    0.300   54.599  164.603
  305.090    0.331    0.527    0.292   58.886  164.659
  305.340    0.329    0.550    0.313   58.312  164.494
  305.590    0.329    0.575    0.319   55.426  164.560
  305.840    0.329    0.570    0.325   54.669  164.615
  306.090    0.330    0.553    0.331   54.397  164.779
  306.340    0.331    0.556    0.331   53.518  164.624
  306.590    0.330    0.534    0.315   53.494  164.988
  306.840    0.331    0.503    0.287   53.223  165.356
  307.090    0.331    0.490    0.268   54.530  163.356
  307.340    0.329    0.519    0.263   57.664  160.531
  307.590    0.329    0.511    0.253   61.221  168.511
  307.840    0.329    0.497    0.251   59.432  167.327
  308.090    0.328    0.522    0.275   57.397  168.210
  308.340    0.328    0.539    0.293   60.166  172.795
  308.590    0.327    0.510    0.284   64.938  173.869
  308.840    0.328    0.530    0.254   68.802  173.317
  309.090    0.329    0.556    0.270   70.476  172.640
  309.340    0.331    0.574    0.280   68.320  172.190
  309.590    0.332    0.561    0.270   67.863  171.108
  309.840    0.334    0.547    0.258   66.927  170.141
  310.090    0.342    0.553    0.269   65.197  168.857
  310.340    0.354    0.549    0.285   62.922  167.779
  310.590    0.358    0.536    0.288   59.852  166.389
  310.840    0.355    0.515    0.235   57.032  165.633
  311.090    0.350    0.468    0.218   57.488  164.554
  311.340    0.347    0.472    0.208   60.317  163.573
  311.590    0.345    0.502    0.169   64.848  163.330
  311.840    0.347    0.517    0.223   71.870  163.483
  312.090    0.351    0.562    0.245   81.021  163.751
  312.340    0.355    0.569    0.270   90.534  163.912
  312.590    0.360    0.550    0.289   91.904  164.993
  312.840    0.363    0.546    0.299   81.908  166.276
  313.090    0.366    0.527    0.293   75.623  166.650
  313.340    0.374    0.549    0.272   74.863  167.312
  313.590    0.389    0.568    0.292   73.316  167.580
  313.840    0.403    0.531    0.288   68.427  167.329
  314.090    0.428    0.519    0.249   64.083  165.945
  314.340    0.492    0.575    0.216   60.836  168.260
  314.590    0.587    0.609    0.200   54.548  170.378
  314.840    0.731    0.604    0.339   49.049  171.864
  315.090    0.788    0.575    0.331   47.746  172.547
  315.340    0.785    0.565    0.333   46.746  172.701
  315.590    0.767    0.560    0.331   44.407  172.657
  315.840    0.739    0.538    0.318   44.199  172.304
  316.090    0.710    0.555    0.292   46.540  171.850
  316.340    0.684    0.589    0.316   49.126  171.288
  316.590    0.654    0.584    0.321   50.434  170.720
