~VERSION INFORMATION
 VERS.                 2.0:   CWLS LOG ASCII STANDARD -VERSION 2.0
 WRAP.                  NO:   ONE LINE PER DEPTH STEP
~WELL INFORMATION BLOCK
#MNEM.UNIT           DATA                    DESCRIPTION OF MNEMONIC
#---------    -------------------            -------------------------------
# Generated from Intellog Unique Number	CS_69_70/WELL/737
NULL.         -999.25                        : NULL_VALUE
WELL.         HB CS PITLOCHRIE               : Well_name    - WELL              
LOC .         00/06-07-070-11W4/0            : Location     - LOCATION          
UWI .         00/06-07-070-11W4/0            : Uwi          - UNIQUE WELL ID    
ENTR.         SP                             : Entered      - ENTERED BY        
SRVC.         SCHLUMBERGER                   : Scn          - SERVICE COMPANY   
STRT.M        274.32                         : top_depth    - START DEPTH       
STOP.M        457.32                         : bot_depth    - STOP DEPTH        
STEP.M        0.25                           : increment    - STEP LENGTH       
~CURVE INFORMATION BLOCK
#MNEM UNIT       ERCB CURVE CODE    CURVE DESCRIPTION
#-----------   ------------------   ----------------------------------
DEPT.M        00 001 00 00         : DEPTH        - DEPTH                       
GR  .API      00 310 00 00         : GR           - GAMMA RAY                   
DPHI.V/V      00 890 00 00         : PHID         - DENSITY POROSITY (SANDSTONE)
NPHI.V/V      00 330 00 00         : PHIN         - NEUTRON POROSITY (SANDSTONE)
ILD .OHMM     00 120 00 00         : RESD         - DEEP RESISTIVITY (DIL)      
~PARAMETER INFORMATION       
#MNEM.UNIT           DATA             DESCRIPTION OF MNEMONIC
#---------         -----------     ------------------------------
GL  .M        600.669              : gl           - GROUND LEVEL ELEVATION      
EREF.M        603.717              : kb           - ELEVATION OF DEPTH REFERENCE
DATM.M        600.669              : datum        - DATUM ELEVATION             
TDD .M        478.536              : tdd          - TOTAL DEPTH DRILLER         
RUN .         ONE                  : Run          - RUN NUMBER                  
ENG .         BILL                 : Engineer     - RECORDING ENGINEER          
WIT .         JIM                  : Witness      - WITNESSED BY                
MUD .         GEL                  : Mud_type     - MUD TYPE                    
MATR.         SANDSTONE            : Logunit      - NEUTRON MATRIX              
TMAX.C        26.1111              : BHT          - MAXIMUM RECORDED TEMPERATURE
BHTD.M        478.536              : BHTDEP       - MAXIMUM RECORDED TEMPERATURE
MATR.         1                    : LOGUNIT      - NEUTRON MATRIX              
RMT .C        25                   : MDTP         - TEMPERATURE OF MUD          
NEUT.         1                    : NEUTRON      - NEUTRON TYPE                
RESI.         0                    : RESIST       - RESISTIVITY TYPE            
RMC .OHMM     0.25                 : RMC          - RESISTIVITY OF MUD CAKE     
RMF .OHMM     0.25                 : RMF          - RESISTIVITY OF MUD FILTRATE 
SUFT.C        15                   : SUFT         - SURFACE TEMPERATURE         
~A  DEPTH       GR     PHID     PHIN     RESD
# ...
  317.820   91.198    0.298    0.539    5.224
  318.070   86.580    0.314    0.527    5.301
  318.320   82.571    0.317    0.482    5.223
  318.570   78.856    0.309    0.467    5.073
  318.820   76.832    0.302    0.462    4.984
  319.070   79.479    0.289    0.461    4.993
  319.320   80.987    0.273    0.461    5.146
  319.570   81.840    0.265    0.462    5.343
  319.820   84.070    0.265    0.458    5.584
  320.070   86.481    0.262    0.452    5.791
  320.320   89.790    0.269    0.472    5.885
  320.570   90.867    0.281    0.500    5.941
  320.820   89.864    0.290    0.518    5.912
  321.070   90.372    0.285    0.502    5.853
  321.320   91.993    0.273    0.495    5.751
  321.570   93.474    0.263    0.492    5.719
  321.820   94.192    0.267    0.488    5.746
  322.070   94.195    0.270    0.485    5.732
  322.320   93.563    0.267    0.483    5.723
  322.570   93.033    0.268    0.494    5.779
  322.820   92.897    0.270    0.507    5.817
  323.070   91.093    0.273    0.510    5.875
  323.320   90.221    0.273    0.519    5.916
  323.570   92.361    0.271    0.530    5.969
  323.820   96.494    0.267    0.544    5.991
  324.070   98.717    0.262    0.554    5.922
  324.320   99.984    0.270    0.539    5.774
  324.570   99.506    0.276    0.540    5.565
  324.820   97.869    0.286    0.557    5.346
  325.070   96.280    0.305    0.541    5.320
  325.320   96.831    0.307    0.527    5.437
  325.570   94.970    0.275    0.520    5.555
  325.820   90.974    0.285    0.499    5.660
  326.070   92.146    0.270    0.501    5.722
  326.320   93.633    0.258    0.503    5.814
  326.570   90.874    0.263    0.503    5.856
  326.820   85.160    0.283    0.499    5.835
  327.070   81.333    0.309    0.479    5.782
  327.320   77.593    0.325    0.469    5.689
  327.570   75.684    0.328    0.462    5.565
  327.820   75.017    0.319    0.461    5.458
  328.070   72.445    0.312    0.455    5.372
  328.320   72.614    0.311    0.456    5.348
  328.570   75.674    0.324    0.467    5.353
  328.820   77.930    0.324    0.477    5.398
  329.070   80.156    0.312    0.486    5.588
  329.320   81.505    0.304    0.501    5.826
  329.570   84.708    0.294    0.509    6.008
  329.820   87.384    0.301    0.515    6.158
  330.070   88.858    0.289    0.509    6.284
  330.320   89.101    0.294    0.497    6.439
  330.570   87.308    0.291    0.483    6.526
  330.820   85.410    0.290    0.465    6.552
  331.070   83.143    0.292    0.461    6.523
  331.320   81.556    0.285    0.467    6.540
  331.570   81.722    0.279    0.459    6.579
  331.820   84.590    0.279    0.452    6.632
  332.070   87.431    0.267    0.455    6.673
  332.320   90.118    0.256    0.457    6.842
  332.570   91.621    0.248    0.456    6.996
  332.820   92.415    0.241    0.456    7.291
  333.070   91.866    0.258    0.466    7.454
  333.320   90.810    0.270    0.475    7.530
  333.570   88.851    0.256    0.486    7.601
  333.820   87.295    0.254    0.481    7.625
  334.070   88.378    0.257    0.469    7.657
  334.320   90.192    0.259    0.465    7.626
  334.570   91.976    0.255    0.468    7.512
  334.820   92.979    0.270    0.462    7.363
  335.070   92.971    0.278    0.473    7.190
  335.320   94.448    0.258    0.496    7.019
  335.570   94.373    0.248    0.510    6.701
  335.820   91.864    0.285    0.507    6.607
  336.070   87.109    0.325    0.510    6.449
  336.320   81.353    0.349    0.505    6.444
  336.570   77.643    0.340    0.495    6.486
  336.820   76.359    0.323    0.493    6.575
  337.070   76.434    0.311    0.503    6.686
  337.320   76.144    0.305    0.508    6.660
  337.570   73.869    0.316    0.491    6.381
  337.820   69.900    0.325    0.495    6.185
  338.070   65.393    0.328    0.493    5.959
  338.320   62.682    0.332    0.480    5.831
  338.570   60.283    0.336    0.471    5.721
  338.820   58.407    0.340    0.461    5.707
  339.070   63.463    0.334    0.448    5.819
  339.320   68.070    0.314    0.444    5.981
  339.570   71.949    0.301    0.438    6.367
  339.820   74.412    0.293    0.434    6.255
  340.070   76.548    0.290    0.434    6.428
  340.320   77.840    0.287    0.445    6.568
  340.570   78.624    0.282    0.467    6.729
  340.820   80.007    0.280    0.486    6.790
  341.070   82.442    0.283    0.503    6.899
  341.320   85.198    0.289    0.501    6.998
  341.570   86.426    0.292    0.491    7.039
  341.820   87.274    0.290    0.491    7.036
  342.070   87.451    0.295    0.493    6.972
  342.320   86.241    0.305    0.486    6.827
  342.570   77.448    0.296    0.468    6.635
  342.820   71.024    0.303    0.446    6.475
  343.070   68.331    0.318    0.439    6.308
  343.320   70.279    0.331    0.450    6.192
  343.570   71.242    0.323    0.458    6.126
  343.820   71.588    0.319    0.464    6.117
  344.070   74.655    0.307    0.468    6.148
  344.320   77.336    0.290    0.477    6.248
  344.570   76.793    0.275    0.478    6.344
  344.820   73.388    0.261    0.465    6.463
  345.070   70.976    0.265    0.481    6.541
  345.320   69.276    0.295    0.492    6.598
  345.570   71.533    0.313    0.505    6.646
  345.820   71.520    0.315    0.504    6.695
  346.070   71.961    0.321    0.495    6.734
  346.320   74.412    0.331    0.498    6.760
  346.570   74.683    0.329    0.488    6.702
  346.820   74.674    0.322    0.484    6.585
  347.070   78.350    0.308    0.483    6.327
  347.320   83.300    0.295    0.492    6.005
  347.570   86.723    0.285    0.521    5.551
  347.820   87.761    0.290    0.542    5.136
  348.070   87.267    0.325    0.543    4.867
  348.320   85.885    0.308    0.541    4.759
  348.570   84.401    0.287    0.552    4.837
  348.820   83.370    0.294    0.548    5.010
  349.070   82.412    0.293    0.532    5.190
  349.320   80.657    0.286    0.517    5.337
  349.570   78.014    0.277    0.522    5.456
  349.820   74.844    0.286    0.537    5.617
  350.070   70.766    0.338    0.521    5.782
  350.320   71.391    0.343    0.494    6.138
  350.570   72.386    0.342    0.493    6.343
  350.820   73.176    0.336    0.494    6.830
  351.070   73.497    0.325    0.491    7.011
  351.320   72.983    0.322    0.489    7.198
  351.570   72.001    0.325    0.495    7.320
  351.820   71.373    0.330    0.507    7.348
  352.070   70.788    0.326    0.511    7.323
  352.320   70.331    0.319    0.500    7.266
  352.570   69.697    0.316    0.496    7.243
  352.820   69.223    0.315    0.504    7.253
  353.070   68.336    0.315    0.496    7.276
  353.320   68.276    0.319    0.504    7.322
  353.570   68.637    0.321    0.507    7.390
  353.820   68.912    0.313    0.494    7.440
  354.070   69.042    0.308    0.486    7.492
  354.320   68.846    0.307    0.479    7.503
  354.570   67.104    0.311    0.479    7.528
  354.820   65.760    0.310    0.488    7.534
  355.070   65.928    0.308    0.496    7.537
  355.320   65.639    0.307    0.499    7.518
  355.570   65.219    0.311    0.493    7.481
  355.820   66.059    0.321    0.490    7.427
  356.070   67.131    0.329    0.498    7.377
  356.320   68.541    0.333    0.507    7.311
  356.570   68.571    0.337    0.506    7.245
  356.820   67.051    0.339    0.494    7.157
  357.070   66.347    0.332    0.489    7.120
  357.320   65.658    0.322    0.491    7.079
  357.570   69.225    0.313    0.483    7.037
  357.820   72.564    0.302    0.479    7.009
  358.070   74.764    0.290    0.478    6.977
  358.320   77.183    0.282    0.494    6.945
  358.570   78.602    0.290    0.495    6.928
  358.820   76.683    0.297    0.491    6.890
  359.070   78.473    0.309    0.507    6.885
  359.320   80.340    0.302    0.511    6.854
  359.570   80.956    0.292    0.500    6.822
  359.820   82.088    0.291    0.492    6.791
  360.070   83.347    0.298    0.490    6.774
  360.320   82.040    0.296    0.489    6.721
  360.570   83.990    0.294    0.486    6.661
  360.820   86.393    0.279    0.485    6.631
  361.070   88.555    0.265    0.496    6.555
