~VERSION INFORMATION
 VERS.                 2.0:   CWLS LOG ASCII STANDARD -VERSION 2.0
 WRAP.                  NO:   ONE LINE PER DEPTH STEP
~WELL INFORMATION BLOCK
#MNEM.UNIT           DATA                    DESCRIPTION OF MNEMONIC
#---------    -------------------            -------------------------------
# Generated from Intellog Unique Number	CW_73_75/WELL/532
WELL.         NORCEN POR MARTIN HILLS 06-10  : Well_name    - WELL
LOC .         00/06-10-074-25W4/0            : Location     - LOCATION
UWI .         00/06-10-074-25W4/0            : Uwi          - UNIQUE WELL ID
ENTR.         JAYE                           : Entered      - ENTERED BY
SRVC.         COMPUTALOG                     : Scn          - SERVICE COMPANY
DATE.         18 FEB 83                      : Date         - LOG DATE
STRT.M        420                            : top_depth    - START DEPTH
STOP.M        642                            : bot_depth    - STOP DEPTH
STEP.M        0.25                           : increment    - STEP LENGTH
 NULL. -999.2500:NULL Value
~CURVE INFORMATION BLOCK
#MNEM UNIT       ERCB CURVE CODE    CURVE DESCRIPTION
#-----------   ------------------   ----------------------------------
DEPT.M        00 001 00 00         : DEPTH        - DEPTH
ILD .OHMM     00 120 00 00         : RESD         - DEEP RESISTIVITY (DIL)
CALI.MM       00 280 01 00         : CAL          - CALIPER
GR  .API      00 310 00 00         : GR           - GAMMA RAY
NPHI.V/V      00 330 00 00         : PHIN         - NEUTRON POROSITY (SANDSTONE)
DPHI.V/V      00 890 00 00         : PHID         - DENSITY POROSITY (SANDSTONE)
~PARAMETER INFORMATION
#MNEM.UNIT           DATA             DESCRIPTION OF MNEMONIC
#---------         -----------     ------------------------------
GL  .M        677.67               : gl           - GROUND LEVEL ELEVATION
EREF.M        680.97               : kb           - ELEVATION OF DEPTH REFERENCE
DATM.M        677.67               : datum        - DATUM ELEVATION
TDD .M        650                  : tdd          - TOTAL DEPTH DRILLER
RUN .         ONE                  : Run          - RUN NUMBER
ENG .         BOGNER               : Engineer     - RECORDING ENGINEER
BASE.         EDM                  : Branch       - HOME BASE OF LOGGING UNIT
MUD .         GEL CHEM             : Mud_type     - MUD TYPE
MATR.         SANDSTONE            : Logunit      - NEUTRON MATRIX
TMAX.C        35                   : BHT          - MAXIMUM RECORDED TEMPERATURE
BHTD.M        647.2                : BHTDEP       - MAXIMUM RECORDED TEMPERATURE
RMT .C        17.8                 : MDTP         - TEMPERATURE OF MUD
MUDD.KG/M     1140                 : MWT          - MUD DENSITY
NEUT.         1                    : NEUTRON      - NEUTRON TYPE
RESI.         0                    : RESIST       - RESISTIVITY TYPE
RM  .OHMM     3.3                  : RM           - RESISTIVITY OF MUD
RMC .OHMM     3                    : RMC          - RESISTIVITY OF MUD CAKE
RMF .OHMM     5.9                  : RMF          - RESISTIVITY OF MUD FILTRATE
SUFT.C        0                    : SUFT         - SURFACE TEMPERATURE
~A  DEPTH     RESD      CAL       GR     PHIN     PHID
# ...
  529.500    4.593  190.214   64.296    0.375    0.245
  529.750    4.891  191.418   64.893    0.366    0.243
  530.000    5.288  192.950   67.255    0.388    0.238
  530.250    5.883  194.266   68.234    0.369    0.188
  530.500    6.483  195.780   67.637    0.278    0.158
  530.750    6.559  197.620   65.154    0.262    0.126
  531.000    6.185  197.880   62.919    0.290    0.157
  531.250    5.691  197.207   67.924    0.368    0.203
  531.500    5.295  196.632   70.412    0.410    0.251
  531.750    4.808  196.054   69.877    0.438    0.250
  532.000    4.307  195.480   71.800    0.434    0.252
  532.250    4.148  194.489   75.921    0.408    0.254
  532.500    4.141  193.078   76.395    0.403    0.257
  532.750    4.253  192.084   74.227    0.414    0.254
  533.000    4.419  191.613   75.329    0.412    0.245
  533.250    4.530  191.671   80.773    0.404    0.240
  533.500    4.618  192.034   80.997    0.398    0.255
  533.750    4.744  193.036   75.743    0.404    0.266
  534.000    4.938  196.658   72.757    0.400    0.266
  534.250    5.199  197.767   72.285    0.384    0.246
  534.500    5.442  197.395   71.565    0.349    0.230
  534.750    5.796  195.878   65.054    0.317    0.210
  535.000    6.326  194.673   64.585    0.314    0.177
  535.250    6.597  193.582   68.329    0.339    0.163
  535.500    6.512  193.117   72.326    0.365    0.183
  535.750    6.199  193.060   75.886    0.380    0.193
  536.000    5.981  192.595   77.995    0.382    0.195
  536.250    5.837  192.643   79.348    0.368    0.204
  536.500    5.739  192.599   80.077    0.360    0.210
  536.750    5.708  192.864   80.233    0.369    0.202
  537.000    5.818  193.546   79.888    0.381    0.190
  537.250    6.267  195.487   78.851    0.372    0.180
  537.500    7.025  198.274   77.312    0.299    0.058
  537.750    7.257  201.573   73.883    0.270    0.054
  538.000    7.204  203.310   69.450    0.293    0.097
  538.250    6.884  197.070   71.369    0.325    0.134
  538.500    6.310  193.454   83.294    0.351    0.193
  538.750    5.783  193.722   86.599    0.366    0.217
  539.000    5.331  195.872   87.138    0.385    0.202
  539.250    5.173  199.916   86.605    0.373    0.196
  539.500    5.193  201.443   88.021    0.372    0.192
  539.750    5.224  201.494   91.516    0.373    0.187
  540.000    5.285  201.237   91.549    0.376    0.185
  540.250    5.337  200.452   88.184    0.383    0.188
  540.500    5.358  199.984   87.775    0.392    0.205
  540.750    5.309  200.143   90.704    0.408    0.207
  541.000    5.290  200.614   93.946    0.411    0.197
  541.250    5.342  201.091   93.475    0.400    0.197
  541.500    5.508  201.468   90.992    0.389    0.196
  541.750    5.744  201.838   92.283    0.389    0.190
  542.000    5.889  201.988   94.960    0.381    0.184
  542.250    5.924  201.834   90.778    0.386    0.183
  542.500    5.993  200.112   88.544    0.400    0.182
  542.750    6.017  198.908   90.150    0.399    0.176
  543.000    6.064  198.227   94.150    0.395    0.167
  543.250    6.077  197.654   97.830    0.387    0.158
  543.500    6.067  197.391   99.754    0.388    0.163
  543.750    6.045  197.246  101.421    0.404    0.174
  544.000    6.035  197.299  102.271    0.406    0.182
  544.250    6.048  197.254   98.403    0.395    0.187
  544.500    6.096  197.094   95.356    0.404    0.181
  544.750    6.143  196.724   96.142    0.411    0.172
  545.000    6.156  196.154   97.812    0.404    0.156
  545.250    6.158  195.892   93.187    0.393    0.145
  545.500    6.313  195.951   86.425    0.386    0.160
  545.750    6.672  196.005   84.382    0.399    0.174
  546.000    6.853  196.587   85.798    0.379    0.181
  546.250    6.764  197.687   85.833    0.358    0.173
  546.500    6.538  199.424   85.110    0.369    0.178
  546.750    6.225  200.841   90.932    0.380    0.188
  547.000    6.144  201.942   93.356    0.391    0.190
  547.250    5.916  202.310   92.070    0.402    0.188
  547.500    5.851  198.170   90.969    0.402    0.184
  547.750    5.841  197.391   92.135    0.397    0.174
  548.000    5.977  198.598   96.701    0.393    0.176
  548.250    6.047  201.065   99.941    0.399    0.182
  548.500    6.071  202.691   99.849    0.401    0.186
  548.750    6.038  204.011   93.841    0.396    0.187
  549.000    5.960  204.795   92.240    0.379    0.186
  549.250    5.961  205.593   94.158    0.370    0.181
  549.500    6.008  205.960   95.954    0.370    0.173
  549.750    6.078  206.012   93.848    0.373    0.167
  550.000    6.172  205.331   88.660    0.377    0.167
  550.250    6.162  203.917   89.698    0.373    0.173
  550.500    6.210  201.356   93.130    0.378    0.181
  550.750    6.343  198.996   90.519    0.387    0.190
  551.000    6.466  197.266   88.160    0.393    0.192
  551.250    6.541  196.280   90.398    0.392    0.187
  551.500    6.568  196.229   96.659    0.384    0.176
  551.750    6.607  196.281   97.258    0.374    0.170
  552.000    6.521  196.755   94.461    0.363    0.174
  552.250    6.473  197.232   94.560    0.365    0.174
  552.500    6.586  198.127   95.029    0.393    0.171
  552.750    6.550  199.229   91.855    0.413    0.173
  553.000    6.465  200.854   93.145    0.429    0.187
  553.250    6.357  200.390   98.212    0.418    0.197
  553.500    6.358  199.079   99.190    0.406    0.188
  553.750    6.360  197.455   96.394    0.386    0.178
  554.000    6.361  196.465   95.103    0.375    0.174
  554.250    6.448  196.522   96.520    0.369    0.175
  554.500    6.548  196.572   91.835    0.368    0.175
  554.750    6.624  196.529   87.778    0.367    0.171
  555.000    6.779  196.270   84.097    0.394    0.163
  555.250    6.910  195.902   96.213    0.414    0.199
  555.500    7.179  195.645  100.085    0.385    0.225
  555.750    7.645  194.961   87.535    0.362    0.248
  556.000    8.408  194.704   77.815    0.354    0.287
  556.250    9.479  194.236   68.281    0.368    0.288
  556.500   10.445  193.976   65.106    0.379    0.278
  556.750   11.402  193.818   61.365    0.353    0.264
  557.000   12.142  193.979   56.993    0.322    0.247
  557.250   12.639  194.144   61.746    0.354    0.255
  557.500   12.713  194.512   66.183    0.352    0.273
  557.750   12.477  195.201   66.718    0.339    0.276
  558.000   12.268  196.407   63.480    0.342    0.274
  558.250   12.086  197.301   62.824    0.375    0.274
  558.500   11.929  198.507   63.423    0.379    0.278
  558.750   12.138  199.294   63.456    0.382    0.281
  559.000   12.562  201.551   63.427    0.384    0.280
  559.250   12.977  197.834   65.408    0.387    0.276
  559.500   13.280  199.569   67.582    0.388    0.270
  559.750   13.511  199.936   66.923    0.388    0.266
  560.000   13.566  199.780   66.073    0.385    0.265
  560.250   13.543  199.529   65.227    0.379    0.266
  560.500   13.367  198.951   64.002    0.363    0.271
  560.750   13.219  198.165   64.538    0.363    0.272
  561.000   13.122  197.801   67.784    0.381    0.263
  561.250   13.200  196.812   70.330    0.377    0.253
  561.500   13.405  196.021   72.502    0.362    0.255
  561.750   13.587  196.397   69.138    0.345    0.261
  562.000   13.616  198.651   63.822    0.373    0.269
  562.250   13.593  201.854   62.598    0.377    0.270
  562.500   13.468  203.060   63.888    0.372    0.268
  562.750   13.267  202.280   66.250    0.384    0.269
  563.000   12.536  201.282   68.111    0.408    0.271
  563.250   12.002  199.138   68.083    0.410    0.276
  563.500   11.757  197.626   65.970    0.379    0.279
  563.750   11.827  198.094   63.424    0.381    0.278
  564.000   12.148  199.305   64.718    0.396    0.271
  564.250   12.549  201.458   67.207    0.400    0.261
  564.500   13.440  202.245   66.107    0.385    0.245
  564.750   14.615  200.728   63.810    0.366    0.229
  565.000   16.445  198.370   60.759    0.289    0.217
  565.250   18.716  197.165   59.787    0.267    0.197
  565.500   20.082  198.478   61.895    0.298    0.223
  565.750   19.192  201.261   66.837    0.362    0.252
