~VERSION INFORMATION
 VERS.                 2.0:   CWLS LOG ASCII STANDARD -VERSION 2.0
 WRAP.                  NO:   ONE LINE PER DEPTH STEP
~WELL INFORMATION BLOCK
#MNEM.UNIT           DATA                    DESCRIPTION OF MNEMONIC
#---------    -------------------            -------------------------------
# Generated from Intellog Unique Number	CS_69_70/WELL/618
WELL.         HUSKY AEC FISHER               : Well_name    - WELL
LOC .         00/05-12-069-06W4/0            : Location     - LOCATION
UWI .         00/05-12-069-06W4/0            : Uwi          - UNIQUE WELL ID
ENTR.         T                              : Entered      - ENTERED BY
SRVC.         SCHLUMBERGER                   : Scn          - SERVICE COMPANY
STRT.M        365                            : top_depth    - START DEPTH
STOP.M        570                            : bot_depth    - STOP DEPTH
STEP.M        0.25                           : increment    - STEP LENGTH
 NULL. -999.2500:NULL Value
~CURVE INFORMATION BLOCK
#MNEM UNIT       ERCB CURVE CODE    CURVE DESCRIPTION
#-----------   ------------------   ----------------------------------
DEPT.M        00 001 00 00         : DEPTH        - DEPTH
GR  .API      00 310 00 00         : GR           - GAMMA RAY
NPHI.V/V      00 330 00 00         : PHIN         - NEUTRON POROSITY (SANDSTONE)
DPHI.V/V      00 890 00 00         : PHID         - DENSITY POROSITY (SANDSTONE)
ILD .OHMM     00 120 00 00         : RESD         - DEEP RESISTIVITY (DIL)
~PARAMETER INFORMATION
#MNEM.UNIT           DATA             DESCRIPTION OF MNEMONIC
#---------         -----------     ------------------------------
GL  .M        716                  : gl           - GROUND LEVEL ELEVATION
EREF.M        719.6                : kb           - ELEVATION OF DEPTH REFERENCE
DATM.M        719.6                : datum        - DATUM ELEVATION
TDD .M        581                  : tdd          - TOTAL DEPTH DRILLER
RUN .         ONE                  : Run          - RUN NUMBER
ENG .         TIM                  : Engineer     - RECORDING ENGINEER
WIT .         JIM                  : Witness      - WITNESSED BY
MUD .         GEL                  : Mud_type     - MUD TYPE
MATR.         SANDSTONE            : Logunit      - NEUTRON MATRIX
TMAX.C        24                   : BHT          - MAXIMUM RECORDED TEMPERATURE
BHTD.M        581                  : BHTDEP       - MAXIMUM RECORDED TEMPERATURE
MATR.         1                    : LOGUNIT      - NEUTRON MATRIX
RMT .C        20                   : MDTP         - TEMPERATURE OF MUD
NEUT.         1                    : NEUTRON      - NEUTRON TYPE
RESI.         9.3                  : RESIST       - RESISTIVITY TYPE
RMC .OHMM     8.5                  : RMC          - RESISTIVITY OF MUD CAKE
RMF .OHMM     9.2                  : RMF          - RESISTIVITY OF MUD FILTRATE
SUFT.C        15                   : SUFT         - SURFACE TEMPERATURE
~A  DEPTH       GR     PHIN     PHID     RESD
# ...
  495.500   75.558    0.486    0.511    5.692
  495.750   76.805    0.475    0.517    5.699
  496.000   77.441    0.486    0.471    5.704
  496.250   76.248    0.490    0.397    5.711
  496.500   75.665    0.495    0.414    5.613
  496.750   76.301    0.505    0.437    5.727
  497.000   76.328    0.504    0.438    5.736
  497.250   74.532    0.485    0.392    5.852
  497.500   73.332    0.468    0.361    6.083
  497.750   72.146    0.443    0.211    6.567
  498.000   71.563    0.449    0.241    6.957
  498.250   73.426    0.450    0.271    7.233
  498.500   74.659    0.450    0.292    7.109
  498.750   75.905    0.460    0.272    6.852
  499.000   75.335    0.467    0.265    6.731
  499.250   74.129    0.462    0.294    6.371
  499.500   71.723    0.451    0.304    6.257
  499.750   69.920    0.458    0.304    6.034
  500.000   68.727    0.470    0.295    6.043
  500.250   67.528    0.480    0.285    6.050
  500.500   65.725    0.473    0.290    6.411
  500.750   68.191    0.474    0.299    7.050
  501.000   71.883    0.474    0.309    8.204
  501.250   73.129    0.462    0.275    9.549
  501.500   73.772    0.446    0.226   10.311
  501.750   75.012    0.426    0.215   10.520
  502.000   76.868    0.437    0.287   10.336
  502.250   77.504    0.450    0.309    9.966
  502.500   78.147    0.458    0.352    9.085
  502.750   77.551    0.461    0.401    8.596
  503.000   77.584    0.465    0.342    8.134
  503.250   77.001    0.466    0.343    7.415
  503.500   77.644    0.469    0.334    6.885
  503.750   78.274    0.475    0.328    6.633
  504.000   78.300    0.477    0.322    6.519
  504.250   77.108    0.473    0.332    6.168
  504.500   75.311    0.473    0.333    5.413
  504.750   73.509    0.473    0.335    4.934
  505.000   72.925    0.525    0.343    4.755
  505.250   72.342    0.545    0.358    4.415
  505.500   72.362    0.565    0.418    4.415
  505.750   71.176    0.556    0.452    1.664
  506.000   71.203    0.552    0.498    1.762
  506.250   70.620    0.569    0.531    1.798
  506.500   70.646    0.581    0.505    1.868
  506.750   70.063    0.597    0.480    1.906
  507.000   70.090    0.600    0.468    1.945
  507.250   70.116    0.596    0.430    2.061
  507.500   68.923    0.589    0.402    2.183
  507.750   70.779    0.576    0.430    2.356
  508.000   72.629    0.566    0.459    2.450
  508.250   75.711    0.570    0.520    2.547
  508.500   77.567    0.560    0.557    2.550
  508.750   80.033    0.566    0.525    2.553
  509.000   81.272    0.581    0.498    2.654
  509.250   77.640    0.564    0.466    2.759
  509.500   73.405    0.549    0.422    2.980
  509.750   70.376    0.555    0.377    3.156
  510.000   67.970    0.559    0.329    3.407
  510.250   67.997    0.462    0.359    3.678
  510.500   70.456    0.474    0.401    3.972
  510.750   74.148    0.494    0.566    4.052
  511.000   74.778    0.503    0.475    3.907
  511.250   76.037    0.510    0.453    3.697
  511.500   74.235    0.511    0.442    3.565
  511.750   71.816    0.524    0.429    3.437
  512.000   69.410    0.527    0.419    3.377
  512.250   68.203    0.535    0.417    3.382
  512.500   67.010    0.561    0.407    3.386
  512.750   66.434    0.560    0.414    3.454
  513.000   66.454    0.531    0.459    3.658
  513.250   68.310    0.522    0.481    4.024
  513.500   72.002    0.514    0.506    4.598
  513.750   72.029    0.516    0.528    4.869
  514.000   70.226    0.518    0.474    5.358
  514.250   69.643    0.513    0.440    5.571
  514.500   71.499    0.503    0.443    5.683
  514.750   72.129    0.504    0.456    5.690
  515.000   74.601    0.504    0.463    5.697
  515.250   75.847    0.468    0.464    5.704
  515.500   75.264    0.466    0.469    5.500
  515.750   72.242    0.476    0.476    5.204
  516.000   69.823    0.497    0.482    4.835
  516.250   64.971    0.507    0.498    4.840
  516.500   60.729    0.534    0.506    5.223
  516.750   57.097    0.541    0.470    6.679
  517.000   52.245    0.389    0.387    9.563
  517.250   48.613    0.364    0.168   13.697
  517.500   51.079    0.319    0.145   15.358
  517.750   57.203    0.255    0.115   15.669
  518.000   64.548    0.297    0.108   15.108
  518.250   65.191    0.322    0.174   14.029
  518.500   62.778    0.352    0.226   12.078
  518.750   60.366    0.368    0.245    9.468
  519.000   60.392    0.402    0.256    8.467
  519.250   61.639    0.413    0.267    8.319
  519.500   61.658    0.434    0.286    9.502
  519.750   62.911    0.445    0.299   12.383
  520.000   65.377    0.442    0.309   14.966
  520.250   67.850    0.432    0.313   15.269
  520.500   69.083    0.423    0.316   17.777
  520.750   70.939    0.415    0.319   17.799
  521.000   70.965    0.421    0.323   17.821
  521.250   68.559    0.432    0.325   17.842
  521.500   67.976    0.433    0.328   17.864
  521.750   69.222    0.421    0.325   17.885
  522.000   72.298    0.411    0.320   17.245
  522.250   74.764    0.419    0.318   16.633
  522.500   77.230    0.427    0.315   16.038
  522.750   79.702    0.434    0.313   14.888
  523.000   82.175    0.436    0.308   13.318
  523.250   83.408    0.438    0.305   13.077
  523.500   84.661    0.434    0.301   11.263
  523.750   84.681    0.430    0.299   10.461
  524.000   84.707    0.432    0.298   10.873
  524.250   84.734    0.436    0.302   11.525
  524.500   84.767    0.435    0.314   10.902
  524.750   84.794    0.420    0.322   10.124
  525.000   85.437    0.407    0.317    9.401
  525.250   86.060    0.392    0.312    8.729
  525.500   83.038    0.394    0.316    8.417
  525.750   72.088    0.425    0.330    8.425
  526.000   60.522    0.455    0.340   10.185
  526.250   38.596    0.376    0.336   16.022
  526.500   50.818    0.353    0.327   23.820
  526.750   66.097    0.360    0.316   27.217
  527.000   72.831    0.370    0.303   26.742
  527.250   73.468    0.359    0.292   23.914
  527.500   73.494    0.346    0.273   20.589
  527.750   71.082    0.379    0.265   17.077
  528.000   66.237    0.390    0.254   14.432
  528.250   63.214    0.384    0.261   13.656
  528.500   68.113    0.366    0.286   12.681
  528.750   71.805    0.386    0.292   11.999
  529.000   70.002    0.415    0.301   11.146
  529.250   66.370    0.432    0.298   10.747
  529.500   63.957    0.455    0.213   11.598
  529.750   67.636    0.449    0.164   14.284
  530.000   74.370    0.354    0.188   17.269
  530.250   72.568    0.379    0.212   20.106
  530.500   67.113    0.410    0.237   24.293
  530.750   64.090    0.428    0.263   29.361
  531.000   67.776    0.422    0.288   34.175
  531.250   70.235    0.415    0.322   38.320
  531.500   72.091    0.398    0.329   39.095
  531.750   73.337    0.391    0.327   38.401
  532.000   77.023    0.404    0.317   35.658
  532.250   77.666    0.412    0.307   30.710
  532.500   78.302    0.410    0.299   26.951
  532.750   83.201    0.400    0.294   22.778
  533.000   93.594    0.396    0.280   18.892
  533.250   97.293    0.390    0.269   15.966
  533.500   94.867    0.381    0.261   14.012
  533.750   91.235    0.379    0.256   10.983
  534.000   90.658    0.385    0.258    9.107
  534.250   89.459    0.389    0.266    7.992
  534.500   88.266    0.386    0.281    6.885
  534.750   86.469    0.380    0.282    6.765
  535.000   85.886    0.378    0.276    7.167
  535.250   85.296    0.380    0.270    7.736
  535.500   83.507    0.379    0.268    8.513
  535.750   82.917    0.374    0.269    9.018
  536.000   82.328    0.374    0.268    9.376
  536.250   80.538    0.376    0.258    9.387
  536.500   79.332    0.370    0.254    9.223
  536.750   73.870    0.365    0.248    9.234
  537.000   65.969    0.374    0.253    9.248
  537.250   58.069    0.388    0.304   10.167
  537.500   54.437    0.413    0.317   12.059
  537.750   57.512    0.422    0.329   16.014
  538.000   63.027    0.411    0.340   22.087
  538.250   65.493    0.399    0.331   28.246
  538.500   68.569    0.406    0.324   33.502
  538.750   72.864    0.413    0.309   34.840
