~VERSION INFORMATION
 VERS.                 2.0:   CWLS LOG ASCII STANDARD -VERSION 2.0
 WRAP.                  NO:   ONE LINE PER DEPTH STEP
~WELL INFORMATION BLOCK
#MNEM.UNIT           DATA                    DESCRIPTION OF MNEMONIC
#---------    -------------------            -------------------------------
# Generated from Intellog Unique Number	CW_79_81/WELL/2458
WELL.         AMOCO BRINTNELL                : Well_name    - WELL
LOC .         00/07-15-081-23W4/0            : Location     - LOCATION
UWI .         00/07-15-081-23W4/0            : Uwi          - UNIQUE WELL ID
ENTR.         MAX                            : Entered      - ENTERED BY
SRVC.         COMPUTALOG                     : Scn          - SERVICE COMPANY
STRT.M        230                            : top_depth    - START DEPTH
STOP.M        455                            : bot_depth    - STOP DEPTH
STEP.M        0.25                           : increment    - STEP LENGTH
 NULL. -999.2500:NULL Value
~CURVE INFORMATION BLOCK
#MNEM UNIT       ERCB CURVE CODE    CURVE DESCRIPTION
#-----------   ------------------   ----------------------------------
DEPT.M        00 001 00 00         : DEPTH        - DEPTH
ILD .OHMM     00 120 00 00         : RESD         - DEEP RESISTIVITY (DIL)
NPHI.V/V      00 330 00 00         : PHIN         - NEUTRON POROSITY (SANDSTONE)
DPHI.V/V      00 890 00 00         : PHID         - DENSITY POROSITY (SANDSTONE)
GR  .API      00 310 00 00         : GR           - GAMMA RAY
CALI.MM       00 280 01 00         : CAL          - CALIPER
~PARAMETER INFORMATION
#MNEM.UNIT           DATA             DESCRIPTION OF MNEMONIC
#---------         -----------     ------------------------------
GL  .M        605                  : gl           - GROUND LEVEL ELEVATION
EREF.M        608.6                : kb           - ELEVATION OF DEPTH REFERENCE
DATM.M        605                  : datum        - DATUM ELEVATION
TDD .M        453.3                : tdd          - TOTAL DEPTH DRILLER
RUN .         ONE                  : Run          - RUN NUMBER
ENG .         BILL                 : Engineer     - RECORDING ENGINEER
WIT .         JIM                  : Witness      - WITNESSED BY
MUD .         GEL                  : Mud_type     - MUD TYPE
MATR.         SANDSTONE            : Logunit      - NEUTRON MATRIX
TMAX.C        32                   : BHT          - MAXIMUM RECORDED TEMPERATURE
BHTD.M        453.3                : BHTDEP       - MAXIMUM RECORDED TEMPERATURE
MATR.         1                    : LOGUNIT      - NEUTRON MATRIX
RMT .C        26.7                 : MDTP         - TEMPERATURE OF MUD
NEUT.         1                    : NEUTRON      - NEUTRON TYPE
RESI.         0                    : RESIST       - RESISTIVITY TYPE
RMC .OHMM     4                    : RMC          - RESISTIVITY OF MUD CAKE
RMF .OHMM     7.5                  : RMF          - RESISTIVITY OF MUD FILTRATE
SUFT.C        5                    : SUFT         - SURFACE TEMPERATURE
~A  DEPTH     RESD     PHIN     PHID       GR      CAL
# ...
  303.000   11.799    0.465    0.348   57.602  222.861
  303.250   11.709    0.455    0.344   58.118  222.892
  303.500   11.709    0.457    0.344   58.132  222.923
  303.750   11.708    0.460    0.344   57.902  223.360
  304.000   11.707    0.465    0.345   58.042  223.801
  304.250   11.707    0.470    0.346   58.181  224.243
  304.500   11.684    0.469    0.347   58.198  224.682
  304.750   11.521    0.452    0.350   58.219  225.123
  305.000   11.165    0.443    0.343   58.235  225.146
  305.250   10.346    0.459    0.322   58.992  224.767
  305.500    8.654    0.479    0.305   60.677  224.998
  305.750    7.302    0.487    0.291   63.168  225.644
  306.000    6.429    0.483    0.279   65.659  226.293
  306.250    5.851    0.472    0.274   66.823  226.238
  306.500    5.714    0.464    0.274   67.613  225.837
  306.750    5.714    0.460    0.274   68.369  225.859
  307.000    5.811    0.460    0.274   68.942  225.888
  307.250    5.899    0.462    0.276   69.331  225.917
  307.500    5.944    0.467    0.280   69.594  226.047
  307.750    6.007    0.471    0.284   69.653  226.492
  308.000    6.102    0.473    0.286   68.640  226.515
  308.250    6.194    0.472    0.286   69.151  226.548
  308.500    6.288    0.468    0.285   70.774  226.265
  308.750    6.430    0.461    0.280   71.408  226.084
  309.000    6.663    0.452    0.278   69.323  225.903
  309.250    7.133    0.448    0.293   62.590  224.852
  309.500    7.721    0.446    0.318   59.773  223.595
  309.750    8.381    0.442    0.329   57.071  222.384
  310.000    9.151    0.436    0.337   55.850  221.794
  310.250    9.768    0.429    0.338   55.494  221.203
  310.500   10.107    0.422    0.334   55.571  220.507
  310.750   10.402    0.422    0.327   55.735  220.129
  311.000   10.735    0.423    0.320   55.237  220.161
  311.250   11.312    0.417    0.319   54.762  219.773
  311.500   11.726    0.414    0.321   54.468  217.533
  311.750   12.040    0.417    0.325   54.235  215.910
  312.000   12.315    0.423    0.329   53.941  215.626
  312.250   12.675    0.423    0.330   53.365  215.657
  312.500   13.080    0.416    0.333   52.865  215.688
  312.750   13.580    0.400    0.320   50.905  213.652
  313.000   14.492    0.380    0.302   49.127  212.234
  313.250   15.459    0.359    0.216   48.029  211.436
  313.500   16.030    0.341    0.096   47.860  211.360
  313.750   15.638    0.336    0.077   49.036  212.992
  314.000   14.920    0.351    0.110   51.111  216.888
  314.250   13.825    0.390    0.258   51.868  217.734
  314.500   13.346    0.415    0.326   52.628  218.896
  314.750   13.097    0.423    0.345   53.759  219.957
  315.000   12.925    0.425    0.341   54.951  220.707
  315.250   12.766    0.454    0.340   55.163  221.232
  315.500   12.468    0.463    0.341   54.921  221.687
  315.750   12.280    0.458    0.338   54.692  221.715
  316.000   12.095    0.450    0.333   54.647  221.743
  316.250   12.004    0.445    0.328   54.663  221.774
  316.500   12.004    0.442    0.328   54.678  221.807
  316.750   12.003    0.436    0.333   54.803  221.837
  317.000   12.002    0.426    0.332   55.335  221.863
  317.250   11.911    0.418    0.328   56.091  221.473
  317.500   11.687    0.419    0.324   56.108  221.091
  317.750   11.512    0.426    0.322   55.878  221.121
  318.000   11.425    0.435    0.321   56.017  221.560
  318.250   11.338    0.439    0.325   57.427  222.086
  318.500   11.337    0.443    0.331   58.215  222.544
  318.750   11.251    0.442    0.332   58.232  222.981
  319.000   11.103    0.437    0.333   58.064  222.493
  319.250   10.977    0.430    0.333   57.339  222.108
  319.500   10.894    0.424    0.334   56.366  222.135
  319.750   10.812    0.417    0.334   56.394  222.080
  320.000   10.811    0.412    0.335   57.698  221.682
  320.250   10.810    0.418    0.337   60.682  220.473
  320.500   10.627    0.418    0.340   63.113  219.573
  320.750   10.428    0.422    0.340   63.748  219.187
  321.000   10.232    0.432    0.336   62.897  219.110
  321.250    9.881    0.451    0.330   62.526  218.387
  321.500    9.651    0.445    0.335   63.057  216.698
  321.750    9.291    0.436    0.339   63.567  213.840
  322.000    9.049    0.449    0.329   63.893  211.289
  322.250    8.846    0.460    0.319   64.034  210.905
  322.500    8.665    0.463    0.312   63.987  212.994
  322.750    8.521    0.460    0.306   63.655  217.007
  323.000    8.453    0.453    0.309   63.157  220.471
  323.250    8.390    0.452    0.314   61.195  220.504
  323.500    8.326    0.450    0.316   60.345  219.910
  323.750    8.419    0.443    0.312   60.732  219.521
  324.000    8.661    0.433    0.307   61.984  219.548
  324.250    8.928    0.433    0.304   63.243  219.329
  324.500    9.286    0.453    0.305   63.260  218.067
  324.750    9.497    0.462    0.311   64.019  217.264
  325.000    9.605    0.465    0.315   64.219  218.632
  325.250    9.641    0.464    0.313   63.864  219.487
  325.500    9.473    0.462    0.306   63.572  219.413
  325.750    8.756    0.452    0.299   64.686  220.698
  326.000    8.289    0.438    0.300   65.216  222.876
  326.250    7.741    0.444    0.294   66.221  224.135
  326.500    7.230    0.459    0.285   68.523  225.089
  326.750    6.755    0.472    0.274   73.858  225.322
  327.000    6.376    0.475    0.263   79.440  224.628
  327.250    6.177    0.471    0.255   77.150  222.580
  327.500    6.128    0.477    0.251   73.047  220.462
  327.750    6.128    0.471    0.246   73.807  220.487
  328.000    6.127    0.462    0.241   74.933  221.441
  328.250    6.104    0.452    0.237   76.556  222.499
  328.500    6.034    0.442    0.232   78.057  223.249
  328.750    5.862    0.445    0.228   77.612  223.869
  329.000    5.681    0.471    0.224   75.310  224.757
  329.250    5.511    0.462    0.228   69.391  223.954
  329.500    5.346    0.456    0.246   66.812  218.521
  329.750    5.187    0.464    0.260   65.962  214.838
  330.000    5.146    0.482    0.265   65.852  214.554
  330.250    5.637    0.486    0.266   65.657  214.501
  330.500    6.666    0.482    0.278   63.352  214.098
  330.750    8.719    0.483    0.302   58.670  216.192
  331.000   11.197    0.480    0.313   57.327  218.896
  331.250   13.060    0.470    0.302   57.962  220.983
  331.500   13.199    0.455    0.270   59.771  222.043
  331.750   11.622    0.442    0.234   63.231  222.485
  332.000    9.807    0.437    0.223   66.854  222.511
  332.250    8.812    0.448    0.222   69.346  223.368
  332.500    8.208    0.463    0.223   70.907  224.218
  332.750    7.818    0.469    0.222   72.283  225.067
  333.000    7.572    0.465    0.221   73.846  225.712
  333.250    7.482    0.458    0.223   76.370  225.486
  333.500    7.600    0.456    0.220   80.250  224.229
  333.750    7.773    0.464    0.225   82.495  221.371
  334.000    7.906    0.472    0.232   77.502  218.820
  334.250    8.055    0.473    0.245   72.325  216.991
  334.500    8.224    0.467    0.259   70.303  216.091
  334.750    8.362    0.460    0.252   71.213  216.211
  335.000    8.427    0.466    0.246   72.004  216.669
  335.250    8.491    0.466    0.245   70.043  216.699
  335.500    8.554    0.461    0.243   69.009  216.416
  335.750    8.586    0.452    0.241   69.272  216.233
  336.000    8.585    0.444    0.239   70.647  216.361
  336.250    8.585    0.443    0.240   72.450  216.895
  336.500    8.584    0.458    0.240   72.725  217.353
  336.750    8.584    0.466    0.239   73.484  218.202
  337.000    8.535    0.462    0.238   73.870  218.744
  337.250    8.438    0.459    0.237   73.638  219.183
  337.500    8.359    0.461    0.238   72.542  219.622
  337.750    8.447    0.461    0.240   70.543  220.158
  338.000    8.581    0.457    0.238   71.594  220.610
  338.250    8.710    0.454    0.232   72.844  220.635
  338.500    8.743    0.446    0.229   73.727  220.664
  338.750    8.710    0.440    0.230   73.741  220.485
  339.000    8.627    0.441    0.237   72.765  220.202
  339.250    8.498    0.447    0.251   71.159  220.492
