~VERSION INFORMATION
 VERS.                 2.0:   CWLS LOG ASCII STANDARD -VERSION 2.0
 WRAP.                  NO:   ONE LINE PER DEPTH STEP
~WELL INFORMATION BLOCK
#MNEM.UNIT           DATA                    DESCRIPTION OF MNEMONIC
#---------    -------------------            -------------------------------
# Generated from Intellog Unique Number	CS_73_76/WELL/2169
WELL.         CANADA CITIES SERVICE LTD      : Well_name    - WELL
LOC .         00/06-26-074-03W4/0            : Location     - LOCATION
UWI .         00/06-26-074-03W4/0            : Uwi          - UNIQUE WELL ID
ENTR.         SP                             : Entered      - ENTERED BY
SRVC.         SCHLUMBERGER                   : Scn          - SERVICE COMPANY
STRT.M        310                            : top_depth    - START DEPTH
STOP.M        555                            : bot_depth    - STOP DEPTH
STEP.M        0.25                           : increment    - STEP LENGTH
 NULL. -999.2500:NULL Value
~CURVE INFORMATION BLOCK
#MNEM UNIT       ERCB CURVE CODE    CURVE DESCRIPTION
#-----------   ------------------   ----------------------------------
DEPT.M        00 001 00 00         : DEPTH        - DEPTH
ILD .OHMM     00 120 00 00         : RESD         - DEEP RESISTIVITY (DIL)
DPHI.V/V      00 890 00 00         : PHID         - DENSITY POROSITY (LIMESTONE)
NPHI.V/V      00 330 00 00         : PHIN         - NEUTRON POROSITY (LIMESTONE)
GR  .API      00 310 00 00         : GR           - GAMMA RAY
~PARAMETER INFORMATION
#MNEM.UNIT           DATA             DESCRIPTION OF MNEMONIC
#---------         -----------     ------------------------------
GL  .M        657.2                : gl           - GROUND LEVEL ELEVATION
EREF.M        660.66               : kb           - ELEVATION OF DEPTH REFERENCE
DATM.M        657.2                : datum        - DATUM ELEVATION
TDD .M        570                  : tdd          - TOTAL DEPTH DRILLER
RUN .         ONE                  : Run          - RUN NUMBER
ENG .         BILL                 : Engineer     - RECORDING ENGINEER
WIT .         JIM                  : Witness      - WITNESSED BY
MUD .         GEL                  : Mud_type     - MUD TYPE
MATR.         LIMESTONE            : Logunit      - NEUTRON MATRIX
TMAX.C        10                   : BHT          - MAXIMUM RECORDED TEMPERATURE
BHTD.M        570                  : BHTDEP       - MAXIMUM RECORDED TEMPERATURE
MATR.         1                    : LOGUNIT      - NEUTRON MATRIX
RMT .C        25                   : MDTP         - TEMPERATURE OF MUD
NEUT.         1                    : NEUTRON      - NEUTRON TYPE
RESI.         0                    : RESIST       - RESISTIVITY TYPE
RMC .OHMM     0.25                 : RMC          - RESISTIVITY OF MUD CAKE
RMF .OHMM     0.25                 : RMF          - RESISTIVITY OF MUD FILTRATE
SUFT.C        15                   : SUFT         - SURFACE TEMPERATURE
~A  DEPTH     RESD     PHID     PHIN       GR
# ...
  484.000    4.102    0.235    0.337   70.934
  484.250    4.182    0.226    0.337   78.810
  484.500    4.510    0.203    0.350   80.615
  484.750    4.685    0.192    0.361   75.133
  485.000    4.865    0.223    0.363   71.476
  485.250    5.053    0.229    0.359   75.098
  485.500    5.153    0.215    0.355   78.118
  485.750    5.155    0.200    0.359   79.319
  486.000    5.162    0.204    0.365   75.052
  486.250    5.262    0.201    0.371   73.815
  486.500    5.266    0.194    0.361   72.590
  486.750    5.369    0.220    0.372   70.144
  487.000    5.372    0.228    0.377   68.304
  487.250    5.477    0.219    0.368   72.537
  487.500    5.480    0.198    0.376   82.238
  487.750    5.382    0.175    0.382   81.613
  488.000    5.285    0.179    0.384   77.953
  488.250    4.730    0.192    0.373   72.468
  488.500    4.393    0.207    0.379   70.633
  488.750    4.313    0.229    0.394   71.222
  489.000    4.236    0.240    0.404   73.636
  489.250    4.084    0.230    0.405   75.440
  489.500    3.937    0.194    0.407   70.567
  489.750    3.725    0.193    0.416   63.871
  490.000    3.525    0.203    0.406   58.389
  490.250    3.397    0.231    0.395   56.552
  490.500    3.156    0.219    0.391   48.641
  490.750    3.100    0.255    0.391   40.728
  491.000    3.045    0.290    0.386   35.248
  491.250    3.046    0.307    0.381   32.196
  491.500    3.164    0.315    0.386   36.429
  491.750    3.225    0.276    0.372   49.164
  492.000    3.414    0.223    0.369   57.038
  492.250    3.481    0.255    0.391   58.845
  492.500    3.616    0.262    0.382   60.041
  492.750    3.687    0.230    0.386   61.845
  493.000    3.689    0.238    0.388   61.222
  493.250    3.692    0.251    0.383   56.351
  493.500    3.625    0.256    0.388   50.869
  493.750    3.431    0.264    0.385   52.065
  494.000    3.307    0.241    0.398   49.618
  494.250    3.310    0.243    0.413   44.139
  494.500    3.312    0.263    0.431   42.905
  494.750    3.376    0.277    0.392   48.959
  495.000    3.574    0.268    0.382   55.016
  495.250    3.712    0.258    0.388   60.465
  495.500    3.785    0.258    0.396   61.665
  495.750    3.717    0.244    0.386   59.219
  496.000    3.388    0.237    0.386   51.916
  496.250    3.147    0.246    0.392   44.005
  496.500    3.090    0.263    0.380   36.095
  496.750    2.980    0.278    0.367   36.684
  497.000    2.927    0.283    0.371   38.488
  497.250    2.821    0.291    0.381   40.902
  497.500    2.771    0.297    0.393   40.275
  497.750    2.672    0.293    0.408   36.617
  498.000    2.624    0.305    0.416   32.958
  498.250    2.577    0.317    0.412   31.119
  498.500    2.578    0.324    0.408   31.711
  498.750    2.678    0.330    0.399   34.726
  499.000    2.835    0.314    0.384   35.928
  499.250    2.945    0.305    0.380   38.946
  499.500    3.116    0.308    0.386   44.394
  499.750    3.237    0.301    0.383   51.057
  500.000    3.163    0.271    0.400   51.836
  500.250    3.167    0.285    0.394   48.805
  500.500    3.001    0.298    0.383   43.943
  500.750    2.842    0.307    0.377   36.036
  501.000    2.693    0.319    0.376   33.620
  501.250    2.598    0.314    0.377   32.417
  501.500    2.553    0.314    0.382   29.997
  501.750    2.509    0.314    0.380   29.405
  502.000    2.469    0.297    0.372   33.693
  502.250    2.517    0.296    0.375   33.711
  502.500    2.520    0.308    0.376   32.512
  502.750    2.524    0.310    0.393   30.703
  503.000    2.575    0.309    0.400   30.726
  503.250    2.580    0.312    0.394   31.350
  503.500    2.582    0.308    0.386   30.151
  503.750    2.586    0.313    0.369   30.171
  504.000    2.543    0.303    0.366   31.415
  504.250    2.546    0.304    0.376   33.258
  504.500    2.549    0.308    0.389   36.335
  504.750    2.554    0.309    0.398   38.180
  505.000    2.557    0.319    0.396   38.801
  505.250    2.608    0.321    0.391   38.213
  505.500    2.612    0.298    0.391   40.675
  505.750    2.665    0.293    0.393   41.909
  506.000    2.668    0.295    0.388   43.151
  506.250    2.723    0.301    0.389   41.340
  506.500    2.727    0.313    0.381   39.528
  506.750    2.681    0.320    0.388   37.110
  507.000    2.684    0.307    0.396   35.907
  507.250    2.638    0.312    0.398   36.536
  507.500    2.546    0.325    0.400   36.558
  507.750    2.550    0.336    0.422   35.967
  508.000    2.552    0.343    0.450   34.764
  508.250    2.556    0.319    0.460   34.787
  508.500    2.657    0.296    0.387   35.422
  508.750    2.712    0.273    0.361   35.434
  509.000    2.765    0.263    0.344   35.458
  509.250    2.822    0.269    0.338   35.471
  509.500    2.827    0.280    0.351   35.492
  509.750    2.829    0.287    0.364   36.125
  510.000    2.833    0.298    0.371   37.359
  510.250    2.736    0.298    0.377   39.821
  510.500    2.689    0.308    0.387   41.060
  510.750    2.693    0.318    0.383   45.961
  511.000    2.696    0.301    0.372   51.463
  511.250    2.701    0.286    0.391   60.629
  511.500    2.703    0.277    0.408   67.963
  511.750    2.708    0.290    0.400   71.641
  512.000    2.762    0.293    0.389   77.761
  512.250    2.871    0.273    0.381   86.316
  512.500    2.930    0.260    0.376   94.869
  512.750    2.934    0.248    0.381   88.791
  513.000    2.937    0.267    0.388   70.519
  513.250    2.941    0.286    0.396   60.170
  513.500    2.892    0.308    0.400   52.876
  513.750    2.841    0.315    0.394   49.844
  514.000    2.692    0.310    0.415   47.426
  514.250    2.599    0.321    0.433   45.618
  514.500    2.554    0.315    0.442   44.416
  514.750    2.606    0.313    0.422   51.756
  515.000    2.758    0.281    0.414   60.921
  515.250    3.144    0.245    0.397   70.087
  515.500    3.864    0.206    0.376   78.641
  515.750    4.574    0.157    0.352   87.803
  516.000    5.024    0.107    0.349   97.581
  516.250    5.838    0.112    0.364   98.210
  516.500    6.303    0.131    0.378   95.179
  516.750    6.430    0.133    0.386   90.319
  517.000    6.438    0.127    0.364   83.637
  517.250    6.446    0.156    0.355   80.603
  517.500    6.336    0.161    0.364   76.966
  517.750    6.225    0.179    0.365   76.372
  518.000    6.012    0.156    0.353   80.050
  518.250    5.907    0.136    0.361   83.120
  518.500    5.697    0.138    0.357   82.527
  518.750    5.397    0.157    0.352   77.060
  519.000    4.927    0.156    0.351   70.371
  519.250    4.415    0.191    0.361   63.073
  519.500    4.180    0.242    0.357   52.726
  519.750    4.031    0.267    0.353   42.992
  520.000    3.749    0.247    0.343   36.916
  520.250    3.553    0.239    0.332   34.493
  520.500    3.428    0.246    0.338   33.905
  520.750    3.369    0.245    0.349   35.758
  521.000    3.252    0.253    0.355   36.380
  521.250    3.255    0.269    0.347   38.838
  521.500    3.260    0.276    0.344   41.296
  521.750    3.266    0.282    0.357   43.754
  522.000    3.210    0.286    0.368   47.434
  522.250    3.154    0.254    0.376   49.891
  522.500    3.044    0.259    0.388   48.083
  522.750    2.883    0.267    0.394   45.056
  523.000    2.833    0.284    0.386   43.244
  523.250    2.785    0.295    0.391   43.260
  523.500    2.896    0.293    0.375   50.604
  523.750    3.010    0.273    0.377   56.112
  524.000    3.069    0.259    0.376   61.006
  524.250    3.251    0.256    0.369   65.293
  524.500    3.195    0.252    0.388   65.922
  524.750    3.142    0.240    0.400   62.281
  525.000    3.032    0.243    0.420   56.810
  525.250    2.872    0.262    0.425   50.125
  525.500    2.822    0.287    0.411   45.268
  525.750    2.773    0.295    0.398   43.455
  526.000    2.780    0.302    0.389   46.522
  526.250    2.834    0.315    0.382   52.029
  526.500    3.002    0.264    0.375   57.540
  526.750    3.061    0.243    0.374   60.604
  527.000    3.124    0.245    0.383   61.234
  527.250    3.128    0.254    0.389   53.936
