~VERSION INFORMATION
 VERS.                 2.0:   CWLS LOG ASCII STANDARD -VERSION 2.0
 WRAP.                  NO:   ONE LINE PER DEPTH STEP
~WELL INFORMATION BLOCK
#MNEM.UNIT           DATA                    DESCRIPTION OF MNEMONIC
#---------    -------------------            -------------------------------
# Generated from Intellog Unique Number	CS_71_72/WELL/641
WELL.         MAYUNARD ET AL BEHAN           : Well_name    - WELL
LOC .         00/04-21-072-11W4/0            : Location     - LOCATION
UWI .         00/04-21-072-11W4/0            : Uwi          - UNIQUE WELL ID
ENTR.         SP                             : Entered      - ENTERED BY
SRVC.         SCHLUMBERGER                   : Scn          - SERVICE COMPANY
STRT.M        300                            : top_depth    - START DEPTH
STOP.M        522.5                          : bot_depth    - STOP DEPTH
STEP.M        0.25                           : increment    - STEP LENGTH
 NULL. -999.2500:NULL Value
~CURVE INFORMATION BLOCK
#MNEM UNIT       ERCB CURVE CODE    CURVE DESCRIPTION
#-----------   ------------------   ----------------------------------
DEPT.M        00 001 00 00         : DEPTH        - DEPTH
ILD .OHMM     00 120 00 00         : RESD         - DEEP RESISTIVITY (DIL)
DPHI.V/V      00 890 00 00         : PHID         - DENSITY POROSITY (LIMESTONE)
NPHI.V/V      00 330 00 00         : PHIN         - NEUTRON POROSITY (LIMESTONE)
GR  .API      00 310 00 00         : GR           - GAMMA RAY
~PARAMETER INFORMATION
#MNEM.UNIT           DATA             DESCRIPTION OF MNEMONIC
#---------         -----------     ------------------------------
GL  .M        645.8                : gl           - GROUND LEVEL ELEVATION
EREF.M        649.15               : kb           - ELEVATION OF DEPTH REFERENCE
DATM.M        645.8                : datum        - DATUM ELEVATION
TDD .M        530                  : tdd          - TOTAL DEPTH DRILLER
RUN .         ONE                  : Run          - RUN NUMBER
ENG .         BILL                 : Engineer     - RECORDING ENGINEER
WIT .         JIM                  : Witness      - WITNESSED BY
MUD .         GEL                  : Mud_type     - MUD TYPE
MATR.         LIMESTONE            : Logunit      - NEUTRON MATRIX
TMAX.C        29                   : BHT          - MAXIMUM RECORDED TEMPERATURE
BHTD.M        530                  : BHTDEP       - MAXIMUM RECORDED TEMPERATURE
MATR.         1                    : LOGUNIT      - NEUTRON MATRIX
RMT .C        25                   : MDTP         - TEMPERATURE OF MUD
NEUT.         1                    : NEUTRON      - NEUTRON TYPE
RESI.         0                    : RESIST       - RESISTIVITY TYPE
RMC .OHMM     0.25                 : RMC          - RESISTIVITY OF MUD CAKE
RMF .OHMM     0.25                 : RMF          - RESISTIVITY OF MUD FILTRATE
SUFT.C        15                   : SUFT         - SURFACE TEMPERATURE
~A  DEPTH     RESD     PHID     PHIN       GR
# ...
  343.500    7.872    0.236    0.481   99.239
  343.750    7.555    0.235    0.480   99.849
  344.000    7.317    0.230    0.494  103.476
  344.250    6.920    0.229    0.494  105.894
  344.500    6.681    0.240    0.484  105.903
  344.750    6.525    0.244    0.477  105.308
  345.000    6.530    0.248    0.472  101.707
  345.250    6.613    0.247    0.464  100.508
  345.500    6.697    0.251    0.459  101.120
  345.750    6.700    0.248    0.456  102.337
  346.000    6.703    0.236    0.465  103.549
  346.250    6.546    0.228    0.479  104.162
  346.500    6.309    0.228    0.488  103.568
  346.750    6.313    0.237    0.477  102.374
  347.000    6.477    0.248    0.472  100.576
  347.250    7.044    0.256    0.461   96.971
  347.500    7.449    0.263    0.465   92.763
  347.750    7.935    0.262    0.474   89.157
  348.000    8.259    0.262    0.476   89.166
  348.250    8.745    0.266    0.482   92.192
  348.500    8.908    0.276    0.490   94.008
  348.750    8.350    0.265    0.490   95.823
  349.000    7.472    0.246    0.489   97.637
  349.250    6.833    0.237    0.486   99.457
  349.500    6.674    0.223    0.499   99.464
  349.750    6.197    0.218    0.507  100.075
  350.000    5.959    0.220    0.521  105.511
  350.250    6.043    0.226    0.506  107.325
  350.500    6.209    0.234    0.492  104.322
  350.750    6.372    0.259    0.483   99.510
  351.000    6.616    0.263    0.486   92.896
  351.250    7.344    0.259    0.481   89.289
  351.500    7.909    0.255    0.471   83.879
  351.750    8.716    0.253    0.458   79.069
  352.000    9.442    0.258    0.441   74.859
  352.250   10.089    0.266    0.429   72.459
  352.500   10.093    0.271    0.435   71.867
  352.750    9.775    0.270    0.449   78.503
  353.000    9.298    0.264    0.461   85.745
  353.250    9.060    0.255    0.473   88.763
  353.500    8.902    0.247    0.479   91.784
  353.750    8.665    0.245    0.484   93.601
  354.000    8.508    0.251    0.475   91.802
  354.250    8.512    0.262    0.470   90.004
  354.500    8.675    0.273    0.467   85.798
  354.750    9.001    0.277    0.467   82.193
  355.000    9.407    0.282    0.462   79.792
  355.250    9.490    0.278    0.452   81.609
  355.500    9.735    0.276    0.439   83.429
  355.750    9.819    0.272    0.434   84.036
  356.000    9.904    0.268    0.428   84.649
  356.250    9.906    0.261    0.430   87.066
  356.500    9.911    0.250    0.439   93.708
  356.750    9.914    0.240    0.434   94.919
  357.000    9.839    0.228    0.428   94.324
  357.250    9.762    0.221    0.434   91.323
  357.500    9.685    0.221    0.440   88.323
  357.750    9.608    0.221    0.433   87.126
  358.000    9.530    0.221    0.437   88.340
  358.250    9.456    0.223    0.445   93.170
  358.500    9.298    0.235    0.453   96.194
  358.750    9.061    0.238    0.463   96.800
  359.000    8.824    0.247    0.466   98.014
  359.250    8.666    0.243    0.464   98.025
  359.500    8.268    0.238    0.460   97.431
  359.750    7.870    0.236    0.457   94.431
  360.000    7.472    0.234    0.453   91.428
  360.250    7.155    0.232    0.454   91.435
  360.500    7.158    0.232    0.460   92.651
  360.750    7.644    0.232    0.463   90.249
  361.000    8.453    0.232    0.453   84.238
  361.250    8.857    0.233    0.437   80.030
  361.500    9.180    0.255    0.429   77.627
  361.750    9.747    0.269    0.419   77.636
  362.000   10.152    0.286    0.435   75.239
  362.250   10.477    0.288    0.447   72.235
  362.500   10.561    0.280    0.450   72.845
  362.750   10.244    0.270    0.458   75.867
  363.000    9.926    0.267    0.459   77.683
  363.250    9.528    0.273    0.454   81.916
  363.500    9.050    0.269    0.449   83.733
  363.750    8.572    0.259    0.444   84.945
  364.000    8.255    0.247    0.444   86.155
  364.250    7.938    0.241    0.445   87.972
  364.500    7.780    0.239    0.449   87.381
  364.750    7.624    0.239    0.450   84.980
  365.000    7.626    0.248    0.448   83.183
  365.250    7.551    0.258    0.448   82.588
  365.500    7.634    0.268    0.448   84.405
  365.750    7.637    0.259    0.449   86.825
  366.000    7.883    0.265    0.450   89.245
  366.250    8.047    0.263    0.451   92.870
  366.500    8.210    0.258    0.457   95.289
  366.750    8.615    0.257    0.466   97.104
  367.000    9.182    0.271    0.476   97.113
  367.250    9.668    0.288    0.478   91.701
  367.500   10.154    0.301    0.478   84.482
  367.750   10.559    0.306    0.462   79.068
  368.000   10.883    0.306    0.446   74.861
  368.250   11.369    0.302    0.444   73.062
  368.500   11.694    0.307    0.438   69.459
  368.750   12.100    0.321    0.433   65.857
  369.000   12.264    0.328    0.442   64.055
  369.250   12.590    0.339    0.437   61.657
  369.500   12.672    0.346    0.437   60.460
  369.750   12.756    0.341    0.443   59.867
  370.000   12.761    0.330    0.438   59.879
  370.250   12.683    0.323    0.441   59.285
  370.500   12.769    0.319    0.439   58.689
  370.750   12.852    0.317    0.434   58.700
  371.000   12.936    0.322    0.426   60.517
  371.250   13.101    0.326    0.421   62.938
  371.500   13.184    0.334    0.438   64.150
  371.750   13.350    0.340    0.446   64.763
  372.000   13.353    0.341    0.449   63.568
  372.250   13.357    0.330    0.444   62.971
  372.500   13.440    0.320    0.436   63.584
  372.750   13.443    0.315    0.436   63.595
  373.000   13.608    0.311    0.434   63.000
  373.250   13.691    0.307    0.430   60.601
  373.500   14.019    0.306    0.424   59.404
  373.750   14.103    0.309    0.423   58.211
  374.000   14.187    0.325    0.429   59.423
  374.250   14.270    0.325    0.431   63.047
  374.500   14.273    0.325    0.429   66.072
  374.750   14.277    0.326    0.430   67.885
  375.000   14.280    0.331    0.446   70.907
  375.250   14.285    0.329    0.460   70.917
  375.500   14.288    0.325    0.460   70.925
  375.750   14.211    0.322    0.451   73.346
  376.000   14.134    0.322    0.460   72.752
  376.250   14.139    0.325    0.464   66.140
  376.500   14.062    0.325    0.448   64.941
  376.750   14.066    0.324    0.435   63.748
  377.000   14.069    0.313    0.432   63.754
  377.250   13.994    0.322    0.437   64.369
  377.500   13.996    0.313    0.440   64.375
  377.750   13.920    0.319    0.445   63.184
  378.000   13.763    0.319    0.449   62.588
  378.250   13.686    0.326    0.453   61.397
  378.500   13.608    0.333    0.455   60.802
  378.750   13.534    0.339    0.451   60.206
  379.000   13.456    0.348    0.442   59.013
  379.250   13.460    0.343    0.446   58.416
  379.500   13.544    0.338    0.454   61.440
  379.750   13.547    0.339    0.458   65.066
  380.000   13.633    0.351    0.453   66.883
  380.250   13.635    0.339    0.449   66.888
  380.500   13.639    0.332    0.444   62.682
  380.750   13.643    0.327    0.450   60.284
  381.000   13.646    0.322    0.455   59.089
  381.250   13.649    0.316    0.452   58.495
  381.500   13.573    0.312    0.444   58.504
  381.750   13.576    0.316    0.439   59.718
  382.000   13.580    0.324    0.435   60.929
  382.250   13.584    0.324    0.435   62.750
  382.500   13.668    0.321    0.436   63.360
  382.750   13.591    0.322    0.441   63.367
  383.000   13.515    0.321    0.442   63.382
  383.250   13.439    0.317    0.444   63.990
  383.500   13.362    0.315    0.445   64.001
  383.750   13.365    0.327    0.444   64.010
  384.000   13.369    0.326    0.443   64.624
  384.250   13.453    0.315    0.443   65.837
  384.500   13.618    0.304    0.446   65.844
  384.750   13.782    0.295    0.449   64.650
  385.000   13.865    0.289    0.454   64.660
  385.250   13.628    0.286    0.455   65.873
  385.500   13.552    0.288    0.458   67.691
  385.750   13.474    0.301    0.460   68.304
  386.000   13.880    0.312    0.456   68.313
  386.250   14.045    0.310    0.448   67.116
  386.500   14.128    0.307    0.441   67.727
  386.750   14.132    0.302    0.440   69.543
