~VERSION INFORMATION
 VERS.                 2.0:   CWLS LOG ASCII STANDARD -VERSION 2.0
 WRAP.                  NO:   ONE LINE PER DEPTH STEP
~WELL INFORMATION BLOCK
#MNEM.UNIT           DATA                    DESCRIPTION OF MNEMONIC
#---------    -------------------            -------------------------------
# Generated from Intellog Unique Number	CW_82_90/WELL/468
WELL.         STAR GASCAN HOOLE 6-3          : Well_name    - WELL
LOC .         00/06-03-082-26W4/0            : Location     - LOCATION
UWI .         00/06-03-082-26W4/0            : Uwi          - UNIQUE WELL ID
ENTR.         os                             : Entered      - ENTERED BY
SRVC.         SCHLUMBERGER                   : Scn          - SERVICE COMPANY
DATE.         01 FEB 1982                    : Date         - LOG DATE
STRT.M        215                            : top_depth    - START DEPTH
STOP.M        432                            : bot_depth    - STOP DEPTH
STEP.M        0.25                           : increment    - STEP LENGTH
 NULL. -999.2500:NULL Value
~CURVE INFORMATION BLOCK
#MNEM UNIT       ERCB CURVE CODE    CURVE DESCRIPTION
#-----------   ------------------   ----------------------------------
DEPT.M        00 001 00 00         : DEPTH        - DEPTH
ILD .OHMM     00 120 00 00         : RESD         - DEEP RESISTIVITY (DIL)
GR  .API      00 310 00 00         : GR           - GAMMA RAY
CALI.MM       00 280 01 00         : CAL          - CALIPER
DPHI.V/V      00 890 00 00         : PHID         - DENSITY POROSITY (SANDSTONE)
NPHI.V/V      00 330 00 00         : PHIN         - NEUTRON POROSITY (SANDSTONE)
~PARAMETER INFORMATION
#MNEM.UNIT           DATA             DESCRIPTION OF MNEMONIC
#---------         -----------     ------------------------------
GL  .M        561.1                : gl           - GROUND LEVEL ELEVATION
EREF.M        564.6                : kb           - ELEVATION OF DEPTH REFERENCE
DATM.M        561.1                : datum        - DATUM ELEVATION
TDD .M        433                  : tdd          - TOTAL DEPTH DRILLER
RUN .         ONE                  : Run          - RUN NUMBER
ENG .         NIGHTINGALE & HEATH  : Engineer     - RECORDING ENGINEER
WIT .         WEBSTER              : Witness      - WITNESSED BY
BASE.         EDMONTON             : Branch       - HOME BASE OF LOGGING UNIT
MUD .         GEL CHEM             : Mud_type     - MUD TYPE
MATR.         SANDSTONE            : Logunit      - NEUTRON MATRIX
TMAX.C        29.4                 : BHT          - MAXIMUM RECORDED TEMPERATURE
BHTD.M        433                  : BHTDEP       - MAXIMUM RECORDED TEMPERATURE
RMT .C        29.4                 : MDTP         - TEMPERATURE OF MUD
MUDD.KG/M     1100                 : MWT          - MUD DENSITY
NEUT.         1                    : NEUTRON      - NEUTRON TYPE
RESI.         0                    : RESIST       - RESISTIVITY TYPE
RM  .OHMM     3.88                 : RM           - RESISTIVITY OF MUD
RMC .OHMM     3.9                  : RMC          - RESISTIVITY OF MUD CAKE
RMF .OHMM     6                    : RMF          - RESISTIVITY OF MUD FILTRATE
SUFT.C        4                    : SUFT         - SURFACE TEMPERATURE
~A  DEPTH     RESD       GR      CAL     PHID     PHIN
# ...
  361.000   11.675   93.457  247.746    0.170    0.428
  361.250   11.723   93.511  247.104    0.191    0.439
  361.500   11.772   93.814  246.046    0.181    0.441
  361.750   11.688   93.868  244.568    0.176    0.428
  362.000   11.671   92.916  243.820    0.189    0.417
  362.250   12.146   90.645  243.077    0.198    0.414
  362.500   12.428   89.379  241.913    0.192    0.442
  362.750   12.456   91.065  240.749    0.196    0.440
  363.000   12.321   94.636  241.464    0.205    0.446
  363.250   11.759   95.632  240.927    0.206    0.445
  363.500   11.180   95.746  240.496    0.199    0.433
  363.750   11.505   97.308  242.153    0.183    0.442
  364.000   12.132   98.240  245.481    0.183    0.433
  364.250   13.086   97.979  248.287    0.189    0.413
  364.500   14.113   96.399  245.658    0.192    0.403
  364.750   15.453   91.741  245.124    0.204    0.424
  365.000   17.144   91.794  245.109    0.218    0.439
  365.250   18.878   87.326  246.557    0.214    0.424
  365.500   20.866   79.464  246.542    0.194    0.425
  365.750   23.545   75.372  245.795    0.198    0.435
  366.000   26.419   75.613  245.051    0.248    0.429
  366.250   29.035   78.367  245.036    0.244    0.411
  366.500   31.435   81.310  244.707    0.221    0.400
  366.750   33.713   84.127  244.274    0.216    0.418
  367.000   36.637   78.024  243.842    0.244    0.419
  367.250   40.646   72.173  244.662    0.270    0.409
  367.500   46.037   68.206  245.273    0.268    0.403
  367.750   51.851   68.634  245.157    0.258    0.408
  368.000   48.382   68.690  243.781    0.260    0.410
  368.250   48.492   68.993  242.621    0.274    0.411
  368.500   46.630   69.989  242.083    0.271    0.417
  368.750   46.736   67.090  242.275    0.256    0.412
  369.000   47.195   63.626  242.575    0.186    0.376
  369.250   48.475   65.061  243.083    0.102    0.335
  369.500   49.506   67.059  243.382    0.099    0.357
  369.750   50.941   68.809  243.785    0.164    0.379
  370.000   51.057   69.052  244.084    0.244    0.403
  370.250   50.409   70.173  244.278    0.248    0.398
  370.500   48.838   71.921  243.846    0.229    0.404
  370.750   36.982   73.796  243.411    0.219    0.396
  371.000   18.651   77.744  243.293    0.212    0.384
  371.250   13.782   86.276  243.594    0.217    0.375
  371.500   11.273   90.852  247.130    0.212    0.405
  371.750    9.378   92.538  250.980    0.206    0.423
  372.000    9.019   98.055  252.220    0.204    0.436
  372.250    9.403  101.690  252.518    0.195    0.446
  372.500   10.218  100.989  252.607    0.193    0.439
  372.750   11.337   96.141  252.385    0.202    0.426
  373.000   12.507   92.867  251.743    0.207    0.415
  373.250   13.414   95.370  250.161    0.205    0.420
  373.500   14.441   95.862  249.311    0.192    0.412
  373.750   15.001   87.813  246.057    0.191    0.400
  374.000   15.787   82.464  244.059    0.212    0.392
  374.250   16.033   82.769  241.224    0.230    0.396
  374.500   16.069   82.068  241.209    0.219    0.398
  374.750   15.686   83.062  242.448    0.186    0.402
  375.000   15.343   88.015  244.730    0.161    0.404
  375.250   15.233   90.769  244.714    0.161    0.404
  375.500   14.842   87.869  243.654    0.183    0.400
  375.750   14.681   88.300  244.477    0.181    0.396
  376.000   14.659   88.855  245.820    0.179    0.400
  376.250   14.474   89.411  246.955    0.184    0.407
  376.500   14.398   90.784  247.253    0.179    0.406
  376.750   13.897   89.895  247.342    0.167    0.393
  377.000   13.089   90.072  247.432    0.152    0.387
  377.250   12.283   90.315  247.210    0.165    0.398
  377.500   11.878   90.932  247.404    0.200    0.416
  377.750   11.860   93.436  247.077    0.202    0.404
  378.000   12.022   95.185  246.227    0.208    0.396
  378.250   12.140   92.977  244.958    0.206    0.421
  378.500   12.168   91.145  243.479    0.196    0.449
  378.750   12.150   93.209  242.422    0.191    0.439
  379.000   12.177   93.388  243.974    0.206    0.424
  379.250   11.954   89.987  245.523    0.201    0.433
  379.500   11.803   88.971  245.408    0.174    0.431
  379.750   11.609   92.416  243.927    0.151    0.421
  380.000   11.418   96.427  243.494    0.164    0.446
  380.250   11.188   96.479  243.374    0.207    0.444
  380.500   11.666   95.528  243.362    0.204    0.440
  380.750   11.648   94.388  243.557    0.205    0.435
  381.000   11.587   95.509  243.857    0.196    0.436
  381.250   11.745   97.445  243.527    0.168    0.427
  381.500   11.574   98.064  243.825    0.144    0.404
  381.750   11.470   97.929  244.438    0.139    0.399
  382.000   11.736   98.609  245.573    0.200    0.455
  382.250   11.941   99.983  246.813    0.201    0.449
  382.500   12.104   99.594  247.005    0.187    0.435
  382.750   11.950   97.325  246.052    0.168    0.424
  383.000   11.798   95.871  245.931    0.150    0.416
  383.250   11.891   95.107  246.128    0.134    0.409
  383.500   11.630  100.875  243.188    0.128    0.406
  383.750   11.504  106.206  242.546    0.130    0.414
  384.000   11.683  104.437  242.009    0.199    0.423
  384.250   12.045  103.234  241.577    0.202    0.415
  384.500   12.117  104.355  240.934    0.198    0.409
  384.750   12.213  109.936  240.189    0.199    0.414
  385.000   12.241  112.250  240.279    0.187    0.421
  385.250   12.269  105.771  240.682    0.176    0.393
  385.500   12.181  101.867  241.292    0.173    0.392
  385.750   12.535   98.654  241.697    0.180    0.398
  386.000   12.422   97.953  242.101    0.189    0.406
  386.250   12.241   99.136  242.295    0.195    0.416
  386.500   11.972   99.504  241.966    0.187    0.424
  386.750   11.469   98.301  241.740    0.179    0.417
  387.000   11.627   99.799  241.100    0.165    0.397
  387.250   11.674  105.568  240.043    0.166    0.386
  387.500   10.591  109.075  240.235    0.175    0.388
  387.750   10.107  107.181  240.430    0.172    0.404
  388.000   10.283  108.491  239.685    0.169    0.403
  388.250   12.869  111.119  240.611    0.169    0.408
  388.500   15.745  102.441  242.267    0.174    0.411
  388.750   18.517   96.213  242.565    0.186    0.404
  389.000   27.192   87.096  241.401    0.199    0.407
  389.250   33.773   71.635  240.761    0.182    0.411
  389.500   34.169   65.155  241.582    0.127    0.346
  389.750   31.290   70.233  242.403    0.074    0.318
  390.000   32.076   77.259  243.430    0.025    0.259
  390.250   32.515   86.168  243.837    0.219    0.378
  390.500   32.525   83.520  243.926    0.228    0.377
  390.750   32.662   74.528  243.911    0.234    0.375
  391.000   33.044   75.837  243.478    0.244    0.417
  391.250   32.258   77.398  243.356    0.254    0.488
  391.500   31.078   73.556  243.136    0.248    0.480
  391.750   30.856   69.465  243.540    0.249    0.460
  392.000   31.043   67.382  243.838    0.238    0.437
  392.250   31.172   67.436  244.137    0.226    0.437
  392.500   31.537   70.378  244.227    0.210    0.442
  392.750   32.027   73.445  243.898    0.204    0.428
  393.000   34.543   76.576  244.718    0.208    0.410
  393.250   37.539   73.929  244.286    0.215    0.402
  393.500   41.964   70.213  243.750    0.217    0.397
  393.750   43.506   64.802  244.256    0.203    0.387
  394.000   43.523   61.401  243.928    0.138    0.356
  394.250   42.646   56.617  243.704    0.079    0.310
  394.500   42.025   60.815  243.170    0.054    0.257
  394.750   37.837   64.324  243.677    0.046    0.265
  395.000   32.870   64.754  245.229    0.102    0.300
  395.250   28.074   66.565  245.946    0.069    0.277
  395.500   26.098   73.402  244.990    0.080    0.262
  395.750   24.722   77.413  244.767    0.200    0.365
  396.000   24.178   81.736  243.916    0.213    0.423
  396.250   23.077   74.064  244.527    0.170    0.399
  396.500   23.525   74.117  245.559    0.140    0.359
  396.750   24.025   76.808  246.484    0.115    0.297
  397.000   25.002   79.688  247.616    0.221    0.346
  397.250   25.873   83.824  247.708    0.230    0.395
