~VERSION INFORMATION
 VERS.                 2.0:   CWLS LOG ASCII STANDARD -VERSION 2.0
 WRAP.                  NO:   ONE LINE PER DEPTH STEP
~WELL INFORMATION BLOCK
#MNEM.UNIT           DATA                    DESCRIPTION OF MNEMONIC
#---------    -------------------            -------------------------------
# Generated from Intellog Unique Number	CW_73_75/WELL/637
WELL.         MANNVILL MESA MITSKE 07-01     : Well_name    - WELL
LOC .         00/07-01-074-03W5/0            : Location     - LOCATION
UWI .         00/07-01-074-03W5/0            : Uwi          - UNIQUE WELL ID
ENTR.         JAYE                           : Entered      - ENTERED BY
SRVC.         SCHLUMBERGER                   : Scn          - SERVICE COMPANY
DATE.         1 MAR 79                       : Date         - LOG DATE
STRT.M        440                            : top_depth    - START DEPTH
STOP.M        675                            : bot_depth    - STOP DEPTH
STEP.M        0.25                           : increment    - STEP LENGTH
 NULL. -999.2500:NULL Value
~CURVE INFORMATION BLOCK
#MNEM UNIT       ERCB CURVE CODE    CURVE DESCRIPTION
#-----------   ------------------   ----------------------------------
DEPT.M        00 001 00 00         : DEPTH        - DEPTH
ILD .OHMM     00 120 00 00         : RESD         - DEEP RESISTIVITY (DIL)
NPHI.V/V      00 330 00 00         : PHIN         - NEUTRON POROSITY (SANDSTONE)
DPHI.V/V      00 890 00 00         : PHID         - DENSITY POROSITY (SANDSTONE)
CALI.MM       00 280 01 00         : CAL          - CALIPER
GR  .API      00 310 00 00         : GR           - GAMMA RAY
~PARAMETER INFORMATION
#MNEM.UNIT           DATA             DESCRIPTION OF MNEMONIC
#---------         -----------     ------------------------------
GL  .M        685.4                : gl           - GROUND LEVEL ELEVATION
EREF.M        688.4                : kb           - ELEVATION OF DEPTH REFERENCE
DATM.M        685.4                : datum        - DATUM ELEVATION
TDD .M        675                  : tdd          - TOTAL DEPTH DRILLER
RUN .         ONE                  : Run          - RUN NUMBER
ENG .         KESTER               : Engineer     - RECORDING ENGINEER
WIT .         MURYNKA              : Witness      - WITNESSED BY
BASE.         EDM                  : Branch       - HOME BASE OF LOGGING UNIT
MUD .         GEL GELEX            : Mud_type     - MUD TYPE
MATR.         SANDSTONE            : Logunit      - NEUTRON MATRIX
TMAX.C        17.5                 : BHT          - MAXIMUM RECORDED TEMPERATURE
BHTD.M        674                  : BHTDEP       - MAXIMUM RECORDED TEMPERATURE
RMT .C        16.7                 : MDTP         - TEMPERATURE OF MUD
MUDD.KG/M     1110                 : MWT          - MUD DENSITY
NEUT.         1                    : NEUTRON      - NEUTRON TYPE
RESI.         0                    : RESIST       - RESISTIVITY TYPE
RM  .OHMM     4.07                 : RM           - RESISTIVITY OF MUD
RMC .OHMM     0                    : RMC          - RESISTIVITY OF MUD CAKE
RMF .OHMM     4.68                 : RMF          - RESISTIVITY OF MUD FILTRATE
SUFT.C        0                    : SUFT         - SURFACE TEMPERATURE
~A  DEPTH     RESD     PHIN     PHID      CAL       GR
# ...
  476.500    2.339    0.556    0.135  167.092  122.379
  476.750    2.601    0.554    0.138  167.284  117.500
  477.000    2.855    0.530    0.182  170.696  109.625
  477.250    3.127    0.475    0.239  173.280  101.188
  477.500    3.510    0.434    0.245  170.352   97.433
  477.750    3.831    0.449    0.217  161.076   97.235
  478.000    4.035    0.439    0.214  159.497  104.715
  478.250    3.901    0.426    0.217  161.767  106.451
  478.500    3.646    0.452    0.197  164.039  101.260
  478.750    3.340    0.441    0.215  167.561   97.755
  479.000    3.216    0.461    0.218  168.790   99.429
  479.250    3.149    0.486    0.168  166.277  101.667
  479.500    3.148    0.489    0.207  170.525   90.670
  479.750    3.219    0.475    0.180  166.867   87.414
  480.000    3.353    0.483    0.180  162.999   83.971
  480.250    3.479    0.474    0.234  164.229   78.779
  480.500    3.652    0.459    0.298  162.549   74.462
  480.750    3.775    0.454    0.293  155.146   74.138
  481.000    3.831    0.450    0.280  152.318   77.373
  481.250    3.802    0.422    0.244  154.591   79.423
  481.500    3.765    0.422    0.241  156.654   79.664
  481.750    3.681    0.481    0.239  160.382   83.897
  482.000    3.605    0.507    0.240  164.526   91.752
  482.250    3.491    0.511    0.270  164.194   82.129
  482.500    3.331    0.462    0.294  159.704   76.501
  482.750    3.172    0.469    0.288  154.902   76.615
  483.000    3.026    0.456    0.265  154.675   81.160
  483.250    2.850    0.463    0.254  155.491   85.519
  483.500    2.770    0.481    0.242  156.930   89.630
  483.750    2.749    0.495    0.240  161.075   94.362
  484.000    2.906    0.520    0.237  164.387  101.156
  484.250    3.262    0.468    0.257  166.344   90.222
  484.500    3.661    0.446    0.286  163.415   84.470
  484.750    4.034    0.457    0.258  157.884   75.907
  485.000    4.346    0.442    0.216  156.931   74.212
  485.250    4.560    0.410    0.190  158.265   72.392
  485.500    4.568    0.382    0.167  160.741   66.888
  485.750    4.399    0.396    0.181  162.289   72.807
  486.000    4.204    0.463    0.207  162.686   79.913
  486.250    3.931    0.465    0.223  160.899   81.713
  486.500    3.715    0.451    0.244  159.530   82.575
  486.750    3.493    0.475    0.263  159.306   86.249
  487.000    3.388    0.522    0.235  162.823   94.102
  487.250    3.362    0.536    0.222  165.616   92.469
  487.500    3.450    0.498    0.246  164.040   84.469
  487.750    3.648    0.432    0.252  160.796   77.280
  488.000    3.785    0.425    0.261  158.489   74.461
  488.250    3.877    0.441    0.273  157.016   72.953
  488.500    3.862    0.443    0.286  156.165   70.384
  488.750    3.769    0.431    0.298  155.420   66.503
  489.000    3.677    0.436    0.310  154.674   63.184
  489.250    3.588    0.441    0.312  154.242   59.989
  489.500    3.520    0.449    0.302  154.430   57.545
  489.750    3.473    0.458    0.311  154.622   54.976
  490.000    3.466    0.459    0.300  154.709   57.087
  490.250    3.484    0.436    0.316  154.692   59.449
  490.500    3.516    0.443    0.297  154.776   61.748
  490.750    3.515    0.451    0.291  154.971   62.986
  491.000    3.521    0.452    0.286  155.162   62.663
  491.250    3.532    0.458    0.294  155.453   59.594
  491.500    3.612    0.441    0.290  155.330   59.893
  491.750    3.748    0.444    0.283  155.211   60.696
  492.000    4.060    0.469    0.259  154.986   62.373
  492.250    4.668    0.477    0.269  154.657   66.107
  492.500    5.636    0.470    0.283  154.328   67.594
  492.750    6.578    0.416    0.288  153.998   63.152
  493.000    7.086    0.385    0.249  153.876   61.082
  493.250    6.787    0.294    0.178  153.859   58.451
  493.500    6.203    0.308    0.152  153.947   59.626
  493.750    5.523    0.368    0.268  153.930   62.237
  494.000    4.854    0.423    0.296  153.911   61.913
  494.250    4.387    0.456    0.297  153.892   61.528
  494.500    4.094    0.494    0.313  154.395   61.956
  494.750    3.876    0.504    0.309  154.691   64.817
  495.000    3.664    0.499    0.288  154.984   67.740
  495.250    3.555    0.483    0.299  155.281   69.477
  495.500    3.508    0.464    0.285  155.885   68.656
  495.750    3.398    0.460    0.282  156.288   68.957
  496.000    3.242    0.439    0.309  156.269   73.066
  496.250    3.128    0.451    0.307  156.355   79.049
  496.500    3.007    0.467    0.289  156.964   83.907
  496.750    3.000    0.482    0.262  157.984   88.515
  497.000    3.073    0.519    0.236  159.736   93.623
  497.250    3.250    0.518    0.221  161.489   93.925
  497.500    3.423    0.474    0.229  164.385   93.914
  497.750    3.646    0.468    0.200  166.653   93.466
  498.000    3.876    0.484    0.188  167.678   92.270
  498.250    4.083    0.487    0.220  167.454   87.641
  498.500    4.237    0.485    0.245  166.708   83.822
  498.750    4.389    0.451    0.301  166.272   81.253
  499.000    4.429    0.473    0.311  166.151   80.993
  499.250    4.469    0.497    0.288  166.343   80.357
  499.500    4.477    0.520    0.277  166.222   78.226
  499.750    4.425    0.531    0.286  165.475   77.280
  500.000    4.238    0.490    0.289  164.624   78.954
  500.250    4.252    0.473    0.279  164.089   82.752
  500.500    4.284    0.478    0.261  163.862   81.743
  500.750    4.282    0.485    0.249  163.534   78.486
  501.000    4.267    0.484    0.243  163.099   75.542
  501.250    4.255    0.495    0.259  162.976   73.533
  501.500    4.246    0.533    0.283  162.962   76.270
  501.750    4.246    0.527    0.340  162.009   87.183
  502.000    4.252    0.450    0.312  163.031   93.352
  502.250    4.306    0.450    0.253  164.987  102.455
  502.500    4.290    0.457    0.209  165.285  100.447
  502.750    4.336    0.465    0.221  163.394   98.126
  503.000    4.319    0.474    0.247  160.151   95.932
  503.250    4.325    0.481    0.245  159.824   93.237
  503.500    4.373    0.468    0.259  161.054   91.791
  503.750    4.471    0.468    0.260  162.074   90.595
  504.000    4.495    0.481    0.262  162.162   89.836
  504.250    4.518    0.467    0.267  161.835   90.824
  504.500    4.492    0.460    0.230  161.296   92.933
  504.750    4.408    0.473    0.208  161.276   93.985
  505.000    4.317    0.469    0.204  161.365   96.223
  505.250    4.165    0.488    0.200  161.660   97.586
  505.500    4.026    0.493    0.217  162.476   92.457
  505.750    3.937    0.491    0.212  163.708   90.012
  506.000    3.927    0.457    0.199  164.313   90.188
  506.250    3.963    0.452    0.201  163.879   91.365
  506.500    4.067    0.444    0.206  162.718   95.037
  506.750    4.213    0.434    0.218  162.389   91.281
  507.000    4.355    0.453    0.232  162.371   86.215
  507.250    4.478    0.474    0.251  162.665   81.648
  507.500    4.690    0.488    0.261  163.063   80.262
  507.750    5.091    0.490    0.253  162.735   79.442
  508.000    5.442    0.479    0.241  162.613   77.621
  508.250    5.951    0.390    0.209  162.389   74.990
  508.500    6.435    0.294    0.182  162.265   71.796
  508.750    6.278    0.275    0.117  162.250   68.478
  509.000    6.172    0.297    0.073  162.230   71.401
  509.250    5.878    0.350    0.138  162.422   83.250
  509.500    5.514    0.441    0.233  162.614   88.296
  509.750    4.994    0.460    0.215  162.905   90.533
  510.000    4.658    0.478    0.211  162.888   91.396
  510.250    4.363    0.481    0.193  162.872   92.321
  510.500    4.209    0.458    0.185  162.857   95.058
  510.750    4.099    0.469    0.184  162.837   95.422
  511.000    4.038    0.485    0.183  162.718   94.849
  511.250    4.052    0.500    0.188  162.802   94.152
  511.500    4.044    0.485    0.183  162.996   93.580
  511.750    4.072    0.478    0.192  162.976   93.133
  512.000    4.087    0.477    0.216  163.477   91.812
  512.250    4.115    0.476    0.189  164.189   89.804
  512.500    4.145    0.473    0.190  164.278   91.042
  512.750    4.151    0.467    0.204  164.050   95.963
