~VERSION INFORMATION
 VERS.                 2.0:   CWLS LOG ASCII STANDARD -VERSION 2.0
 WRAP.                  NO:   ONE LINE PER DEPTH STEP
~WELL INFORMATION BLOCK
#MNEM.UNIT           DATA                    DESCRIPTION OF MNEMONIC
#---------    -------------------            -------------------------------
# Generated from Intellog Unique Number	CX_WELLS/WELL/3065
WELL.         AMOCO A-1 HOUSE                : Well_name    - WELL
LOC .         00/06-27-082-14W4/0            : Location     - LOCATION
UWI .         00/06-27-082-14W400            : Uwi          - UNIQUE WELL ID
ENTR.         TIM                            : Entered      - ENTERED BY
SRVC.         SCHLUMBERGER                   : Scn          - SERVICE COMPANY
DATE.         03/04/92                       : Date         - LOG DATE
STRT.F        450                            : top_depth    - START DEPTH
STOP.F        1189.83                        : bot_depth    - STOP DEPTH
STEP.F        0.82                           : increment    - STEP LENGTH
 NULL. -999.2500:NULL Value
~CURVE INFORMATION BLOCK
#MNEM UNIT       ERCB CURVE CODE    CURVE DESCRIPTION
#-----------   ------------------   ----------------------------------
DEPT.F        00 001 00 00         : DEPTH        - DEPTH
GR  .API      00 310 00 00         : GR           - GAMMA RAY
NPHI.V/V      00 330 00 00         : PHIN         - NEUTRON POROSITY (SANDSTONE)
DPHI.V/V      00 890 00 00         : PHID         - DENSITY POROSITY (SANDSTONE)
ILD .OHMM     00 120 00 00         : RESD         - DEEP RESISTIVITY (OTHER)
~PARAMETER INFORMATION
#MNEM.UNIT           DATA             DESCRIPTION OF MNEMONIC
#---------         -----------     ------------------------------
GL  .F        1905.3               : gl           - GROUND LEVEL ELEVATION
EREF.F        1919                 : kb           - ELEVATION OF DEPTH REFERENCE
DATM.F        1919                 : datum        - DATUM ELEVATION
TDD .F        1224                 : tdd          - TOTAL DEPTH DRILLER
RUN .         ONE                  : Run          - RUN NUMBER
ENG .         JO                   : Engineer     - RECORDING ENGINEER
WIT .         TIM                  : Witness      - WITNESSED BY
MUD .         GEL                  : Mud_type     - MUD TYPE
MATR.         SANDSTONE            : Logunit      - NEUTRON MATRIX
TMAX.F        72                   : BHT          - MAXIMUM RECORDED TEMPERATURE
BHTD.F        1224                 : BHTDEP       - MAXIMUM RECORDED TEMPERATURE
RMT .F        72                   : MDTP         - TEMPERATURE OF MUD
MUDD.LB/G     1                    : MWT          - MUD DENSITY
NEUT.         1                    : NEUTRON      - NEUTRON TYPE
RESI.         1.9                  : RESIST       - RESISTIVITY TYPE
RM  .OHMM     1.9                  : RM           - RESISTIVITY OF MUD
RMC .OHMM     1.9                  : RMC          - RESISTIVITY OF MUD CAKE
RMF .OHMM     1.84                 : RMF          - RESISTIVITY OF MUD FILTRATE
SUFT.F        32                   : SUFT         - SURFACE TEMPERATURE
~A  DEPTH       GR     PHIN     PHID     RESD
# ...
 1020.870  100.864    0.469    0.233    3.510
 1021.690  102.782    0.471    0.222    3.515
 1022.510  103.444    0.494    0.211    3.652
 1023.330  101.081    0.500    0.216    3.723
 1024.150   98.684    0.508    0.227    4.013
 1024.970   93.246    0.514    0.228    4.323
 1025.790   85.973    0.517    0.226    4.571
 1026.610   79.907    0.503    0.225    5.106
 1027.430   70.187    0.482    0.231    6.721
 1028.250   70.254    0.465    0.238    9.686
 1029.070   74.619    0.455    0.255   14.221
 1029.890   75.297    0.447    0.266   15.041
 1030.710   72.322    0.449    0.278   13.505
 1031.530   69.925    0.460    0.276   12.126
 1032.350   66.322    0.472    0.266   11.508
 1033.170   60.884    0.480    0.273   11.516
 1033.990   60.339    0.472    0.278   11.537
 1034.810   63.481    0.448    0.274   10.553
 1035.630   67.845    0.430    0.267    9.823
 1036.450   69.730    0.441    0.264    8.820
 1037.270   72.872    0.453    0.264    7.777
 1038.090   75.368    0.466    0.265    7.111
 1038.910   79.121    0.481    0.267    6.385
 1039.730   79.799    0.492    0.273    5.530
 1040.550   80.528    0.494    0.278    5.147
 1041.370   81.189    0.499    0.274    5.157
 1042.190   81.239    0.496    0.253    6.081
 1043.010   82.546    0.448    0.235    9.260
 1043.830   82.612    0.412    0.230   11.129
 1044.650   83.919    0.406    0.229   12.665
 1045.470   84.564    0.386    0.235   12.679
 1046.290   86.482    0.380    0.238   11.597
 1047.110   88.383    0.398    0.248   10.799
 1047.930   90.897    0.410    0.257   10.056
 1048.750   92.798    0.423    0.263   10.071
 1049.570   95.311    0.424    0.270   10.843
 1050.390   98.453    0.421    0.278   13.763
 1051.210   90.568    0.421    0.282   16.535
 1052.030   83.278    0.428    0.277   22.166
 1052.850   73.559    0.450    0.273   26.149
 1053.670   65.096    0.447    0.269   30.304
 1054.490   68.221    0.434    0.266   33.864
 1055.310   70.089    0.418    0.257   32.112
 1056.140   74.454    0.413    0.249   29.351
 1056.960   76.967    0.409    0.233   26.848
 1057.780   77.662    0.408    0.224   25.000
 1058.600   77.712    0.408    0.228   23.279
 1059.420   76.572    0.408    0.230   23.305
 1060.240   73.614    0.408    0.227   24.205
 1061.060   71.812    0.408    0.221   26.081
 1061.880   68.209    0.406    0.213   29.669
 1062.700   65.217    0.400    0.210   33.750
 1063.520   64.061    0.389    0.211   38.407
 1064.340   64.127    0.384    0.241   43.691
 1065.160   64.194    0.391    0.264   47.942
 1065.980   67.930    0.399    0.267   46.279
 1066.800   74.130    0.414    0.275   32.219
 1067.620   79.090    0.417    0.284   30.552
 1068.440   82.231    0.412    0.282   28.449
 1069.260   79.239    0.395    0.247   26.004
 1070.080   74.413    0.383    0.216   24.659
 1070.900   76.314    0.369    0.218   23.812
 1071.720   79.439    0.371    0.224   21.790
 1072.540   80.729    0.360    0.224   21.034
 1073.360   76.514    0.355    0.219   20.693
 1074.180   71.076    0.357    0.195   21.097
 1075.000   64.415    0.355    0.187   22.724
 1075.820   58.382    0.350    0.180   26.324
 1076.640   55.985    0.340    0.176   32.823
 1077.460   54.217    0.308    0.185   36.664
 1078.280   53.060    0.262    0.204   36.056
 1079.100   53.127    0.259    0.236   33.575
 1079.920   52.599    0.256    0.321   31.826
 1080.740   55.740    0.256    0.342   28.587
 1081.560   57.625    0.298    0.314   26.609
 1082.380   60.750    0.311    0.272   24.331
 1083.200   67.561    0.343    0.255   23.522
 1084.020   72.537    0.355    0.246   23.548
 1084.840   71.397    0.366    0.242   24.008
 1085.660   70.819    0.370    0.236   24.043
 1086.480   69.067    0.379    0.229   24.088
 1087.300   67.911    0.380    0.221   23.261
 1088.120   67.382    0.373    0.220   22.058
 1088.940   63.763    0.370    0.219   20.555
 1089.760   58.919    0.372    0.215   20.207
 1090.580   54.705    0.371    0.217   19.514
 1091.400   57.863    0.369    0.223   19.197
 1092.220   61.582    0.367    0.236   19.564
 1093.040   67.154    0.365    0.253   21.073
 1093.860   80.693    0.358    0.274   20.350
 1094.690   93.620    0.352    0.225   18.949
 1095.510   99.820    0.349    0.203   17.027
 1096.330   98.680    0.356    0.173   16.140
 1097.150   96.895    0.365    0.169   15.035
 1097.970   95.144    0.371    0.176   15.339
 1098.790   93.359    0.382    0.194   16.516
 1099.610   93.442    0.394    0.216   17.147
 1100.430   92.913    0.401    0.229   19.176
 1101.250   92.335    0.394    0.227   19.909
 1102.070   90.584    0.389    0.233   20.670
 1102.890   91.873    0.389    0.238   23.522
 1103.710   93.775    0.395    0.245   24.869
 1104.530   95.081    0.411    0.252   27.801
 1105.350   96.371    0.424    0.252   25.430
 1106.170   97.033    0.424    0.222   23.671
 1106.990   95.876    0.410    0.208   22.446
 1107.810   95.365    0.400    0.214   23.741
 1108.630   98.523    0.406    0.240   26.520
 1109.450   99.779    0.410    0.258   29.111
 1110.270  101.681    0.402    0.261   27.584
 1111.090   99.912    0.395    0.218   24.768
 1111.910   98.127    0.382    0.198   21.444
 1112.730   95.764    0.378    0.182   19.254
 1113.550   92.161    0.378    0.178   17.288
 1114.370   87.963    0.378    0.174   15.242
 1115.190   87.401    0.377    0.169   15.837
 1116.010   85.650    0.376    0.166   17.052
 1116.830   84.493    0.376    0.173   19.055
 1117.650   82.725    0.377    0.198   20.909
 1118.470   82.775    0.377    0.210   22.935
 1119.290   82.263    0.377    0.225   23.820
 1120.110   82.908    0.378    0.235   22.994
 1120.930   84.826    0.379    0.232   21.412
 1121.750   87.339    0.381    0.227   19.578
 1122.570   91.076    0.382    0.219   17.275
 1123.390   97.292    0.380    0.205   16.375
 1124.210  101.623    0.373    0.199   14.448
 1125.030  106.600    0.369    0.195   13.947
 1125.850  107.294    0.373    0.187   12.988
 1126.670  104.303    0.378    0.176   12.772
 1127.490  101.906    0.387    0.165   12.786
 1128.310   97.692    0.388    0.148   13.280
 1129.130   94.105    0.357    0.135   13.793
 1129.950   93.543    0.344    0.121   14.336
 1130.770   94.222    0.350    0.133   14.357
 1131.590   97.346    0.358    0.151   14.114
 1132.410  101.694    0.364    0.156   14.135
 1133.230  100.571    0.367    0.158   14.156
 1134.060  100.026    0.372    0.163   14.177
 1134.880  102.556    0.380    0.167   13.696
 1135.700  104.424    0.376    0.171   13.469
 1136.520  112.475    0.365    0.166   12.777
 1137.340  113.748    0.354    0.158   12.791
 1138.160  110.162    0.355    0.156   12.588
 1138.980  107.799    0.358    0.157   12.370
 1139.800  106.609    0.362    0.156   12.393
 1140.620  101.799    0.368    0.151   12.416
 1141.440  102.494    0.373    0.135   12.430
 1142.260  104.379    0.379    0.129   12.453
 1143.080  108.727    0.386    0.119   12.467
 1143.900  110.628    0.387    0.124   12.049
 1144.720  108.860    0.390    0.143   12.062
 1145.540  104.034    0.395    0.151   11.857
 1146.360   98.596    0.400    0.162   11.665
 1147.180   93.157    0.404    0.169   12.338
 1148.000   80.991    0.403    0.202   14.561
 1148.820   79.240    0.399    0.216   15.966
 1149.640   81.753    0.400    0.242   18.503
 1150.460   84.861    0.401    0.249   20.296
 1151.280   92.284    0.401    0.247   21.467
 1152.100   97.244    0.401    0.248   20.364
 1152.920  100.997    0.401    0.252   19.310
 1153.740   96.765    0.402    0.258   20.792
 1154.560   83.376    0.404    0.283   24.538
 1155.380   77.938    0.404    0.289   28.948
 1156.200   76.169    0.404    0.293   32.336
 1157.020   75.641    0.404    0.299   30.686
 1157.840   77.559    0.404    0.297   28.048
 1158.660   80.056    0.406    0.288   25.184
 1159.480   82.569    0.405    0.282   23.036
 1160.300   84.487    0.400    0.245   21.064
 1161.120   72.916    0.396    0.228   20.333
 1161.940   70.536    0.392    0.229   18.941
 1162.760   65.710    0.386    0.233   17.319
