~VERSION INFORMATION
 VERS.                 2.0:   CWLS LOG ASCII STANDARD -VERSION 2.0
 WRAP.                  NO:   ONE LINE PER DEPTH STEP
~WELL INFORMATION BLOCK
#MNEM.UNIT           DATA                    DESCRIPTION OF MNEMONIC
#---------    -------------------            -------------------------------
# Generated from Intellog Unique Number	CC_84_87/WELL/1169
NULL.         -999.25                        : NULL_VALUE
WELL.         BP GRANOR                      : Well_name    - WELL              
LOC .         07-29-084-18W4                 : Location     - LOCATION          
UWI .         00/07-29-084-18W400            : Uwi          - UNIQUE WELL ID    
ENTR.         JHS                            : Entered      - ENTERED BY        
SRVC.         SCHLUMBERGER                   : Scn          - SERVICE COMPANY   
DATE.         01 MAR 81                      : Date         - LOG DATE
STRT.M        115                            : top_depth    - START DEPTH       
STOP.M        364.897                        : bot_depth    - STOP DEPTH        
STEP.M        0.3                            : increment    - STEP LENGTH       
~CURVE INFORMATION BLOCK
#MNEM UNIT       ERCB CURVE CODE    CURVE DESCRIPTION
#-----------   ------------------   ----------------------------------
DEPT.M        00 001 00 00         : DEPTH        - DEPTH                       
DPHI.V/V      00 890 00 00         : PHID         - DENSITY POROSITY (LIMESTONE)
NPHI.V/V      00 330 00 00         : PHIN         - NEUTRON POROSITY (LIMESTONE)
GR  .API      00 310 00 00         : GR           - GAMMA RAY                   
ILD .OHMM     00 120 00 00         : RESD         - DEEP RESISTIVITY (DIL)      
~PARAMETER INFORMATION       
#MNEM.UNIT           DATA             DESCRIPTION OF MNEMONIC
#---------         -----------     ------------------------------
GL  .M        567.8                : gl           - GROUND LEVEL ELEVATION      
EREF.M        571.5                : kb           - ELEVATION OF DEPTH REFERENCE
DATM.M        571.5                : datum        - DATUM ELEVATION             
TDD .M        350                  : tdd          - TOTAL DEPTH DRILLER         
RUN .         ONE                  : Run          - RUN NUMBER                  
ENG .         BILL                 : Engineer     - RECORDING ENGINEER          
WIT .         JIM                  : Witness      - WITNESSED BY                
MUD .         GEL                  : Mud_type     - MUD TYPE                    
MATR.         LIMESTONE            : Logunit      - NEUTRON MATRIX              
TMAX.C        20                   : BHT          - MAXIMUM RECORDED TEMPERATURE
BHTD.M        350                  : BHTDEP       - MAXIMUM RECORDED TEMPERATURE
MATR.         1                    : LOGUNIT      - NEUTRON MATRIX              
RMT .C        25                   : MDTP         - TEMPERATURE OF MUD          
NEUT.         1                    : NEUTRON      - NEUTRON TYPE                
RESI.         0                    : RESIST       - RESISTIVITY TYPE            
RMC .OHMM     0.25                 : RMC          - RESISTIVITY OF MUD CAKE     
RMF .OHMM     0.25                 : RMF          - RESISTIVITY OF MUD FILTRATE 
SUFT.C        15                   : SUFT         - SURFACE TEMPERATURE         
~A  DEPTH     PHID     PHIN       GR     RESD
# ...
  219.401    0.322    0.485   56.614    8.686
  219.701    0.326    0.460   56.669    8.689
  220.001    0.340    0.460   55.482    8.695
  220.301    0.335    0.471   55.535    8.536
  220.601    0.324    0.484   55.567    8.222
  220.901    0.327    0.481   56.822    7.921
  221.201    0.319    0.463   59.295    7.924
  221.501    0.318    0.460   62.982    7.932
  221.801    0.309    0.450   62.417    7.937
  222.101    0.310    0.446   59.430    7.942
  222.401    0.304    0.454   59.464    8.102
  222.701    0.298    0.456   60.725    8.107
  223.001    0.295    0.446   60.154    8.114
  223.301    0.314    0.442   60.199    8.118
  223.601    0.311    0.443   61.460    7.970
  223.901    0.304    0.460   63.319    7.675
  224.201    0.288    0.483   63.976    7.252
  224.501    0.299    0.443   64.621    6.854
  224.801    0.289    0.440   64.053    6.858
  225.101    0.308    0.455   62.281    7.130
  225.401    0.319    0.445   63.536    7.414
  225.701    0.306    0.432   63.572    7.418
  226.001    0.303    0.430   62.408    7.283
  226.301    0.288    0.453   62.443    7.152
  226.601    0.277    0.450   61.882    7.293
  226.901    0.306    0.442   62.525    7.730
  227.201    0.300    0.465   61.357    8.037
  227.501    0.314    0.484   60.788    7.891
  227.801    0.318    0.480   68.723    6.647
  228.101    0.305    0.477   74.847    4.366
  228.401    0.282    0.461   79.748    3.473
  228.701    0.247    0.487   84.036    3.345
  229.001    0.241    0.480   91.971    3.221
  229.301    0.235    0.501   93.834    3.224
  229.601    0.226    0.515   92.055    3.352
  229.901    0.241    0.536   88.452    3.553
  230.201    0.243    0.528   89.111    3.765
  230.501    0.225    0.526   89.149    4.068
  230.801    0.265    0.499   85.546    4.394
  231.101    0.252    0.469   78.913    4.839
  231.401    0.258    0.478   77.126    5.431
  231.701    0.267    0.468   78.392    6.215
  232.001    0.234    0.449   75.392    6.713
  232.301    0.233    0.448   77.862    7.253
  232.601    0.225    0.447   77.305    7.542
  232.901    0.245    0.455   77.946    7.841
  233.201    0.244    0.443   77.379    7.998
  233.501    0.228    0.436   78.033    8.158
  233.801    0.218    0.432   79.899    8.164
  234.101    0.209    0.444   78.125    8.016
  234.401    0.214    0.436   79.377    8.021
  234.701    0.232    0.454   78.805    8.026
  235.001    0.233    0.442   73.383    8.188
  235.301    0.245    0.447   67.356    8.354
  235.601    0.266    0.419   66.793    8.519
  235.901    0.270    0.406   66.834    8.525
  236.201    0.248    0.415   68.092    8.696
  236.501    0.229    0.432   68.740    8.540
  236.801    0.243    0.422   65.742    8.383
  237.101    0.256    0.419   65.786    8.073
  237.401    0.264    0.423   68.869    7.775
  237.701    0.239    0.440   68.300    7.488
  238.001    0.242    0.470   68.958    6.943
  238.301    0.232    0.472   70.812    6.686
  238.601    0.230    0.460   73.892    6.439
  238.901    0.237    0.468   70.291    6.085
  239.201    0.211    0.478   70.338    5.973
  239.501    0.242    0.468   72.803    5.753
  239.801    0.249    0.467   73.453    5.436
  240.101    0.264    0.485   69.248    5.439
  240.401    0.245    0.474   63.822    5.656
  240.701    0.249    0.459   63.872    6.349
  241.001    0.263    0.448   65.120    6.859
  241.301    0.227    0.474   65.171    6.481
  241.601    0.203    0.483   67.635    6.008
  241.901    0.238    0.471   69.502    5.676
  242.201    0.286    0.488   66.508    5.572
  242.501    0.289    0.500   62.904    5.906
  242.801    0.280    0.478   62.344    6.504
  243.101    0.287    0.479   62.987    6.635
  243.401    0.306    0.476   63.033    6.390
  243.701    0.298    0.520   62.468    6.153
  244.001    0.292    0.511   62.508    6.278
  244.301    0.271    0.462   63.765    6.653
  244.601    0.278    0.450   65.629    6.657
  244.901    0.260    0.441   69.923    6.535
  245.201    0.245    0.449   73.001    6.296
  245.501    0.233    0.465   71.829    5.836
  245.801    0.229    0.481   71.260    5.410
  246.101    0.239    0.502   73.736    5.211
  246.401    0.236    0.463   74.385    5.115
  246.701    0.225    0.473   74.428    5.118
  247.001    0.229    0.483   75.686    5.324
  247.301    0.234    0.476   78.158    5.534
  247.601    0.224    0.455   77.595    5.864
  247.901    0.241    0.447   78.850    6.098
  248.201    0.253    0.445   82.531    5.761
  248.501    0.220    0.466   83.794    5.549
  248.801    0.236    0.470   83.221    5.449
  249.101    0.232    0.476   83.272    5.559
  249.401    0.233    0.467   81.484    5.890
  249.701    0.219    0.469   73.024    6.485
  250.001    0.233    0.466   68.210    7.421
  250.301    0.245    0.457   65.223    8.171
  250.601    0.277    0.412   64.047    9.173
  250.901    0.286    0.444   66.513    9.721
  251.201    0.274    0.451   70.806    9.916
  251.501    0.280    0.454   71.461   10.116
  251.801    0.284    0.445   67.249    9.930
  252.101    0.279    0.433   61.828    9.205
  252.401    0.271    0.435   63.087    8.372
  252.701    0.250    0.447   70.413    7.911
  253.001    0.219    0.459   72.276    7.764
  253.301    0.216    0.450   70.496    7.921
  253.601    0.185    0.434   67.503    8.235
  253.901    0.129    0.350   68.156    9.245
  254.201    0.160    0.407   70.014    9.611
  254.501    0.247    0.430   70.068    9.804
  254.801    0.219    0.436   68.892    9.627
  255.101    0.143    0.383   71.969    9.451
  255.401    0.167    0.390   72.624    9.101
  255.701    0.218    0.446   72.668    8.602
  256.001    0.226    0.456   72.092    8.443
  256.301    0.258    0.478   72.757    8.291
  256.601    0.232    0.477   72.784    8.295
  256.901    0.253    0.484   73.441    8.146
  257.201    0.263    0.473   73.479    7.995
  257.501    0.247    0.455   71.694    8.001
  257.801    0.220    0.454   74.785    8.007
  258.101    0.227    0.458   77.246    8.011
  258.401    0.245    0.446   77.898    8.174
  258.701    0.250    0.446   74.899    8.178
  259.001    0.244    0.458   74.948    8.342
  259.301    0.249    0.447   78.023    8.189
  259.601    0.230    0.447   78.062    8.042
  259.901    0.233    0.445   75.071    8.046
  260.201    0.208    0.407   69.038    8.528
  260.501    0.190    0.424   59.365    9.756
  260.801    0.133    0.414   50.908   11.378
  261.101    0.049    0.235   48.525   12.529
  261.401    0.057    0.233   57.670   12.782
  261.701    0.209    0.360   68.649   11.402
  262.001    0.234    0.434   74.161    9.791
  262.301    0.238    0.432   76.016    9.077
  262.601    0.232    0.445   78.505    8.577
  262.901    0.208    0.464   79.145    8.261
  263.201    0.211    0.449   79.797    8.110
  263.501    0.207    0.468   79.834    7.961
  263.801    0.246    0.480   78.659    7.966
  264.101    0.233    0.465   77.487    7.973
  264.401    0.224    0.461   78.132    7.826
  264.701    0.196    0.448   76.961    7.983
  265.001    0.179    0.438   75.183    7.990
  265.301    0.161    0.460   76.445    7.845
  265.601    0.240    0.445   77.695    7.849
  265.901    0.225    0.440   79.563    7.855
  266.201    0.209    0.437   80.210    7.711
  266.501    0.221    0.445   79.045    7.570
  266.801    0.211    0.443   77.867    7.434
  267.101    0.216    0.440   77.917    7.158
  267.401    0.223    0.452   78.556    6.764
  267.701    0.219    0.481   81.635    6.515
  268.001    0.219    0.475   80.469    6.395
  268.301    0.235    0.469   77.469    6.400
  268.601    0.257    0.491   73.262    6.654
  268.901    0.241    0.450   70.876    7.188
  269.201    0.228    0.450   72.144    8.226
  269.501    0.218    0.429   70.963    8.552
  269.801    0.229    0.429   69.786    9.064
  270.101    0.189    0.408   67.399   10.571
  270.401    0.137    0.319   56.512   12.809
  270.701    0.090    0.256   51.697   14.939
  271.001    0.085    0.225   53.557   14.666
  271.301    0.138    0.298   68.174   10.805
