~VERSION INFORMATION
 VERS.                 2.0:   CWLS LOG ASCII STANDARD -VERSION 2.0
 WRAP.                  NO:   ONE LINE PER DEPTH STEP
~WELL INFORMATION BLOCK
#MNEM.UNIT           DATA                    DESCRIPTION OF MNEMONIC
#---------    -------------------            -------------------------------
# Generated from Intellog Unique Number	CS_77_79/WELL/3268
WELL.         LOGAN RESOURCES LTD.           : Well_name    - WELL
LOC .         00/02-18-077-13W4/0            : Location     - LOCATION
UWI .         00/02-18-077-13W4/0            : Uwi          - UNIQUE WELL ID
ENTR.         JOETTE                         : Entered      - ENTERED BY
SRVC.         SCHLUMBERGER                   : Scn          - SERVICE COMPANY
DATE.         08/26/92                       : Date         - LOG DATE
STRT.M        295                            : top_depth    - START DEPTH
STOP.M        532                            : bot_depth    - STOP DEPTH
STEP.M        0.25                           : increment    - STEP LENGTH
 NULL. -999.2500:NULL Value
~CURVE INFORMATION BLOCK
#MNEM UNIT       ERCB CURVE CODE    CURVE DESCRIPTION
#-----------   ------------------   ----------------------------------
DEPT.M        00 001 00 00         : DEPTH        - DEPTH
ILD .OHMM     00 120 00 00         : RESD         - DEEP RESISTIVITY (DIL)
DPHI.V/V      00 890 00 00         : PHID         - DENSITY POROSITY (SANDSTONE)
NPHI.V/V      00 330 00 00         : PHIN         - NEUTRON POROSITY (SANDSTONE)
GR  .API      00 310 00 00         : GR           - GAMMA RAY
~PARAMETER INFORMATION
#MNEM.UNIT           DATA             DESCRIPTION OF MNEMONIC
#---------         -----------     ------------------------------
GL  .M        686.57               : gl           - GROUND LEVEL ELEVATION
EREF.M        690.17               : kb           - ELEVATION OF DEPTH REFERENCE
DATM.M        690.17               : datum        - DATUM ELEVATION
TDD .M        541                  : tdd          - TOTAL DEPTH DRILLER
RUN .         ONE                  : Run          - RUN NUMBER
ENG .         BILL                 : Engineer     - RECORDING ENGINEER
WIT .         JIM                  : Witness      - WITNESSED BY
MUD .         GEL                  : Mud_type     - MUD TYPE
MATR.         SANDSTONE            : Logunit      - NEUTRON MATRIX
TMAX.C        27                   : BHT          - MAXIMUM RECORDED TEMPERATURE
BHTD.M        541                  : BHTDEP       - MAXIMUM RECORDED TEMPERATURE
RMT .C        16                   : MDTP         - TEMPERATURE OF MUD
MUDD.KG/M     1190                 : MWT          - MUD DENSITY
NEUT.         1                    : NEUTRON      - NEUTRON TYPE
RESI.         0                    : RESIST       - RESISTIVITY TYPE
RM  .OHMM     4.25                 : RM           - RESISTIVITY OF MUD
RMC .OHMM     4.25                 : RMC          - RESISTIVITY OF MUD CAKE
RMF .OHMM     4.5                  : RMF          - RESISTIVITY OF MUD FILTRATE
SUFT.C        4                    : SUFT         - SURFACE TEMPERATURE
~A  DEPTH     RESD     PHID     PHIN       GR
# ...
  469.000    6.015    0.072    0.338   85.855
  469.250    6.249    0.060    0.321   66.124
  469.500    6.498    0.091    0.287   75.774
  469.750    6.510    0.157    0.323   82.425
  470.000    6.518    0.190    0.344   85.493
  470.250    6.183    0.193    0.337   84.350
  470.500    5.967    0.192    0.342   81.407
  470.750    5.758    0.193    0.353   85.061
  471.000    5.458    0.187    0.368   92.312
  471.250    5.078    0.186    0.375   97.764
  471.500    4.813    0.193    0.362   89.439
  471.750    4.565    0.211    0.372   91.894
  472.000    4.404    0.209    0.379   93.149
  472.250    4.101    0.208    0.371   91.392
  472.500    4.029    0.198    0.366  101.655
  472.750    3.890    0.187    0.369   94.515
  473.000    3.826    0.204    0.381  102.366
  473.250    3.762    0.210    0.385   99.424
  473.500    3.985    0.203    0.380  117.496
  473.750    4.220    0.198    0.372  114.540
  474.000    4.815    0.188    0.365  106.187
  474.250    5.000    0.160    0.369   99.647
  474.500    5.493    0.116    0.362   96.705
  474.750    6.153    0.123    0.345   92.578
  475.000    6.509    0.191    0.341   86.624
  475.250    7.291    0.196    0.340   89.078
  475.500    7.864    0.197    0.334   89.134
  475.750    8.640    0.200    0.323   84.992
  476.000    9.488    0.211    0.317   76.654
  476.250   10.618    0.255    0.336   70.128
  476.500   11.457    0.252    0.338   73.767
  476.750   11.273    0.250    0.338   76.222
  477.000   10.878    0.248    0.340   76.877
  477.250   10.315    0.238    0.346   95.534
  477.500    9.958    0.255    0.362  105.184
  477.750   10.745    0.278    0.356  102.242
  478.000   11.584    0.277    0.347   77.714
  478.250   12.727    0.269    0.348   81.367
  478.500   12.987    0.262    0.352   81.423
  478.750   11.640    0.245    0.344   74.897
  479.000    8.063    0.208    0.339   78.537
  479.250    7.095    0.199    0.344   89.385
  479.500    6.481    0.193    0.364  118.864
  479.750    6.379    0.191    0.364  123.702
  480.000    6.506    0.195    0.364  125.557
  480.250    6.760    0.205    0.365  111.222
  480.500    7.706    0.225    0.363  116.075
  480.750    9.285    0.244    0.336  116.131
  481.000   16.193    0.253    0.159  102.982
  481.250   18.460    0.417    0.075   89.247
  481.500   23.959    0.436    0.069   61.107
  481.750   33.478    0.437    0.056   38.978
  482.000   36.781    0.437    0.039   37.235
  482.250   39.653    0.435    0.041   38.490
  482.500   49.598    0.435    0.049   36.747
  482.750   58.668    0.435    0.065   35.004
  483.000   65.657    0.435    0.080   33.874
  483.250   67.057    0.349    0.127   30.918
  483.500   67.116    0.335    0.288   28.576
  483.750   67.263    0.326    0.323   32.229
  484.000   73.899    0.317    0.319   33.484
  484.250   90.702    0.311    0.313   32.955
  484.500  109.288    0.318    0.314   31.811
  484.750  131.741    0.314    0.322   28.255
  485.000  147.500    0.302    0.322   30.710
  485.250  153.251    0.302    0.321   34.363
  485.500  153.587    0.306    0.322   33.220
  485.750  148.344    0.311    0.319   28.479
  486.000  143.154    0.303    0.313   32.732
  486.250  133.136    0.295    0.312   33.987
  486.500  119.435    0.296    0.316   23.849
  486.750  109.093    0.307    0.320   22.107
  487.000  105.276    0.317    0.319   25.760
  487.250   94.401    0.318    0.313   24.617
  487.500   84.686    0.310    0.308   31.882
  487.750   63.106    0.308    0.314   36.135
  488.000   59.810    0.310    0.321   34.991
  488.250   55.625    0.316    0.326   33.848
  488.500   48.966    0.327    0.330   33.904
  488.750   42.316    0.337    0.334   33.974
  489.000   35.243    0.334    0.334   33.416
  489.250   29.899    0.329    0.331   33.499
  489.500   24.446    0.314    0.321   34.755
  489.750   21.135    0.265    0.309   35.996
  490.000   20.387    0.271    0.303   40.848
  490.250   17.946    0.266    0.321   55.908
  490.500   15.798    0.239    0.340   90.755
  490.750   14.973    0.214    0.368   93.809
  491.000   23.820    0.295    0.365   83.072
  491.250   35.165    0.305    0.330   70.522
  491.500   37.233    0.305    0.336   40.584
  491.750   40.906    0.320    0.338   37.656
  492.000   32.233    0.312    0.342   38.311
  492.250   25.860    0.285    0.337   42.564
  492.500   20.757    0.250    0.328   54.012
  492.750   19.321    0.244    0.334   63.676
  493.000   19.725    0.240    0.334   74.524
  493.250   19.381    0.233    0.339   76.379
  493.500   18.727    0.235    0.347   83.644
  493.750   18.401    0.240    0.340   72.907
  494.000   19.500    0.232    0.337   82.556
  494.250   21.041    0.225    0.354   89.208
  494.500   21.852    0.239    0.358   77.272
  494.750   23.148    0.258    0.347   69.533
  495.000   22.347    0.278    0.339   65.377
  495.250   20.039    0.273    0.337   60.650
  495.500   17.632    0.255    0.335   67.302
  495.750   15.238    0.239    0.329   71.555
  496.000   13.408    0.228    0.334   77.007
  496.250   11.380    0.223    0.334   81.860
  496.500   10.200    0.210    0.333   89.125
  496.750    9.146    0.204    0.334   92.778
  497.000    8.358    0.183    0.336   96.446
  497.250    7.776    0.171    0.344   98.886
  497.500    7.507    0.172    0.347  113.346
  497.750    7.380    0.162    0.349  117.613
  498.000    7.531    0.159    0.344  127.263
  498.250    7.828    0.184    0.343  121.922
  498.500    8.288    0.214    0.334  108.773
  498.750    8.779    0.231    0.336   97.436
  499.000    8.959    0.224    0.336   87.898
  499.250    8.657    0.209    0.328   89.753
  499.500    8.513    0.200    0.335   91.608
  499.750    8.521    0.206    0.341   96.460
  500.000    8.547    0.202    0.337  109.122
  500.250    8.551    0.199    0.338  126.566
  500.500    8.888    0.190    0.343  123.038
  500.750    9.765    0.192    0.343  119.482
  501.000   10.728    0.196    0.333   98.552
  501.250   12.932    0.185    0.205   81.206
  501.500   19.108    0.142    0.175   69.869
  501.750   19.845    0.055    0.227   58.519
  502.000   20.259    0.110    0.266   48.381
  502.250   19.932    0.141    0.293   65.853
  502.500   19.235    0.187    0.344   69.493
  502.750   18.222    0.215    0.334   73.146
  503.000   16.048    0.245    0.322   74.401
  503.250   14.925    0.214    0.322   81.666
  503.500   14.684    0.207    0.333   90.716
  503.750   15.256    0.209    0.327   70.971
  504.000   16.776    0.235    0.321   63.232
  504.250   17.755    0.229    0.321   63.302
  504.500   18.455    0.240    0.330   62.758
  504.750   18.841    0.253    0.321   60.402
  505.000   18.866    0.247    0.313   50.864
  505.250   17.896    0.226    0.313   65.324
  505.500   17.584    0.212    0.319   75.587
  505.750   16.673    0.214    0.327   73.231
  506.000   15.513    0.219    0.326   77.484
  506.250   14.709    0.219    0.326   82.950
  506.500   14.188    0.214    0.328   89.002
  506.750   13.453    0.208    0.333   89.058
  507.000   12.517    0.200    0.337   87.914
  507.250   12.090    0.195    0.337   85.600
  507.500   11.879    0.194    0.335   84.428
  507.750   12.127    0.202    0.331   81.500
  508.000   12.600    0.212    0.331   84.540
  508.250   13.347    0.208    0.327   86.395
  508.500   13.873    0.212    0.323   82.253
  508.750   13.910    0.208    0.324   88.919
  509.000   13.922    0.211    0.318   89.574
  509.250   13.947    0.210    0.311   77.024
  509.500   13.977    0.204    0.319   79.493
  509.750   14.002    0.206    0.328   83.746
  510.000   14.020    0.204    0.330   83.801
  510.250   14.051    0.210    0.331   82.686
  510.500   14.076    0.215    0.332   79.116
  510.750   14.910    0.220    0.328   74.975
  511.000   15.787    0.222    0.319   72.632
  511.250   17.027    0.225    0.328   69.690
  511.500   17.368    0.220    0.334   78.740
  511.750   17.398    0.219    0.337   82.993
  512.000   17.117    0.227    0.336   81.864
  512.250   16.826    0.217    0.332   84.918
