~VERSION INFORMATION
 VERS.                 2.0:   CWLS LOG ASCII STANDARD -VERSION 2.0
 WRAP.                  NO:   ONE LINE PER DEPTH STEP
~WELL INFORMATION BLOCK
#MNEM.UNIT           DATA                    DESCRIPTION OF MNEMONIC
#---------    -------------------            -------------------------------
# Generated from Intellog Unique Number	CS_69_70/WELL/772
WELL.         ALGAS MINERAL ENTERPRISES      : Well_name    - WELL
LOC .         00/06-20-069-16W4/0            : Location     - LOCATION
UWI .         00/06-20-069-16W4/0            : Uwi          - UNIQUE WELL ID
ENTR.         SP                             : Entered      - ENTERED BY
SRVC.         SCHLUMBERGER                   : Scn          - SERVICE COMPANY
STRT.M        283.464                        : top_depth    - START DEPTH
STOP.M        481.214                        : bot_depth    - STOP DEPTH
STEP.M        0.25                           : increment    - STEP LENGTH
 NULL. -999.2500:NULL Value
~CURVE INFORMATION BLOCK
#MNEM UNIT       ERCB CURVE CODE    CURVE DESCRIPTION
#-----------   ------------------   ----------------------------------
DEPT.M        00 001 00 00         : DEPTH        - DEPTH
GR  .API      00 310 00 00         : GR           - GAMMA RAY
DPHI.V/V      00 890 00 00         : PHID         - DENSITY POROSITY (SANDSTONE)
NPHI.V/V      00 330 00 00         : PHIN         - NEUTRON POROSITY (SANDSTONE)
ILD .OHMM     00 120 00 00         : RESD         - DEEP RESISTIVITY (DIL)
~PARAMETER INFORMATION
#MNEM.UNIT           DATA             DESCRIPTION OF MNEMONIC
#---------         -----------     ------------------------------
GL  .M        561.899              : gl           - GROUND LEVEL ELEVATION
EREF.M        565.252              : kb           - ELEVATION OF DEPTH REFERENCE
DATM.M        561.899              : datum        - DATUM ELEVATION
TDD .M        493.166              : tdd          - TOTAL DEPTH DRILLER
RUN .         ONE                  : Run          - RUN NUMBER
ENG .         BILL                 : Engineer     - RECORDING ENGINEER
WIT .         JIM                  : Witness      - WITNESSED BY
MUD .         GEL                  : Mud_type     - MUD TYPE
MATR.         SANDSTONE            : Logunit      - NEUTRON MATRIX
TMAX.C        25.5556              : BHT          - MAXIMUM RECORDED TEMPERATURE
BHTD.M        493.166              : BHTDEP       - MAXIMUM RECORDED TEMPERATURE
MATR.         1                    : LOGUNIT      - NEUTRON MATRIX
RMT .C        25                   : MDTP         - TEMPERATURE OF MUD
NEUT.         1                    : NEUTRON      - NEUTRON TYPE
RESI.         0                    : RESIST       - RESISTIVITY TYPE
RMC .OHMM     0.25                 : RMC          - RESISTIVITY OF MUD CAKE
RMF .OHMM     0.25                 : RMF          - RESISTIVITY OF MUD FILTRATE
SUFT.C        15                   : SUFT         - SURFACE TEMPERATURE
~A  DEPTH       GR     PHID     PHIN     RESD
# ...
  413.964  106.754    0.191    0.449    2.128
  414.214  107.124    0.182    0.450    2.229
  414.464  111.030    0.168    0.448    2.337
  414.714  113.950    0.160    0.429    2.432
  414.964  114.934    0.161    0.407    2.599
  415.214  110.974    0.154    0.398    2.893
  415.464  101.755    0.147    0.391    3.129
  415.714   95.736    0.133    0.379    3.405
  415.964   92.436    0.124    0.362    3.747
  416.214   93.518    0.123    0.343    3.986
  416.464   93.780    0.109    0.326    4.098
  416.714   91.698    0.127    0.249    4.123
  416.964   88.374    0.156    0.265    4.605
  417.214   88.016    0.184    0.297    4.942
  417.464   95.043    0.181    0.380    5.048
  417.714  100.821    0.175    0.414    4.231
  417.964  106.156    0.185    0.402    3.658
  418.214  109.924    0.185    0.391    3.217
  418.464  112.648    0.185    0.396    2.950
  418.714  113.935    0.187    0.408    2.897
  418.964  113.219    0.179    0.430    2.947
  419.214  111.691    0.173    0.439    3.088
  419.464  110.115    0.168    0.423    3.301
  419.714  111.187    0.164    0.437    3.583
  419.964  111.837    0.159    0.455    3.640
  420.214  110.053    0.160    0.445    3.783
  420.464  108.133    0.169    0.429    3.929
  420.714  106.855    0.171    0.423    4.037
  420.964  105.759    0.165    0.437    4.049
  421.214  104.691    0.162    0.465    3.950
  421.464  104.405    0.158    0.446    3.816
  421.714  104.285    0.155    0.430    3.729
  421.964  104.727    0.147    0.420    3.795
  422.214  105.197    0.143    0.411    3.803
  422.464  106.035    0.139    0.401    3.887
  422.714  106.950    0.141    0.403    3.851
  422.964  106.858    0.151    0.419    3.749
  423.214  106.241    0.158    0.435    3.654
  423.464  106.102    0.164    0.447    3.549
  423.714  106.425    0.156    0.457    3.441
  423.964  107.361    0.153    0.444    3.356
  424.214  108.452    0.158    0.452    3.282
  424.464  109.554    0.153    0.442    3.241
  424.714  110.498    0.147    0.433    3.236
  424.964  110.837    0.144    0.432    3.262
  425.214  110.233    0.144    0.423    3.275
  425.464  110.140    0.147    0.431    3.317
  425.714  109.987    0.155    0.446    3.326
  425.964  110.258    0.163    0.426    3.329
  426.214  110.921    0.165    0.402    3.357
  426.464  111.711    0.160    0.386    3.401
  426.714  112.078    0.158    0.378    3.481
  426.964  112.248    0.156    0.387    3.586
  427.214  112.051    0.155    0.395    3.704
  427.464  111.253    0.158    0.390    3.849
  427.714  109.860    0.177    0.387    3.934
  427.964  104.323    0.191    0.413    3.987
  428.214  106.960    0.198    0.432    3.980
  428.464  110.152    0.210    0.443    3.802
  428.714  109.287    0.219    0.454    3.446
  428.964  109.528    0.226    0.474    2.855
  429.214  111.357    0.232    0.501    2.310
  429.464  113.458    0.225    0.511    1.935
  429.714  115.203    0.212    0.489    1.678
  429.964  114.241    0.193    0.496    1.587
  430.214  112.236    0.173    0.479    1.590
  430.464  109.990    0.145    0.442    1.880
  430.714  105.358    0.127    0.403    2.336
  430.964   97.898    0.121    0.348    3.769
  431.214   90.401    0.137    0.317    5.112
  431.464   88.262    0.165    0.369    6.012
  431.714   93.386    0.175    0.396    6.287
  431.964   96.772    0.155    0.410    5.843
  432.214  100.148    0.130    0.407    5.127
  432.464  100.116    0.115    0.393    4.669
  432.714   98.188    0.105    0.374    4.809
  432.964   98.564    0.119    0.363    5.133
  433.214   97.376    0.141    0.360    5.478
  433.464   98.382    0.150    0.383    5.646
  433.714  100.711    0.157    0.417    5.364
  433.964  106.071    0.160    0.433    4.944
  434.214  109.029    0.165    0.438    4.720
  434.464  111.415    0.169    0.443    4.247
  434.714  111.934    0.165    0.463    3.719
  434.964  112.872    0.177    0.492    3.413
  435.214  113.123    0.184    0.484    3.223
  435.464  110.960    0.182    0.480    3.143
  435.714  111.054    0.177    0.484    3.078
  435.964  110.048    0.175    0.488    3.061
  436.214  108.389    0.177    0.485    3.028
  436.464  106.970    0.172    0.472    2.981
  436.714  106.236    0.174    0.462    2.948
  436.964  106.662    0.178    0.474    2.881
  437.214  109.010    0.182    0.482    2.813
  437.464  110.710    0.176    0.489    2.746
  437.714  112.344    0.169    0.495    2.699
  437.964  114.194    0.163    0.492    2.640
  438.214  115.574    0.159    0.474    2.601
  438.464  115.215    0.157    0.458    2.573
  438.714  111.461    0.171    0.454    2.554
  438.964  109.816    0.178    0.475    2.524
  439.214  110.884    0.176    0.492    2.488
  439.464  113.401    0.170    0.502    2.441
  439.714  111.642    0.173    0.505    2.405
  439.964  110.322    0.179    0.491    2.356
  440.214  110.436    0.185    0.481    2.279
  440.464  111.868    0.183    0.478    2.205
  440.714  114.885    0.185    0.498    2.161
  440.964  117.187    0.181    0.503    2.203
  441.214  118.688    0.173    0.488    2.318
  441.464  119.908    0.163    0.476    2.499
  441.714  119.687    0.158    0.465    2.684
  441.964  118.015    0.180    0.447    2.696
  442.214  118.165    0.200    0.436    2.626
  442.464  121.771    0.203    0.507    2.421
  442.714  126.263    0.198    0.490    2.161
  442.964  125.974    0.186    0.488    2.074
  443.214  124.563    0.167    0.467    2.100
  443.464  119.706    0.153    0.428    2.317
  443.714  112.200    0.145    0.386    2.638
  443.964  105.458    0.151    0.368    3.039
  444.214  100.640    0.140    0.362    3.596
  444.464   98.822    0.130    0.353    4.195
  444.714   96.745    0.115    0.342    5.054
  444.964   93.572    0.153    0.332    5.820
  445.214   90.463    0.180    0.335    6.644
  445.464   89.510    0.187    0.340    7.123
  445.714   89.568    0.187    0.339    7.508
  445.964   88.723    0.183    0.331    7.630
  446.214   87.654    0.182    0.326    7.646
  446.464   85.852    0.190    0.322    7.770
  446.714   83.622    0.200    0.315    8.195
  446.964   80.024    0.209    0.312    8.508
  447.214   77.189    0.216    0.311    9.020
  447.464   75.332    0.213    0.315    9.674
  447.714   76.973    0.207    0.320   10.355
  447.964   79.211    0.201    0.332   10.785
  448.214   80.333    0.197    0.342   11.119
  448.464   80.675    0.189    0.351   11.213
  448.714   80.239    0.178    0.360   10.982
  448.964   79.787    0.167    0.361   10.497
  449.214   79.704    0.161    0.359   10.034
  449.464   79.386    0.157    0.365   10.021
  449.714   79.742    0.153    0.381   10.014
  449.964   80.795    0.152    0.372    9.830
  450.214   82.335    0.154    0.365    9.511
  450.464   84.606    0.152    0.361    9.035
  450.714   87.200    0.149    0.358    8.659
  450.964   89.861    0.145    0.353    8.290
  451.214   91.430    0.142    0.351    7.906
  451.464   93.416    0.136    0.349    7.389
  451.714   94.948    0.132    0.355    7.009
  451.964   96.953    0.127    0.353    6.746
  452.214   98.854    0.130    0.344    6.541
  452.464  100.412    0.127    0.340    6.341
  452.714  102.129    0.132    0.345    6.256
  452.964  103.753    0.133    0.341    6.308
  453.214  104.718    0.127    0.331    6.622
  453.464  105.308    0.122    0.323    7.547
  453.714  103.902    0.128    0.313    8.328
  453.964   98.588    0.135    0.306    9.562
  454.214   90.412    0.126    0.299   10.420
  454.464   84.714    0.094    0.300   10.895
  454.714   88.435    0.060    0.291   11.205
  454.964   90.604    0.032    0.293   11.240
  455.214   91.521    0.013    0.285   11.901
  455.464   87.797    0.045    0.270   12.409
  455.714   82.351    0.077    0.260   12.945
  455.964   79.947    0.056    0.263   13.372
  456.214   78.390    0.022    0.252   13.623
  456.464   75.882    0.003    0.244   14.085
  456.714   71.066   -0.002    0.234   14.731
  456.964   65.218    0.011    0.229   15.461
  457.214   63.270    0.041    0.242   15.612
