~VERSION INFORMATION
 VERS.                 2.0:   CWLS LOG ASCII STANDARD -VERSION 2.0
 WRAP.                  NO:   ONE LINE PER DEPTH STEP
~WELL INFORMATION BLOCK
#MNEM.UNIT           DATA                    DESCRIPTION OF MNEMONIC
#---------    -------------------            -------------------------------
# Generated from Intellog Unique Number	CS_77_79/WELL/849
WELL.         ICGR LOCHIEL GRAHAM            : Well_name    - WELL
LOC .         00/03-34-078-05W4/0            : Location     - LOCATION
UWI .         00/03-34-078-05W4/0            : Uwi          - UNIQUE WELL ID
ENTR.         JHS                            : Entered      - ENTERED BY
SRVC.         SCHLUMBERGER                   : Scn          - SERVICE COMPANY
STRT.M        100                            : top_depth    - START DEPTH
STOP.M        360                            : bot_depth    - STOP DEPTH
STEP.M        0.25                           : increment    - STEP LENGTH
 NULL. -999.2500:NULL Value
~CURVE INFORMATION BLOCK
#MNEM UNIT       ERCB CURVE CODE    CURVE DESCRIPTION
#-----------   ------------------   ----------------------------------
DEPT.M        00 001 00 00         : DEPTH        - DEPTH
DPHI.V/V      00 890 00 00         : PHID         - DENSITY POROSITY (LIMESTONE)
NPHI.V/V      00 330 00 00         : PHIN         - NEUTRON POROSITY (LIMESTONE)
GR  .API      00 310 00 00         : GR           - GAMMA RAY
ILD .OHMM     00 120 00 00         : RESD         - DEEP RESISTIVITY (DIL)
RHOB.KG/M3    00 350 00 00         : DENS         - BULK DENSITY
~PARAMETER INFORMATION
#MNEM.UNIT           DATA             DESCRIPTION OF MNEMONIC
#---------         -----------     ------------------------------
GL  .M        528.9                : gl           - GROUND LEVEL ELEVATION
EREF.M        532.4                : kb           - ELEVATION OF DEPTH REFERENCE
DATM.M        532.4                : datum        - DATUM ELEVATION
TDD .M        367                  : tdd          - TOTAL DEPTH DRILLER
RUN .         ONE                  : Run          - RUN NUMBER
ENG .         BILL                 : Engineer     - RECORDING ENGINEER
WIT .         JIM                  : Witness      - WITNESSED BY
MUD .         GEL                  : Mud_type     - MUD TYPE
MATR.         LIMESTONE            : Logunit      - NEUTRON MATRIX
TMAX.C        17.2                 : BHT          - MAXIMUM RECORDED TEMPERATURE
BHTD.M        367                  : BHTDEP       - MAXIMUM RECORDED TEMPERATURE
MATR.         1                    : LOGUNIT      - NEUTRON MATRIX
RMT .C        25                   : MDTP         - TEMPERATURE OF MUD
NEUT.         1                    : NEUTRON      - NEUTRON TYPE
RESI.         0                    : RESIST       - RESISTIVITY TYPE
RMC .OHMM     0.25                 : RMC          - RESISTIVITY OF MUD CAKE
RMF .OHMM     0.25                 : RMF          - RESISTIVITY OF MUD FILTRATE
SUFT.C        15                   : SUFT         - SURFACE TEMPERATURE
~A  DEPTH     PHID     PHIN       GR     RESD     DENS
# ...
  173.000    0.217    0.445  108.918   11.314    0.000
  173.250    0.272    0.437  105.904   11.973    0.000
  173.500    0.283    0.424   99.218   12.680    0.000
  173.750    0.261    0.427   94.366   12.930    0.000
  174.000    0.242    0.428   98.055   12.947    0.000
  174.250    0.233    0.418   99.297   12.273    0.000
  174.500    0.221    0.430  103.592   11.205    0.000
  174.750    0.215    0.455  113.374   10.421    0.000
  175.000    0.216    0.451  120.107   10.057    0.000
  175.250    0.219    0.452  118.915    9.707    0.000
  175.500    0.217    0.464  116.499    9.549    0.000
  175.750    0.213    0.485  115.915    9.558    0.000
  176.000    0.212    0.502  114.117    9.575    0.000
  176.250    0.221    0.500  109.264    9.411    0.000
  176.500    0.227    0.489  111.138    9.429    0.000
  176.750    0.233    0.479  110.540    9.614    0.000
  177.000    0.259    0.469  105.075   10.179    0.000
  177.250    0.281    0.462   95.348   11.178    0.000
  177.500    0.287    0.446   92.322   12.052    0.000
  177.750    0.281    0.442   99.056   12.525    0.000
  178.000    0.272    0.449  104.570   12.783    0.000
  178.250    0.268    0.441  108.863   12.796    0.000
  178.500    0.261    0.452   99.744   13.062    0.000
  178.750    0.249    0.451   88.800   13.080    0.000
  179.000    0.239    0.436   92.481   13.336    0.000
  179.250    0.221    0.440  105.920   13.113    0.000
  179.500    0.210    0.482  116.923   12.891    0.000
  179.750    0.209    0.501  117.568   12.215    0.000
  180.000    0.218    0.481  112.101   11.573    0.000
  180.250    0.237    0.457  101.761   11.378    0.000
  180.500    0.306    0.435   85.325   11.187    0.000
  180.750    0.325    0.452   65.840   11.419    0.000
  181.000    0.340    0.437   57.951   11.642    0.000
  181.250    0.312    0.419   58.583   12.791    0.000
  181.500    0.315    0.433   62.267   13.794    0.000
  181.750    0.317    0.445   61.684   14.601    0.000
  182.000    0.301    0.438   59.876   14.897    0.000
  182.250    0.289    0.430   69.661   14.370    0.000
  182.500    0.269    0.428   75.779   12.882    0.000
  182.750    0.246    0.421   83.733   11.553    0.000
  183.000    0.222    0.468   86.813   10.550    0.000
  183.250    0.193    0.499   81.347    9.812    0.000
  183.500    0.152    0.452   80.154    9.125    0.000
  183.750    0.132    0.429   92.374    8.181    0.000
  184.000    0.158    0.502  103.375    7.470    0.000
  184.250    0.215    0.521  107.671    7.765    0.000
  184.500    0.245    0.483  105.873    8.217    0.000
  184.750    0.257    0.463  102.234    9.024    0.000
  185.000    0.260    0.447   94.945   10.672    0.000
  185.250    0.254    0.440   94.371   11.938    0.000
  185.500    0.264    0.436   98.657   13.611    0.000
  185.750    0.276    0.430   90.758   14.140    0.000
  186.000    0.265    0.420   81.030   14.424    0.000
  186.250    0.243    0.425   89.594   13.421    0.000
  186.500    0.225    0.449   91.446   13.190    0.000
  186.750    0.238    0.430   84.767   12.970    0.000
  187.000    0.238    0.421   74.428   13.228    0.000
  187.250    0.232    0.430   64.700   14.006    0.000
  187.500    0.239    0.427   67.781   15.105    0.000
  187.750    0.251    0.424   71.458   15.695    0.000
  188.000    0.262    0.427   75.143   16.009    0.000
  188.250    0.268    0.416   74.559   16.037    0.000
  188.500    0.269    0.405   71.541   15.194    0.000
  188.750    0.258    0.403   73.396   14.661    0.000
  189.000    0.244    0.449   77.694   13.889    0.000
  189.250    0.243    0.438   78.325   13.921    0.000
  189.500    0.263    0.415   75.305   14.193    0.000
  189.750    0.270    0.423   72.894   14.488    0.000
  190.000    0.271    0.410   71.092   14.502    0.000
  190.250    0.247    0.403   69.291   14.805    0.000
  190.500    0.235    0.403   68.700   14.824    0.000
  190.750    0.229    0.398   72.997   14.839    0.000
  191.000    0.231    0.406   76.067   14.583    0.000
  191.250    0.246    0.400   75.491   14.341    0.000
  191.500    0.243    0.401   76.734   13.848    0.000
  191.750    0.237    0.409   78.588   13.605    0.000
  192.000    0.243    0.415   78.617   12.896    0.000
  192.250    0.243    0.430   81.079   12.446    0.000
  192.500    0.235    0.421   84.763   12.239    0.000
  192.750    0.229    0.413   86.623   11.813    0.000
  193.000    0.230    0.402   81.770   11.608    0.000
  193.250    0.226    0.409   81.183   11.003    0.000
  193.500    0.238    0.421   83.043   11.222    0.000
  193.750    0.252    0.408   84.904   11.452    0.000
  194.000    0.238    0.402   84.920   11.261    0.000
  194.250    0.231    0.416   86.169   10.868    0.000
  194.500    0.226    0.416   89.245   10.679    0.000
  194.750    0.218    0.402   92.318   10.501    0.000
  195.000    0.217    0.403   95.397   10.137    0.000
  195.250    0.226    0.411   91.766    9.968    0.000
  195.500    0.226    0.428   88.743    9.976    0.000
  195.750    0.225    0.435   91.814    9.994    0.000
  196.000    0.233    0.424   95.501   10.009    0.000
  196.250    0.235    0.428   91.260   10.021    0.000
  196.500    0.227    0.433   91.890    9.858    0.000
  196.750    0.220    0.432   94.974    9.517    0.000
  197.000    0.225    0.426   92.555    9.523    0.000
  197.250    0.225    0.421   93.197    9.193    0.000
  197.500    0.219    0.436   95.659    8.711    0.000
  197.750    0.219    0.461   96.907    8.408    0.000
  198.000    0.219    0.450   96.926    8.265    0.000
  198.250    0.213    0.438   98.179    7.976    0.000
  198.500    0.210    0.445   98.810    7.841    0.000
  198.750    0.216    0.481   95.182    7.569    0.000
  199.000    0.231    0.510   87.280    7.722    0.000
  199.250    0.278    0.481   69.016    8.327    0.000
  199.500    0.323    0.458   57.458    9.667    0.000
  199.750    0.325    0.441   50.776   11.018    0.000
  200.000    0.312    0.421   48.367   12.787    0.000
  200.250    0.305    0.406   52.659   14.573    0.000
  200.500    0.330    0.421   55.735   15.717    0.000
  200.750    0.339    0.438   54.542   15.741    0.000
  201.000    0.336    0.435   57.615   15.482    0.000
  201.250    0.336    0.422   61.908   15.496    0.000
  201.500    0.336    0.419   61.942   14.963    0.000
  201.750    0.335    0.422   61.353   14.984    0.000
  202.000    0.330    0.447   59.554   15.001    0.000
  202.250    0.331    0.449   56.529   15.026    0.000
  202.500    0.336    0.431   55.945   15.342    0.000
  202.750    0.337    0.430   60.242   15.357    0.000
  203.000    0.337    0.446   62.093   15.655    0.000
  203.250    0.331    0.459   59.074   16.575    0.000
  203.500    0.248    0.402   53.009   17.875    0.000
  203.750    0.225    0.372   53.030   19.269    0.000
  204.000    0.228    0.344   59.161   20.393    0.000
  204.250    0.313    0.351   60.401   19.324    0.000
  204.500    0.319    0.419   62.256   16.703    0.000
  204.750    0.309    0.461   65.941   14.424    0.000
  205.000    0.266    0.447   72.061   11.155    0.000
  205.250    0.220    0.447   89.160    8.786    0.000
  205.500    0.206    0.455   99.549    6.549    0.000
  205.750    0.200    0.475  103.233    5.658    0.000
  206.000    0.194    0.483  103.260    5.167    0.000
  206.250    0.195    0.495  101.458    4.549    0.000
  206.500    0.227    0.511  106.361    4.473    0.000
  206.750    0.241    0.518  111.874    4.477    0.000
  207.000    0.241    0.516  108.860    4.828    0.000
  207.250    0.240    0.506  101.564    5.206    0.000
  207.500    0.234    0.498   90.617    5.613    0.000
  207.750    0.232    0.490   89.427    5.726    0.000
  208.000    0.244    0.495   91.282    5.327    0.000
  208.250    0.247    0.497   94.970    4.775    0.000
  208.500    0.215    0.500   96.820    4.050    0.000
  208.750    0.197    0.490   96.849    3.908    0.000
  209.000    0.188    0.489   96.259    4.064    0.000
  209.250    0.221    0.502   99.338    4.142    0.000
