~VERSION INFORMATION
 VERS.                 2.0:   CWLS LOG ASCII STANDARD -VERSION 2.0
 WRAP.                  NO:   ONE LINE PER DEPTH STEP
~WELL INFORMATION BLOCK
#MNEM.UNIT           DATA                    DESCRIPTION OF MNEMONIC
#---------    -------------------            -------------------------------
# Generated from Intellog Unique Number	CS_73_76/WELL/2107
WELL.         W.W. BECKER OIL & GAS LTD      : Well_name    - WELL
LOC .         00/07-12-075-13W4/0            : Location     - LOCATION
UWI .         00/07-12-075-13W4/0            : Uwi          - UNIQUE WELL ID
ENTR.         SP                             : Entered      - ENTERED BY
SRVC.         SCHLUMBERGER                   : Scn          - SERVICE COMPANY
STRT.M        313.944                        : top_depth    - START DEPTH
STOP.M        530.194                        : bot_depth    - STOP DEPTH
STEP.M        0.25                           : increment    - STEP LENGTH
 NULL. -999.2500:NULL Value
~CURVE INFORMATION BLOCK
#MNEM UNIT       ERCB CURVE CODE    CURVE DESCRIPTION
#-----------   ------------------   ----------------------------------
DEPT.M        00 001 00 00         : DEPTH        - DEPTH
GR  .API      00 310 00 00         : GR           - GAMMA RAY
DPHI.V/V      00 890 00 00         : PHID         - DENSITY POROSITY (SANDSTONE)
NPHI.V/V      00 330 00 00         : PHIN         - NEUTRON POROSITY (SANDSTONE)
ILD .OHMM     00 120 00 00         : RESD         - DEEP RESISTIVITY (DIL)
~PARAMETER INFORMATION
#MNEM.UNIT           DATA             DESCRIPTION OF MNEMONIC
#---------         -----------     ------------------------------
GL  .M        682.021              : gl           - GROUND LEVEL ELEVATION
EREF.M        685.19               : kb           - ELEVATION OF DEPTH REFERENCE
DATM.M        682.021              : datum        - DATUM ELEVATION
TDD .M        533.4                : tdd          - TOTAL DEPTH DRILLER
RUN .         ONE                  : Run          - RUN NUMBER
ENG .         BILL                 : Engineer     - RECORDING ENGINEER
WIT .         JIM                  : Witness      - WITNESSED BY
MUD .         GEL                  : Mud_type     - MUD TYPE
MATR.         SANDSTONE            : Logunit      - NEUTRON MATRIX
TMAX.C        18.8889              : BHT          - MAXIMUM RECORDED TEMPERATURE
BHTD.M        554.126              : BHTDEP       - MAXIMUM RECORDED TEMPERATURE
MATR.         1                    : LOGUNIT      - NEUTRON MATRIX
RMT .C        25                   : MDTP         - TEMPERATURE OF MUD
NEUT.         1                    : NEUTRON      - NEUTRON TYPE
RESI.         0                    : RESIST       - RESISTIVITY TYPE
RMC .OHMM     0.25                 : RMC          - RESISTIVITY OF MUD CAKE
RMF .OHMM     0.25                 : RMF          - RESISTIVITY OF MUD FILTRATE
SUFT.C        15                   : SUFT         - SURFACE TEMPERATURE
~A  DEPTH       GR     PHID     PHIN     RESD
# ...
  444.444   44.503    0.206    0.384    8.617
  444.694   43.557    0.102    0.259   10.537
  444.944   42.505    0.068    0.231   12.060
  445.194   42.223    0.054    0.227   11.660
  445.444   41.684    0.058    0.256   10.507
  445.694   41.649    0.086    0.293    8.095
  445.944   42.359    0.177    0.354    6.509
  446.194   42.697    0.246    0.401    5.785
  446.444   44.350    0.293    0.442    4.952
  446.694   46.636    0.303    0.470    4.695
  446.944   47.008    0.299    0.491    4.554
  447.194   47.196    0.308    0.506    4.560
  447.444   47.252    0.316    0.497    4.617
  447.694   46.596    0.308    0.489    4.707
  447.944   46.715    0.301    0.481    4.808
  448.194   48.305    0.304    0.472    4.801
  448.444   50.042    0.310    0.476    4.803
  448.694   50.952    0.303    0.476    4.805
  448.944   50.958    0.295    0.469    4.818
  449.194   49.990    0.302    0.469    4.751
  449.444   49.707    0.304    0.469    4.815
  449.694   48.350    0.290    0.464    4.971
  449.944   45.795    0.280    0.463    5.097
  450.194   44.283    0.269    0.472    5.192
  450.444   41.047    0.182    0.419    5.299
  450.694   42.365    0.094    0.303    5.302
  450.944   45.948    0.214    0.294    5.204
  451.194   48.776    0.261    0.336    5.149
  451.444   49.186    0.275    0.381    5.111
  451.694   48.655    0.281    0.442    5.110
  451.944   48.558    0.277    0.474    5.103
  452.194   49.289    0.266    0.473    5.217
  452.444   50.281    0.249    0.468    5.213
  452.694   51.273    0.248    0.463    5.223
  452.944   52.271    0.283    0.471    5.119
  453.194   52.694    0.297    0.479    5.135
  453.444   52.858    0.305    0.476    5.020
  453.694   52.905    0.314    0.469    5.036
  453.944   52.170    0.305    0.463    4.935
  454.194   52.904    0.297    0.458    4.944
  454.444   54.008    0.289    0.459    4.947
  454.694   55.374    0.280    0.465    4.950
  454.944   56.687    0.273    0.476    4.954
  455.194   57.164    0.282    0.487    4.884
  455.444   57.954    0.285    0.494    4.768
  455.694   61.077    0.278    0.487    4.777
  455.944   63.197    0.270    0.466    4.766
  456.194   63.057    0.256    0.456    5.046
  456.444   59.642    0.245    0.462    5.254
  456.694   57.574    0.246    0.461    5.634
  456.944   53.149    0.257    0.464    5.981
  457.194   49.403    0.250    0.469    6.334
  457.444   49.089    0.241    0.472    6.600
  457.694   49.492    0.240    0.467    6.840
  457.944   49.458    0.237    0.454    6.848
  458.194   49.048    0.247    0.445    6.722
  458.444   49.434    0.254    0.439    6.437
  458.694   49.842    0.259    0.447    6.044
  458.944   50.927    0.241    0.454    5.992
  459.194   51.255    0.236    0.459    5.683
  459.444   52.272    0.253    0.459    5.616
  459.694   53.101    0.258    0.449    5.579
  459.944   53.672    0.261    0.445    5.192
  460.194   53.972    0.264    0.441    5.196
  460.444   53.829    0.276    0.444    5.191
  460.694   54.898    0.285    0.455    5.200
  460.944   54.985    0.278    0.463    5.102
  461.194   54.264    0.265    0.472    5.003
  461.444   54.898    0.263    0.479    4.931
  461.694   55.494    0.269    0.475    4.880
  461.944   56.168    0.257    0.469    4.827
  462.194   56.179    0.257    0.466    4.739
  462.444   55.971    0.262    0.476    4.747
  462.694   55.594    0.261    0.466    4.749
  462.944   54.930    0.259    0.468    4.890
  463.194   54.777    0.253    0.472    5.150
  463.444   52.075    0.218    0.456    5.498
  463.694   50.144    0.157    0.430    5.907
  463.944   48.514    0.113    0.379    6.223
  464.194   52.264    0.136    0.359    6.300
  464.444   55.802    0.190    0.382    6.264
  464.694   56.979    0.221    0.418    5.930
  464.944   57.459    0.212    0.460    5.573
  465.194   58.174    0.207    0.475    5.386
  465.444   58.117    0.218    0.467    5.333
  465.694   58.170    0.214    0.457    5.299
  465.944   57.299    0.210    0.464    5.477
  466.194   56.324    0.217    0.466    5.652
  466.444   55.720    0.229    0.455    5.830
  466.694   56.061    0.212    0.444    6.021
  466.944   59.199    0.198    0.448    6.096
  467.194   61.556    0.195    0.442    6.229
  467.444   63.153    0.189    0.433    6.224
  467.694   62.509    0.199    0.440    6.133
  467.944   62.469    0.211    0.432    6.001
  468.194   62.485    0.210    0.430    5.885
  468.444   63.591    0.193    0.438    5.809
  468.694   63.892    0.197    0.454    5.790
  468.944   64.295    0.205    0.456    5.789
  469.194   64.303    0.206    0.447    5.793
  469.444   64.282    0.202    0.448    5.818
  469.694   64.884    0.199    0.442    6.011
  469.944   65.566    0.187    0.428    6.142
  470.194   65.456    0.192    0.420    6.140
  470.444   64.422    0.199    0.426    6.043
  470.694   63.492    0.207    0.434    5.866
  470.944   61.788    0.200    0.439    5.549
  471.194   60.910    0.195    0.433    5.209
  471.444   59.198    0.192    0.435    5.061
  471.694   58.285    0.208    0.445    4.912
  471.944   58.391    0.204    0.447    4.696
  472.194   57.732    0.182    0.435    4.498
  472.444   60.140    0.190    0.444    4.012
  472.694   61.577    0.205    0.454    3.312
  472.944   60.123    0.224    0.464    3.004
  473.194   59.039    0.235    0.474    2.531
  473.444   58.966    0.251    0.514    2.264
  473.694   58.781    0.257    0.559    2.080
  473.944   57.737    0.246    0.588    1.987
  474.194   58.005    0.238    0.579    1.963
  474.444   59.053    0.241    0.571    1.943
  474.694   60.553    0.238    0.574    1.973
  474.944   61.653    0.223    0.574    1.980
  475.194   62.673    0.229    0.583    1.982
  475.444   63.093    0.232    0.564    2.011
  475.694   63.263    0.241    0.545    2.032
  475.944   63.304    0.244    0.536    2.060
  476.194   61.953    0.236    0.528    2.242
  476.444   60.774    0.219    0.533    2.498
  476.694   59.237    0.204    0.528    2.962
  476.944   57.769    0.192    0.506    3.503
  477.194   57.851    0.181    0.486    3.853
  477.444   58.322    0.186    0.444    4.315
  477.694   58.917    0.191    0.446    4.549
  477.944   57.819    0.181    0.456    4.796
  478.194   55.816    0.153    0.474    4.952
  478.444   54.098    0.080    0.449    5.112
  478.694   55.487    0.061    0.397    5.169
  478.944   58.212    0.126    0.405    5.136
  479.194   59.460    0.170    0.424    4.763
  479.444   60.936    0.189    0.436    4.558
  479.694   61.832    0.186    0.450    4.290
  479.944   59.620    0.189    0.459    4.050
  480.194   59.800    0.199    0.465    3.804
  480.444   59.812    0.210    0.468    3.683
  480.694   59.861    0.186    0.465    3.494
  480.944   60.402    0.182    0.474    3.396
  481.194   61.311    0.194    0.479    3.312
  481.444   62.299    0.199    0.484    3.317
  481.694   63.888    0.199    0.488    3.262
  481.944   65.792    0.189    0.494    3.193
  482.194   66.527    0.175    0.499    3.202
  482.444   66.158    0.162    0.502    3.203
  482.694   65.952    0.146    0.484    3.204
  482.944   65.929    0.138    0.498    3.211
  483.194   65.590    0.155    0.524    3.150
  483.444   65.195    0.168    0.540    3.089
  483.694   64.103    0.171    0.538    3.044
  483.944   64.361    0.161    0.515    3.014
  484.194   65.422    0.165    0.500    2.984
  484.444   66.510    0.183    0.493    2.977
  484.694   65.514    0.201    0.505    3.044
  484.944   64.168    0.201    0.516    3.101
  485.194   62.593    0.187    0.512    3.247
  485.444   60.894    0.176    0.523    3.305
  485.694   60.532    0.164    0.533    3.529
  485.944   61.150    0.150    0.492    3.735
  486.194   61.762    0.145    0.467    4.145
  486.444   60.654    0.156    0.454    4.320
  486.694   59.447    0.160    0.467    4.517
  486.944   57.460    0.146    0.477    4.721
  487.194   56.345    0.131    0.485    4.945
  487.444   57.816    0.115    0.489    5.076
  487.694   60.097    0.103    0.466    4.966
