~VERSION INFORMATION
 VERS.                 2.0:   CWLS LOG ASCII STANDARD -VERSION 2.0
 WRAP.                  NO:   ONE LINE PER DEPTH STEP
~WELL INFORMATION BLOCK
#MNEM.UNIT           DATA                    DESCRIPTION OF MNEMONIC
#---------    -------------------            -------------------------------
# Generated from Intellog Unique Number	CS_67_68/WELL/2181
WELL.         07-34-067-08W4                 : Well_name    - WELL
LOC .         00/07-34-067-08W4/0            : Location     - LOCATION
UWI .         00/07-34-067-08W4/0            : Uwi          - UNIQUE WELL ID
ENTR.         SP                             : Entered      - ENTERED BY
SRVC.         SCHLUMBERGER                   : Scn          - SERVICE COMPANY
STRT.M        340                            : top_depth    - START DEPTH
STOP.M        563                            : bot_depth    - STOP DEPTH
STEP.M        0.25                           : increment    - STEP LENGTH
 NULL. -999.2500:NULL Value
~CURVE INFORMATION BLOCK
#MNEM UNIT       ERCB CURVE CODE    CURVE DESCRIPTION
#-----------   ------------------   ----------------------------------
DEPT.M        00 001 00 00         : DEPTH        - DEPTH
ILD .OHMM     00 120 00 00         : RESD         - DEEP RESISTIVITY (DIL)
DPHI.V/V      00 890 00 00         : PHID         - DENSITY POROSITY (LIMESTONE)
NPHI.V/V      00 330 00 00         : PHIN         - NEUTRON POROSITY (LIMESTONE)
GR  .API      00 310 00 00         : GR           - GAMMA RAY
CALI.MM       00 280 01 00         : CAL          - CALIPER
~PARAMETER INFORMATION
#MNEM.UNIT           DATA             DESCRIPTION OF MNEMONIC
#---------         -----------     ------------------------------
GL  .M        644.13               : gl           - GROUND LEVEL ELEVATION
EREF.M        648.68               : kb           - ELEVATION OF DEPTH REFERENCE
DATM.M        648.68               : datum        - DATUM ELEVATION
TDD .M        572                  : tdd          - TOTAL DEPTH DRILLER
RUN .         ONE                  : Run          - RUN NUMBER
ENG .         BILL                 : Engineer     - RECORDING ENGINEER
WIT .         JIM                  : Witness      - WITNESSED BY
MUD .         GEL                  : Mud_type     - MUD TYPE
MATR.         LIMESTONE            : Logunit      - NEUTRON MATRIX
TMAX.C        23                   : BHT          - MAXIMUM RECORDED TEMPERATURE
BHTD.M        571                  : BHTDEP       - MAXIMUM RECORDED TEMPERATURE
MATR.         1                    : LOGUNIT      - NEUTRON MATRIX
RMT .C        25                   : MDTP         - TEMPERATURE OF MUD
NEUT.         1                    : NEUTRON      - NEUTRON TYPE
RESI.         0                    : RESIST       - RESISTIVITY TYPE
RMC .OHMM     0.25                 : RMC          - RESISTIVITY OF MUD CAKE
RMF .OHMM     0.25                 : RMF          - RESISTIVITY OF MUD FILTRATE
SUFT.C        15                   : SUFT         - SURFACE TEMPERATURE
~A  DEPTH     RESD     PHID     PHIN       GR      CAL
# ...
  449.500    3.819    0.316    0.524   72.297  206.947
  449.750    3.952    0.308    0.517   71.123  205.520
  450.000    3.938    0.304    0.491   73.450  206.959
  450.250    3.659    0.299    0.475   72.030  207.699
  450.500    3.129    0.288    0.464   76.013  208.915
  450.750    2.426    0.274    0.482   79.506  211.155
  451.000    1.497    0.256    0.505   82.384  215.541
  451.250    1.302    0.250    0.515   83.729  218.805
  451.500    1.126    0.314    0.502   82.801  222.273
  451.750    1.037    0.304    0.494   80.890  226.456
  452.000    1.183    0.282    0.498   80.331  229.003
  452.250    1.424    0.263    0.512   81.919  227.867
  452.500    1.810    0.250    0.534   82.894  221.816
  452.750    2.187    0.267    0.508   83.441  217.609
  453.000    2.677    0.275    0.491   83.127  215.346
  453.250    3.061    0.250    0.498   81.339  215.232
  453.500    3.390    0.247    0.487   80.043  215.425
  453.750    3.692    0.257    0.485   83.043  215.515
  454.000    3.893    0.262    0.508   84.939  215.300
  454.250    4.021    0.260    0.526   85.424  215.081
  454.500    4.130    0.253    0.517   85.785  215.888
  454.750    4.138    0.251    0.494   86.208  217.514
  455.000    4.147    0.257    0.475   86.201  218.629
  455.250    4.203    0.248    0.483   85.948  219.333
  455.500    4.276    0.242    0.507   85.512  220.547
  455.750    4.096    0.242    0.529   85.074  221.356
  456.000    3.806    0.273    0.536   84.761  223.594
  456.250    3.393    0.335    0.507   83.342  226.244
  456.500    2.968    0.378    0.519   82.598  229.712
  456.750    2.557    0.382    0.556   83.082  235.223
  457.000    2.237    0.359    0.601   85.592  238.591
  457.250    2.056    0.358    0.617   85.708  244.720
  457.500    1.950    0.366    0.590   86.130  248.392
  457.750    1.900    0.368    0.585   88.518  248.482
  458.000    1.875    0.366    0.588   91.150  244.070
  458.250    1.901    0.356    0.597   92.003  234.030
  458.500    1.952    0.338    0.610   91.996  227.776
  458.750    2.009    0.323    0.601   89.964  228.173
  459.000    2.078    0.325    0.582   86.088  235.017
  459.250    2.118    0.329    0.562   85.345  240.735
  459.500    2.135    0.328    0.562   85.153  244.102
  459.750    2.136    0.320    0.575   85.085  238.973
  460.000    2.124    0.326    0.560   84.709  238.857
  460.250    2.177    0.334    0.549   83.412  240.995
  460.500    2.279    0.341    0.561   81.686  241.906
  460.750    2.407    0.329    0.542   81.127  240.256
  461.000    2.621    0.323    0.486   84.128  235.538
  461.250    2.849    0.333    0.460   83.630  227.850
  461.500    3.085    0.335    0.455   78.588  223.438
  461.750    3.372    0.314    0.433   72.564  220.765
  462.000    3.658    0.298    0.416   72.311  218.606
  462.250    3.923    0.288    0.400   74.760  215.320
  462.500    4.090    0.281    0.440   77.393  213.158
  462.750    4.233    0.255    0.466   78.307  213.654
  463.000    4.438    0.152    0.453   68.169  214.361
  463.250    4.733    0.107    0.430   62.391  215.168
  463.500    5.010    0.082    0.427   67.296  216.078
  463.750    4.993    0.102    0.448   72.016  217.193
  464.000    4.827    0.144    0.460   76.552  217.691
  464.250    4.571    0.170    0.470   80.168  217.372
  464.500    4.256    0.204    0.373   73.222  217.463
  464.750    4.379    0.208    0.314   67.137  217.657
  465.000    4.732    0.077    0.383   63.016  217.952
  465.250    5.192    0.075    0.420   69.333  218.349
  465.500    5.485    0.154    0.453   75.467  218.337
  465.750    5.774    0.175    0.474   81.230  218.428
  466.000    5.603    0.197    0.469   81.960  219.338
  466.250    5.226    0.203    0.478   79.743  220.553
  466.500    4.811    0.200    0.463   79.981  222.485
  466.750    4.513    0.241    0.455   83.474  223.805
  467.000    4.306    0.241    0.458   85.002  226.453
  467.250    4.132    0.238    0.467   82.355  231.046
  467.500    4.063    0.285    0.477   79.892  239.835
  467.750    4.026    0.317    0.490   79.946  248.830
  468.000    4.050    0.346    0.477   82.026  260.789
  468.250    4.082    0.338    0.438   84.475  263.439
  468.500    4.121    0.265    0.420   85.819  238.458
  468.750    4.169    0.249    0.430   85.014  221.868
  469.000    4.202    0.236    0.447   82.981  215.614
  469.250    4.226    0.257    0.455   79.780  219.287
  469.500    4.300    0.282    0.457   79.406  227.155
  469.750    4.526    0.260    0.463   80.381  231.133
  470.000    4.817    0.178    0.479   76.382  223.037
  470.250    5.316    0.123    0.296   68.025  213.304
  470.500    5.777    0.092    0.281   55.493  210.222
  470.750    6.255    0.078    0.321   58.433  209.597
  471.000    6.522    0.164    0.399   62.478  208.562
  471.250    6.561    0.214    0.439   66.646  208.140
  471.500    6.260    0.260    0.451   68.850  208.229
  471.750    5.751    0.269    0.447   71.912  208.218
  472.000    5.324    0.260    0.460   76.386  207.693
  472.250    5.157    0.261    0.474   79.450  207.274
  472.500    5.449    0.278    0.474   73.058  207.465
  472.750    5.746    0.290    0.457   62.981  207.659
  473.000    6.014    0.291    0.437   67.885  208.159
  473.250    6.106    0.274    0.469   70.949  208.557
  473.500    6.367    0.259    0.497   63.574  209.774
  473.750    7.676    0.246    0.501   53.497  211.195
  474.000    9.630    0.168    0.198   47.781  212.000
  474.250   10.910    0.058    0.194   46.730  212.398
  474.500   12.337    0.028    0.235   54.949  213.614
  474.750   13.009    0.106    0.434   62.372  214.218
  475.000   12.507    0.180    0.451   71.328  214.410
  475.250   10.696    0.212    0.440   75.006  214.295
  475.500    9.321    0.244    0.428   71.990  214.181
  475.750    8.216    0.197    0.426   68.237  214.170
  476.000    7.120    0.153    0.430   65.775  214.465
  476.250    6.456    0.222    0.436   68.284  214.453
  476.500    5.799    0.255    0.435   71.410  214.439
  476.750    5.368    0.287    0.452   77.665  214.735
  477.000    4.951    0.263    0.464   82.508  215.032
  477.250    4.706    0.248    0.477   81.273  215.326
  477.500    4.431    0.267    0.451   78.503  215.111
  477.750    4.157    0.267    0.433   79.663  214.895
  478.000    3.678    0.256    0.422   78.735  215.394
  478.250    3.080    0.249    0.474   74.000  217.532
  478.500    2.244    0.307    0.546   69.879  221.716
  478.750    1.937    0.359    0.587   68.337  228.047
  479.000    1.704    0.355    0.612   67.778  233.560
  479.250    1.605    0.351    0.596   65.806  236.313
  479.500    1.543    0.374    0.582   64.878  239.472
  479.750    1.489    0.387    0.572   64.871  240.691
  480.000    1.461    0.371    0.569   66.398  238.017
  480.250    1.440    0.354    0.581   66.698  239.131
  480.500    1.454    0.387    0.594   65.709  231.751
  480.750    1.499    0.402    0.580   68.833  225.497
  481.000    1.607    0.393    0.568   72.080  220.267
  481.250    1.731    0.367    0.557   74.222  216.059
  481.500    1.867    0.341    0.548   74.276  214.820
  481.750    1.968    0.320    0.529   74.270  214.399
  482.000    2.076    0.307    0.502   75.552  215.205
  482.250    2.185    0.293    0.514   77.755  215.808
  482.500    2.287    0.296    0.511   75.476  214.158
  482.750    2.322    0.286    0.482   70.250  212.201
  483.000    2.228    0.266    0.528   70.857  210.756
  483.250    2.118    0.263    0.559   76.069  209.824
  483.500    1.990    0.286    0.546   80.851  210.631
  483.750    1.798    0.295    0.532   82.747  212.156
  484.000    1.621    0.288    0.542   87.528  213.985
  484.250    1.442    0.287    0.559   90.899  215.713
  484.500    1.366    0.289    0.572   92.059  216.827
  484.750    1.338    0.286    0.567   92.174  216.199
  485.000    1.341    0.285    0.561   89.956  214.859
  485.250    1.329    0.288    0.570   83.442  213.211
  485.500    1.314    0.303    0.555   85.213  211.766
  485.750    1.322    0.309    0.523   86.190  210.731
