~VERSION INFORMATION
 VERS.                 2.0:   CWLS LOG ASCII STANDARD -VERSION 2.0
 WRAP.                  NO:   ONE LINE PER DEPTH STEP
~WELL INFORMATION BLOCK
#MNEM.UNIT           DATA                    DESCRIPTION OF MNEMONIC
#---------    -------------------            -------------------------------
# Generated from Intellog Unique Number	CS_73_76/WELL/2813
WELL.         TEXACO WINEFRED LAKE 7-17      : Well_name    - WELL
LOC .         07-17-075-03W4                   : Location     - LOCATION
UWI .         00/07-17-075-03W4/0             : Uwi          - UNIQUE WELL ID
ENTR.         ANDERSEN                       : Entered      - ENTERED BY
SRVC.         COMPUTALOG                     : Scn          - SERVICE COMPANY
STRT.M        260                            : top_depth    - START DEPTH
STOP.M        510                            : bot_depth    - STOP DEPTH
STEP.M        0.25                           : increment    - STEP LENGTH
 NULL. -999.2500:NULL Value
~CURVE INFORMATION BLOCK
#MNEM UNIT       ERCB CURVE CODE    CURVE DESCRIPTION
#-----------   ------------------   ----------------------------------
DEPT.M        00 001 00 00         : DEPTH        - DEPTH
GR  .API      00 310 00 00         : GR           - GAMMA RAY
CALI.MM       00 280 01 00         : CAL          - CALIPER
NPHI.V/V      00 330 00 00         : PHIN         - NEUTRON POROSITY (SANDSTONE)
DPHI.V/V      00 890 00 00         : PHID         - DENSITY POROSITY (SANDSTONE)
ILD .OHMM     00 120 00 00         : RESD         - DEEP RESISTIVITY (DIL)
~PARAMETER INFORMATION
#MNEM.UNIT           DATA             DESCRIPTION OF MNEMONIC
#---------         -----------     ------------------------------
GL  .M        624.1                : gl           - GROUND LEVEL ELEVATION
EREF.M        627.7                : kb           - ELEVATION OF DEPTH REFERENCE
DATM.M        627.7                : datum        - DATUM ELEVATION
TDD .M        526                  : tdd          - TOTAL DEPTH DRILLER
RUN .         ONE                  : Run          - RUN NUMBER
ENG .         BILL                 : Engineer     - RECORDING ENGINEER
WIT .         JIM                  : Witness      - WITNESSED BY
MUD .         GEL                  : Mud_type     - MUD TYPE
MATR.         SANDSTONE            : Logunit      - NEUTRON MATRIX
TMAX.C        20                   : BHT          - MAXIMUM RECORDED TEMPERATURE
BHTD.M        526                  : BHTDEP       - MAXIMUM RECORDED TEMPERATURE
RMT .C        18                   : MDTP         - TEMPERATURE OF MUD
MUDD.KG/M     1100                 : MWT          - MUD DENSITY
NEUT.         1                    : NEUTRON      - NEUTRON TYPE
RESI.         0                    : RESIST       - RESISTIVITY TYPE
RM  .OHMM     4.7                  : RM           - RESISTIVITY OF MUD
RMC .OHMM     3.3                  : RMC          - RESISTIVITY OF MUD CAKE
RMF .OHMM     7.3                  : RMF          - RESISTIVITY OF MUD FILTRATE
SUFT.C        15                   : SUFT         - SURFACE TEMPERATURE
~A  DEPTH       GR      CAL     PHIN     PHID     RESD
# ...
  369.500   80.961  204.569    0.492    0.268    4.931
  369.750   83.981  205.584    0.504    0.268    4.945
  370.000   80.974  205.598    0.518    0.267    4.865
  370.250   82.787  205.606    0.517    0.265    4.697
  370.500   89.425  205.615    0.523    0.258    4.618
  370.750   90.032  206.632    0.530    0.251    4.459
  371.000   94.258  206.639    0.533    0.244    4.225
  371.250   96.674  207.654    0.531    0.242    4.080
  371.500  101.503  207.663    0.539    0.242    3.866
  371.750  100.907  207.676    0.541    0.246    3.735
  372.000  102.119  207.680    0.545    0.250    3.606
  372.250   97.301  207.690    0.563    0.253    3.480
  372.500   96.103  207.705    0.557    0.257    3.297
  372.750   97.313  207.712    0.543    0.258    3.185
  373.000   99.127  207.722    0.544    0.256    3.076
  373.250  102.749  207.734    0.557    0.255    2.916
  373.500  107.577  207.744    0.563    0.251    2.866
  373.750  106.980  207.754    0.562    0.249    2.821
  374.000  103.972  207.763    0.560    0.247    2.725
  374.250  103.978  207.773    0.560    0.244    2.730
  374.500  105.189  207.780    0.563    0.243    2.684
  374.750  107.005  206.790    0.567    0.243    2.690
  375.000  108.216  206.798    0.569    0.246    2.698
  375.250  107.619  206.810    0.574    0.250    2.706
  375.500  107.023  206.817    0.581    0.253    2.709
  375.750  107.028  207.834    0.592    0.258    2.768
  376.000  105.830  207.839    0.596    0.265    2.827
  376.250  103.425  207.853    0.590    0.269    2.835
  376.500  101.018  206.859    0.595    0.271    2.897
  376.750   98.011  205.864    0.589    0.270    2.957
  377.000   91.386  205.871    0.570    0.266    2.964
  377.250   87.173  205.881    0.522    0.262    2.970
  377.500   81.151  205.895    0.500    0.264    2.977
  377.750   80.554  205.903    0.488    0.273    2.984
  378.000   83.575  205.910    0.491    0.278    2.934
  378.250   81.772  206.924    0.506    0.285    2.886
  378.500   79.971  207.939    0.532    0.288    2.839
  378.750   82.388  206.944    0.561    0.285    2.797
  379.000   85.406  205.949    0.568    0.278    2.750
  379.250   85.414  204.954    0.557    0.269    2.703
  379.500   83.611  204.969    0.526    0.269    2.710
  379.750   80.001  204.974    0.507    0.276    2.716
  380.000   78.198  203.981    0.477    0.289    2.724
  380.250   74.587  202.986    0.443    0.288    2.786
  380.500   71.580  202.996    0.414    0.289    2.791
  380.750   69.778  203.006    0.406    0.292    2.849
  381.000   69.180  202.014    0.421    0.290    2.854
  381.250   72.802  202.021    0.434    0.272    2.918
  381.500   77.028  202.033    0.435    0.272    2.923
  381.750   73.416  202.043    0.432    0.286    2.931
  382.000   66.792  202.053    0.432    0.305    2.937
  382.250   68.606  202.062    0.429    0.307    2.945
  382.500   70.420  202.070    0.411    0.304    2.949
  382.750   68.619  203.084    0.409    0.302    2.957
  383.000   68.625  203.094    0.420    0.309    2.966
  383.250   68.028  202.104    0.432    0.323    3.027
  383.500   67.431  201.106    0.438    0.324    3.093
  383.750   71.054  200.109    0.433    0.324    3.098
  384.000   69.854  199.119    0.421    0.297    3.228
  384.250   68.654  198.124    0.436    0.273    3.294
  384.500   68.660  197.130    0.453    0.320    3.366
  384.750   70.474  196.135    0.452    0.322    3.434
  385.000   75.905  195.140    0.455    0.287    3.513
  385.250   80.734  196.152    0.469    0.267    3.583
  385.500   80.137  200.180    0.477    0.258    3.660
  385.750   79.539  205.212    0.474    0.252    3.740
  386.000   80.147  207.231    0.470    0.249    3.744
  386.250   84.975  207.243    0.459    0.254    3.826
  386.500   85.584  207.253    0.455    0.264    3.837
  386.750   87.401  210.277    0.455    0.264    3.918
  387.000   89.816  208.277    0.449    0.260    3.927
  387.250   89.221  207.280    0.435    0.254    3.934
  387.500   86.814  206.288    0.417    0.247    3.870
  387.750   85.013  206.302    0.412    0.248    3.668
  388.000   86.225  206.310    0.437    0.253    3.288
  388.250   88.641  206.319    0.467    0.256    3.058
  388.500   85.029  208.338    0.485    0.261    2.951
  388.750   84.432  209.350    0.482    0.268    2.796
  389.000   86.849  209.360    0.484    0.274    2.650
  389.250   89.870  209.370    0.499    0.278    2.512
  389.500   94.697  207.373    0.528    0.286    2.470
  389.750   91.086  205.373    0.546    0.296    2.341
  390.000   92.900  204.381    0.561    0.293    2.219
  390.250   99.536  203.383    0.578    0.288    2.143
  390.500  100.749  202.386    0.599    0.284    2.148
  390.750  101.358  200.389    0.621    0.280    2.364
  391.000   99.555  198.390    0.615    0.285    2.649
  391.250   92.328  195.386    0.585    0.313    3.518
  391.500   85.101  195.398    0.524    0.342    4.581
  391.750   79.682  194.406    0.413    0.369    5.859
  392.000   74.866  194.410    0.272    0.404    7.081
  392.250   71.257  194.420    0.240    0.443    7.793
  392.500   68.852  194.435    0.230    0.463    8.577
  392.750   68.856  194.440    0.235    0.463    9.623
  393.000   71.273  193.445    0.242    0.459   10.598
  393.250   72.484  193.457    0.245    0.447   10.431
  393.500   70.682  193.464    0.248    0.428   10.450
  393.750   68.277  194.479    0.250    0.412   10.468
  394.000   66.476  196.498    0.249    0.401   10.492
  394.250   62.261  199.526    0.236    0.378   11.765
  394.500   56.842  200.535    0.132    0.008   11.581
  394.750   52.026  201.552    0.004    0.055   11.175
  395.000   49.622  201.562    0.045    0.117   10.018
  395.250   54.450  200.569    0.166    0.250    9.312
  395.500   65.305  199.575    0.227    0.343    8.500
  395.750   67.119  200.587    0.243    0.411    7.906
  396.000   64.716  200.599    0.261    0.416    7.217
  396.250   64.722  200.608    0.277    0.411    6.587
  396.500   65.933  200.618    0.292    0.413    6.013
  396.750   64.732  200.626    0.310    0.400    5.489
  397.000   63.534  199.631    0.327    0.380    5.011
  397.250   61.730  199.643    0.345    0.362    4.406
  397.500   60.530  199.655    0.383    0.355    4.022
  397.750   59.331  199.660    0.439    0.348    3.738
  398.000   59.336  199.672    0.466    0.341    3.289
  398.250   62.357  199.682    0.470    0.348    3.115
  398.500   62.363  200.694    0.457    0.352    2.792
  398.750   62.369  200.703    0.455    0.356    2.597
  399.000   63.580  200.716    0.462    0.358    2.416
  399.250   61.778  200.728    0.461    0.360    2.205
  399.500   58.169  200.738    0.455    0.360    2.128
  399.750   58.777  200.745    0.447    0.360    2.054
  400.000   61.194  200.755    0.446    0.361    2.059
  400.250   62.404  200.764    0.452    0.362    2.027
  400.500   62.410  200.774    0.460    0.364    2.032
  400.750   63.020  201.793    0.468    0.362    2.035
  401.000   63.026  201.798    0.463    0.362    2.040
  401.250   63.032  202.815    0.463    0.367    2.047
  401.500   63.640  202.825    0.470    0.367    2.050
  401.750   65.454  202.832    0.471    0.363    2.055
  402.000   66.061  202.844    0.463    0.364    2.059
  402.250   66.673  202.856    0.451    0.368    2.066
  402.500   66.076  202.861    0.442    0.368    2.109
  402.750   65.478  201.871    0.449    0.364    2.115
  403.000   66.088  201.879    0.456    0.371    2.120
  403.250   67.299  201.893    0.462    0.370    2.163
  403.500   67.304  200.893    0.467    0.365    2.168
  403.750   65.501  209.944    0.474    0.367    2.215
  404.000   65.507  212.968    0.484    0.371    2.263
  404.250   66.718  212.980    0.496    0.370    2.311
  404.500   69.738  211.985    0.507    0.370    2.316
  404.750   73.360  210.990    0.517    0.368    2.366
  405.000   76.984  210.998    0.536    0.357    2.414
  405.250   80.605  210.005    0.533    0.340    2.514
  405.500   83.023  209.010    0.521    0.293    2.567
  405.750   83.632  209.018    0.513    0.274    2.673
