~VERSION INFORMATION
 VERS.                 2.0:   CWLS LOG ASCII STANDARD -VERSION 2.0
 WRAP.                  NO:   ONE LINE PER DEPTH STEP
~WELL INFORMATION BLOCK
#MNEM.UNIT           DATA                    DESCRIPTION OF MNEMONIC
#---------    -------------------            -------------------------------
# Generated from Intellog Unique Number	CW_70_72/WELL/2900
NULL.         -999.25                        : NULL_VALUE
WELL.         SUNCOR GAMBLER                 : Well_name    - WELL              
LOC .         06-24-070-21W4                 : Location     - LOCATION          
UWI .         00/06-24-070-21W4/0            : Uwi          - UNIQUE WELL ID    
ENTR.         MAX                            : Entered      - ENTERED BY        
SRVC.         SCHLUMBERGER                   : Scn          - SERVICE COMPANY   
DATE.         23 FEB 80                      : Date         - LOG DATE
STRT.M        385                            : top_depth    - START DEPTH       
STOP.M        555                            : bot_depth    - STOP DEPTH        
STEP.M        0.25                           : increment    - STEP LENGTH       
~CURVE INFORMATION BLOCK
#MNEM UNIT       ERCB CURVE CODE    CURVE DESCRIPTION
#-----------   ------------------   ----------------------------------
DEPT.M        00 001 00 00         : DEPTH        - DEPTH                       
ILD .OHMM     00 120 00 00         : RESD         - DEEP RESISTIVITY (DIL)      
NPHI.V/V      00 330 00 00         : PHIN         - NEUTRON POROSITY (SANDSTONE)
DPHI.V/V      00 890 00 00         : PHID         - DENSITY POROSITY (SANDSTONE)
CALI.MM       00 280 01 00         : CAL          - CALIPER                     
GR  .API      00 310 00 00         : GR           - GAMMA RAY                   
~PARAMETER INFORMATION       
#MNEM.UNIT           DATA             DESCRIPTION OF MNEMONIC
#---------         -----------     ------------------------------
GL  .M        645.78               : gl           - GROUND LEVEL ELEVATION      
EREF.M        649.13               : kb           - ELEVATION OF DEPTH REFERENCE
DATM.M        645.78               : datum        - DATUM ELEVATION             
TDD .M        569                  : tdd          - TOTAL DEPTH DRILLER         
RUN .         ONE                  : Run          - RUN NUMBER                  
ENG .         BILL                 : Engineer     - RECORDING ENGINEER          
WIT .         JIM                  : Witness      - WITNESSED BY                
MUD .         GEL                  : Mud_type     - MUD TYPE                    
MATR.         SANDSTONE            : Logunit      - NEUTRON MATRIX              
TMAX.C        39                   : BHT          - MAXIMUM RECORDED TEMPERATURE
BHTD.M        569                  : BHTDEP       - MAXIMUM RECORDED TEMPERATURE
RMT .C        12.2                 : MDTP         - TEMPERATURE OF MUD          
MUDD.KG/M     1050                 : MWT          - MUD DENSITY                 
NEUT.         1                    : NEUTRON      - NEUTRON TYPE                
RESI.         0                    : RESIST       - RESISTIVITY TYPE            
RM  .OHMM     3.03                 : RM           - RESISTIVITY OF MUD          
RMC .OHMM     0.25                 : RMC          - RESISTIVITY OF MUD CAKE     
RMF .OHMM     3.94                 : RMF          - RESISTIVITY OF MUD FILTRATE 
SUFT.C        -20                  : SUFT         - SURFACE TEMPERATURE         
~A  DEPTH     RESD     PHIN     PHID      CAL       GR
# ...
  494.500    3.605    0.415    0.273  205.773   57.760
  494.750    3.606    0.426    0.255  206.288   61.067
  495.000    3.573    0.452    0.256  206.299   65.574
  495.250    3.574    0.459    0.259  206.314   67.982
  495.500    3.542    0.460    0.253  206.329   67.389
  495.750    3.542    0.457    0.246  205.840   66.197
  496.000    3.543    0.455    0.247  205.854   65.605
  496.250    3.543    0.454    0.246  206.365   66.212
  496.500    3.543    0.453    0.230  207.378   67.719
  496.750    3.544    0.447    0.224  207.892   70.426
  497.000    3.578    0.438    0.244  208.903   73.434
  497.250    3.578    0.440    0.253  209.418   73.442
  497.500    3.646    0.461    0.238  211.430   72.851
  497.750    3.715    0.470    0.222  213.942   74.058
  498.000    3.750    0.456    0.241  220.952   76.164
  498.250    3.751    0.451    0.269  230.462   76.172
  498.500    3.716    0.454    0.329  252.467   76.180
  498.750    3.516    0.479    0.335  262.476   79.787
  499.000    3.265    0.507    0.319  256.991   83.693
  499.250    2.977    0.527    0.300  260.503   83.101
  499.500    2.791    0.539    0.290  287.507   78.312
  499.750    2.544    0.559    0.324  351.996   72.922
  500.000    2.279    0.597    0.501  345.340   68.650
  500.250    2.367    0.585    0.438  318.891   71.068
  500.500    2.550    0.573    0.320  282.450   74.983
  500.750    2.879    0.560    0.277  260.993   80.697
  501.000    3.219    0.534    0.261  238.041   80.717
  501.250    3.567    0.478    0.239  224.082   81.931
  501.500    3.774    0.521    0.223  208.121   89.743
  501.750    3.992    0.526    0.207  196.660   89.464
  502.000    4.223    0.476    0.200  193.696   83.184
  502.250    4.223    0.448    0.185  197.227   77.509
  502.500    4.391    0.437    0.177  197.761   79.628
  502.750    4.909    0.437    0.152  197.283   77.245
  503.000    5.339    0.424    0.107  196.322   71.870
  503.250    5.861    0.395    0.118  195.845   70.986
  503.500    6.317    0.380    0.151  194.879   73.704
  503.750    6.381    0.415    0.164  194.905   78.516
  504.000    6.153    0.437    0.180  195.938   79.736
  504.250    5.880    0.443    0.183  196.964   77.355
  504.500    5.670    0.448    0.190  198.004   80.369
  504.750    5.469    0.440    0.196  198.026   84.588
  505.000    5.422    0.419    0.182  197.560   83.704
  505.250    5.478    0.412    0.176  197.594   81.626
  505.500    5.585    0.416    0.190  198.116   81.342
  505.750    5.589    0.419    0.195  199.645   84.960
  506.000    5.541    0.415    0.194  200.678   83.776
  506.250    5.494    0.412    0.199  200.212   78.998
  506.500    5.499    0.415    0.200  200.234   76.922
  506.750    5.503    0.427    0.182  199.273   78.736
  507.000    5.508    0.426    0.178  199.299   81.757
  507.250    5.512    0.433    0.186  199.329   80.571
  507.500    5.516    0.448    0.192  198.363   77.291
  507.750    5.571    0.458    0.195  196.898   75.213
  508.000    5.733    0.464    0.191  196.421   74.632
  508.250    6.064    0.438    0.126  196.951   71.350
  508.500    6.845    0.290    0.069  196.481   65.073
  508.750    7.654    0.254    0.022  195.016   57.897
  509.000    8.641    0.319    0.085  193.551   56.121
  509.250    8.489    0.367    0.160  192.581   57.935
  509.500    7.963    0.433    0.180  192.108   62.447
  509.750    7.197    0.443    0.196  192.142   75.657
  510.000    5.662    0.461    0.213  192.168   90.063
  510.250    5.119    0.476    0.219  192.701   90.081
  510.500    5.028    0.501    0.204  194.226   74.512
  510.750    5.028    0.489    0.175  195.259   67.335
  511.000    5.179    0.420    0.062  195.785   58.061
  511.250    5.791    0.199    0.110  195.319   49.086
  511.500    6.299    0.223    0.135  194.853   48.806
  511.750    6.541    0.331    0.198  194.383   53.918
  512.000    6.547    0.367    0.224  194.413   56.934
  512.250    6.431    0.440    0.081  194.943   57.551
  512.500    6.497    0.389    0.039  194.973   56.972
  512.750    7.001    0.322    0.070  195.007   55.493
  513.000    8.124    0.292    0.105  195.029   57.607
  513.250    8.674    0.314    0.142  195.063   61.822
  513.500    8.289    0.358    0.165  195.592   66.936
  513.750    7.287    0.385    0.174  196.621   66.659
  514.000    6.407    0.395    0.183  197.651   67.272
  514.250    5.791    0.415    0.194  197.684   70.289
  514.500    5.383    0.430    0.217  197.711   69.111
  514.750    5.239    0.424    0.221  197.245   65.829
  515.000    5.099    0.402    0.232  197.271   64.948
  515.250    5.103    0.415    0.228  196.801   66.165
  515.500    5.203    0.431    0.216  196.835   66.784
  515.750    5.403    0.434    0.195  196.865   65.301
  516.000    5.559    0.422    0.191  196.895   66.221
  516.250    5.720    0.407    0.180  196.928   69.834
  516.500    5.782    0.388    0.173  197.458   74.350
  516.750    5.891    0.381    0.160  197.984   79.766
  517.000    6.118    0.379    0.163  200.016   82.180
  517.250    6.295    0.397    0.171  201.541   84.296
  517.500    6.417    0.407    0.170  201.575   85.813
  517.750    6.543    0.426    0.192  201.605   83.735
  518.000    6.670    0.442    0.201  202.138   79.254
  518.250    6.675    0.441    0.195  202.172   74.780
  518.500    6.619    0.430    0.198  202.198   76.897
  518.750    6.502    0.419    0.203  202.224   76.917
  519.000    6.387    0.415    0.201  202.258   75.736
  519.250    6.104    0.411    0.197  202.291   75.452
  519.500    5.996    0.417    0.190  201.315   74.872
  519.750    6.001    0.417    0.185  199.850   73.389
  520.000    6.005    0.402    0.187  199.376   68.012
  520.250    6.180    0.390    0.194  198.411   68.332
  520.500    6.359    0.400    0.195  198.444   70.146
  520.750    6.727    0.388    0.171  199.473   69.262
  521.000    7.118    0.345    0.093  202.005   70.182
  521.250    6.992    0.357    0.141  205.525   74.396
  521.500    6.499    0.448    0.220  212.549   82.210
  521.750    5.928    0.507    0.233  230.576   85.823
  522.000    4.664    0.545    0.212  230.099   89.738
  522.250    4.255    0.556    0.211  231.136   90.060
  522.500    4.142    0.553    0.235  233.664   88.577
  522.750    3.995    0.540    0.266  234.685   86.797
  523.000    3.853    0.544    0.288  233.716   86.815
  523.250    3.784    0.541    0.274  231.252   84.434
  523.500    3.753    0.526    0.237  229.779   84.453
  523.750    3.790    0.500    0.207  239.309   87.768
  524.000    3.937    0.487    0.235  240.334   89.289
  524.250    4.126    0.494    0.248  243.865   86.605
  524.500    4.405    0.492    0.122  242.393   82.129
  524.750    4.792    0.457    0.116  226.435   79.446
  525.000    5.069    0.417    0.141  211.977   78.265
  525.250    5.216    0.418    0.158  205.516   80.384
  525.500    5.417    0.400    0.118  204.047   81.001
  525.750    5.893    0.387    0.100  203.577   81.319
  526.000    6.120    0.385    0.110  203.111   85.836
  526.250    6.180    0.432    0.122  202.138   87.050
  526.500    6.242    0.449    0.102  200.666   84.970
  526.750    6.364    0.446    0.099  199.197   78.693
  527.000    6.488    0.438    0.120  199.230   77.512
  527.250    6.554    0.438    0.107  199.760   77.530
  527.500    6.559    0.426    0.157  200.789   82.346
  527.750    6.444    0.429    0.173  203.325   88.959
  528.000    6.389    0.445    0.176  206.852   89.881
  528.250    6.395    0.427    0.138  207.374   89.595
  528.500    6.399    0.414    0.094  205.413   90.514
  528.750    6.523    0.408    0.065  202.941   93.230
  529.000    6.652    0.407    0.081  201.468   91.749
  529.250    6.594    0.406    0.103  201.006   87.872
  529.500    6.480    0.408    0.115  202.039   89.989
  529.750    6.480    0.411    0.124  203.564   93.004
  530.000    6.429    0.417    0.140  206.596   94.224
  530.250    6.201    0.426    0.148  207.617   93.338
  530.500    5.980    0.416    0.144  206.152   93.056
  530.750    5.930    0.430    0.157  201.182   92.774
