~VERSION INFORMATION
 VERS.                 2.0:   CWLS LOG ASCII STANDARD -VERSION 2.0
 WRAP.                  NO:   ONE LINE PER DEPTH STEP
~WELL INFORMATION BLOCK
#MNEM.UNIT           DATA                    DESCRIPTION OF MNEMONIC
#---------    -------------------            -------------------------------
# Generated from Intellog Unique Number	CS_73_76/WELL/3218
WELL.         CANADIAN OCCIDENTAL            : Well_name    - WELL
LOC .         00/08-24-076-02W4/0            : Location     - LOCATION
UWI .         00/08-24-076-02W4/0            : Uwi          - UNIQUE WELL ID
ENTR.         SP                             : Entered      - ENTERED BY
SRVC.         SCHLUMBERGER                   : Scn          - SERVICE COMPANY
STRT.M        237.744                        : top_depth    - START DEPTH
STOP.M        524.244                        : bot_depth    - STOP DEPTH
STEP.M        0.25                           : increment    - STEP LENGTH
 NULL. -999.2500:NULL Value
~CURVE INFORMATION BLOCK
#MNEM UNIT       ERCB CURVE CODE    CURVE DESCRIPTION
#-----------   ------------------   ----------------------------------
DEPT.M        00 001 00 00         : DEPTH        - DEPTH
DPHI.V/V      00 890 00 00         : PHID         - DENSITY POROSITY (SANDSTONE)
NPHI.V/V      00 330 00 00         : PHIN         - NEUTRON POROSITY (SANDSTONE)
ILD .OHMM     00 120 00 00         : RESD         - DEEP RESISTIVITY (DIL)
GR  .API      00 310 00 00         : GR           - GAMMA RAY
~PARAMETER INFORMATION
#MNEM.UNIT           DATA             DESCRIPTION OF MNEMONIC
#---------         -----------     ------------------------------
GL  .M        630.326              : gl           - GROUND LEVEL ELEVATION
EREF.M        633.832              : kb           - ELEVATION OF DEPTH REFERENCE
DATM.M        630.326              : datum        - DATUM ELEVATION
TDD .M        536.143              : tdd          - TOTAL DEPTH DRILLER
RUN .         ONE                  : Run          - RUN NUMBER
ENG .         BILL                 : Engineer     - RECORDING ENGINEER
WIT .         JIM                  : Witness      - WITNESSED BY
MUD .         GEL                  : Mud_type     - MUD TYPE
MATR.         SANDSTONE            : Logunit      - NEUTRON MATRIX
TMAX.C        22.2222              : BHT          - MAXIMUM RECORDED TEMPERATURE
BHTD.M        536.143              : BHTDEP       - MAXIMUM RECORDED TEMPERATURE
MATR.         1                    : LOGUNIT      - NEUTRON MATRIX
RMT .C        25                   : MDTP         - TEMPERATURE OF MUD
NEUT.         1                    : NEUTRON      - NEUTRON TYPE
RESI.         0                    : RESIST       - RESISTIVITY TYPE
RMC .OHMM     0.25                 : RMC          - RESISTIVITY OF MUD CAKE
RMF .OHMM     0.25                 : RMF          - RESISTIVITY OF MUD FILTRATE
SUFT.C        15                   : SUFT         - SURFACE TEMPERATURE
~A  DEPTH     PHID     PHIN     RESD       GR
# ...
  324.744    0.304    0.380   12.048   61.376
  324.994    0.280    0.372   11.018   68.679
  325.244    0.253    0.379   10.076   71.251
  325.494    0.263    0.391    8.838   71.728
  325.744    0.262    0.401    7.739   72.811
  325.994    0.236    0.405    6.779   74.813
  326.244    0.217    0.403    6.301   78.888
  326.494    0.208    0.409    6.075   82.282
  326.744    0.206    0.418    6.311   84.145
  326.994    0.212    0.427    6.764   84.562
  327.244    0.221    0.440    7.382   82.883
  327.494    0.221    0.450    7.971   78.460
  327.744    0.226    0.458    8.464   74.932
  327.994    0.218    0.463    8.963   69.597
  328.244    0.265    0.459    8.934   65.275
  328.494    0.293    0.451    8.807   62.209
  328.744    0.287    0.436    8.445   62.822
  328.994    0.288    0.422    8.048   64.269
  329.244    0.268    0.413    7.869   65.537
  329.494    0.255    0.412    7.727   66.912
  329.744    0.258    0.406    7.655   65.350
  329.994    0.260    0.401    7.198   66.674
  330.244    0.251    0.401    6.701   69.161
  330.494    0.242    0.414    6.058   69.290
  330.744    0.238    0.422    5.734   72.007
  330.994    0.236    0.422    5.665   74.319
  331.244    0.234    0.430    5.677   77.581
  331.494    0.228    0.444    5.558   79.189
  331.744    0.230    0.460    5.500   75.669
  331.994    0.238    0.470    5.216   72.947
  332.244    0.250    0.457    5.182   73.392
  332.494    0.252    0.450    5.306   73.808
  332.744    0.263    0.462    5.272   74.127
  332.994    0.254    0.486    5.868   77.490
  333.244    0.294    0.507    6.568   72.225
  333.494    0.314    0.500    8.180   67.918
  333.744    0.323    0.464    9.722   61.351
  333.994    0.329    0.429   11.230   54.597
  334.244    0.326    0.436   12.048   52.514
  334.494    0.329    0.439   12.220   52.600
  334.744    0.322    0.433   12.216   52.819
  334.994    0.319    0.419   12.216   53.866
  335.244    0.329    0.414   12.223   55.334
  335.494    0.326    0.423   12.304   56.766
  335.744    0.333    0.418   12.446   57.297
  335.994    0.323    0.425   12.690   56.711
  336.244    0.318    0.432   12.671   56.075
  336.494    0.326    0.434   12.681   55.526
  336.744    0.322    0.433   12.425   55.446
  336.994    0.321    0.437   12.444   56.115
  337.244    0.333    0.440   12.445   56.600
  337.494    0.333    0.441   12.418   56.363
  337.744    0.328    0.444   12.667   56.131
  337.994    0.330    0.449   12.435   57.185
  338.244    0.328    0.444   12.452   55.880
  338.494    0.338    0.441   12.459   54.246
  338.744    0.337    0.434   12.694   53.589
  338.994    0.334    0.429   12.681   54.370
  339.244    0.332    0.429   12.680   53.674
  339.494    0.336    0.433   12.681   53.648
  339.744    0.339    0.437   12.681   54.609
  339.994    0.330    0.435   12.682   55.399
  340.244    0.329    0.434   12.682   57.034
  340.494    0.322    0.439   12.683   58.018
  340.744    0.317    0.446   12.682   59.052
  340.994    0.322    0.431   12.661   58.154
  341.244    0.327    0.423   12.929   56.512
  341.494    0.337    0.420   13.066   54.743
  341.744    0.345    0.417   13.848   52.118
  341.994    0.346    0.407   14.699   51.233
  342.244    0.324    0.408   15.938   50.962
  342.494    0.304    0.415   18.443   49.378
  342.744    0.264    0.395   22.224   48.888
  342.994    0.176    0.375   30.830   47.844
  343.244    0.021    0.115   40.174   47.574
  343.494    0.021    0.142   44.259   46.550
  343.744    0.027    0.157   33.547   45.893
  343.994    0.067    0.179   27.046   45.269
  344.244    0.139    0.225   19.221   44.547
  344.494    0.188    0.310   15.577   48.483
  344.744    0.231    0.384   13.586   52.556
  344.994    0.305    0.436   12.744   55.942
  345.244    0.343    0.472   12.460   57.291
  345.494    0.340    0.464   12.239   57.693
  345.744    0.342    0.453   12.221   55.309
  345.994    0.331    0.444   12.494   54.181
  346.244    0.326    0.440   12.453   55.376
  346.494    0.326    0.441   12.588   52.315
  346.744    0.323    0.439   12.486   53.052
  346.994    0.324    0.437   12.258   54.010
  347.244    0.329    0.438   11.990   54.968
  347.494    0.336    0.442   12.258   55.918
  347.744    0.337    0.447   12.005   55.381
  347.994    0.325    0.454   12.038   55.163
  348.244    0.335    0.444   11.799   53.465
  348.494    0.346    0.441   11.810   55.344
  348.744    0.351    0.438   11.807   56.487
  348.994    0.348    0.435   11.807   55.870
  349.244    0.346    0.441   11.807   55.548
  349.494    0.332    0.455   11.808   56.700
  349.744    0.317    0.453   11.809   57.687
  349.994    0.331    0.442   11.809   55.723
  350.244    0.331    0.451   11.810   54.527
  350.494    0.327    0.444   11.810   54.322
  350.744    0.326    0.434   11.811   57.562
  350.994    0.315    0.435   11.812   59.988
  351.244    0.308    0.440   11.790   59.342
  351.494    0.310    0.436   12.054   58.523
  351.744    0.317    0.426   12.031   57.563
  351.994    0.333    0.428   12.007   57.987
  352.244    0.324    0.420   12.276   58.288
  352.494    0.321    0.410   12.253   58.740
  352.744    0.339    0.422   12.254   58.408
  352.994    0.333    0.437   12.255   57.216
  353.244    0.330    0.450   12.256   55.187
  353.494    0.331    0.467   12.256   55.266
  353.744    0.336    0.471   12.257   53.829
  353.994    0.333    0.455   12.258   53.382
  354.244    0.338    0.440   12.259   53.773
  354.494    0.339    0.425   12.260   55.138
  354.744    0.315    0.413   12.100   55.925
  354.994    0.313    0.413   12.061   56.957
  355.244    0.322    0.425   11.823   56.338
  355.494    0.329    0.442   11.684   55.045
  355.744    0.333    0.450   11.566   55.210
  355.994    0.346    0.461   11.394   56.234
  356.244    0.338    0.465   11.418   57.198
  356.494    0.341    0.450   11.175   58.166
  356.744    0.328    0.446   11.196   59.137
  356.994    0.322    0.456   11.212   60.152
  357.244    0.327    0.446   10.979   60.436
  357.494    0.314    0.446   11.014   61.867
  357.744    0.317    0.450   10.766   62.422
  357.994    0.319    0.456   10.789   60.981
  358.244    0.311    0.456   10.123   61.402
  358.494    0.315    0.464    9.663   64.215
  358.744    0.324    0.463    7.983   65.080
  358.994    0.323    0.453    5.912   67.065
  359.244    0.316    0.458    4.641   68.256
  359.494    0.306    0.455    3.877   70.857
  359.744    0.278    0.448    3.383   73.739
  359.994    0.230    0.526    3.031   76.687
  360.244    0.246    0.541    2.816   80.969
  360.494    0.240    0.562    2.684   88.369
  360.744    0.235    0.563    2.692   91.947
  360.994    0.224    0.548    2.725   96.085
  361.244    0.226    0.537    2.808   97.970
  361.494    0.220    0.561    2.948   98.279
  361.744    0.228    0.566    3.100   98.308
  361.994    0.246    0.554    3.195   98.556
  362.244    0.256    0.547    3.517  101.791
  362.494    0.259    0.552    4.013   98.713
  362.744    0.249    0.554    4.454   93.812
  362.994    0.247    0.537    4.823   86.250
  363.244    0.241    0.525    4.707   83.419
  363.494    0.233    0.512    4.474   83.054
  363.744    0.237    0.474    4.277   86.643
  363.994    0.254    0.474    4.039   89.756
  364.244    0.251    0.487    3.883   90.532
  364.494    0.264    0.509    3.903   89.279
  364.744    0.258    0.542    4.467   87.657
  364.994    0.251    0.566    5.091   85.773
  365.244    0.244    0.547    5.821   84.781
  365.494    0.240    0.498    6.285   84.784
  365.744    0.237    0.471    6.806   86.231
  365.994    0.227    0.477    7.028   87.751
  366.244    0.228    0.479    7.241   85.360
  366.494    0.225    0.478    7.131   82.339
  366.744    0.222    0.470    6.915   81.467
  366.994    0.231    0.493    6.707   82.172
  367.244    0.238    0.507    6.402   82.578
  367.494    0.252    0.498    6.082   82.680
  367.744    0.265    0.493    5.916   82.744
  367.994    0.265    0.485    5.802   79.133
