~VERSION INFORMATION
 VERS.                 2.0:   CWLS LOG ASCII STANDARD -VERSION 2.0
 WRAP.                  NO:   ONE LINE PER DEPTH STEP
~WELL INFORMATION BLOCK
#MNEM.UNIT           DATA                    DESCRIPTION OF MNEMONIC
#---------    -------------------            -------------------------------
# Generated from Intellog Unique Number	CS_77_79/WELL/880
WELL.         CWWE HARDY                     : Well_name    - WELL
LOC .         00/06-22-078-04W4/0            : Location     - LOCATION
UWI .         00/06-22-078-04W4/0            : Uwi          - UNIQUE WELL ID
ENTR.         JHS                            : Entered      - ENTERED BY
SRVC.         SCHLUMBERGER                   : Scn          - SERVICE COMPANY
STRT.M        140                            : top_depth    - START DEPTH
STOP.M        400                            : bot_depth    - STOP DEPTH
STEP.M        0.25                           : increment    - STEP LENGTH
 NULL. -999.2500:NULL Value
~CURVE INFORMATION BLOCK
#MNEM UNIT       ERCB CURVE CODE    CURVE DESCRIPTION
#-----------   ------------------   ----------------------------------
DEPT.M        00 001 00 00         : DEPTH        - DEPTH
DPHI.V/V      00 890 00 00         : PHID         - DENSITY POROSITY (LIMESTONE)
NPHI.V/V      00 330 00 00         : PHIN         - NEUTRON POROSITY (LIMESTONE)
GR  .API      00 310 00 00         : GR           - GAMMA RAY
ILD .OHMM     00 120 00 00         : RESD         - DEEP RESISTIVITY (DIL)
RHOB.KG/M3    00 350 00 00         : DENS         - BULK DENSITY
~PARAMETER INFORMATION
#MNEM.UNIT           DATA             DESCRIPTION OF MNEMONIC
#---------         -----------     ------------------------------
GL  .M        554.5                : gl           - GROUND LEVEL ELEVATION
EREF.M        558.4                : kb           - ELEVATION OF DEPTH REFERENCE
DATM.M        558.4                : datum        - DATUM ELEVATION
TDD .M        410                  : tdd          - TOTAL DEPTH DRILLER
RUN .         ONE                  : Run          - RUN NUMBER
ENG .         BILL                 : Engineer     - RECORDING ENGINEER
WIT .         JIM                  : Witness      - WITNESSED BY
MUD .         GEL                  : Mud_type     - MUD TYPE
MATR.         LIMESTONE            : Logunit      - NEUTRON MATRIX
TMAX.C        26                   : BHT          - MAXIMUM RECORDED TEMPERATURE
BHTD.M        410                  : BHTDEP       - MAXIMUM RECORDED TEMPERATURE
MATR.         1                    : LOGUNIT      - NEUTRON MATRIX
RMT .C        25                   : MDTP         - TEMPERATURE OF MUD
NEUT.         1                    : NEUTRON      - NEUTRON TYPE
RESI.         0                    : RESIST       - RESISTIVITY TYPE
RMC .OHMM     0.25                 : RMC          - RESISTIVITY OF MUD CAKE
RMF .OHMM     0.25                 : RMF          - RESISTIVITY OF MUD FILTRATE
SUFT.C        15                   : SUFT         - SURFACE TEMPERATURE
~A  DEPTH     PHID     PHIN       GR     RESD     DENS
# ...
  213.000    0.302    0.400   62.947   15.147    0.000
  213.250    0.302    0.405   64.842   15.147    0.000
  213.500    0.302    0.419   73.018   14.586    0.000
  213.750    0.305    0.430   73.663   14.046    0.000
  214.000    0.305    0.430   69.282   13.783    0.000
  214.250    0.296    0.416   73.697   13.783    0.000
  214.500    0.285    0.396   76.217   14.313    0.000
  214.750    0.280    0.371   76.862   15.436    0.000
  215.000    0.283    0.353   78.132   16.963    0.000
  215.250    0.253    0.317   77.519   18.293    0.000
  215.500    0.199    0.290   61.217   19.728    0.000
  215.750    0.088    0.264   51.194   20.487    0.000
  216.000    0.057    0.246   54.346   20.487    0.000
  216.250    0.203    0.260   63.152   19.728    0.000
  216.500    0.240    0.301   66.302   18.997    0.000
  216.750    0.296    0.356   68.827   17.616    0.000
  217.000    0.324    0.408   68.846   16.646    0.000
  217.250    0.319    0.418   66.976   16.335    0.000
  217.500    0.319    0.423   64.482   16.335    0.000
  217.750    0.319    0.408   63.872   16.646    0.000
  218.000    0.314    0.389   61.375   16.963    0.000
  218.250    0.308    0.376   58.884   17.286    0.000
  218.500    0.305    0.371   62.665   18.293    0.000
  218.750    0.300    0.394   65.187   18.642    0.000
  219.000    0.293    0.410   64.576   19.359    0.000
  219.250    0.290    0.398   59.574   20.104    0.000
  219.500    0.294    0.372   60.213   20.487    0.000
  219.750    0.299    0.364   61.484   20.104    0.000
  220.000    0.306    0.385   60.877   19.728    0.000
  220.250    0.314    0.404   61.517   18.997    0.000
  220.500    0.321    0.415   62.786   18.642    0.000
  220.750    0.330    0.400   60.923   18.642    0.000
  221.000    0.327    0.401   62.191   18.642    0.000
  221.250    0.316    0.410   65.343   18.642    0.000
  221.500    0.307    0.411   62.851   18.997    0.000
  221.750    0.301    0.401   57.216   19.359    0.000
  222.000    0.311    0.395   59.742   20.104    0.000
  222.250    0.307    0.394   66.661   20.104    0.000
  222.500    0.298    0.386   66.677   20.104    0.000
  222.750    0.307    0.387   61.045   20.104    0.000
  223.000    0.319    0.393   59.178   20.487    0.000
  223.250    0.290    0.380   65.471   20.877    0.000
  223.500    0.260    0.359   66.115   20.877    0.000
  223.750    0.253    0.346   66.133   19.728    0.000
  224.000    0.256    0.333   71.167   17.616    0.000
  224.250    0.256    0.335   77.459   16.029    0.000
  224.500    0.245    0.349   83.749   14.313    0.000
  224.750    0.236    0.354   89.412   13.525    0.000
  225.000    0.229    0.351   91.310   13.272    0.000
  225.250    0.229    0.368   89.444   14.046    0.000
  225.500    0.272    0.386   82.557   14.864    0.000
  225.750    0.318    0.393   79.433   16.335    0.000
  226.000    0.288    0.404   73.801   17.951    0.000
  226.250    0.274    0.386   65.030   18.642    0.000
  226.500    0.257    0.367   70.069   19.359    0.000
  226.750    0.271    0.360   71.339   19.728    0.000
  227.000    0.306    0.357   70.726   18.642    0.000
  227.250    0.322    0.372   70.742   17.616    0.000
  227.500    0.326    0.383   72.639   16.963    0.000
  227.750    0.315    0.378   73.284   16.335    0.000
  228.000    0.301    0.366   77.063   15.436    0.000
  228.250    0.283    0.349   77.080   14.864    0.000
  228.500    0.268    0.344   76.468   14.586    0.000
  228.750    0.269    0.352   85.270   14.046    0.000
  229.000    0.274    0.367   87.801   13.525    0.000
  229.250    0.269    0.360   88.441   13.024    0.000
  229.500    0.254    0.347   92.850   12.781    0.000
  229.750    0.239    0.337   96.630   12.542    0.000
  230.000    0.225    0.363   96.021   12.077    0.000
  230.250    0.211    0.371   95.407   11.412    0.000
  230.500    0.201    0.385   97.935   10.784    0.000
  230.750    0.207    0.396  102.970   10.385    0.000
  231.000    0.217    0.384  105.498   10.000    0.000
  231.250    0.223    0.382  104.886    9.630    0.000
  231.500    0.226    0.397  109.290    9.450    0.000
  231.750    0.216    0.392  112.445    9.273    0.000
  232.000    0.212    0.385  109.326    9.273    0.000
  232.250    0.212    0.383  108.710    9.099    0.000
  232.500    0.213    0.390  110.608    8.929    0.000
  232.750    0.211    0.393  113.139    8.762    0.000
  233.000    0.213    0.383  113.151    8.762    0.000
  233.250    0.218    0.369  112.543    8.762    0.000
  233.500    0.230    0.376  111.926    8.762    0.000
  233.750    0.231    0.393  105.665    8.762    0.000
  234.000    0.229    0.413  105.055    8.762    0.000
  234.250    0.214    0.424  110.092    8.599    0.000
  234.500    0.199    0.429  114.503    8.438    0.000
  234.750    0.195    0.426  115.770    8.125    0.000
  235.000    0.210    0.382  108.256    7.973    0.000
  235.250    0.225    0.371  103.252    7.973    0.000
  235.500    0.241    0.374  108.921    7.824    0.000
  235.750    0.252    0.381  111.439    7.824    0.000
  236.000    0.242    0.388  112.084    7.973    0.000
  236.250    0.261    0.390  111.472    7.973    0.000
  236.500    0.271    0.394  110.238    7.824    0.000
  236.750    0.248    0.398  112.758    7.824    0.000
  237.000    0.226    0.400  110.892    7.824    0.000
  237.250    0.216    0.405  107.142    7.678    0.000
  237.500    0.219    0.409  106.530    7.678    0.000
  237.750    0.228    0.402  108.432    7.534    0.000
  238.000    0.226    0.399  109.702    7.394    0.000
  238.250    0.215    0.396  107.833    7.394    0.000
  238.500    0.209    0.389  104.710    7.394    0.000
  238.750    0.206    0.391  104.098    7.394    0.000
  239.000    0.206    0.395  108.515    7.255    0.000
  239.250    0.218    0.380  107.893    7.255    0.000
  239.500    0.218    0.373  107.911    7.255    0.000
  239.750    0.211    0.380  111.693    7.255    0.000
  240.000    0.203    0.392  111.710    7.394    0.000
  240.250    0.203    0.405  109.217    7.534    0.000
  240.500    0.200    0.405  110.482    7.678    0.000
  240.750    0.193    0.403  111.753    7.678    0.000
  241.000    0.222    0.413  109.887    7.678    0.000
  241.250    0.239    0.413  107.392    7.678    0.000
  241.500    0.253    0.403  111.176    7.678    0.000
  241.750    0.257    0.402  112.443    7.678    0.000
  242.000    0.236    0.393  108.065    7.534    0.000
  242.250    0.223    0.375   99.924    7.534    0.000
  242.500    0.213    0.394  100.567    7.394    0.000
  242.750    0.219    0.425  106.231    7.255    0.000
  243.000    0.235    0.434  106.876    7.255    0.000
  243.250    0.246    0.420  106.263    7.120    0.000
  243.500    0.235    0.393  107.533    6.987    0.000
  243.750    0.231    0.379  108.804    6.856    0.000
  244.000    0.244    0.384  108.819    6.856    0.000
  244.250    0.246    0.404  111.973    6.987    0.000
  244.500    0.239    0.411  111.360    7.120    0.000
  244.750    0.251    0.410  105.733    6.987    0.000
  245.000    0.256    0.414  108.884    6.728    0.000
  245.250    0.243    0.424  109.526    6.479    0.000
  245.500    0.232    0.432  104.522    6.357    0.000
  245.750    0.227    0.429  100.771    6.239    0.000
  246.000    0.221    0.448   97.648    6.239    0.000
  246.250    0.232    0.445  100.804    6.239    0.000
  246.500    0.247    0.422  104.582    6.239    0.000
  246.750    0.242    0.422  107.737    6.007    0.000
  247.000    0.236    0.442  105.872    5.785    0.000
  247.250    0.263    0.459  103.375    5.364    0.000
  247.500    0.280    0.478  100.253    5.364    0.000
  247.750    0.281    0.460   93.996    5.364    0.000
  248.000    0.284    0.441   92.755    5.364    0.000
  248.250    0.295    0.443   94.023    5.166    0.000
  248.500    0.292    0.475   97.804    4.881    0.000
  248.750    0.261    0.489   94.055    4.790    0.000
  249.000    0.252    0.476   95.327    4.790    0.000
  249.250    0.277    0.456   95.969    4.974    0.000
