~VERSION INFORMATION
 VERS.                 2.0:   CWLS LOG ASCII STANDARD -VERSION 2.0
 WRAP.                  NO:   ONE LINE PER DEPTH STEP
~WELL INFORMATION BLOCK
#MNEM.UNIT           DATA                    DESCRIPTION OF MNEMONIC
#---------    -------------------            -------------------------------
# Generated from Intellog Unique Number	CS_67_68/WELL/662
WELL.         BURNT LAKE                     : Well_name    - WELL
LOC .         00/06-13-068-03W4/0            : Location     - LOCATION
UWI .         00/06-13-068-03W4/0            : Uwi          - UNIQUE WELL ID
ENTR.         SP                             : Entered      - ENTERED BY
SRVC.         SCHLUMBERGER                   : Scn          - SERVICE COMPANY
STRT.M        380                            : top_depth    - START DEPTH
STOP.M        620                            : bot_depth    - STOP DEPTH
STEP.M        0.25                           : increment    - STEP LENGTH
 NULL. -999.2500:NULL Value
~CURVE INFORMATION BLOCK
#MNEM UNIT       ERCB CURVE CODE    CURVE DESCRIPTION
#-----------   ------------------   ----------------------------------
DEPT.M        00 001 00 00         : DEPTH        - DEPTH
ILD .OHMM     00 120 00 00         : RESD         - DEEP RESISTIVITY (DIL)
DPHI.V/V      00 890 00 00         : PHID         - DENSITY POROSITY (LIMESTONE)
NPHI.V/V      00 330 00 00         : PHIN         - NEUTRON POROSITY (LIMESTONE)
GR  .API      00 310 00 00         : GR           - GAMMA RAY
~PARAMETER INFORMATION
#MNEM.UNIT           DATA             DESCRIPTION OF MNEMONIC
#---------         -----------     ------------------------------
GL  .M        722.86               : gl           - GROUND LEVEL ELEVATION
EREF.M        726.87               : kb           - ELEVATION OF DEPTH REFERENCE
DATM.M        722.86               : datum        - DATUM ELEVATION
TDD .M        630                  : tdd          - TOTAL DEPTH DRILLER
RUN .         ONE                  : Run          - RUN NUMBER
ENG .         BILL                 : Engineer     - RECORDING ENGINEER
WIT .         JIM                  : Witness      - WITNESSED BY
MUD .         GEL                  : Mud_type     - MUD TYPE
MATR.         LIMESTONE            : Logunit      - NEUTRON MATRIX
TMAX.C        18.3                 : BHT          - MAXIMUM RECORDED TEMPERATURE
BHTD.M        630                  : BHTDEP       - MAXIMUM RECORDED TEMPERATURE
MATR.         1                    : LOGUNIT      - NEUTRON MATRIX
RMT .C        25                   : MDTP         - TEMPERATURE OF MUD
NEUT.         1                    : NEUTRON      - NEUTRON TYPE
RESI.         0                    : RESIST       - RESISTIVITY TYPE
RMC .OHMM     0.25                 : RMC          - RESISTIVITY OF MUD CAKE
RMF .OHMM     0.25                 : RMF          - RESISTIVITY OF MUD FILTRATE
SUFT.C        15                   : SUFT         - SURFACE TEMPERATURE
~A  DEPTH     RESD     PHID     PHIN       GR
# ...
  423.500    7.912    0.277    0.435   81.842
  423.750    8.754    0.272    0.428   86.360
  424.000   10.056    0.270    0.438   89.231
  424.250   11.573    0.269    0.455   81.051
  424.500   13.022    0.061    0.405   73.481
  424.750   14.380    0.038    0.217   65.363
  425.000   15.266    0.030    0.188   60.541
  425.250   12.646    0.057    0.343   70.126
  425.500   10.146    0.148    0.399   78.552
  425.750    9.234    0.227    0.428   82.399
  426.000    7.957    0.279    0.450   85.880
  426.250    7.174    0.290    0.463   87.591
  426.500    6.959    0.288    0.476   88.080
  426.750    7.062    0.284    0.487   87.226
  427.000    7.286    0.286    0.481   85.639
  427.250    7.326    0.277    0.492   86.495
  427.500    7.421    0.262    0.478   89.121
  427.750    7.474    0.241    0.457   92.968
  428.000    7.471    0.243    0.455   96.510
  428.250    7.286    0.273    0.456   94.435
  428.500    7.258    0.291    0.440   88.087
  428.750    7.242    0.294    0.429   91.751
  429.000    7.212    0.296    0.438   92.240
  429.250    7.210    0.304    0.450   89.982
  429.500    7.166    0.299    0.449   91.937
  429.750    7.097    0.288    0.458   94.746
  430.000    6.870    0.280    0.450   96.761
  430.250    6.754    0.271    0.441   97.556
  430.500    6.638    0.267    0.453   94.810
  430.750    6.537    0.268    0.448   91.697
  431.000    6.534    0.270    0.439   88.951
  431.250    6.767    0.276    0.431   94.202
  431.500    6.830    0.288    0.431   98.049
  431.750    7.036    0.294    0.433  100.370
  432.000    7.181    0.284    0.426  102.019
  432.250    7.493    0.279    0.422  103.180
  432.500    7.577    0.277    0.419  100.067
  432.750    7.703    0.283    0.419   91.887
  433.000    7.715    0.292    0.430   87.248
  433.250    7.713    0.288    0.444   84.990
  433.500    7.652    0.289    0.446   87.372
  433.750    7.478    0.293    0.438   91.097
  434.000    7.241    0.289    0.432   92.869
  434.250    6.880    0.280    0.428   95.495
  434.500    6.260    0.272    0.426   99.586
  434.750    6.165    0.268    0.435  102.456
  435.000    6.094    0.266    0.455   99.222
  435.250    6.207    0.260    0.470   91.103
  435.500    6.370    0.250    0.456   84.144
  435.750    6.788    0.236    0.452   80.787
  436.000    7.524    0.229    0.467   77.308
  436.250    8.139    0.250    0.484   82.437
  436.500    8.607    0.266    0.477   85.552
  436.750    8.735    0.266    0.490   85.858
  437.000    8.699    0.251    0.507   80.303
  437.250    8.566    0.263    0.472   73.528
  437.500    8.467    0.289    0.444   66.447
  437.750    8.464    0.308    0.424   58.023
  438.000    8.621    0.330    0.412   48.988
  438.250    8.948    0.340    0.405   51.919
  438.500    9.234    0.338    0.401   51.188
  438.750    9.424    0.337    0.398   47.831
  439.000    9.582    0.336    0.408   45.268
  439.250    9.650    0.341    0.400   49.603
  439.500    9.538    0.349    0.401   53.816
  439.750    9.410    0.349    0.424   57.175
  440.000    9.143    0.352    0.452   61.022
  440.250    9.091    0.360    0.474   65.296
  440.500    8.986    0.371    0.493   69.510
  440.750    9.016    0.364    0.474   71.892
  441.000    9.150    0.355    0.452   73.724
  441.250    9.319    0.351    0.429   70.856
  441.500    9.457    0.350    0.421   63.225
  441.750    9.579    0.351    0.436   59.380
  442.000    9.575    0.346    0.443   57.977
  442.250    9.571    0.341    0.434   56.146
  442.500    9.568    0.339    0.434   53.156
  442.750    9.547    0.344    0.424   52.851
  443.000    9.472    0.348    0.410   53.890
  443.250    9.325    0.350    0.428   52.243
  443.500    9.289    0.353    0.448   51.694
  443.750    9.095    0.351    0.439   54.503
  444.000    8.940    0.347    0.431   60.609
  444.250    8.803    0.346    0.429   64.945
  444.500    8.620    0.348    0.430   67.388
  444.750    8.504    0.341    0.424   68.182
  445.000    8.438    0.331    0.425   69.892
  445.250    8.402    0.324    0.436   72.274
  445.500    8.415    0.318    0.426   74.290
  445.750    8.428    0.313    0.415   75.634
  446.000    8.457    0.308    0.409   75.390
  446.250    8.486    0.305    0.412   76.979
  446.500    8.449    0.306    0.419   79.421
  446.750    8.415    0.293    0.408   82.170
  447.000    8.381    0.270    0.397   84.002
  447.250    8.331    0.256    0.415   82.477
  447.500    8.188    0.263    0.442   79.791
  447.750    7.973    0.258    0.450   81.563
  448.000    7.590    0.255    0.442   89.317
  448.250    6.933    0.253    0.462   92.981
  448.500    6.285    0.255    0.478   95.668
  448.750    5.861    0.260    0.491   96.646
  449.000    5.642    0.270    0.496   93.900
  449.250    5.588    0.276    0.480   88.772
  449.500    5.639    0.280    0.471   85.904
  449.750    5.754    0.283    0.477   88.652
  450.000    5.894    0.285    0.500   81.754
  450.250    6.004    0.290    0.522   72.170
  450.500    6.220    0.281    0.475   64.051
  450.750    6.616    0.279    0.435   62.953
  451.000    7.035    0.290    0.419   60.757
  451.250    7.248    0.300    0.408   62.650
  451.500    7.579    0.294    0.400   63.078
  451.750    7.663    0.287    0.406   63.079
  452.000    7.603    0.281    0.422   62.286
  452.250    7.643    0.276    0.424   60.212
  452.500    7.917    0.289    0.424   57.099
  452.750    8.264    0.324    0.435   54.902
  453.000    8.513    0.383    0.460   57.528
  453.250    8.654    0.405    0.514   59.971
  453.500    8.668    0.387    0.515   59.239
  453.750    8.568    0.351    0.474   57.164
  454.000    8.327    0.330    0.442   57.410
  454.250    8.017    0.331    0.426   59.242
  454.500    7.850    0.332    0.424   61.258
  454.750    7.745    0.332    0.429   61.197
  455.000    7.640    0.344    0.437   58.573
  455.250    7.509    0.353    0.430   62.176
  455.500    7.367    0.358    0.449   68.038
  455.750    7.228    0.344    0.462   70.481
  456.000    7.077    0.329    0.450   72.008
  456.250    6.930    0.313    0.440   75.061
  456.500    6.824    0.308    0.451   75.489
  456.750    6.632    0.317    0.446   72.987
  457.000    6.433    0.323    0.443   71.340
  457.250    6.205    0.327    0.451   75.553
  457.500    5.930    0.319    0.457   80.011
  457.750    5.468    0.291    0.464   81.782
  458.000    5.176    0.268    0.463   83.798
  458.250    5.011    0.261    0.452   88.744
  458.500    4.934    0.257    0.446   93.689
  458.750    4.951    0.259    0.445   97.720
  459.000    5.100    0.283    0.446   97.537
  459.250    5.274    0.300    0.449   88.747
  459.500    5.322    0.320    0.433   82.826
  459.750    5.300    0.335    0.420   79.836
  460.000    4.914    0.323    0.418   84.659
  460.250    4.497    0.309    0.466   87.408
  460.500    4.163    0.301    0.500   78.984
  460.750    4.138    0.317    0.519   68.301
  461.000    4.393    0.334    0.481   58.839
  461.250    4.733    0.347    0.447   54.383
  461.500    4.867    0.355    0.447   56.826
  461.750    5.023    0.357    0.450   58.414
  462.000    5.050    0.351    0.437   58.049
  462.250    5.076    0.350    0.436   55.913
  462.500    5.084    0.353    0.444   55.304
  462.750    5.120    0.350    0.439   55.671
  463.000    5.157    0.344    0.425   54.756
  463.250    5.175    0.340    0.417   52.864
  463.500    5.144    0.340    0.412   52.438
  463.750    5.093    0.345    0.430   53.660
  464.000    5.035    0.353    0.458   54.149
  464.250    4.958    0.357    0.447   55.005
  464.500    4.882    0.359    0.443   55.250
  464.750    4.798    0.360    0.450   54.335
  465.000    4.779    0.360    0.462   52.199
  465.250    4.795    0.360    0.453   50.857
  465.500    4.848    0.357    0.440   50.797
  465.750    4.892    0.355    0.449   50.859
  466.000    4.889    0.352    0.459   50.981
  466.250    4.888    0.352    0.449   51.349
  466.500    4.877    0.354    0.438   52.021
  466.750    4.884    0.353    0.436   52.816
