~VERSION INFORMATION
 VERS.                 2.0:   CWLS LOG ASCII STANDARD -VERSION 2.0
 WRAP.                  NO:   ONE LINE PER DEPTH STEP
~WELL INFORMATION BLOCK
#MNEM.UNIT           DATA                    DESCRIPTION OF MNEMONIC
#---------    -------------------            -------------------------------
# Generated from Intellog Unique Number	CC_80_83/WELL/2299
NULL.         -999.25                        : NULL_VALUE
WELL.         HB HORSER                      : Well_name    - WELL              
LOC .         07-23-083-13W4                 : Location     - LOCATION          
UWI .         00/07-23-083-13W400            : Uwi          - UNIQUE WELL ID    
ENTR.         DW                             : Entered      - ENTERED BY        
SRVC.         SCHLUMBERGER                   : Scn          - SERVICE COMPANY   
DATE.         17 MAR 75                      : Date         - LOG DATE
STRT.M        91.44                          : top_depth    - START DEPTH       
STOP.M        338.328                        : bot_depth    - STOP DEPTH        
STEP.M        0.3048                         : increment    - STEP LENGTH       
~CURVE INFORMATION BLOCK
#MNEM UNIT       ERCB CURVE CODE    CURVE DESCRIPTION
#-----------   ------------------   ----------------------------------
DEPT.M        00 001 00 00         : DEPTH        - DEPTH                       
DPHI.V/V      00 890 00 00         : PHID         - DENSITY POROSITY (LIMESTONE)
NPHI.V/V      00 330 00 00         : PHIN         - NEUTRON POROSITY (LIMESTONE)
GR  .API      00 310 00 00         : GR           - GAMMA RAY                   
ILD .OHMM     00 120 00 00         : RESD         - DEEP RESISTIVITY (DIL)      
~PARAMETER INFORMATION       
#MNEM.UNIT           DATA             DESCRIPTION OF MNEMONIC
#---------         -----------     ------------------------------
GL  .M        561.442              : gl           - GROUND LEVEL ELEVATION      
EREF.M        563.88               : kb           - ELEVATION OF DEPTH REFERENCE
DATM.M        563.88               : datum        - DATUM ELEVATION             
TDD .M        353.263              : tdd          - TOTAL DEPTH DRILLER         
RUN .         ONE                  : Run          - RUN NUMBER                  
ENG .         BILL                 : Engineer     - RECORDING ENGINEER          
WIT .         JIM                  : Witness      - WITNESSED BY                
MUD .         GEL                  : Mud_type     - MUD TYPE                    
MATR.         LIMESTONE            : Logunit      - NEUTRON MATRIX              
TMAX.C        23.8889              : BHT          - MAXIMUM RECORDED TEMPERATURE
BHTD.M        353.263              : BHTDEP       - MAXIMUM RECORDED TEMPERATURE
MATR.         1                    : LOGUNIT      - NEUTRON MATRIX              
RMT .C        25                   : MDTP         - TEMPERATURE OF MUD          
NEUT.         1                    : NEUTRON      - NEUTRON TYPE                
RESI.         0                    : RESIST       - RESISTIVITY TYPE            
RMC .OHMM     0.25                 : RMC          - RESISTIVITY OF MUD CAKE     
RMF .OHMM     0.25                 : RMF          - RESISTIVITY OF MUD FILTRATE 
SUFT.C        4                    : SUFT         - SURFACE TEMPERATURE         
~A  DEPTH     PHID     PHIN       GR     RESD
   91.440    0.242    0.587  108.464    3.162
   91.745    0.225    0.573  107.607    3.164
   92.050    0.234    0.569  109.593    3.166
   92.354    0.239    0.574  111.983    3.168
   92.659    0.223    0.575  112.354    3.171
   92.964    0.240    0.573  110.275    3.114
   93.269    0.252    0.587  110.640    3.116
   93.574    0.223    0.567  111.003    3.118
   93.878    0.236    0.569  107.705    3.120
   94.183    0.244    0.580  109.291    3.122
   94.488    0.235    0.574  113.314    3.183
   94.793    0.263    0.590  113.675    3.185
   95.098    0.235    0.547  108.759    3.246
   95.402    0.228    0.543  105.053    3.310
   95.707    0.246    0.556  102.981    3.311
   96.012    0.243    0.574  105.371    3.376
   96.317    0.238    0.584  106.148    3.442
   96.622    0.222    0.601  102.445    3.443
   96.926    0.215    0.563  100.777    3.511
   97.231    0.235    0.557  100.331    3.646
   97.536    0.237    0.533  105.567    3.857
   97.841    0.261    0.554  107.147    3.860
   98.146    0.227    0.522  105.889    3.721
   98.450    0.247    0.537   97.315    3.522
   98.755    0.244    0.580   86.708    3.459
   99.060    0.240    0.574   75.292    3.593
   99.365    0.211    0.444   58.998    4.018
   99.670    0.231    0.418   67.082    4.331
   99.975    0.218    0.548   83.690    4.254
  100.279    0.041    0.583   60.496    4.671
  100.584    0.172    0.597   42.169    6.408
  100.889    0.234    0.602   51.879    6.907
  101.194    0.285    0.602  108.707    6.417
  101.498    0.275    0.603  107.852    5.234
  101.803    0.262    0.603  104.962    3.614
  102.108    0.256    0.602  101.663    2.687
  102.413    0.281    0.601  103.254    2.543
  102.718    0.261    0.601  101.583    2.690
  103.022    0.233    0.600  106.001    2.794
  103.327    0.237    0.599  105.551    3.011
  103.632    0.239    0.581  103.082    3.245
  103.937    0.242    0.572  100.192    3.433
  104.242    0.158    0.568  107.055    3.566
  104.546    0.230    0.537  115.952    3.568
  104.851    0.223    0.561  119.155    3.570
  105.156    0.231    0.564  116.674    3.573
  105.461    0.253    0.589  110.132    3.575
  105.766    0.246    0.566  107.644    3.713
  106.070    0.240    0.551  109.232    3.855
  106.375    0.223    0.544  112.848    3.931
  106.680    0.252    0.554  111.588    3.861
  106.985    0.241    0.551  108.695    3.722
  107.290    0.222    0.604  113.939    3.589
  107.595    0.210    0.603  117.948    3.461
  107.899    0.225    0.581  116.696    3.462
  108.204    0.238    0.562  114.215    3.802
  108.509    0.235    0.577  110.916    4.098
  108.814    0.207    0.562  108.437    4.256
  109.119    0.207    0.588  107.178    4.259
  109.423    0.208    0.570  105.919    4.183
  109.728    0.212    0.526  106.682    4.108
  110.033    0.228    0.555  106.636    3.889
  110.338    0.247    0.587  105.787    3.891
  110.643    0.226    0.604  102.899    3.894
  110.947    0.206    0.556  100.012    3.969
  111.252    0.204    0.543   95.910    4.121
  111.557    0.123    0.563   76.366    4.965
  111.862    0.167    0.539   60.885    6.813
  112.167    0.252    0.457   62.468    9.883
  112.471    0.236    0.438   81.110   13.064
  112.776    0.205    0.435   92.035   12.599
  113.081    0.222    0.435   98.486   11.923
  113.386    0.216    0.452   98.446   10.673
  113.691    0.240    0.464   95.962    9.733
  113.995    0.205    0.468   94.300    9.213
  114.300    0.213    0.448   93.041    9.048
  114.605    0.203    0.430   95.435    8.889
  114.910    0.219    0.469   92.142    8.892
  115.215    0.201    0.458   86.004    9.066
  115.519    0.229    0.455   81.488    9.414
  115.824    0.241    0.493   64.794   10.729
  116.129    0.304    0.496   59.870   12.456
  116.434    0.324    0.473   63.896   14.193
  116.739    0.306    0.463   82.947   15.582
  117.043    0.288    0.442  102.806   16.488
  117.348    0.231    0.444   92.609   16.193
  117.653    0.253    0.477   76.316   14.768
  117.958    0.236    0.450   77.485   12.737
  118.263    0.225    0.455   77.856   10.784
  118.567    0.225    0.509   74.561    9.653
  118.872    0.266    0.525   60.705    9.660
  119.177    0.287    0.475   60.653   10.411
  119.482    0.278    0.469   59.801   11.864
  119.787    0.298    0.435   57.323   13.773
  120.091    0.299    0.460   58.502   14.304
  120.396    0.270    0.458   53.585   16.001
  120.701    0.276    0.431   44.599   17.567
  121.006    0.299    0.404   44.148   18.932
  121.311    0.296    0.407   51.828   20.408
  121.615    0.283    0.428   55.038   20.419
  121.920    0.100    0.450   62.306   19.686
  122.225    0.172    0.425   77.293   16.981
  122.530    0.236    0.465  106.905   12.862
  122.835    0.225    0.528  116.204    8.715
  123.139    0.214    0.563  120.225    6.601
  123.444    0.224    0.582  124.240    5.286
  123.749    0.195    0.550  125.825    4.476
  124.054    0.206    0.559  117.253    3.933
  124.359    0.239    0.564  110.303    3.792
  124.663    0.251    0.574  103.760    3.725
  124.968    0.287    0.562   91.529    3.941
  125.273    0.243    0.527   86.206    4.574
  125.578    0.186    0.487   87.781    5.936
  125.883    0.131    0.448   86.933    7.994
  126.187    0.208    0.430  102.324   13.205
  126.492    0.201    0.465  112.843   14.233
  126.797    0.211    0.453  115.645   13.723
  127.102    0.208    0.482  102.191   12.058
  127.407    0.256    0.501   93.621   10.210
  127.711    0.262    0.500   89.109    9.844
  128.016    0.243    0.435   96.378   10.224
  128.321    0.244    0.465   93.899   11.020
  128.626    0.260    0.484   87.758   11.877
  128.931    0.277    0.500   82.842   12.800
  129.235    0.271    0.471   88.487   13.794
  129.540    0.265    0.452   85.597   15.146
  129.845    0.270    0.440   79.058   15.729
  130.150    0.302    0.439   81.044   16.953
  130.455    0.286    0.443   83.033   17.606
  130.759    0.285    0.463   75.680   18.285
  131.064    0.320    0.449   78.480   18.295
  131.369    0.289    0.455   78.832   18.308
  131.674    0.299    0.457   82.863   18.666
  131.979    0.286    0.453   90.129   19.749
  132.283    0.268    0.448   96.995   20.508
  132.588    0.278    0.444  103.041   20.522
  132.893    0.312    0.466  102.998   20.536
  133.198    0.301    0.471  103.769   20.551
  133.503    0.324    0.463   96.822   20.558
  133.807    0.318    0.460   87.029   20.959
  134.112    0.321    0.478   77.641   21.766
  134.417    0.297    0.473   82.877   21.781
  134.722    0.281    0.455   86.494   21.793
  135.027    0.282    0.452   90.103   21.018
  135.331    0.304    0.469   99.811   20.263
  135.636    0.290    0.496   99.358   19.535
  135.941    0.284    0.520   91.600   18.837
  136.246    0.290    0.495   92.777   18.159
  136.550    0.287    0.495  106.137   17.836
  136.855    0.205    0.475  115.034   17.198
  137.160    0.203    0.488  110.523   16.276
  137.465    0.238    0.505   95.041   15.123
  137.770    0.252    0.460   92.561   14.050
  138.074    0.290    0.480  101.047   13.295
  138.379    0.155    0.508  116.850   11.684
  138.684    0.128    0.479  123.306   10.458
  138.989    0.167    0.510  125.699    8.693
  139.294    0.173    0.502  119.967    7.638
  139.598    0.127    0.524  126.833    6.837
  139.903    0.171    0.538  124.757    6.121
  140.208    0.175    0.557  127.964    5.687
  140.513    0.159    0.532  130.358    5.585
  140.818    0.179    0.538  125.035    5.909
  141.122    0.133    0.550  116.055    6.488
  141.427    0.144    0.503  123.323    6.993
  141.732    0.172    0.482  131.812    7.129
  142.037    0.205    0.514  135.015    7.001
  142.342    0.194    0.545  140.659    5.819
  142.646    0.210    0.573  140.210    4.660
  142.951    0.228    0.586  135.701    3.801
  143.256    0.249    0.587  127.934    3.875
  143.561    0.268    0.594  119.771    4.335
  143.866    0.287    0.605  101.447    5.420
  144.170    0.321    0.478   86.374    7.299
