~VERSION INFORMATION
 VERS.                 2.0:   CWLS LOG ASCII STANDARD -VERSION 2.0
 WRAP.                  NO:   ONE LINE PER DEPTH STEP
~WELL INFORMATION BLOCK
#MNEM.UNIT           DATA                    DESCRIPTION OF MNEMONIC
#---------    -------------------            -------------------------------
# Generated from Intellog Unique Number	CW_73_75/WELL/2724
WELL.         GASCAN MITSUE 04-24            : Well_name    - WELL
LOC .         00/04-24-073-04W5/0            : Location     - LOCATION
UWI .         00/04-24-073-04W5/0            : Uwi          - UNIQUE WELL ID
ENTR.         JAYE                           : Entered      - ENTERED BY
SRVC.         SCHLUMBERGER                   : Scn          - SERVICE COMPANY
DATE.         1 FEB 82                       : Date         - LOG DATE
STRT.M        360                            : top_depth    - START DEPTH
STOP.M        570                            : bot_depth    - STOP DEPTH
STEP.M        0.25                           : increment    - STEP LENGTH
 NULL. -999.2500:NULL Value
~CURVE INFORMATION BLOCK
#MNEM UNIT       ERCB CURVE CODE    CURVE DESCRIPTION
#-----------   ------------------   ----------------------------------
DEPT.M        00 001 00 00         : DEPTH        - DEPTH
DPHI.V/V      00 890 00 00         : PHID         - DENSITY POROSITY (SANDSTONE)
NPHI.V/V      00 330 00 00         : PHIN         - NEUTRON POROSITY (SANDSTONE)
GR  .API      00 310 00 00         : GR           - GAMMA RAY
CALI.MM       00 280 01 00         : CAL          - CALIPER
ILD .OHMM     00 120 00 00         : RESD         - DEEP RESISTIVITY (DLL)
~PARAMETER INFORMATION
#MNEM.UNIT           DATA             DESCRIPTION OF MNEMONIC
#---------         -----------     ------------------------------
GL  .M        587                  : gl           - GROUND LEVEL ELEVATION
EREF.M        591.3                : kb           - ELEVATION OF DEPTH REFERENCE
DATM.M        587                  : datum        - DATUM ELEVATION
TDD .M        1624                 : tdd          - TOTAL DEPTH DRILLER
RUN .         ONE                  : Run          - RUN NUMBER
ENG .         WALTERHOUSE          : Engineer     - RECORDING ENGINEER
WIT .         IRELAND              : Witness      - WITNESSED BY
BASE.         EDM                  : Branch       - HOME BASE OF LOGGING UNIT
MUD .         GEL CHEM             : Mud_type     - MUD TYPE
MATR.         SANDSTONE            : Logunit      - NEUTRON MATRIX
TMAX.C        51.6                 : BHT          - MAXIMUM RECORDED TEMPERATURE
BHTD.M        1624                 : BHTDEP       - MAXIMUM RECORDED TEMPERATURE
RMT .C        51.6                 : MDTP         - TEMPERATURE OF MUD
MUDD.KG/M     1110                 : MWT          - MUD DENSITY
NEUT.         0                    : NEUTRON      - NEUTRON TYPE
RESI.         1                    : RESIST       - RESISTIVITY TYPE
RM  .OHMM     0                    : RM           - RESISTIVITY OF MUD
RMC .OHMM     0                    : RMC          - RESISTIVITY OF MUD CAKE
RMF .OHMM     0                    : RMF          - RESISTIVITY OF MUD FILTRATE
SUFT.C        0                    : SUFT         - SURFACE TEMPERATURE
~A  DEPTH     PHID     PHIN       GR      CAL     RESD
# ...
  542.500    0.211    0.329   71.183  273.210    7.847
  542.750    0.182    0.296   66.631  269.268    8.822
  543.000    0.161    0.297   74.450  270.115   10.086
  543.250    0.156    0.295   79.207  271.067    9.612
  543.500    0.156    0.287   79.840  270.770    9.058
  543.750    0.168    0.287   84.285  270.473    8.113
  544.000    0.218    0.345   87.479  271.945    7.688
  544.250    0.228    0.366   90.175  272.584    7.550
  544.500    0.237    0.389   88.434  274.161    7.859
  544.750    0.248    0.371   83.945  272.406    8.211
  545.000    0.241    0.350   80.643  267.423    8.758
  545.250    0.232    0.358   78.840  268.061    9.537
  545.500    0.239    0.376   77.599  266.723   10.503
  545.750    0.278    0.371   75.796  261.739   10.831
  546.000    0.297    0.352   71.495  266.544    9.574
  546.250    0.226    0.324   69.254  278.533    7.633
  546.500    0.189    0.317   77.822  288.961    6.402
  546.750    0.202    0.356   83.766  298.659    6.055
  547.000    0.238    0.387   85.149  300.757    6.116
  547.250    0.263    0.398   83.285  300.667    6.439
  547.500    0.255    0.394   82.919  307.450    6.985
  547.750    0.252    0.378   83.177  302.571    7.607
  548.000    0.274    0.363   81.186  297.588    8.221
  548.250    0.260    0.346   78.947  300.622    8.985
  548.500    0.256    0.352   78.081  308.238    9.110
  548.750    0.278    0.376   75.090  314.812    8.378
  549.000    0.234    0.383   75.161  320.035    7.703
  549.250    0.191    0.384   78.232  321.506    6.861
  549.500    0.203    0.379   80.927  321.729    6.405
  549.750    0.224    0.393   82.248  321.745    6.325
  550.000    0.240    0.397   83.444  321.967    6.597
  550.250    0.240    0.382   83.515  322.920    7.389
  550.500    0.218    0.359   82.587  323.559    8.001
  550.750    0.214    0.366   77.473  323.364    8.021
  551.000    0.222    0.383   71.234  321.923    7.832
  551.250    0.243    0.379   74.991  320.895    7.577
  551.500    0.248    0.407   77.499  321.432    7.034
  551.750    0.245    0.385   77.945  326.443    6.407
  552.000    0.285    0.357   79.267  347.491    5.590
  552.250    0.740    0.443   72.966  412.271    4.541
  552.500    0.814    0.496   67.163  501.938    3.103
  552.750    0.814    0.604   57.864  542.874    2.317
  553.000    0.732    0.530   51.500  540.182    1.707
  553.250    0.732    0.515   56.820  514.998    1.321
  553.500    0.839    0.500   62.076  495.333    1.219
  553.750    0.678    0.484   68.145  452.552    1.211
  554.000    0.597    0.473   69.403  432.055    1.237
  554.250    0.484    0.461   70.225  438.004    1.314
  554.500    0.534    0.552   77.793  478.628    1.397
  554.750    0.732    0.580   70.492  465.731    1.535
  555.000    0.745    0.557   68.002  417.640    1.775
  555.250    0.547    0.524   69.573  371.528    1.944
  555.500    0.396    0.483   75.579  355.923    2.374
  555.750    0.286    0.446   73.401  341.153    3.154
  556.000    0.228    0.349   68.725  323.257    4.544
  556.250    0.296    0.435   71.920  335.663    5.294
  556.500    0.323    0.463   74.990  340.363    7.669
  556.750    0.554    0.445   76.998  414.723    7.503
  557.000    0.501    0.430   79.256  380.793    6.836
  557.250    0.466    0.395   81.951  364.878    6.262
  557.500    0.520    0.403   81.522  351.355    6.047
  557.750    0.583    0.420   78.907  342.311    6.005
  558.000    0.554    0.432   77.854  405.114    5.931
  558.250    0.528    0.450   79.300  397.736    5.968
  558.500    0.472    0.452   80.809  362.973    6.063
  558.750    0.312    0.414   81.318  326.335    5.965
  559.000    0.214    0.392   81.576  319.685    5.749
  559.250    0.232    0.417   82.585  306.685    5.468
  559.500    0.299    0.451   83.781  336.480    5.133
  559.750    0.376    0.481   85.163  361.173    4.659
  560.000    0.332    0.467   88.296  311.311    4.415
  560.250    0.306    0.449   91.178  294.041    4.613
  560.500    0.282    0.426   90.500  311.133    5.255
  560.750    0.234    0.390   95.819  284.491    5.841
  561.000    0.172    0.339  100.201  258.058    6.035
  561.250    0.138    0.332   95.462  269.838    6.235
  561.500    0.195    0.360   94.159  282.349    6.417
  561.750    0.208    0.380   97.917  283.197    6.556
  562.000    0.145    0.362   99.487  272.383    6.659
  562.250    0.142    0.340   93.687  262.402    7.024
  562.500    0.143    0.313   96.381  260.334    7.867
  562.750    0.133    0.310   98.389  258.579    8.281
  563.000    0.123    0.335  101.709  257.759    8.011
  563.250    0.177    0.343  100.595  257.672    7.592
  563.500    0.199    0.357  101.227  257.893    7.344
  563.750    0.217    0.377  103.422  259.262    7.038
  564.000    0.192    0.396  104.618  264.795    6.796
  564.250    0.203    0.414   98.567  271.994    7.088
  564.500    0.225    0.373   74.273  269.197    8.028
  564.750    0.137    0.347   59.288  250.886    9.111
  565.000    0.043    0.109   35.744  235.698   11.573
  565.250    0.024    0.090   29.818  224.363   14.373
  565.500    0.032    0.076   30.015  224.483   19.170
  565.750    0.040    0.084   29.148  224.185   25.763
  566.000    0.062    0.109   23.784  224.616   25.300
  566.250    0.081    0.116   23.793  224.944   24.156
  566.500    0.092    0.116   25.801  225.690   22.423
  566.750    0.089    0.118   23.623  226.119   20.814
  567.000    0.082    0.125   24.508  227.175   19.761
  567.250    0.090    0.136   26.765  228.544   19.188
  567.500    0.088    0.146   27.711  229.912   18.986
  567.750    0.089    0.148   26.970  230.968   19.178
  568.000    0.096    0.144   26.666  233.170   19.517
  568.250    0.094    0.140   26.301  235.058   19.642
  568.500    0.086    0.138   26.309  236.009   19.654
  568.750    0.105    0.140   26.755  236.545   19.630
  569.000    0.107    0.142   27.701  236.975   19.606
  569.250    0.101    0.142   29.896  237.511   19.619
  569.500    0.102    0.140   29.780  238.567   19.819
  569.750    0.105    0.136   26.979  240.769   20.056
  570.000    0.103    0.130   23.239  242.658   20.258
