~VERSION INFORMATION
 VERS.                 2.0:   CWLS LOG ASCII STANDARD -VERSION 2.0
 WRAP.                  NO:   ONE LINE PER DEPTH STEP
~WELL INFORMATION BLOCK
#MNEM.UNIT           DATA                    DESCRIPTION OF MNEMONIC
#---------    -------------------            -------------------------------
# Generated from Intellog Unique Number	CN_91_93/WELL/2991
WELL.         GULF OIL CANADA LTD.           : Well_name    - WELL
LOC .         00/05-12-093-20W4/0            : Location     - LOCATION
UWI .         00/05-12-093-20W4/0            : Uwi          - UNIQUE WELL ID
ENTR.         JOETTE                         : Entered      - ENTERED BY
SRVC.         SCHLUMBERGER                   : Scn          - SERVICE COMPANY
DATE.         04/07/92                       : Date         - LOG DATE
STRT.F        350                            : top_depth    - START DEPTH
STOP.F        810.138                        : bot_depth    - STOP DEPTH
STEP.F        0.82                           : increment    - STEP LENGTH
 NULL. -999.2500:NULL Value
~CURVE INFORMATION BLOCK
#MNEM UNIT       ERCB CURVE CODE    CURVE DESCRIPTION
#-----------   ------------------   ----------------------------------
DEPT.F        00 001 00 00         : DEPTH        - DEPTH
CALI.IN       00 280 01 00         : CAL          - CALIPER
GR  .API      00 310 00 00         : GR           - GAMMA RAY
NPHI.V/V      00 330 00 00         : PHIN         - NEUTRON POROSITY (SANDSTONE)
DPHI.V/V      00 890 00 00         : PHID         - DENSITY POROSITY (SANDSTONE)
ILD .OHMM     00 120 00 00         : RESD         - DEEP RESISTIVITY (DIL)
~PARAMETER INFORMATION
#MNEM.UNIT           DATA             DESCRIPTION OF MNEMONIC
#---------         -----------     ------------------------------
GL  .F        1762                 : gl           - GROUND LEVEL ELEVATION
EREF.F        1767                 : kb           - ELEVATION OF DEPTH REFERENCE
DATM.F        1767                 : datum        - DATUM ELEVATION
TDD .F        840                  : tdd          - TOTAL DEPTH DRILLER
RUN .         ONE                  : Run          - RUN NUMBER
ENG .         BILL                 : Engineer     - RECORDING ENGINEER
WIT .         JIM                  : Witness      - WITNESSED BY
MUD .         GEL                  : Mud_type     - MUD TYPE
MATR.         SANDSTONE            : Logunit      - NEUTRON MATRIX
TMAX.F        85                   : BHT          - MAXIMUM RECORDED TEMPERATURE
BHTD.F        840                  : BHTDEP       - MAXIMUM RECORDED TEMPERATURE
RMT .F        54                   : MDTP         - TEMPERATURE OF MUD
MUDD.LB/G     9.5                  : MWT          - MUD DENSITY
NEUT.         1                    : NEUTRON      - NEUTRON TYPE
RESI.         0                    : RESIST       - RESISTIVITY TYPE
RM  .OHMM     2.01                 : RM           - RESISTIVITY OF MUD
RMC .OHMM     2.01                 : RMC          - RESISTIVITY OF MUD CAKE
RMF .OHMM     2.01                 : RMF          - RESISTIVITY OF MUD FILTRATE
SUFT.F        -4                   : SUFT         - SURFACE TEMPERATURE
~A  DEPTH      CAL       GR     PHIN     PHID     RESD
# ...
  709.252    6.689   79.166    0.408    0.152    9.723
  710.072    6.789   86.765    0.440    0.196    9.998
  710.892    6.946   91.755    0.463    0.203   10.190
  711.713    6.911   92.659    0.465    0.206   10.378
  712.533    6.951   91.535    0.462    0.190   10.767
  713.353    7.070   88.366    0.468    0.170   10.869
  714.173    7.053   83.748    0.436    0.140   11.380
  714.993    6.959   81.174    0.440    0.164   11.699
  715.814    6.922   83.533    0.444    0.190   12.030
  716.634    6.944   85.900    0.454    0.189   12.030
  717.454    7.044   84.772    0.470    0.190   12.267
  718.274    7.104   85.680    0.478    0.189   12.495
  719.094    7.068   86.588    0.489    0.183   12.500
  719.915    7.012   81.974    0.424    0.168   12.062
  720.735    6.917   82.296    0.391    0.154   11.533
  721.555    6.920   93.099    0.416    0.136   10.829
  722.375    7.058   98.080    0.439    0.175   10.170
  723.196    7.022   98.120    0.452    0.197   10.170
  724.016    6.986   95.246    0.447    0.206    9.644
  724.836    7.007   92.950    0.474    0.203    9.220
  725.656    7.048   91.831    0.451    0.206    8.978
  726.476    7.090   89.826    0.428    0.200    8.901
  727.297    7.073   86.953    0.437    0.193    9.070
  728.117    6.978   87.284    0.473    0.202    9.157
  728.937    7.039   88.483    0.443    0.191    9.161
  729.757    7.100   88.819    0.421    0.182    8.841
  730.577    7.063   89.727    0.404    0.187    8.607
  731.398    7.027   88.013    0.405    0.174    8.083
  732.218    6.991   91.534    0.411    0.169    7.660
  733.038    6.973   93.324    0.436    0.176    7.391
  733.858    6.996   91.028    0.443    0.127    7.394
  734.678    6.920   89.032    0.440    0.100    7.955
  735.499    6.903   92.554    0.445    0.094    7.955
  736.319    6.945   99.580    0.430    0.135    9.635
  737.139    6.986   93.211    0.365    0.179   12.421
  737.959    6.969   71.717    0.288    0.193   21.212
  738.780    6.661   57.786    0.256    0.307   25.671
  739.600    6.528   35.132    0.135    0.330   32.218
  740.420    6.472   20.910    0.124    0.371  106.605
  741.240    6.455   22.122    0.138    0.416  183.728
  742.060    6.476   22.145    0.153    0.425  224.361
  742.881    6.460   22.476    0.155    0.423  241.370
  743.701    6.366   22.225    0.155    0.420  194.309
  744.521    6.329   22.260    0.160    0.399  182.450
  745.341    6.312   22.878    0.163    0.401  196.269
  746.161    6.315   22.913    0.156    0.388  224.990
  746.982    6.336   22.958    0.151    0.402  213.195
  747.802    6.358   22.112    0.160    0.405  191.317
  748.622    6.283   20.407    0.172    0.408  178.055
  749.442    6.246   22.187    0.158    0.405  209.694
  750.262    6.249   22.805    0.155    0.405  225.591
  751.083    6.348   23.136    0.155    0.406  240.473
  751.903    6.351   23.176    0.169    0.393  236.277
  752.723    6.334   23.203    0.192    0.380  208.249
  753.543    6.336   23.247    0.219    0.370  192.040
  754.364    6.358   25.314    0.233    0.374  190.419
  755.184    6.399   29.422    0.236    0.375  167.809
  756.004    6.363   36.734    0.244    0.376   85.094
  756.824    6.307   39.106    0.281    0.375   43.150
  757.644    6.290   35.060    0.327    0.366   29.509
  758.465    6.293   32.773    0.399    0.357   27.708
  759.285    6.335   35.718    0.426    0.331   24.644
  760.105    6.394   36.635    0.434    0.324   21.918
  760.925    6.455   35.502    0.431    0.320   21.928
  761.745    6.497   35.538    0.434    0.323   26.540
  762.566    6.499   37.324    0.442    0.323   31.540
  763.386    6.482   38.809    0.444    0.323   38.871
  764.206    6.465   37.681    0.444    0.326   53.892
  765.026    6.448   37.135    0.437    0.323   75.401
  765.846    6.528   33.389    0.443    0.320   90.429
  766.667    6.589   33.720    0.449    0.320  114.519
  767.487    6.746   42.486    0.440    0.326  145.018
  768.307    6.884   50.085    0.440    0.319  180.352
  769.127    6.732   58.852    0.437    0.318  210.497
  769.948    6.676   55.688    0.442    0.313  212.551
  770.768    6.601   48.451    0.453    0.319  190.726
  771.588    6.565   44.710    0.458    0.320  184.081
  772.408    6.565   46.490    0.463    0.317  185.829
  773.228    6.550   47.980    0.449    0.321  179.308
  774.049    6.553   48.593    0.445    0.317  168.364
  774.869    6.574   49.506    0.452    0.311  148.412
  775.689    6.616   51.882    0.461    0.308  182.872
  776.509    6.618   52.777    0.452    0.304  198.514
  777.329    6.601   50.785    0.440    0.317  209.728
  778.150    6.584   50.235    0.433    0.321  130.994
  778.970    6.548   52.306    0.443    0.315  138.385
  779.790    6.550   52.051    0.450    0.318  193.618
  780.610    6.572   48.887    0.458    0.322  232.208
  781.430    6.613   47.473    0.458    0.322  234.444
  782.251    6.654   47.217    0.464    0.317  141.219
  783.071    6.657   47.839    0.460    0.322  197.583
  783.891    6.698   48.748    0.463    0.313  236.978
  784.711    6.720   48.779    0.468    0.318  241.422
  785.531    6.722   48.532    0.471    0.325  224.657
  786.352    6.686   50.309    0.484    0.329  187.530
  787.172    6.630   50.053    0.488    0.329  226.953
  787.992    6.594   52.707    0.514    0.323  237.611
  788.812    6.577   60.310    0.492    0.323   23.581
  789.633    6.599   69.658    0.456    0.316   20.783
  790.453    6.621   79.007    0.450    0.298   21.367
  791.273    6.603   78.760    0.448    0.280   22.166
  792.093    6.567   79.078    0.434    0.264   19.894
  792.913    6.512   69.514    0.396    0.242   15.166
  793.734    6.494   62.564    0.367    0.100   22.202
  794.554    6.536   53.873    0.332    0.048   25.916
  795.374    6.732   49.255    0.258    0.010   27.877
  796.194    6.754   60.648    0.216    0.017   29.450
  797.014    6.737   63.297    0.235    0.038   31.683
  797.835    6.739   61.879    0.242    0.047   33.169
  798.655    6.742   57.551    0.233    0.060   33.492
  799.475    6.706   52.346    0.229    0.047   34.431
  800.295    6.747   48.018    0.215    0.042   36.050
  801.115    6.711   36.128    0.181    0.025   42.843
  801.936    6.693   31.800    0.167    0.011   50.915
  802.756    6.696   38.535    0.145   -0.006   65.069
  803.576    6.718   41.188    0.135   -0.003   71.278
  804.396    6.759   45.587    0.172    0.001   71.315
  805.217    6.781   54.349    0.209    0.010   53.392
  806.037    6.783   58.462    0.218    0.019   46.211
  806.857    6.767   61.120    0.213    0.035   47.512
  807.677    6.769   56.788    0.207    0.048   48.843
  808.497    6.771   52.174    0.215    0.035   45.874
  809.318    6.774   53.664    0.226    0.024   42.301
  810.138    6.757   53.986    0.227    0.023   39.006
