~VERSION INFORMATION
 VERS.                 2.0:   CWLS LOG ASCII STANDARD -VERSION 2.0
 WRAP.                  NO:   ONE LINE PER DEPTH STEP
~WELL INFORMATION BLOCK
#MNEM.UNIT           DATA                    DESCRIPTION OF MNEMONIC
#---------    -------------------            -------------------------------
# Generated from Intellog Unique Number	CS_69_70/WELL/769
WELL.         INTER-CITY CITY GAS            : Well_name    - WELL
LOC .         00/06-08-070-16W4/0            : Location     - LOCATION
UWI .         00/06-08-070-16W4/0            : Uwi          - UNIQUE WELL ID
ENTR.         SP                             : Entered      - ENTERED BY
SRVC.         SCHLUMBERGER                   : Scn          - SERVICE COMPANY
STRT.M        285                            : top_depth    - START DEPTH
STOP.M        485                            : bot_depth    - STOP DEPTH
STEP.M        0.25                           : increment    - STEP LENGTH
 NULL. -999.2500:NULL Value
~CURVE INFORMATION BLOCK
#MNEM UNIT       ERCB CURVE CODE    CURVE DESCRIPTION
#-----------   ------------------   ----------------------------------
DEPT.M        00 001 00 00         : DEPTH        - DEPTH
ILD .OHMM     00 120 00 00         : RESD         - DEEP RESISTIVITY (DIL)
DPHI.V/V      00 890 00 00         : PHID         - DENSITY POROSITY (LIMESTONE)
NPHI.V/V      00 330 00 00         : PHIN         - NEUTRON POROSITY (LIMESTONE)
GR  .API      00 310 00 00         : GR           - GAMMA RAY
~PARAMETER INFORMATION
#MNEM.UNIT           DATA             DESCRIPTION OF MNEMONIC
#---------         -----------     ------------------------------
GL  .M        569.4                : gl           - GROUND LEVEL ELEVATION
EREF.M        573                  : kb           - ELEVATION OF DEPTH REFERENCE
DATM.M        569.4                : datum        - DATUM ELEVATION
TDD .M        493.5                : tdd          - TOTAL DEPTH DRILLER
RUN .         ONE                  : Run          - RUN NUMBER
ENG .         BILL                 : Engineer     - RECORDING ENGINEER
WIT .         JIM                  : Witness      - WITNESSED BY
MUD .         GEL                  : Mud_type     - MUD TYPE
MATR.         LIMESTONE            : Logunit      - NEUTRON MATRIX
TMAX.C        22.5                 : BHT          - MAXIMUM RECORDED TEMPERATURE
BHTD.M        493.5                : BHTDEP       - MAXIMUM RECORDED TEMPERATURE
MATR.         1                    : LOGUNIT      - NEUTRON MATRIX
RMT .C        25                   : MDTP         - TEMPERATURE OF MUD
NEUT.         1                    : NEUTRON      - NEUTRON TYPE
RESI.         0                    : RESIST       - RESISTIVITY TYPE
RMC .OHMM     0.25                 : RMC          - RESISTIVITY OF MUD CAKE
RMF .OHMM     0.25                 : RMF          - RESISTIVITY OF MUD FILTRATE
SUFT.C        15                   : SUFT         - SURFACE TEMPERATURE
~A  DEPTH     RESD     PHID     PHIN       GR
  285.000    3.055    0.189    0.546   98.576
  285.250    3.073    0.181    0.547   97.678
  285.500    3.107    0.172    0.520   92.973
  285.750    3.165    0.184    0.493   92.015
  286.000    3.303    0.191    0.503   96.012
  286.250    3.498    0.187    0.524   97.715
  286.500    3.709    0.196    0.499   96.997
  286.750    3.864    0.199    0.472   95.799
  287.000    4.018    0.179    0.461   95.626
  287.250    4.012    0.175    0.473   96.118
  287.500    3.932    0.187    0.484   96.731
  287.750    3.692    0.195    0.494   96.197
  288.000    3.395    0.185    0.508   95.177
  288.250    3.131    0.179    0.543   93.795
  288.500    2.914    0.197    0.572   93.260
  288.750    2.779    0.180    0.533   94.238
  289.000    2.764    0.192    0.516   94.971
  289.250    3.007    0.192    0.506   96.610
  289.500    3.105    0.206    0.511   99.581
  289.750    3.131    0.200    0.528  100.437
  290.000    3.124    0.194    0.519   99.961
  290.250    3.077    0.188    0.525  100.091
  290.500    3.047    0.181    0.522  101.429
  290.750    3.096    0.169    0.517  102.405
  291.000    3.219    0.190    0.527  102.232
  291.250    3.413    0.207    0.532  101.214
  291.500    3.334    0.198    0.501   98.624
  291.750    3.207    0.196    0.488   95.671
  292.000    3.103    0.190    0.486   93.504
  292.250    3.024    0.179    0.486   92.848
  292.500    3.025    0.181    0.489   92.434
  292.750    3.148    0.181    0.494   88.937
  293.000    3.383    0.174    0.502   80.667
  293.250    3.578    0.187    0.498   71.367
  293.500    3.724    0.184    0.383   65.030
  293.750    3.936    0.148    0.348   65.220
  294.000    4.058    0.180    0.360   69.399
  294.250    4.108    0.217    0.372   72.853
  294.500    3.964    0.214    0.381   74.554
  294.750    3.764    0.200    0.392   75.470
  295.000    3.604    0.185    0.398   77.171
  295.250    3.613    0.198    0.409   75.789
  295.500    3.663    0.217    0.404   75.073
  295.750    3.713    0.209    0.393   77.197
  296.000    3.771    0.213    0.393   78.717
  296.250    3.845    0.197    0.402   79.391
  296.500    3.919    0.207    0.405   81.152
  296.750    3.985    0.218    0.405   83.277
  297.000    4.059    0.200    0.411   83.889
  297.250    4.149    0.183    0.419   83.717
  297.500    4.263    0.178    0.422   83.484
  297.750    4.345    0.181    0.408   83.372
  298.000    4.403    0.187    0.399   83.441
  298.250    4.340    0.199    0.396   84.115
  298.500    4.148    0.201    0.393   84.184
  298.750    4.036    0.186    0.391   80.385
  299.000    3.998    0.195    0.389   74.531
  299.250    4.249    0.227    0.396   66.564
  299.500    4.524    0.268    0.403   60.770
  299.750    4.736    0.300    0.464   54.493
  300.000    4.567    0.334    0.467   48.881
  300.250    3.908    0.313    0.409   43.148
  300.500    3.216    0.301    0.392   37.959
  300.750    2.742    0.299    0.384   33.555
  301.000    2.469    0.296    0.385   34.834
  301.250    2.269    0.291    0.389   37.019
  301.500    2.109    0.291    0.392   39.264
  301.750    2.046    0.294    0.393   41.267
  302.000    2.047    0.304    0.399   44.177
  302.250    2.121    0.300    0.406   47.329
  302.500    2.187    0.305    0.402   50.660
  302.750    2.277    0.310    0.400   55.505
  303.000    2.400    0.292    0.401   59.563
  303.250    2.482    0.280    0.402   63.683
  303.500    2.604    0.280    0.403   66.289
  303.750    2.678    0.271    0.406   69.078
  304.000    2.752    0.256    0.412   71.807
  304.250    2.794    0.252    0.424   73.025
  304.500    2.836    0.254    0.411   68.622
  304.750    2.926    0.264    0.397   62.828
  305.000    3.000    0.269    0.388   56.129
  305.250    3.315    0.254    0.389   56.439
  305.500    3.696    0.228    0.395   65.273
  305.750    3.947    0.196    0.400   72.353
  306.000    4.094    0.199    0.390   77.559
  306.250    4.047    0.200    0.384   81.012
  306.500    3.710    0.206    0.381   76.670
  306.750    3.485    0.207    0.389   72.994
  307.000    3.253    0.197    0.400   72.154
  307.250    3.093    0.227    0.410   72.647
  307.500    3.167    0.251    0.420   76.524
  307.750    3.434    0.154    0.407   81.247
  308.000    3.694    0.133    0.406   90.140
  308.250    3.720    0.168    0.432  102.055
  308.500    3.705    0.176    0.449  105.630
  308.750    3.682    0.183    0.460  106.303
  309.000    3.667    0.191    0.463  109.214
  309.250    3.637    0.179    0.459  112.667
  309.500    3.582    0.172    0.455  113.764
  309.750    3.591    0.158    0.462  113.834
  310.000    3.584    0.145    0.455  113.842
  310.250    3.578    0.159    0.451  112.884
  310.500    3.507    0.151    0.464  111.140
  310.750    3.387    0.143    0.484  109.035
  311.000    3.163    0.140    0.499  108.377
  311.250    2.729    0.155    0.491  111.348
  311.500    2.714    0.192    0.512  113.110
  311.750    2.917    0.215    0.532  113.542
  312.000    3.031    0.231    0.548  109.864
  312.250    3.138    0.247    0.521   99.658
  312.500    3.220    0.273    0.452   87.942
  312.750    3.301    0.268    0.445   78.945
  313.000    3.384    0.270    0.451   76.899
  313.250    3.450    0.279    0.459   78.239
  313.500    3.508    0.290    0.455   79.334
  313.750    3.557    0.279    0.456   80.128
  314.000    3.648    0.268    0.464   80.742
  314.250    3.713    0.260    0.471   82.383
  314.500    3.755    0.262    0.463   85.233
  314.750    3.861    0.257    0.457   90.200
  315.000    3.919    0.244    0.453   92.502
  315.250    3.985    0.223    0.470   94.748
  315.500    4.075    0.200    0.480   94.575
  315.750    4.117    0.187    0.481   92.650
  316.000    4.143    0.196    0.477   89.939
  316.250    4.112    0.212    0.478   88.498
  316.500    4.016    0.225    0.472   88.991
  316.750    3.856    0.223    0.464   90.267
  317.000    3.688    0.198    0.456   92.573
  317.250    3.666    0.183    0.489   95.724
  317.500    3.675    0.171    0.513  101.535
  317.750    3.709    0.178    0.527  102.633
  318.000    3.751    0.192    0.512  102.400
  318.250    3.808    0.202    0.495  101.199
  318.500    3.866    0.209    0.464   98.488
  318.750    3.884    0.215    0.449   91.184
  319.000    3.845    0.229    0.439   80.858
  319.250    3.806    0.228    0.440   74.762
  319.500    3.823    0.221    0.444   78.942
  319.750    3.963    0.211    0.443   86.746
  320.000    4.044    0.207    0.439   92.376
  320.250    4.295    0.210    0.440   95.709
  320.500    4.523    0.214    0.439   97.289
  320.750    4.726    0.217    0.441   97.359
  321.000    4.880    0.206    0.432   95.858
  321.250    5.003    0.199    0.434   95.624
  321.500    5.068    0.197    0.436   95.874
  321.750    4.989    0.194    0.427   96.671
  322.000    4.797    0.208    0.423   97.647
  322.250    4.710    0.220    0.429   98.378
  322.500    4.615    0.225    0.441  101.955
  322.750    4.552    0.202    0.450  105.105
  323.000    4.561    0.194    0.461  108.861
  323.250    4.595    0.214    0.452  110.986
  323.500    4.588    0.227    0.433  109.725
  323.750    4.525    0.240    0.430  107.014
  324.000    4.478    0.248    0.438  101.281
  324.250    4.447    0.251    0.451   96.939
  324.500    4.456    0.241    0.457   92.112
  324.750    4.538    0.222    0.410   91.818
  325.000    4.653    0.184    0.392   96.604
  325.250    4.767    0.175    0.393   99.814
  325.500    4.672    0.176    0.403  102.845
  325.750    4.391    0.178    0.418  103.942
  326.000    4.151    0.173    0.433  105.704
  326.250    3.942    0.168    0.445  111.273
  326.500    3.758    0.171    0.465  112.309
  326.750    3.647    0.167    0.477  112.621
  327.000    3.536    0.201    0.478  113.415
  327.250    3.457    0.217    0.472  111.428
  327.500    3.377    0.223    0.474  103.157
  327.750    3.346    0.239    0.483   97.122
  328.000    3.323    0.236    0.478   92.114
  328.250    3.317    0.224    0.479   87.591
