~VERSION INFORMATION
 VERS.                 2.0:   CWLS LOG ASCII STANDARD -VERSION 2.0
 WRAP.                  NO:   ONE LINE PER DEPTH STEP
~WELL INFORMATION BLOCK
#MNEM.UNIT           DATA                    DESCRIPTION OF MNEMONIC
#---------    -------------------            -------------------------------
# Generated from Intellog Unique Number	CS_77_79/WELL/842
WELL.         DOME PETROLEUM LIMITED         : Well_name    - WELL
LOC .         00/02-25-077-10W4/0            : Location     - LOCATION
UWI .         00/02-25-077-10W4/0            : Uwi          - UNIQUE WELL ID
ENTR.         SP                             : Entered      - ENTERED BY
SRVC.         SCHLUMBERGER                   : Scn          - SERVICE COMPANY
STRT.M        190                            : top_depth    - START DEPTH
STOP.M        430                            : bot_depth    - STOP DEPTH
STEP.M        0.25                           : increment    - STEP LENGTH
 NULL. -999.2500:NULL Value
~CURVE INFORMATION BLOCK
#MNEM UNIT       ERCB CURVE CODE    CURVE DESCRIPTION
#-----------   ------------------   ----------------------------------
DEPT.M        00 001 00 00         : DEPTH        - DEPTH
GR  .API      00 310 00 00         : GR           - GAMMA RAY
DPHI.V/V      00 890 00 00         : PHID         - DENSITY POROSITY (LIMESTONE)
NPHI.V/V      00 330 00 00         : PHIN         - NEUTRON POROSITY (LIMESTONE)
ILD .OHMM     00 120 00 00         : RESD         - DEEP RESISTIVITY (DIL)
~PARAMETER INFORMATION
#MNEM.UNIT           DATA             DESCRIPTION OF MNEMONIC
#---------         -----------     ------------------------------
GL  .M        610.6                : gl           - GROUND LEVEL ELEVATION
EREF.M        614.26               : kb           - ELEVATION OF DEPTH REFERENCE
DATM.M        610.6                : datum        - DATUM ELEVATION
TDD .M        450.3                : tdd          - TOTAL DEPTH DRILLER
RUN .         ONE                  : Run          - RUN NUMBER
ENG .         BILL                 : Engineer     - RECORDING ENGINEER
WIT .         JIM                  : Witness      - WITNESSED BY
MUD .         GEL                  : Mud_type     - MUD TYPE
MATR.         LIMESTONE            : Logunit      - NEUTRON MATRIX
TMAX.C        22                   : BHT          - MAXIMUM RECORDED TEMPERATURE
BHTD.M        450.3                : BHTDEP       - MAXIMUM RECORDED TEMPERATURE
MATR.         1                    : LOGUNIT      - NEUTRON MATRIX
RMT .C        25                   : MDTP         - TEMPERATURE OF MUD
NEUT.         1                    : NEUTRON      - NEUTRON TYPE
RESI.         0                    : RESIST       - RESISTIVITY TYPE
RMC .OHMM     0.25                 : RMC          - RESISTIVITY OF MUD CAKE
RMF .OHMM     0.25                 : RMF          - RESISTIVITY OF MUD FILTRATE
SUFT.C        15                   : SUFT         - SURFACE TEMPERATURE
~A  DEPTH       GR     PHID     PHIN     RESD
# ...
  407.500   30.363    0.319    0.368   97.473
  407.750   34.027    0.304    0.358   88.535
  408.000   41.337    0.307    0.359   67.682
  408.250   44.998    0.320    0.369   53.768
  408.500   43.196    0.334    0.378   44.379
  408.750   43.215    0.322    0.370   37.335
  409.000   49.306    0.293    0.363   32.626
  409.250   57.832    0.256    0.362   29.073
  409.500   67.568    0.235    0.370   25.406
  409.750   69.412    0.235    0.381   22.197
  410.000   67.609    0.248    0.390   21.355
  410.250   64.593    0.256    0.381   19.388
  410.500   63.395    0.261    0.364   18.645
  410.750   64.022    0.247    0.353   17.930
  411.000   67.080    0.234    0.358   17.243
  411.250   65.891    0.231    0.369   16.906
  411.500   65.304    0.235    0.362   16.258
  411.750   69.570    0.222    0.357   15.936
  412.000   76.271    0.202    0.359   15.617
  412.250   80.543    0.224    0.381   15.604
  412.500   75.096    0.269    0.388   15.590
  412.750   49.610    0.308    0.384   15.576
  413.000   53.274    0.268    0.370   15.559
  413.250   64.230    0.240    0.363   15.546
  413.500   65.459    0.249    0.369   15.532
  413.750   63.051    0.237    0.356   15.222
  414.000   70.970    0.220    0.351   15.215
  414.250   79.486    0.200    0.356   14.911
  414.500   87.401    0.178    0.364   14.339
  414.750   95.318    0.162    0.370   13.529
  415.000   97.157    0.149    0.363   12.288
  415.250   96.578    0.152    0.351   11.159
  415.500   94.773    0.168    0.345   10.528
  415.750   93.575    0.166    0.343   10.122
  416.000   92.381    0.157    0.341    9.550
  416.250   89.972    0.152    0.332    9.182
  416.500   84.524    0.162    0.338    9.002
  416.750   73.613    0.201    0.360    8.657
  417.000   59.064    0.259    0.382    7.567
  417.250   50.578    0.309    0.386    6.614
  417.500   41.486    0.349    0.377    5.356
  417.750   29.971    0.358    0.369    4.095
  418.000   25.138    0.354    0.356    3.445
  418.250   23.934    0.347    0.348    3.187
  418.500   27.605    0.340    0.351    3.185
  418.750   29.448    0.338    0.348    3.182
  419.000   32.499    0.342    0.348    3.179
  419.250   35.555    0.339    0.351    3.238
  419.500   33.146    0.318    0.373    3.298
  419.750   30.129    0.302    0.356    3.359
  420.000   34.404    0.310    0.350    3.486
  420.250   34.420    0.314    0.351    3.550
  420.500   30.193    0.318    0.343    3.615
  420.750   32.638    0.318    0.345    3.612
  421.000   37.521    0.314    0.355    3.609
  421.250   39.364    0.306    0.366    3.676
  421.500   38.163    0.284    0.357    3.889
  421.750   41.827    0.253    0.340    4.358
  422.000   52.783    0.071    0.317    5.171
  422.250   66.161    0.052    0.313    7.717
  422.500   66.789    0.045    0.318   11.085
  422.750   63.166    0.039    0.320   12.904
  423.000   61.361    0.042    0.315   13.916
  423.250   63.812    0.041    0.308   14.721
  423.500   66.267    0.035    0.304   14.992
  423.750   66.886    0.031    0.302   14.979
  424.000   64.478    0.031    0.299   14.966
  424.250   62.683    0.032    0.300   14.392
  424.500   62.695    0.036    0.303   13.841
  424.750   62.722    0.035    0.304   13.570
  425.000   63.343    0.038    0.306   13.047
  425.250   64.581    0.041    0.310   12.789
  425.500   65.820    0.047    0.314   12.536
  425.750   65.832    0.050    0.317   12.288
  426.000   65.854    0.048    0.318   12.280
  426.250   66.485    0.044    0.321   12.747
  426.500   68.929    0.045    0.322   13.232
  426.750   71.381    0.048    0.318   13.735
  427.000   71.400    0.044    0.316   13.988
  427.250   73.244    0.041    0.317   14.242
  427.500   73.262    0.043    0.323   14.226
  427.750   72.674    0.046    0.327   14.217
  428.000   74.523    0.052    0.319   14.205
  428.250   75.751    0.058    0.303   14.463
  428.500   76.378    0.057    0.302   14.450
  428.750   76.397    0.053    0.308   14.164
  429.000   76.426    0.050    0.312   13.884
  429.250   75.229    0.050    0.314   13.872
  429.500   74.027    0.047    0.314   14.678
  429.750   70.408    0.041    0.307   15.530
  430.000   66.784    0.035    0.297   16.748
