~VERSION INFORMATION
 VERS.                 2.0:   CWLS LOG ASCII STANDARD -VERSION 2.0
 WRAP.                  NO:   ONE LINE PER DEPTH STEP
~WELL INFORMATION BLOCK
#MNEM.UNIT           DATA                    DESCRIPTION OF MNEMONIC
#---------    -------------------            -------------------------------
# Generated from Intellog Unique Number	CS_69_70/WELL/781
NULL.         -999.25                        : NULL_VALUE
WELL.         SULPETRO LIMITED               : Well_name    - WELL              
LOC .         00/06-28-070-10W4/0            : Location     - LOCATION          
UWI .         00/06-28-070-10W4/0            : Uwi          - UNIQUE WELL ID    
ENTR.         SP                             : Entered      - ENTERED BY        
SRVC.         SCHLUMBERGER                   : Scn          - SERVICE COMPANY   
STRT.M        290                            : top_depth    - START DEPTH       
STOP.M        510                            : bot_depth    - STOP DEPTH        
STEP.M        0.25                           : increment    - STEP LENGTH       
~CURVE INFORMATION BLOCK
#MNEM UNIT       ERCB CURVE CODE    CURVE DESCRIPTION
#-----------   ------------------   ----------------------------------
DEPT.M        00 001 00 00         : DEPTH        - DEPTH                       
DPHI.V/V      00 890 00 00         : PHID         - DENSITY POROSITY (LIMESTONE)
NPHI.V/V      00 330 00 00         : PHIN         - NEUTRON POROSITY (LIMESTONE)
GR  .API      00 310 00 00         : GR           - GAMMA RAY                   
ILD .OHMM     00 120 00 00         : RESD         - DEEP RESISTIVITY (DIL)      
~PARAMETER INFORMATION       
#MNEM.UNIT           DATA             DESCRIPTION OF MNEMONIC
#---------         -----------     ------------------------------
GL  .M        633.84               : gl           - GROUND LEVEL ELEVATION      
EREF.M        630.84               : kb           - ELEVATION OF DEPTH REFERENCE
DATM.M        633.84               : datum        - DATUM ELEVATION             
TDD .M        518                  : tdd          - TOTAL DEPTH DRILLER         
RUN .         ONE                  : Run          - RUN NUMBER                  
ENG .         BILL                 : Engineer     - RECORDING ENGINEER          
WIT .         JIM                  : Witness      - WITNESSED BY                
MUD .         GEL                  : Mud_type     - MUD TYPE                    
MATR.         LIMESTONE            : Logunit      - NEUTRON MATRIX              
TMAX.C        27                   : BHT          - MAXIMUM RECORDED TEMPERATURE
BHTD.M        518                  : BHTDEP       - MAXIMUM RECORDED TEMPERATURE
MATR.         1                    : LOGUNIT      - NEUTRON MATRIX              
RMT .C        25                   : MDTP         - TEMPERATURE OF MUD          
NEUT.         1                    : NEUTRON      - NEUTRON TYPE                
RESI.         0                    : RESIST       - RESISTIVITY TYPE            
RMC .OHMM     0.25                 : RMC          - RESISTIVITY OF MUD CAKE     
RMF .OHMM     0.25                 : RMF          - RESISTIVITY OF MUD FILTRATE 
SUFT.C        15                   : SUFT         - SURFACE TEMPERATURE         
~A  DEPTH     PHID     PHIN       GR     RESD
# ...
  420.500    0.202    0.406   85.042    5.016
  420.750    0.210    0.397   85.722    4.991
  421.000    0.207    0.381   86.706    4.967
  421.250    0.200    0.371   88.668    4.915
  421.500    0.194    0.371   86.781    4.810
  421.750    0.193    0.379   83.059    4.690
  422.000    0.190    0.389   83.309    4.640
  422.250    0.197    0.391   86.067    4.532
  422.500    0.211    0.394   87.724    4.443
  422.750    0.216    0.398   87.485    4.372
  423.000    0.217    0.419   87.186    4.255
  423.250    0.229    0.428   88.110    3.967
  423.500    0.232    0.412   89.585    3.672
  423.750    0.221    0.410   90.507    3.380
  424.000    0.213    0.396   90.758    3.070
  424.250    0.207    0.378   88.808    2.858
  424.500    0.203    0.377   87.349    2.685
  424.750    0.222    0.379   92.673    2.569
  425.000    0.235    0.399   97.020    2.500
  425.250    0.237    0.411   95.925    2.442
  425.500    0.228    0.426   88.599    2.593
  425.750    0.222    0.434   86.465    2.811
  426.000    0.230    0.409   85.983    3.087
  426.250    0.237    0.394   85.378    3.315
  426.500    0.233    0.383   84.102    3.662
  426.750    0.228    0.393   82.701    3.746
  427.000    0.230    0.380   80.751    3.876
  427.250    0.241    0.396   80.638    3.922
  427.500    0.252    0.394   80.400    3.796
  427.750    0.250    0.393   79.732    3.693
  428.000    0.248    0.380   77.420    3.594
  428.250    0.250    0.383   76.385    3.590
  428.500    0.252    0.390   75.717    3.674
  428.750    0.253    0.382   76.947    3.731
  429.000    0.254    0.395   79.276    3.853
  429.250    0.249    0.368   81.178    3.958
  429.500    0.237    0.377   82.651    4.103
  429.750    0.231    0.377   77.034    4.286
  430.000    0.229    0.388   75.879    4.466
  430.250    0.226    0.411   75.213    5.343
  430.500    0.210    0.328   70.453    6.633
  430.750    0.132    0.244   64.835    7.421
  431.000    0.075    0.193   60.013    7.837
  431.250    0.038    0.164   53.419    8.155
  431.500    0.012    0.318   50.185    8.283
  431.750    0.009    0.374   62.478    8.029
  432.000    0.119    0.393   73.487    6.476
  432.250    0.170    0.393   82.540    5.743
  432.500    0.207    0.396   81.814    5.385
  432.750    0.201    0.416   81.453    5.097
  433.000    0.202    0.429   82.927    4.941
  433.250    0.200    0.413   83.546    4.836
  433.500    0.196    0.383   83.184    4.750
  433.750    0.206    0.368   79.707    4.692
  434.000    0.215    0.373   77.391    4.634
  434.250    0.210    0.382   80.087    4.628
  434.500    0.213    0.391   82.722    4.614
  434.750    0.221    0.398   83.340    4.618
  435.000    0.214    0.363   84.813    4.638
  435.250    0.210    0.372   88.305    4.649
  435.500    0.211    0.395   90.268    4.687
  435.750    0.215    0.411   87.156    4.692
  436.000    0.218    0.425   82.945    4.686
  436.250    0.210    0.408   85.886    4.679
  436.500    0.208    0.403   86.564    4.667
  436.750    0.212    0.424   80.703    4.670
  437.000    0.216    0.444   77.164    4.665
  437.250    0.209    0.457   75.215    4.649
  437.500    0.203    0.472   79.684    4.660
  437.750    0.203    0.427   82.930    4.680
  438.000    0.210    0.407   83.731    4.683
  438.250    0.219    0.377   83.799    4.713
  438.500    0.206    0.352   86.433    4.787
  438.750    0.188    0.330   89.374    4.835
  439.000    0.163    0.343   93.354    4.829
  439.250    0.151    0.376   98.678    4.752
  439.500    0.147    0.405  104.981    4.616
  439.750    0.157    0.428  108.655    4.467
  440.000    0.170    0.410   95.642    4.323
  440.250    0.187    0.387   89.230    4.183
  440.500    0.194    0.364   85.326    3.703
  440.750    0.203    0.373   83.377    3.199
  441.000    0.219    0.403   82.529    2.796
  441.250    0.234    0.441   82.166    2.611
  441.500    0.238    0.467   81.013    2.426
  441.750    0.234    0.462   80.040    2.374
  442.000    0.231    0.475   79.314    2.393
  442.250    0.228    0.525   79.686    2.513
  442.500    0.227    0.546   80.427    2.849
  442.750    0.233    0.430   81.044    2.997
  443.000    0.241    0.387   79.645    3.292
  443.250    0.245    0.353   77.023    3.380
  443.500    0.245    0.406   76.418    3.518
  443.750    0.243    0.400   78.198    3.553
  444.000    0.238    0.389   79.121    3.608
  444.250    0.230    0.370   78.883    3.768
  444.500    0.215    0.362   76.934    3.856
  444.750    0.191    0.388   75.046    3.917
  445.000    0.187    0.404   74.258    3.875
  445.250    0.204    0.415   77.076    3.695
  445.500    0.221    0.364   80.628    3.596
  445.750    0.231    0.379   81.735    3.449
  446.000    0.238    0.413   78.318    3.412
  446.250    0.246    0.450   76.675    3.402
  446.500    0.240    0.433   76.436    3.455
  446.750    0.219    0.415   78.582    3.662
  447.000    0.215    0.391   79.323    3.970
  447.250    0.155    0.372   77.740    4.138
  447.500    0.125    0.367   77.380    4.125
  447.750    0.154    0.383   77.937    3.769
  448.000    0.180    0.366   78.982    3.547
  448.250    0.199    0.359   82.045    3.313
  448.500    0.206    0.371   86.942    3.072
  448.750    0.190    0.358   93.122    2.940
  449.000    0.187    0.348   97.958    2.782
  449.250    0.195    0.367   96.986    2.668
  449.500    0.194    0.390   94.303    2.625
  449.750    0.191    0.384   93.821    2.627
  450.000    0.199    0.374   93.094    2.663
  450.250    0.202    0.367   92.000    2.685
  450.500    0.203    0.375   90.906    2.702
  450.750    0.209    0.393   90.608    2.709
  451.000    0.204    0.406   92.266    2.706
  451.250    0.197    0.423   93.494    2.693
  451.500    0.199    0.440   92.828    2.694
  451.750    0.207    0.464   93.446    2.697
  452.000    0.214    0.479   95.898    2.728
  452.250    0.214    0.406   96.760    2.807
  452.500    0.203    0.357   96.155    2.883
  452.750    0.206    0.332   96.528    2.811
  453.000    0.209    0.352   98.247    2.695
  453.250    0.203    0.397  100.087    3.071
  453.500    0.199    0.465  102.294    3.750
  453.750    0.197    0.438   97.777    4.639
  454.000    0.200    0.415   90.143    5.456
  454.250    0.204    0.398   81.898    5.826
  454.500    0.207    0.400   75.731    5.852
  454.750    0.203    0.400   70.115    5.717
  455.000    0.192    0.370   71.526    5.584
  455.250    0.196    0.355   75.750    5.403
  455.500    0.194    0.405   74.413    5.258
  455.750    0.191    0.440   73.808    5.223
  456.000    0.195    0.446   74.120    5.364
  456.250    0.195    0.422   75.899    5.581
  456.500    0.193    0.400   76.456    5.972
  456.750    0.211    0.400   72.978    6.414
  457.000    0.227    0.385   70.051    6.837
  457.250    0.235    0.364   67.674    7.089
  457.500    0.244    0.345   64.505    7.131
  457.750    0.251    0.323   63.653    7.166
  458.000    0.241    0.367   62.986    7.181
  458.250    0.232    0.401   62.076    7.336
  458.500    0.230    0.423   61.777    7.463
  458.750    0.235    0.391   61.601    7.766
  459.000    0.235    0.356   63.196    7.931
  459.250    0.230    0.352   65.526    8.222
  459.500    0.230    0.360   66.633    8.763
  459.750    0.197    0.333   66.700    9.102
  460.000    0.093    0.311   60.166    9.176
  460.250    0.059    0.290   57.911    8.913
  460.500    0.082    0.300   61.891    8.279
  460.750    0.144    0.319   67.216    7.452
  461.000    0.176    0.300   68.872    7.013
  461.250    0.167    0.297   71.691    6.737
  461.500    0.163    0.310   74.754    7.538
  461.750    0.170    0.344   78.246    8.558
  462.000    0.197    0.366   80.512   10.353
  462.250    0.220    0.387   73.368   11.865
  462.500    0.235    0.400   68.056   13.102
  462.750    0.239    0.389   62.562   13.992
  463.000    0.257    0.369   58.350   14.211
  463.250    0.272    0.359   61.353   13.959
  463.500    0.270    0.354   64.906   13.334
  463.750    0.263    0.360   67.112   12.479
