~VERSION INFORMATION
 VERS.                 2.0:   CWLS LOG ASCII STANDARD -VERSION 2.0
 WRAP.                  NO:   ONE LINE PER DEPTH STEP
~WELL INFORMATION BLOCK
#MNEM.UNIT           DATA                    DESCRIPTION OF MNEMONIC
#---------    -------------------            -------------------------------
# Generated from Intellog Unique Number	CW_79_81/WELL/620
WELL.         PETROREP SANDERS               : Well_name    - WELL
LOC .         00/07-26-080-02W5/0            : Location     - LOCATION
UWI .         00/07-26-080-02W5/0            : Uwi          - UNIQUE WELL ID
ENTR.         MAX                            : Entered      - ENTERED BY
SRVC.         SCHLUMBERGER                   : Scn          - SERVICE COMPANY
STRT.M        256.032                        : top_depth    - START DEPTH
STOP.M        515.032                        : bot_depth    - STOP DEPTH
STEP.M        0.25                           : increment    - STEP LENGTH
 NULL. -999.2500:NULL Value
~CURVE INFORMATION BLOCK
#MNEM UNIT       ERCB CURVE CODE    CURVE DESCRIPTION
#-----------   ------------------   ----------------------------------
DEPT.M        00 001 00 00         : DEPTH        - DEPTH
ILD .OHMM     00 120 00 00         : RESD         - DEEP RESISTIVITY (DIL)
NPHI.V/V      00 330 00 00         : PHIN         - NEUTRON POROSITY (SANDSTONE)
DPHI.V/V      00 890 00 00         : PHID         - DENSITY POROSITY (SANDSTONE)
CALI.MM       00 280 01 00         : CAL          - CALIPER
GR  .API      00 310 00 00         : GR           - GAMMA RAY
~PARAMETER INFORMATION
#MNEM.UNIT           DATA             DESCRIPTION OF MNEMONIC
#---------         -----------     ------------------------------
GL  .M        602.254              : gl           - GROUND LEVEL ELEVATION
EREF.M        605.607              : kb           - ELEVATION OF DEPTH REFERENCE
DATM.M        602.254              : datum        - DATUM ELEVATION
TDD .M        544.068              : tdd          - TOTAL DEPTH DRILLER
RUN .         ONE                  : Run          - RUN NUMBER
ENG .         BILL                 : Engineer     - RECORDING ENGINEER
WIT .         JIM                  : Witness      - WITNESSED BY
MUD .         GEL                  : Mud_type     - MUD TYPE
MATR.         SANDSTONE            : Logunit      - NEUTRON MATRIX
TMAX.C        24.4444              : BHT          - MAXIMUM RECORDED TEMPERATURE
BHTD.M        544.068              : BHTDEP       - MAXIMUM RECORDED TEMPERATURE
RMT .C        18.3333              : MDTP         - TEMPERATURE OF MUD
MUDD.KG/M     1120                 : MWT          - MUD DENSITY
NEUT.         1                    : NEUTRON      - NEUTRON TYPE
RESI.         0                    : RESIST       - RESISTIVITY TYPE
RM  .OHMM     5                    : RM           - RESISTIVITY OF MUD
RMC .OHMM     0                    : RMC          - RESISTIVITY OF MUD CAKE
RMF .OHMM     7                    : RMF          - RESISTIVITY OF MUD FILTRATE
SUFT.C        -20.5556             : SUFT         - SURFACE TEMPERATURE
~A  DEPTH     RESD     PHIN     PHID      CAL       GR
# ...
  365.532    7.155    0.348    0.069  170.559   69.609
  365.782    5.696    0.383    0.104  171.037   87.022
  366.032    5.393    0.469    0.241  171.512   99.920
  366.282    5.748    0.458    0.254  171.481   98.402
  366.532    6.241    0.442    0.264  170.424   98.682
  366.782    7.628    0.428    0.273  169.876   99.262
  367.032    8.433    0.432    0.277  170.355   96.835
  367.282    8.908    0.434    0.279  170.320   96.211
  367.532    8.357    0.432    0.274  170.286   99.499
  367.782    5.909    0.436    0.269  170.756  101.877
  368.032    4.879    0.441    0.262  170.725  101.562
  368.282    4.969    0.440    0.263  170.691  100.038
  368.532    5.297    0.443    0.272  171.161  102.122
  368.782    5.595    0.446    0.271  171.122  104.503
  369.032    5.803    0.446    0.247  169.560  102.677
  369.282    5.965    0.451    0.222  168.512  101.757
  369.532    5.965    0.445    0.247  167.968  101.737
  369.782    6.020    0.426    0.245  169.460  101.714
  370.032    6.131    0.418    0.231  169.930  102.597
  370.282    6.244    0.421    0.226  168.869  103.175
  370.532    6.301    0.422    0.214  168.843  102.253
  370.782    6.244    0.419    0.245  168.809   97.119
  371.032    6.244    0.419    0.243  168.765   98.002
  371.282    6.188    0.413    0.250  168.735  100.088
  371.532    5.966    0.417    0.257  169.213   99.765
  371.782    5.753    0.434    0.258  170.706   99.744
  372.032    5.497    0.442    0.253  171.175  102.428
  372.282    5.447    0.451    0.254  171.136  103.605
  372.532    5.547    0.448    0.251  170.597  102.688
  372.782    5.806    0.448    0.239  170.054  103.266
  373.032    6.246    0.450    0.249  170.015  106.254
  373.282    6.420    0.468    0.238  170.485  108.334
  373.532    6.420    0.460    0.234  170.454  108.011
  373.782    6.420    0.442    0.228  170.415  107.394
  374.032    6.420    0.433    0.234  170.381  105.866
  374.282    6.480    0.433    0.251  170.350  104.045
  374.532    6.539    0.450    0.248  170.316  100.418
  374.782    6.539    0.473    0.247  169.772   96.491
  375.032    6.480    0.480    0.251  169.737   91.960
  375.282    6.480    0.485    0.262  169.690   89.532
  375.532    6.540    0.469    0.265  169.664   87.408
  375.782    6.540    0.449    0.262  169.625   89.494
  376.032    6.661    0.442    0.265  169.590   89.771
  376.282    6.909    0.455    0.279  169.555   88.852
  376.532    7.500    0.447    0.268  169.516   89.733
  376.782    8.142    0.441    0.255  169.490   92.715
  377.032    9.168    0.439    0.262  170.465   96.299
  377.282   11.412    0.436    0.246  171.452   97.180
  377.532   13.950    0.428    0.244  171.418   93.255
  377.782   15.283    0.426    0.270  171.374   87.825
  378.032   14.338    0.423    0.284  170.330   83.592
  378.282   12.167    0.418    0.269  169.278   85.374
  378.532   10.046    0.414    0.221  170.261   90.165
  378.782    8.603    0.418    0.219  172.258   94.650
  379.032    7.925    0.419    0.228  172.223   93.728
  379.282    7.367    0.389    0.198  170.153   84.093
  379.532    7.169    0.254    0.171  170.118   75.956
  379.782    7.368    0.261    0.079  170.584   76.536
  380.032    7.783    0.363    0.099  171.062   83.125
  380.282    7.504    0.420    0.228  171.023   93.926
  380.532    7.236    0.416    0.244  170.989   97.510
  380.782    7.369    0.422    0.241  170.954  100.196
  381.032    7.643    0.424    0.233  171.428  103.181
  381.282    8.073    0.423    0.235  172.411  103.161
  381.532    8.845    0.421    0.234  172.377   99.832
  381.782    9.869    0.418    0.231  172.346   99.814
  382.032   10.051    0.413    0.215  171.794  101.897
  382.282    9.603    0.404    0.202  171.764  104.882
  382.532    9.009    0.401    0.218  171.216  102.455
  382.782    7.507    0.437    0.244  171.177   97.924
  383.032    6.668    0.438    0.242  171.146   98.504
  383.282    6.547    0.433    0.225  171.616  100.290
  383.532    6.607    0.419    0.226  172.091  101.769
  383.782    6.668    0.431    0.244  171.551  102.653
  384.032    6.730    0.432    0.251  171.008  103.532
  384.282    6.791    0.428    0.246  170.969  103.809
  384.532    6.792    0.412    0.239  171.443  103.488
  384.782    6.854    0.404    0.242  171.913  101.361
  385.032    6.854    0.414    0.248  171.378   99.540
  385.282    6.918    0.410    0.251  170.326   99.222
  385.532    6.918    0.410    0.252  170.282  100.699
  385.782    6.918    0.413    0.253  170.252  104.287
  386.032    6.918    0.417    0.242  170.217  105.163
  386.282    6.793    0.414    0.223  170.174  103.943
  386.532    6.732    0.392    0.216  170.657   99.417
  386.782    6.610    0.406    0.246  170.618   93.987
  387.032    6.611    0.423    0.263  170.074   87.653
  387.282    6.671    0.422    0.288  169.013   82.824
  387.532    6.672    0.418    0.293  167.965   77.094
  387.782    6.795    0.419    0.283  167.935   71.959
  388.032    6.984    0.402    0.301  167.391   69.234
  388.282    7.581    0.394    0.312  168.366   71.921
  388.532    8.306    0.394    0.314  168.335   77.009
  388.782    9.100    0.411    0.300  168.301   82.699
  389.032   10.530    0.427    0.286  168.775   86.585
  389.282   11.965    0.433    0.281  169.758   88.368
  389.532   13.596    0.444    0.286  169.723   87.744
  389.782   15.590    0.434    0.289  169.684   85.319
  390.032   17.395    0.429    0.295  169.141   81.392
  390.282   18.712    0.428    0.292  168.088   81.369
  390.532   18.543    0.423    0.277  167.027   83.755
  390.782   17.717    0.411    0.272  166.488   88.844
  391.032   16.321    0.404    0.269  166.453   94.831
  391.282   14.364    0.389    0.262  166.927   96.917
  391.532   12.875    0.387    0.254  167.911  101.405
  391.782   12.528    0.387    0.251  168.380  100.182
  392.032   12.759    0.391    0.254  167.837   94.143
  392.282   13.601    0.418    0.263  166.784   94.729
  392.532   15.038    0.424    0.280  166.245   95.309
  392.782   14.108    0.427    0.272  166.206   96.491
  393.032   12.192    0.423    0.261  167.189   97.069
  393.282   10.633    0.423    0.260  167.155   94.344
  393.532    9.885    0.433    0.274  166.615   90.414
  393.782    9.531    0.450    0.289  165.045   88.590
  394.032    9.359    0.453    0.298  165.011   83.764
  394.282    9.107    0.446    0.308  164.972   80.438
  394.532    8.942    0.438    0.327  164.937   81.316
  394.782    9.025    0.430    0.313  164.907   84.904
  395.032    9.275    0.418    0.308  164.359   83.679
  395.282    9.447    0.444    0.315  163.820   80.651
  395.532    9.888    0.452    0.330  163.781   81.835
  395.782   10.350    0.453    0.329  163.750   83.916
  396.032   10.833    0.451    0.323  163.202   85.100
  396.282   11.479    0.475    0.300  158.613   80.012
  396.532   12.259    0.456    0.304  157.188   77.677
  396.782   13.837    0.433    0.299  157.232   75.045
  397.032   14.910    0.389    0.255  157.799   74.199
  397.282   15.775    0.380    0.235  158.854   75.114
  397.532   14.953    0.428    0.251  162.431   77.815
  397.782   13.919    0.453    0.287  163.493   81.108
  398.032   13.943    0.443    0.332  163.064   86.776
  398.282   14.754    0.437    0.319  164.111   88.292
  398.532   15.904    0.443    0.315  165.689   86.261
  398.782   16.823    0.447    0.316  165.733   84.213
  399.032   18.467    0.442    0.324  164.788   80.697
  399.282   21.619    0.434    0.309  163.851   77.472
  399.532   23.523    0.419    0.284  163.407   74.840
  399.782   23.340    0.382    0.229  163.466   74.278
  400.032   22.128    0.349    0.216  164.019   74.313
  400.282   21.560    0.359    0.202  164.601   75.532
  400.532   20.819    0.362    0.219  164.644   77.641
  400.782   20.281    0.390    0.245  165.204   80.642
  401.032   19.581    0.414    0.258  165.772   83.935
  401.282   19.254    0.429    0.266  166.325   87.525
  401.532   18.936    0.440    0.276  166.398   91.419
  401.782   19.140    0.454    0.261  166.456   94.412
