~VERSION INFORMATION
 VERS.                 2.0:   CWLS LOG ASCII STANDARD -VERSION 2.0
 WRAP.                  NO:   ONE LINE PER DEPTH STEP
~WELL INFORMATION BLOCK
#MNEM.UNIT           DATA                    DESCRIPTION OF MNEMONIC
#---------    -------------------            -------------------------------
# Generated from Intellog Unique Number	CW_76_78/WELL/642
WELL.         07-32-077-22W4                 : Well_name    - WELL
LOC .         00/07-32-077-22W4/0            : Location     - LOCATION
UWI .         00/07-32-077-22W4/0            : Uwi          - UNIQUE WELL ID
ENTR.         jj                             : Entered      - ENTERED BY
SRVC.         WESTERN ATLAS                  : Scn          - SERVICE COMPANY
DATE.         06 MAR 1983                    : Date         - LOG DATE
STRT.M        300                            : top_depth    - START DEPTH
STOP.M        537                            : bot_depth    - STOP DEPTH
STEP.M        0.25                           : increment    - STEP LENGTH
 NULL. -999.2500:NULL Value
~CURVE INFORMATION BLOCK
#MNEM UNIT       ERCB CURVE CODE    CURVE DESCRIPTION
#-----------   ------------------   ----------------------------------
DEPT.M        00 001 00 00         : DEPTH        - DEPTH
ILD .OHMM     00 120 00 00         : RESD         - DEEP RESISTIVITY (DIL)
DPHI.V/V      00 890 00 00         : PHID         - DENSITY POROSITY (SANDSTONE)
NPHI.V/V      00 330 00 00         : PHIN         - NEUTRON POROSITY (SANDSTONE)
GR  .API      00 310 00 00         : GR           - GAMMA RAY
CALI.MM       00 280 01 00         : CAL          - CALIPER
~PARAMETER INFORMATION
#MNEM.UNIT           DATA             DESCRIPTION OF MNEMONIC
#---------         -----------     ------------------------------
GL  .M        630.9                : gl           - GROUND LEVEL ELEVATION
EREF.M        635.4                : kb           - ELEVATION OF DEPTH REFERENCE
DATM.M        630.9                : datum        - DATUM ELEVATION
TDD .M        537                  : tdd          - TOTAL DEPTH DRILLER
RUN .         ONE                  : Run          - RUN NUMBER
ENG .         RUTHERFORD           : Engineer     - RECORDING ENGINEER
WIT .         RAGHER               : Witness      - WITNESSED BY
BASE.         RED DEER             : Branch       - HOME BASE OF LOGGING UNIT
MUD .         GEL CHEM             : Mud_type     - MUD TYPE
MATR.         SANDSTONE            : Logunit      - NEUTRON MATRIX
TMAX.C        27                   : BHT          - MAXIMUM RECORDED TEMPERATURE
BHTD.M        536                  : BHTDEP       - MAXIMUM RECORDED TEMPERATURE
RMT .C        17                   : MDTP         - TEMPERATURE OF MUD
MUDD.KG/M     1055                 : MWT          - MUD DENSITY
NEUT.         1                    : NEUTRON      - NEUTRON TYPE
RESI.         0                    : RESIST       - RESISTIVITY TYPE
RM  .OHMM     0.4                  : RM           - RESISTIVITY OF MUD
RMC .OHMM     0.44                 : RMC          - RESISTIVITY OF MUD CAKE
RMF .OHMM     0.34                 : RMF          - RESISTIVITY OF MUD FILTRATE
SUFT.C        4.5                  : SUFT         - SURFACE TEMPERATURE
~A  DEPTH     RESD     PHID     PHIN       GR      CAL
# ...
  409.500    6.395    0.222    0.366   79.440  160.929
  409.750    6.518    0.208    0.396   78.740  161.855
  410.000    6.631    0.198    0.391   78.730  162.676
  410.250    6.683    0.199    0.386   78.658  162.867
  410.500    6.672    0.211    0.391   80.026  162.642
  410.750    6.524    0.224    0.395   80.142  161.894
  411.000    6.356    0.237    0.386   79.129  160.311
  411.250    6.227    0.244    0.377   77.865  158.203
  411.500    6.205    0.244    0.378   76.224  156.828
  411.750    6.324    0.235    0.386   74.647  156.498
  412.000    6.796    0.224    0.391   72.631  155.750
  412.250    7.525    0.232    0.382   69.861  154.898
  412.500    8.271    0.250    0.373   66.277  153.104
  412.750    9.039    0.254    0.367   64.511  151.939
  413.000    8.990    0.241    0.375   66.320  152.027
  413.250    8.168    0.238    0.393   69.006  153.054
  413.500    7.692    0.242    0.392   72.445  155.965
  413.750    7.565    0.247    0.405   76.323  159.084
  414.000    7.624    0.241    0.400   75.561  159.799
  414.250    7.712    0.228    0.387   74.737  156.647
  414.500    7.787    0.213    0.368   74.976  151.613
  414.750    7.745    0.216    0.361   75.030  148.776
  415.000    7.689    0.232    0.365   74.268  150.430
  415.250    7.590    0.248    0.376   74.383  152.714
  415.500    7.492    0.244    0.377   77.321  153.951
  415.750    7.536    0.233    0.368   77.310  153.933
  416.000    7.624    0.221    0.363   77.050  154.127
  416.250    7.655    0.211    0.342   76.726  154.633
  416.500    7.656    0.197    0.310   75.463  155.034
  416.750    7.863    0.187    0.290   70.686  155.855
  417.000    9.127    0.197    0.283   66.413  157.612
  417.250   11.169    0.217    0.283   63.267  159.375
  417.500   14.380    0.225    0.320   63.319  161.030
  417.750   19.154    0.231    0.342   65.066  161.641
  418.000   20.504    0.239    0.354   67.251  161.311
  418.250   19.418    0.245    0.360   69.686  160.144
  418.500   12.217    0.247    0.357   73.815  159.084
  418.750    8.575    0.247    0.349   78.320  158.441
  419.000    8.213    0.245    0.335   79.502  157.901
  419.250    8.185    0.245    0.327   75.479  156.944
  419.500    8.358    0.246    0.347   74.089  155.985
  419.750    8.780    0.248    0.379   74.455  155.134
  420.000    9.310    0.250    0.410   75.636  154.282
  420.250    9.670    0.250    0.403   76.755  155.310
  420.500   10.006    0.243    0.386   76.997  157.488
  420.750   10.160    0.228    0.366   74.479  159.876
  421.000   10.298    0.201    0.337   72.023  161.948
  421.250   10.378    0.193    0.340   70.007  162.456
  421.500   10.459    0.191    0.364   69.746  158.259
  421.750   10.422    0.196    0.388   71.239  149.672
  422.000   10.153    0.211    0.383   72.548  148.923
  422.250    9.873    0.222    0.380   71.409  150.371
  422.500    9.456    0.241    0.383   70.835  151.607
  422.750    8.822    0.246    0.378   70.825  152.009
  423.000    8.323    0.249    0.382   71.066  152.516
  423.250    7.927    0.249    0.399   73.126  154.903
  423.500    7.607    0.246    0.416   73.931  158.127
  423.750    7.355    0.239    0.411   74.673  159.258
  424.000    7.058    0.227    0.398   76.670  160.184
  424.250    6.748    0.216    0.398   82.116  161.630
  424.500    6.307    0.203    0.416   83.799  162.869
  424.750    5.906    0.192    0.431   81.156  163.793
  425.000    5.551    0.204    0.422   81.159    6.575
  425.250    5.218    0.218    0.411   83.636    6.514
  425.500    4.923    0.234    0.402   87.038    6.438
  425.750    4.760    0.239    0.389   91.447    6.415
  426.000    4.761    0.240    0.379   96.480    6.417
  426.250    5.174    0.229    0.363   99.886    6.423
  426.500    5.740    0.181    0.345   93.107    6.447
  426.750    6.489    0.169    0.333   77.335    6.457
  427.000    7.364    0.190    0.334   66.876    6.455
  427.250    8.744    0.201    0.341   71.092    6.457
  427.500   10.246    0.211    0.351   76.629    6.464
  427.750   10.722    0.205    0.344   75.034    6.458
  428.000   10.545    0.190    0.340   71.694    6.452
  428.250   10.567    0.191    0.342   72.852    6.450
  428.500   10.630    0.201    0.350   75.263    6.444
  428.750   10.532    0.211    0.357   78.357    6.442
  429.000   10.164    0.219    0.358   80.888    6.461
  429.250    9.482    0.226    0.360   82.673    6.475
  429.500    8.862    0.223    0.381   80.395    6.457
  429.750    8.521    0.219    0.390   79.492    6.434
  430.000    8.285    0.213    0.383   81.962    6.432
  430.250    8.303    0.209    0.371   83.556    6.459
  430.500    8.479    0.203    0.361   81.595    6.487
  430.750    8.675    0.197    0.372   81.502    6.543
  431.000    8.825    0.189    0.384   82.721    6.587
  431.250    8.877    0.180    0.380   83.381    6.602
  431.500    8.930    0.169    0.378   83.538    6.554
  431.750    8.882    0.171    0.384   84.389    6.515
  432.000    8.685    0.190    0.378   84.481    6.513
  432.250    8.493    0.198    0.365   84.581    6.532
  432.500    8.416    0.198    0.353   84.617    6.509
  432.750    8.402    0.193    0.356   84.021    6.503
  433.000    8.404    0.196    0.389   83.182    6.484
  433.250    8.469    0.204    0.411   82.279    6.470
  433.500    8.600    0.209    0.399   80.751    6.439
  433.750    8.667    0.212    0.372   79.345    6.412
  434.000    8.669    0.213    0.361   77.256    6.386
  434.250    8.639    0.212    0.367   78.354    6.371
  434.500    8.641    0.211    0.361   79.322    6.344
  434.750    8.659    0.211    0.356   80.233    6.325
  435.000    8.710    0.212    0.357   81.577    6.348
  435.250    8.811    0.214    0.364   83.486    6.371
  435.500    8.931    0.217    0.370   84.772    6.391
  435.750    9.051    0.220    0.360   84.495    6.409
  436.000    9.105    0.222    0.341   83.461    6.432
  436.250    9.090    0.222    0.348   81.683    6.497
  436.500    9.058    0.219    0.370   80.470    6.541
  436.750    8.992    0.214    0.372   80.251    6.560
  437.000    8.994    0.218    0.367   80.973    6.571
  437.250    8.929    0.222    0.358   80.008    6.573
  437.500    8.830    0.220    0.354   82.165    6.558
  437.750    8.651    0.216    0.342   84.698    6.569
  438.000    8.621    0.210    0.327   85.358    6.584
  438.250    8.688    0.204    0.331   84.579    6.594
  438.500    8.822    0.201    0.327   83.677    6.596
  438.750    9.009    0.203    0.320   84.147    6.595
  439.000    9.148    0.206    0.328   85.054    6.605
  439.250    9.202    0.209    0.353   84.463    6.612
  439.500    9.222    0.212    0.368   83.062    6.597
  439.750    9.329    0.214    0.389   83.035    6.524
  440.000    9.367    0.214    0.405   83.382    6.464
  440.250    9.386    0.212    0.403   83.225    6.450
  440.500    9.424    0.189    0.361   82.449    6.440
  440.750    9.409    0.177    0.350   81.795    6.442
  441.000    9.411    0.175    0.348   81.078    6.494
  441.250    9.502    0.180    0.349   81.737    6.571
  441.500    9.595    0.192    0.352   84.519    6.620
  441.750    9.669    0.199    0.368   84.552    6.609
  442.000    9.599    0.201    0.363   82.464    6.532
  442.250    9.547    0.201    0.346   80.372    6.473
  442.500    9.478    0.202    0.353   79.280    6.450
  442.750    9.268    0.206    0.369   86.125    6.439
  443.000    8.927    0.209    0.365   92.968    6.446
  443.250    8.344    0.208    0.351   95.502    6.485
  443.500    7.813    0.203    0.346   96.036    6.467
  443.750    7.598    0.195    0.338   92.822    6.373
  444.000    7.686    0.189    0.326   89.169    6.338
  444.250    7.760    0.190    0.312   86.891    6.344
  444.500    7.865    0.199    0.333   88.988    6.422
  444.750    7.987    0.193    0.346   90.209    6.503
  445.000    8.095    0.183    0.351   89.868    6.580
  445.250    8.142    0.179    0.347   88.214    6.620
  445.500    8.268    0.177    0.342   87.434    6.618
  445.750    8.412    0.164    0.332   85.782    6.596
