~VERSION INFORMATION
 VERS.                 2.0:   CWLS LOG ASCII STANDARD -VERSION 2.0
 WRAP.                  NO:   ONE LINE PER DEPTH STEP
~WELL INFORMATION BLOCK
#MNEM.UNIT           DATA                    DESCRIPTION OF MNEMONIC
#---------    -------------------            -------------------------------
# Generated from Intellog Unique Number	CS_67_68/WELL/2180
WELL.         07-33-067-04W4                 : Well_name    - WELL
LOC .         00/07-33-067-04W4/0            : Location     - LOCATION
UWI .         00/07-33-067-04W4/0            : Uwi          - UNIQUE WELL ID
ENTR.         SP                             : Entered      - ENTERED BY
SRVC.         SCHLUMBERGER                   : Scn          - SERVICE COMPANY
STRT.M        345                            : top_depth    - START DEPTH
STOP.M        571                            : bot_depth    - STOP DEPTH
STEP.M        0.25                           : increment    - STEP LENGTH
 NULL. -999.2500:NULL Value
~CURVE INFORMATION BLOCK
#MNEM UNIT       ERCB CURVE CODE    CURVE DESCRIPTION
#-----------   ------------------   ----------------------------------
DEPT.M        00 001 00 00         : DEPTH        - DEPTH
ILD .OHMM     00 120 00 00         : RESD         - DEEP RESISTIVITY (DIL)
DPHI.V/V      00 890 00 00         : PHID         - DENSITY POROSITY (LIMESTONE)
NPHI.V/V      00 330 00 00         : PHIN         - NEUTRON POROSITY (LIMESTONE)
GR  .API      00 310 00 00         : GR           - GAMMA RAY
CALI.MM       00 280 01 00         : CAL          - CALIPER
~PARAMETER INFORMATION
#MNEM.UNIT           DATA             DESCRIPTION OF MNEMONIC
#---------         -----------     ------------------------------
GL  .M        697.8                : gl           - GROUND LEVEL ELEVATION
EREF.M        701.6                : kb           - ELEVATION OF DEPTH REFERENCE
DATM.M        701.6                : datum        - DATUM ELEVATION
TDD .M        577                  : tdd          - TOTAL DEPTH DRILLER
RUN .         ONE                  : Run          - RUN NUMBER
ENG .         BILL                 : Engineer     - RECORDING ENGINEER
WIT .         JIM                  : Witness      - WITNESSED BY
MUD .         GEL                  : Mud_type     - MUD TYPE
MATR.         LIMESTONE            : Logunit      - NEUTRON MATRIX
TMAX.C        22.7                 : BHT          - MAXIMUM RECORDED TEMPERATURE
BHTD.M        577                  : BHTDEP       - MAXIMUM RECORDED TEMPERATURE
MATR.         1                    : LOGUNIT      - NEUTRON MATRIX
RMT .C        25                   : MDTP         - TEMPERATURE OF MUD
NEUT.         1                    : NEUTRON      - NEUTRON TYPE
RESI.         0                    : RESIST       - RESISTIVITY TYPE
RMC .OHMM     0.25                 : RMC          - RESISTIVITY OF MUD CAKE
RMF .OHMM     0.25                 : RMF          - RESISTIVITY OF MUD FILTRATE
SUFT.C        15                   : SUFT         - SURFACE TEMPERATURE
~A  DEPTH     RESD     PHID     PHIN       GR      CAL
# ...
  527.500    6.352    0.301    0.317   45.244  156.302
  527.750    6.421    0.283    0.333   51.954  155.797
  528.000    6.443    0.298    0.365   59.700  155.598
  528.250    6.391    0.324    0.378   57.080  155.702
  528.500    6.327    0.341    0.379   47.692  155.604
  528.750    6.266    0.360    0.392   42.023  156.015
  529.000    6.135    0.363    0.415   42.330  156.525
  529.250    5.884    0.342    0.399   46.296  157.037
  529.500    5.664    0.315    0.391   49.773  157.752
  529.750    5.598    0.309    0.386   45.934  157.755
  530.000    5.595    0.313    0.368   47.094  157.759
  530.250    5.635    0.311    0.349   67.218  157.762
  530.500    5.643    0.309    0.337   89.355  157.969
  530.750    5.629    0.315    0.328  101.125  158.278
  531.000    5.617    0.323    0.357   92.652  158.891
  531.250    5.593    0.325    0.370   82.897  159.809
  531.500    5.590    0.320    0.370   74.241  160.524
  531.750    5.619    0.316    0.373   76.865  161.137
  532.000    5.626    0.316    0.382   79.733  161.547
  532.250    5.635    0.308    0.376   80.894  161.653
  532.500    5.664    0.300    0.373   79.981  161.859
  532.750    5.683    0.306    0.375   77.788  161.761
  533.000    5.648    0.319    0.379   75.840  161.459
  533.250    5.688    0.319    0.381   75.475  161.361
  533.500    5.728    0.321    0.380   76.270  160.959
  533.750    5.812    0.325    0.378   77.797  160.860
  534.000    5.931    0.321    0.376   78.530  160.558
  534.250    6.063    0.305    0.378   79.020  160.054
  534.500    6.211    0.297    0.389   80.303  159.752
  534.750    6.313    0.288    0.395   82.073  158.944
  535.000    6.346    0.286    0.392   82.380  158.743
  535.250    6.367    0.289    0.378   82.260  158.544
  535.500    6.269    0.295    0.366   85.677  158.547
  535.750    5.812    0.301    0.378   82.203  159.160
  536.000    5.616    0.310    0.387   73.182  159.468
  536.250    5.540    0.319    0.393   69.037  160.286
  536.500    5.548    0.324    0.391   68.918  160.492
  536.750    5.535    0.328    0.382   71.358  160.902
  537.000    5.490    0.336    0.386   73.983  160.906
  537.250    5.447    0.326    0.381   75.936  160.706
  537.500    5.485    0.320    0.379   79.596  160.404
  537.750    5.672    0.324    0.389   82.891  159.697
  538.000    5.909    0.322    0.373   86.369  158.988
  538.250    6.120    0.305    0.382   90.944  158.585
  538.500    6.293    0.285    0.400   81.129  158.080
  538.750    6.219    0.281    0.385   66.985  158.084
  539.000    5.733    0.288    0.365   58.023  158.494
  539.250    5.478    0.296    0.344   49.611  159.210
  539.500    5.243    0.306    0.332   45.711  159.721
  539.750    5.291    0.300    0.337   41.383  159.928
  540.000    5.679    0.293    0.332   34.373  160.439
  540.250    6.166    0.299    0.324   38.521  160.544
  540.500    6.460    0.299    0.312   77.609  161.157
  540.750    6.895    0.247    0.320   98.831  161.567
  541.000    7.130    0.193    0.355  118.894  161.775
  541.250    7.413    0.176    0.380  122.372  162.083
  541.500    7.651    0.168    0.389  118.837  162.289
  541.750    7.762    0.173    0.386  114.510  162.496
  542.000    7.774    0.180    0.371  100.731  163.008
  542.250    7.668    0.198    0.358   85.428  163.418
  542.500    7.607    0.226    0.351   72.138  163.726
  542.750    7.762    0.264    0.340   81.530  163.729
  543.000    8.071    0.190    0.338  102.142  159.058
  543.250    8.345    0.158    0.348  110.376  160.891
  543.500    8.693    0.143    0.354  108.549  162.216
  543.750    8.971    0.153    0.343  104.466  163.439
  544.000    9.034    0.158    0.333  104.833  164.255
  544.250    8.979    0.157    0.338  106.909  165.072
  544.500    8.842    0.154    0.346  108.801  165.482
  544.750    8.722    0.152    0.354  111.181  165.486
  545.000    8.767    0.154    0.360  109.537  165.590
  545.250    8.946    0.159    0.361  104.783  165.695
  545.500    9.111    0.171    0.347   99.480  165.800
  545.750    9.176    0.180    0.330   98.628  165.803
  546.000    9.154    0.182    0.320  100.033  165.401
  546.250    9.167    0.180    0.332   93.328  163.778
  546.500    9.111    0.176    0.340   94.306  162.359
  546.750    8.870    0.167    0.341   97.905  161.447
  547.000    8.620    0.172    0.349  100.651  161.247
  547.250    8.392    0.184    0.345   79.190  161.963
  547.500    8.309    0.225    0.334   70.716  162.373
  547.750    8.352    0.227    0.321   78.584  162.986
  548.000    8.491    0.206    0.320   85.477  163.092
  548.250    8.599    0.200    0.338   87.308  163.196
  548.500    8.644    0.201    0.334   86.700  163.403
  548.750    8.591    0.202    0.328   87.678  163.203
  549.000    8.459    0.207    0.348   87.619  163.105
  549.250    8.329    0.217    0.361   87.255  163.108
  549.500    8.078    0.206    0.359   93.599  163.010
  549.750    7.969    0.192    0.357   97.870  162.811
  550.000    7.861    0.184    0.359  103.177  162.408
  550.250    7.858    0.174    0.371  106.532  162.208
  550.500    7.973    0.164    0.392  108.790  161.907
  550.750    8.044    0.165    0.406  105.621  162.113
  551.000    7.995    0.179    0.392  100.867  161.811
  551.250    7.740    0.200    0.384  102.821  161.307
  551.500    7.479    0.210    0.380  107.945  160.904
  551.750    7.323    0.196    0.399  101.422  160.297
  552.000    7.292    0.205    0.394   90.815  159.793
  552.250    7.330    0.226    0.384   86.183  159.695
  552.500    7.423    0.243    0.378   91.856  159.191
  552.750    7.589    0.222    0.360   98.077  158.788
  553.000    7.890    0.210    0.367   99.055  158.790
  553.250    8.066    0.208    0.384   96.679  159.000
  553.500    8.170    0.203    0.378  101.986  159.104
  553.750    8.182    0.199    0.384  108.329  159.106
  554.000    8.132    0.191    0.402  111.624  159.618
  554.250    8.036    0.184    0.416  114.614  160.637
  554.500    7.943    0.180    0.418  117.238  161.149
  554.750    7.894    0.177    0.421  108.947  160.034
  555.000    7.979    0.195    0.420   99.681  157.803
  555.250    8.052    0.222    0.389   93.403  156.891
  555.500    8.154    0.213    0.367   95.478  156.285
  555.750    8.228    0.204    0.364  101.395  156.899
  556.000    8.270    0.193    0.372  103.836  158.121
  556.250    8.297    0.182    0.374  107.009  159.649
  556.500    8.293    0.176    0.382  110.731  161.177
  556.750    8.197    0.174    0.402  111.769  162.197
  557.000    8.086    0.171    0.416  113.783  163.013
  557.250    7.902    0.170    0.407  116.042  163.221
  557.500    7.707    0.178    0.417  117.263  162.919
  557.750    7.631    0.173    0.430  118.241  162.820
  558.000    7.557    0.167    0.409  118.548  162.722
  558.250    7.482    0.179    0.393  118.550  162.015
  558.500    7.422    0.178    0.404  118.857  161.814
  558.750    7.406    0.175    0.417  119.469  161.411
  559.000    7.416    0.172    0.410  119.776  160.805
  559.250    7.468    0.170    0.416  119.351  159.793
  559.500    7.549    0.176    0.423  118.621  159.389
  559.750    7.617    0.190    0.414  118.075  158.580
  560.000    7.700    0.185    0.410  116.247  157.669
  560.250    7.784    0.179    0.408  112.774  157.672
  560.500    7.824    0.185    0.405  110.520  158.286
  560.750    7.806    0.189    0.403  110.095  158.391
  561.000    7.642    0.187    0.402  113.451  157.886
  561.250    7.539    0.183    0.402  117.112  157.584
  561.500    7.423    0.187    0.412  120.345  157.893
  561.750    7.336    0.192    0.423  118.396  158.404
  562.000    7.237    0.194    0.428  117.362  158.612
  562.250    7.112    0.198    0.411  117.303  158.614
  562.500    7.003    0.209    0.421  117.915  158.619
  562.750    6.934    0.215    0.435  121.210  158.825
  563.000    6.853    0.185    0.446  129.687  158.829
  563.250    6.836    0.180    0.457  124.384  158.934
  563.500    6.847    0.182    0.469  100.118  158.937
  563.750    6.921    0.231    0.434   93.169  158.940
