~VERSION INFORMATION
 VERS.                 2.0:   CWLS LOG ASCII STANDARD -VERSION 2.0
 WRAP.                  NO:   ONE LINE PER DEPTH STEP
~WELL INFORMATION BLOCK
#MNEM.UNIT           DATA                    DESCRIPTION OF MNEMONIC
#---------    -------------------            -------------------------------
# Generated from Intellog Unique Number	CS_71_72/WELL/838
WELL.         AMOCO AEC IPIATIK              : Well_name    - WELL
LOC .         00/08-16-072-05W4/0            : Location     - LOCATION
UWI .         00/08-16-072-05W4/0            : Uwi          - UNIQUE WELL ID
ENTR.         SP                             : Entered      - ENTERED BY
SRVC.         SCHLUMBERGER                   : Scn          - SERVICE COMPANY
STRT.M        320                            : top_depth    - START DEPTH
STOP.M        560                            : bot_depth    - STOP DEPTH
STEP.M        0.25                           : increment    - STEP LENGTH
 NULL. -999.2500:NULL Value
~CURVE INFORMATION BLOCK
#MNEM UNIT       ERCB CURVE CODE    CURVE DESCRIPTION
#-----------   ------------------   ----------------------------------
DEPT.M        00 001 00 00         : DEPTH        - DEPTH
GR  .API      00 310 00 00         : GR           - GAMMA RAY
NPHI.V/V      00 330 00 00         : PHIN         - NEUTRON POROSITY (LIMESTONE)
DPHI.V/V      00 890 00 00         : PHID         - DENSITY POROSITY (LIMESTONE)
ILD .OHMM     00 120 00 00         : RESD         - DEEP RESISTIVITY (DIL)
~PARAMETER INFORMATION
#MNEM.UNIT           DATA             DESCRIPTION OF MNEMONIC
#---------         -----------     ------------------------------
GL  .M        697.9                : gl           - GROUND LEVEL ELEVATION
EREF.M        702.17               : kb           - ELEVATION OF DEPTH REFERENCE
DATM.M        697.9                : datum        - DATUM ELEVATION
TDD .M        583                  : tdd          - TOTAL DEPTH DRILLER
RUN .         ONE                  : Run          - RUN NUMBER
ENG .         BILL                 : Engineer     - RECORDING ENGINEER
WIT .         JIM                  : Witness      - WITNESSED BY
MUD .         GEL                  : Mud_type     - MUD TYPE
MATR.         LIMESTONE            : Logunit      - NEUTRON MATRIX
TMAX.C        20                   : BHT          - MAXIMUM RECORDED TEMPERATURE
BHTD.M        583                  : BHTDEP       - MAXIMUM RECORDED TEMPERATURE
MATR.         1                    : LOGUNIT      - NEUTRON MATRIX
RMT .C        25                   : MDTP         - TEMPERATURE OF MUD
NEUT.         1                    : NEUTRON      - NEUTRON TYPE
RESI.         0                    : RESIST       - RESISTIVITY TYPE
RMC .OHMM     0.25                 : RMC          - RESISTIVITY OF MUD CAKE
RMF .OHMM     0.25                 : RMF          - RESISTIVITY OF MUD FILTRATE
SUFT.C        15                   : SUFT         - SURFACE TEMPERATURE
~A  DEPTH       GR     PHIN     PHID     RESD
# ...
  363.500   88.501    0.435    0.275    8.442
  363.750   93.326    0.424    0.242    8.440
  364.000   97.550    0.423    0.228    8.439
  364.250  102.379    0.421    0.216    8.438
  364.500  103.587    0.419    0.215    8.437
  364.750  106.006    0.440    0.221    8.436
  365.000  103.604    0.452    0.227    8.285
  365.250  103.006    0.459    0.224    7.993
  365.500  101.204    0.471    0.234    7.712
  365.750   96.395    0.476    0.240    7.574
  366.000   94.591    0.478    0.227    7.439
  366.250   92.790    0.480    0.239    7.438
  366.500   90.990    0.465    0.254    7.437
  366.750   90.996    0.468    0.242    7.304
  367.000   92.208    0.471    0.231    7.303
  367.250   93.421    0.477    0.228    7.173
  367.500   95.233    0.490    0.242    7.045
  367.750   95.842    0.482    0.250    6.919
  368.000   92.235    0.450    0.259    7.043
  368.250   88.627    0.438    0.266    7.169
  368.500   86.825    0.430    0.268    7.297
  368.750   88.039    0.420    0.261    7.560
  369.000   89.249    0.416    0.252    7.559
  369.250   89.257    0.419    0.248    7.694
  369.500   88.661    0.436    0.253    7.693
  369.750   88.063    0.452    0.253    7.692
  370.000   88.070    0.462    0.247    7.691
  370.250   86.872    0.474    0.242    7.554
  370.500   82.663    0.480    0.243    7.419
  370.750   78.452    0.481    0.256    7.287
  371.000   74.844    0.472    0.265    6.906
  371.250   71.837    0.453    0.266    6.545
  371.500   69.434    0.438    0.263    6.314
  371.750   68.238    0.443    0.292    6.313
  372.000   67.640    0.459    0.302    7.026
  372.250   67.648    0.469    0.307    8.103
  372.500   66.450    0.475    0.283   10.401
  372.750   64.648    0.454    0.231   11.996
  373.000   61.040    0.336    0.186   13.350
  373.250   57.432    0.263    0.059   14.594
  373.500   54.428    0.226    0.031   15.395
  373.750   52.627    0.224    0.021   14.590
  374.000   52.029    0.243    0.024   12.874
  374.250   55.652    0.265    0.053   11.160
  374.500   59.876    0.303    0.087    9.334
  374.750   67.112    0.352    0.140    7.807
  375.000   72.541    0.409    0.208    7.140
  375.250   75.558    0.461    0.258    6.413
  375.500   77.974    0.480    0.266    6.188
  375.750   78.585    0.478    0.263    5.970
  376.000   78.591    0.475    0.262    5.863
  376.250   79.198    0.473    0.273    5.556
  376.500   79.808    0.472    0.280    5.556
  376.750   79.814    0.480    0.287    5.457
  377.000   75.001    0.488    0.287    5.456
  377.250   70.188    0.487    0.297    5.358
  377.500   67.184    0.482    0.285    5.357
  377.750   64.782    0.460    0.249    5.357
  378.000   63.582    0.440    0.216    5.356
  378.250   64.192    0.438    0.261    5.355
  378.500   64.801    0.458    0.303    5.167
  378.750   65.410    0.475    0.317    4.641
  379.000   65.415    0.474    0.309    4.399
  379.250   65.423    0.467    0.319    4.095
  379.500   64.826    0.464    0.328    3.951
  379.750   64.230    0.455    0.323    3.880
  380.000   64.239    0.447    0.324    3.811
  380.250   64.846    0.439    0.313    3.743
  380.500   64.852    0.431    0.305    3.742
  380.750   66.067    0.426    0.299    3.742
  381.000   66.674    0.425    0.293    3.808
  381.250   68.489    0.428    0.280    3.808
  381.500   70.305    0.432    0.300    3.876
  381.750   70.910    0.438    0.295    3.945
  382.000   71.518    0.452    0.288    4.016
  382.250   69.719    0.461    0.287    4.015
  382.500   67.918    0.445    0.290    4.087
  382.750   66.119    0.441    0.302    4.159
  383.000   66.725    0.438    0.306    4.159
  383.250   69.746    0.434    0.295    4.158
  383.500   72.162    0.432    0.295    4.084
  383.750   74.578    0.427    0.290    4.084
  384.000   76.995    0.432    0.265    4.157
  384.250   78.807    0.444    0.253    4.231
  384.500   79.418    0.448    0.244    4.306
  384.750   77.616    0.442    0.234    4.383
  385.000   66.176    0.442    0.274    4.305
  385.250   59.556    0.430    0.305    3.867
  385.500   57.153    0.424    0.318    3.600
  385.750   55.956    0.424    0.317    3.473
  386.000   55.961    0.440    0.308    3.292
  386.250   57.172    0.446    0.312    3.176
  386.500   58.989    0.439    0.308    3.119
  386.750   59.595    0.436    0.323    3.064
  387.000   56.590    0.439    0.335    3.063
  387.250   53.584    0.433    0.342    3.008
  387.500   55.401    0.438    0.327    3.008
  387.750   56.009    0.458    0.332    2.902
  388.000   56.616    0.481    0.336    2.800
  388.250   55.421    0.473    0.332    2.654
  388.500   54.822    0.464    0.333    2.560
  388.750   54.229    0.466    0.336    2.470
  389.000   54.836    0.490    0.339    2.426
  389.250   55.446    0.540    0.346    2.426
  389.500   56.056    0.513    0.350    2.513
  389.750   56.662    0.481    0.338    2.651
  390.000   57.874    0.465    0.332    2.797
  390.250   59.085    0.457    0.325    3.112
  390.500   61.504    0.449    0.313    3.342
  390.750   63.317    0.446    0.278    3.525
  391.000   65.732    0.436    0.258    3.653
  391.250   69.958    0.433    0.242    3.922
  391.500   71.769    0.429    0.240    3.993
  391.750   73.584    0.424    0.241    4.137
  392.000   76.000    0.424    0.240    4.287
  392.250   77.211    0.429    0.236    4.363
  392.500   77.822    0.440    0.234    4.286
  392.750   77.225    0.445    0.235    4.209
  393.000   76.628    0.439    0.238    4.208
  393.250   76.635    0.433    0.242    4.133
  393.500   76.643    0.432    0.243    3.988
  393.750   76.046    0.432    0.236    3.519
  394.000   73.643    0.430    0.213    3.395
  394.250   69.434    0.430    0.203    3.050
  394.500   65.825    0.430    0.234    2.839
  394.750   60.409    0.450    0.277    2.643
  395.000   55.597    0.446    0.317    2.596
  395.250   53.797    0.446    0.308    2.550
  395.500   53.200    0.467    0.320    2.416
  395.750   53.209    0.462    0.338    2.373
  396.000   53.214    0.473    0.346    2.249
  396.250   52.621    0.478    0.339    2.170
  396.500   52.624    0.459    0.343    2.093
  396.750   52.632    0.450    0.346    2.056
  397.000   52.036    0.454    0.354    2.056
  397.250   52.041    0.475    0.357    2.056
  397.500   50.242    0.465    0.351    2.055
  397.750   49.042    0.455    0.347    2.055
  398.000   46.639    0.451    0.344    2.054
  398.250   44.236    0.448    0.347    2.054
  398.500   43.641    0.448    0.339    2.054
  398.750   45.455    0.451    0.350    2.091
  399.000   45.461    0.445    0.359    2.090
  399.250   44.262    0.430    0.365    2.128
  399.500   46.078    0.425    0.344    2.205
  399.750   47.891    0.423    0.334    2.325
  400.000   53.321    0.420    0.320    2.453
  400.250   59.351    0.451    0.324    2.588
  400.500   66.586    0.488    0.311    2.880
  400.750   75.630    0.505    0.278    3.038
  401.000   80.454    0.499    0.248    3.321
  401.250   84.679    0.491    0.217    3.630
  401.500   87.096    0.482    0.205    3.761
  401.750   88.308    0.485    0.215    3.829
  402.000   88.315    0.491    0.220    3.897
  402.250   88.319    0.480    0.223    3.966
  402.500   88.327    0.468    0.215    3.966
  402.750   86.528    0.458    0.215    3.965
  403.000   85.328    0.470    0.214    3.965
  403.250   82.926    0.485    0.209    3.894
  403.500   81.725    0.490    0.206    3.825
  403.750   78.119    0.493    0.204    3.690
  404.000   75.713    0.494    0.209    3.435
  404.250   72.106    0.479    0.231    3.314
  404.500   69.100    0.463    0.245    3.141
  404.750   72.722    0.446    0.260    3.085
  405.000   75.741    0.458    0.273    3.084
  405.250   78.760    0.468    0.273    3.029
  405.500   82.988    0.474    0.258    3.494
  405.750   84.196    0.480    0.247    3.493
  406.000   84.803    0.477    0.237    3.493
  406.250   83.606    0.475    0.233    3.430
  406.500   80.601    0.475    0.234    3.430
  406.750   75.788    0.477    0.246    3.193
