~VERSION INFORMATION
 VERS.                 2.0:   CWLS LOG ASCII STANDARD -VERSION 2.0
 WRAP.                  NO:   ONE LINE PER DEPTH STEP
~WELL INFORMATION BLOCK
#MNEM.UNIT           DATA                    DESCRIPTION OF MNEMONIC
#---------    -------------------            -------------------------------
# Generated from Intellog Unique Number	CS_69_70/WELL/781
NULL.         -999.25                        : NULL_VALUE
WELL.         SULPETRO LIMITED               : Well_name    - WELL              
LOC .         00/06-28-070-10W4/0            : Location     - LOCATION          
UWI .         00/06-28-070-10W4/0            : Uwi          - UNIQUE WELL ID    
ENTR.         SP                             : Entered      - ENTERED BY        
SRVC.         SCHLUMBERGER                   : Scn          - SERVICE COMPANY   
STRT.M        290                            : top_depth    - START DEPTH       
STOP.M        510                            : bot_depth    - STOP DEPTH        
STEP.M        0.25                           : increment    - STEP LENGTH       
~CURVE INFORMATION BLOCK
#MNEM UNIT       ERCB CURVE CODE    CURVE DESCRIPTION
#-----------   ------------------   ----------------------------------
DEPT.M        00 001 00 00         : DEPTH        - DEPTH                       
DPHI.V/V      00 890 00 00         : PHID         - DENSITY POROSITY (LIMESTONE)
NPHI.V/V      00 330 00 00         : PHIN         - NEUTRON POROSITY (LIMESTONE)
GR  .API      00 310 00 00         : GR           - GAMMA RAY                   
ILD .OHMM     00 120 00 00         : RESD         - DEEP RESISTIVITY (DIL)      
~PARAMETER INFORMATION       
#MNEM.UNIT           DATA             DESCRIPTION OF MNEMONIC
#---------         -----------     ------------------------------
GL  .M        633.84               : gl           - GROUND LEVEL ELEVATION      
EREF.M        630.84               : kb           - ELEVATION OF DEPTH REFERENCE
DATM.M        633.84               : datum        - DATUM ELEVATION             
TDD .M        518                  : tdd          - TOTAL DEPTH DRILLER         
RUN .         ONE                  : Run          - RUN NUMBER                  
ENG .         BILL                 : Engineer     - RECORDING ENGINEER          
WIT .         JIM                  : Witness      - WITNESSED BY                
MUD .         GEL                  : Mud_type     - MUD TYPE                    
MATR.         LIMESTONE            : Logunit      - NEUTRON MATRIX              
TMAX.C        27                   : BHT          - MAXIMUM RECORDED TEMPERATURE
BHTD.M        518                  : BHTDEP       - MAXIMUM RECORDED TEMPERATURE
MATR.         1                    : LOGUNIT      - NEUTRON MATRIX              
RMT .C        25                   : MDTP         - TEMPERATURE OF MUD          
NEUT.         1                    : NEUTRON      - NEUTRON TYPE                
RESI.         0                    : RESIST       - RESISTIVITY TYPE            
RMC .OHMM     0.25                 : RMC          - RESISTIVITY OF MUD CAKE     
RMF .OHMM     0.25                 : RMF          - RESISTIVITY OF MUD FILTRATE 
SUFT.C        15                   : SUFT         - SURFACE TEMPERATURE         
~A  DEPTH     PHID     PHIN       GR     RESD
  290.000    0.211    0.462   96.028    3.799
  290.250    0.184    0.446   97.624    3.830
  290.500    0.181    0.433   99.709    3.749
  290.750    0.188    0.443  100.816    3.655
  291.000    0.187    0.453  101.251    3.583
  291.250    0.191    0.458  102.174    3.449
  291.500    0.197    0.454  103.159    3.393
  291.750    0.198    0.445  104.144    3.253
  292.000    0.200    0.427  104.945    3.166
  292.250    0.201    0.416  104.095    3.110
  292.500    0.201    0.403  102.635    3.095
  292.750    0.201    0.388  100.258    3.126
  293.000    0.199    0.377   98.063    3.198
  293.250    0.190    0.368   96.359    3.371
  293.500    0.183    0.366   96.121    3.469
  293.750    0.182    0.366   98.266    3.503
  294.000    0.178    0.374  102.002    3.488
  294.250    0.183    0.372  104.882    3.476
  294.500    0.189    0.389  105.438    3.453
  294.750    0.195    0.413  103.488    3.442
  295.000    0.199    0.444  102.457    3.497
  295.250    0.201    0.428  100.935    3.597
  295.500    0.198    0.429   98.312    3.821
  295.750    0.192    0.404   96.914    3.880
  296.000    0.185    0.373   96.736    3.986
  296.250    0.181    0.364  100.717    4.025
  296.500    0.174    0.359  100.050    3.953
  296.750    0.177    0.378   98.040    3.769
  297.000    0.195    0.470   94.869    3.682
  297.250    0.202    0.502   89.862    3.925
  297.500    0.213    0.520   81.006    5.219
  297.750    0.240    0.356   70.438    7.340
  298.000    0.261    0.307   37.008    8.944
  298.250    0.282    0.291   33.103   10.778
  298.500    0.287    0.283   45.397   12.014
  298.750    0.287    0.278   52.555   12.179
  299.000    0.288    0.342   54.761   11.963
  299.250    0.291    0.373   54.462   11.794
  299.500    0.291    0.390   48.723   11.781
  299.750    0.288    0.352   44.756   11.832
  300.000    0.285    0.324   41.890   11.798
  300.250    0.286    0.329   41.346   11.543
  300.500    0.280    0.353   48.260   10.967
  300.750    0.269    0.369   56.519   10.474
  301.000    0.258    0.345   61.293    9.839
  301.250    0.250    0.327   63.684    9.092
  301.500    0.236    0.320   73.837    8.733
  301.750    0.219    0.330   85.091    8.498
  302.000    0.218    0.343   92.616    8.255
  302.250    0.216    0.362   93.662    8.137
  302.500    0.196    0.364   93.057    8.158
  302.750    0.192    0.378   96.303    8.209
  303.000    0.206    0.388   99.550    8.385
  303.250    0.209    0.383   99.190    8.756
  303.500    0.202    0.372   97.851    8.960
  303.750    0.201    0.357  102.138    8.416
  304.000    0.199    0.361  105.627    7.804
  304.250    0.194    0.396  107.529    7.318
  304.500    0.189    0.416  103.440    7.917
  304.750    0.184    0.370   90.427    8.392
  305.000    0.181    0.324   87.194    7.767
  305.250    0.180    0.301   93.069    6.926
  305.500    0.179    0.342   98.148    6.386
  305.750    0.182    0.388  100.111    6.011
  306.000    0.177    0.413   98.834    5.860
  306.250    0.174    0.413   95.418    6.031
  306.500    0.183    0.386   89.861    6.309
  306.750    0.183    0.368   85.590    6.651
  307.000    0.171    0.342   82.968    6.971
  307.250    0.176    0.333   80.407    7.404
  307.500    0.181    0.340   82.737    7.675
  307.750    0.175    0.379   85.616    7.183
  308.000    0.191    0.385   81.039    7.242
  308.250    0.204    0.392   75.849    7.792
  308.500    0.217    0.379   70.965    8.168
  308.750    0.229    0.402   66.143    8.436
  309.000    0.241    0.391   59.060    8.713
  309.250    0.259    0.354   53.076    9.152
  309.500    0.246    0.394   48.131    9.899
  309.750    0.243    0.425   45.020   11.282
  310.000    0.263    0.380   49.305   12.670
  310.250    0.277    0.344   49.373   13.556
  310.500    0.276    0.358   38.866   14.130
  310.750    0.270    0.372   24.631   14.648
  311.000    0.266    0.364   23.598   15.159
  311.250    0.267    0.339   23.727   15.423
  311.500    0.281    0.319   26.056   15.724
  311.750    0.290    0.304   26.918   16.034
  312.000    0.286    0.312   26.253   16.160
  312.250    0.280    0.339   24.794   16.351
  312.500    0.282    0.355   23.760   16.485
  312.750    0.286    0.364   22.667   16.590
  313.000    0.284    0.350   21.332   16.662
  313.250    0.279    0.345   21.212   16.736
  313.500    0.277    0.360   22.931   16.871
  313.750    0.275    0.362   24.587   17.202
  314.000    0.277    0.368   26.122   17.277
  314.250    0.269    0.375   25.090   17.159
  314.500    0.258    0.383   23.447   16.948
  314.750    0.264    0.383   22.108   16.677
  315.000    0.286    0.371   20.953   16.232
  315.250    0.293    0.368   20.043   15.885
  315.500    0.293    0.380   20.049   15.548
  315.750    0.285    0.385   22.012   15.327
  316.000    0.281    0.375   24.280   15.282
  316.250    0.279    0.366   23.370   15.376
  316.500    0.287    0.366   21.726   15.415
  316.750    0.295    0.368   20.267   15.482
  317.000    0.293    0.365   20.273   15.404
  317.250    0.288    0.370   22.173   15.018
  317.500    0.289    0.359   22.791   12.712
  317.750    0.290    0.349   31.845   10.801
  318.000    0.290    0.310   46.949    8.286
  318.250    0.267    0.283   59.608    6.821
  318.500    0.225    0.299   82.843    5.882
  318.750    0.201    0.341   98.925    5.445
  319.000    0.185    0.352  107.306    5.152
  319.250    0.174    0.373  110.248    5.108
  319.500    0.172    0.411  114.899    5.285
  319.750    0.167    0.445  119.368    5.847
  320.000    0.183    0.438  117.235    6.814
  320.250    0.197    0.433  111.862    8.107
  320.500    0.211    0.416  105.085    9.120
  320.750    0.236    0.415   99.528    9.978
  321.000    0.273    0.402   93.361   10.795
  321.250    0.309    0.387   86.338   11.149
  321.500    0.315    0.379   83.289   11.116
  321.750    0.306    0.372   79.628   10.999
  322.000    0.292    0.379   76.945   10.684
  322.250    0.281    0.424   81.108   10.382
  322.500    0.272    0.459   84.110   10.347
  322.750    0.262    0.464   86.561   10.262
  323.000    0.244    0.438   88.096   10.227
  323.250    0.229    0.359   89.326    9.973
  323.500    0.221    0.317   89.454    9.848
  323.750    0.243    0.333   84.326    9.763
  324.000    0.259    0.358   80.422    9.862
  324.250    0.271    0.359   78.899   10.016
  324.500    0.278    0.355   78.722   10.079
  324.750    0.279    0.364   78.546   10.066
  325.000    0.277    0.381   78.553   10.020
  325.250    0.272    0.396   80.270    9.970
  325.500    0.266    0.404   82.967    9.956
  325.750    0.257    0.397   85.601   10.040
  326.000    0.250    0.387   87.931   10.045
  326.250    0.245    0.396   90.444   10.050
  326.500    0.248    0.417   92.834   10.095
  326.750    0.258    0.437   95.224   10.064
  327.000    0.268    0.452   91.074   10.071
  327.250    0.282    0.438   81.424   10.557
  327.500    0.293    0.369   82.285   10.704
  327.750    0.283    0.368   94.457   10.630
  328.000    0.268    0.397   98.314   10.579
  328.250    0.260    0.404   92.330   10.491
  328.500    0.267    0.378   87.630   10.456
  328.750    0.272    0.365   85.130   10.424
  329.000    0.275    0.364   83.853   10.299
  329.250    0.278    0.374   82.698   10.152
  329.500    0.283    0.384   81.910    9.734
  329.750    0.287    0.390   84.912    9.211
  330.000    0.270    0.391   88.036    8.653
  330.250    0.252    0.407   90.304    8.359
  330.500    0.243    0.420   90.066    8.180
  330.750    0.240    0.415   86.894    8.050
  331.000    0.246    0.433   83.113    7.994
  331.250    0.254    0.450   80.918    8.062
  331.500    0.258    0.466   85.263    8.171
  331.750    0.249    0.470   89.610    8.329
  332.000    0.254    0.463   88.944    8.735
  332.250    0.267    0.447   84.857    8.853
  332.500    0.274    0.428   83.640    8.957
  332.750    0.281    0.418   84.258    9.081
  333.000    0.283    0.431   84.570    9.088
  333.250    0.276    0.427   84.211    9.011
