~VERSION INFORMATION
 VERS.                 2.0:   CWLS LOG ASCII STANDARD -VERSION 2.0
 WRAP.                  NO:   ONE LINE PER DEPTH STEP
~WELL INFORMATION BLOCK
#MNEM.UNIT           DATA                    DESCRIPTION OF MNEMONIC
#---------    -------------------            -------------------------------
# Generated from Intellog Unique Number	CS_67_68/WELL/2180
WELL.         07-33-067-04W4                 : Well_name    - WELL
LOC .         00/07-33-067-04W4/0            : Location     - LOCATION
UWI .         00/07-33-067-04W4/0            : Uwi          - UNIQUE WELL ID
ENTR.         SP                             : Entered      - ENTERED BY
SRVC.         SCHLUMBERGER                   : Scn          - SERVICE COMPANY
STRT.M        345                            : top_depth    - START DEPTH
STOP.M        571                            : bot_depth    - STOP DEPTH
STEP.M        0.25                           : increment    - STEP LENGTH
 NULL. -999.2500:NULL Value
~CURVE INFORMATION BLOCK
#MNEM UNIT       ERCB CURVE CODE    CURVE DESCRIPTION
#-----------   ------------------   ----------------------------------
DEPT.M        00 001 00 00         : DEPTH        - DEPTH
ILD .OHMM     00 120 00 00         : RESD         - DEEP RESISTIVITY (DIL)
DPHI.V/V      00 890 00 00         : PHID         - DENSITY POROSITY (LIMESTONE)
NPHI.V/V      00 330 00 00         : PHIN         - NEUTRON POROSITY (LIMESTONE)
GR  .API      00 310 00 00         : GR           - GAMMA RAY
CALI.MM       00 280 01 00         : CAL          - CALIPER
~PARAMETER INFORMATION
#MNEM.UNIT           DATA             DESCRIPTION OF MNEMONIC
#---------         -----------     ------------------------------
GL  .M        697.8                : gl           - GROUND LEVEL ELEVATION
EREF.M        701.6                : kb           - ELEVATION OF DEPTH REFERENCE
DATM.M        701.6                : datum        - DATUM ELEVATION
TDD .M        577                  : tdd          - TOTAL DEPTH DRILLER
RUN .         ONE                  : Run          - RUN NUMBER
ENG .         BILL                 : Engineer     - RECORDING ENGINEER
WIT .         JIM                  : Witness      - WITNESSED BY
MUD .         GEL                  : Mud_type     - MUD TYPE
MATR.         LIMESTONE            : Logunit      - NEUTRON MATRIX
TMAX.C        22.7                 : BHT          - MAXIMUM RECORDED TEMPERATURE
BHTD.M        577                  : BHTDEP       - MAXIMUM RECORDED TEMPERATURE
MATR.         1                    : LOGUNIT      - NEUTRON MATRIX
RMT .C        25                   : MDTP         - TEMPERATURE OF MUD
NEUT.         1                    : NEUTRON      - NEUTRON TYPE
RESI.         0                    : RESIST       - RESISTIVITY TYPE
RMC .OHMM     0.25                 : RMC          - RESISTIVITY OF MUD CAKE
RMF .OHMM     0.25                 : RMF          - RESISTIVITY OF MUD FILTRATE
SUFT.C        15                   : SUFT         - SURFACE TEMPERATURE
~A  DEPTH     RESD     PHID     PHIN       GR      CAL
# ...
  418.000    4.248    0.303    0.556  101.220  187.399
  418.250    4.603    0.284    0.542   92.502  177.036
  418.500    5.258    0.308    0.506   82.504  169.215
  418.750    5.949    0.326    0.459   71.104  163.730
  419.000    6.619    0.332    0.427   61.106  160.786
  419.250    7.039    0.334    0.425   60.194  157.741
  419.500    7.332    0.336    0.427   62.086  155.916
  419.750    7.288    0.339    0.420   62.027  154.801
  420.000    7.042    0.335    0.415   60.993  154.805
  420.250    6.947    0.336    0.409   60.873  155.520
  420.500    6.879    0.329    0.405   61.119  155.930
  420.750    6.786    0.322    0.410   64.474  156.441
  421.000    6.694    0.314    0.418   68.501  156.648
  421.250    6.603    0.307    0.402   72.040  156.956
  421.500    6.551    0.311    0.425   66.432  157.672
  421.750    6.462    0.327    0.448   61.007  158.081
  422.000    6.398    0.346    0.447   57.595  158.491
  422.250    6.419    0.365    0.438   57.780  158.698
  422.500    6.416    0.378    0.440   58.818  158.906
  422.750    6.462    0.381    0.440   59.186  159.315
  423.000    6.507    0.377    0.437   59.737  159.216
  423.250    6.603    0.366    0.434   59.739  159.118
  423.500    6.662    0.357    0.427   60.229  158.919
  423.750    6.684    0.364    0.422   60.841  158.922
  424.000    6.694    0.365    0.432   62.306  158.824
  424.250    6.666    0.355    0.438   63.894  158.522
  424.500    6.637    0.345    0.435   63.530  157.916
  424.750    6.697    0.335    0.432   63.715  157.716
  425.000    6.744    0.328    0.437   66.278  157.415
  425.250    6.792    0.321    0.441   69.634  157.317
  425.500    6.840    0.320    0.442   71.587  156.813
  425.750    6.927    0.327    0.449   72.626  156.511
  426.000    6.989    0.343    0.460   71.287  156.514
  426.250    6.999    0.344    0.453   68.484  156.112
  426.500    6.996    0.337    0.440   69.096  155.810
  426.750    7.139    0.337    0.429   70.622  155.610
  427.000    7.436    0.337    0.440   68.490  155.614
  427.250    7.573    0.337    0.447   66.907  155.820
  427.500    7.513    0.338    0.439   66.299  156.027
  427.750    7.412    0.343    0.429   65.996  156.031
  428.000    7.189    0.332    0.423   65.816  155.830
  428.250    7.012    0.324    0.427   65.452  155.529
  428.500    7.062    0.328    0.432   65.576  155.024
  428.750    7.005    0.332    0.434   65.578  155.130
  429.000    6.950    0.334    0.446   65.397  155.134
  429.250    6.907    0.336    0.448   65.094  154.933
  429.500    6.904    0.331    0.441   65.035  154.327
  429.750    6.862    0.324    0.456   64.915  153.620
  430.000    6.820    0.318    0.464   65.466  153.724
  430.250    6.829    0.323    0.464   66.932  154.033
  430.500    6.814    0.334    0.437   66.873  154.646
  430.750    6.798    0.336    0.409   67.607  155.462
  431.000    6.756    0.331    0.419   68.706  156.177
  431.250    6.665    0.328    0.420   66.879  156.791
  431.500    6.624    0.322    0.420   65.052  157.912
  431.750    6.571    0.333    0.447   63.469  159.034
  432.000    6.555    0.341    0.460   66.581  160.053
  432.250    6.601    0.346    0.443   66.766  161.175
  432.500    6.637    0.347    0.444   63.963  161.890
  432.750    6.657    0.346    0.436   62.014  162.198
  433.000    6.643    0.343    0.423   63.357  162.202
  433.250    6.640    0.349    0.418   63.542  162.408
  433.500    6.662    0.351    0.429   61.227  162.513
  433.750    6.659    0.349    0.431   64.278  162.618
  434.000    6.668    0.347    0.421   66.536  162.724
  434.250    6.665    0.346    0.425   63.977  162.930
  434.500    6.649    0.352    0.437   61.297  162.933
  434.750    6.634    0.357    0.443   59.408  162.734
  435.000    6.643    0.354    0.440   60.813  162.940
  435.250    6.702    0.354    0.438   60.815  162.944
  435.500    6.762    0.364    0.440   60.451  162.846
  435.750    6.797    0.363    0.443   62.649  162.646
  436.000    6.832    0.360    0.429   62.895  162.141
  436.250    6.867    0.354    0.433   64.726  161.941
  436.500    6.903    0.347    0.423   67.472  161.538
  436.750    6.965    0.341    0.404   69.181  161.339
  437.000    7.028    0.337    0.393   69.976  160.937
  437.250    7.038    0.327    0.393   69.490  160.736
  437.500    7.087    0.317    0.395   67.053  160.435
  437.750    7.125    0.316    0.406   66.568  160.032
  438.000    7.188    0.318    0.414   66.875  159.730
  438.250    7.267    0.322    0.420   67.669  159.124
  438.500    7.277    0.329    0.418   67.550  158.721
  438.750    7.342    0.333    0.430   65.966  158.013
  439.000    7.353    0.332    0.439   64.383  157.305
  439.250    7.308    0.328    0.446   63.592  156.902
  439.500    7.222    0.330    0.445   64.021  156.601
  439.750    7.125    0.335    0.437   64.816  156.604
  440.000    7.121    0.339    0.427   65.977  156.608
  440.250    7.158    0.337    0.415   65.552  156.916
  440.500    7.249    0.332    0.413   63.908  156.513
  440.750    7.327    0.337    0.441   62.507  156.517
  441.000    7.393    0.341    0.449   66.412  156.521
  441.250    7.474    0.341    0.434   69.463  156.625
  441.500    7.598    0.346    0.430   65.684  157.136
  441.750    7.782    0.342    0.438   62.272  158.868
  442.000    7.986    0.333    0.427   59.469  160.498
  442.250    8.288    0.337    0.414   58.069  161.314
  442.500    8.748    0.339    0.404   58.802  162.130
  442.750    9.497    0.340    0.396   59.353  162.845
  443.000   10.273    0.332    0.392   54.478  163.255
  443.250   11.734    0.335    0.404   51.187  163.157
  443.500   12.811    0.186    0.416   48.140  162.856
  443.750   13.371    0.171    0.276   51.313  162.351
  444.000   12.120    0.162    0.244   54.303  162.050
  444.250   11.069    0.235    0.277   57.781  161.952
  444.500    9.502    0.289    0.319   60.343  161.853
  444.750    8.485    0.314    0.368   61.565  161.755
  445.000    7.720    0.337    0.392   62.482  161.352
  445.250    7.349    0.352    0.405   63.582  161.355
  445.500    7.359    0.339    0.420   65.718  160.952
  445.750    7.287    0.329    0.440   66.635  161.057
  446.000    7.255    0.335    0.437   65.356  161.366
  446.250    7.251    0.339    0.433   63.285  161.675
  446.500    7.207    0.336    0.443   63.226  161.678
  446.750    7.150    0.340    0.456   61.155  161.681
  447.000    7.120    0.345    0.465   59.267  161.583
  447.250    7.144    0.356    0.464   64.208  161.485
  447.500    7.208    0.355    0.455   68.905  161.387
  447.750    7.260    0.354    0.448   67.627  161.390
  448.000    7.393    0.357    0.437   64.519  161.699
  448.250    7.488    0.363    0.433   61.900  162.109
  448.500    7.555    0.355    0.420   59.706  162.214
  448.750    7.566    0.348    0.405   58.306  162.624
  449.000    7.562    0.354    0.388   57.576  162.831
  449.250    7.559    0.360    0.399   57.213  163.037
  449.500    7.540    0.346    0.417   57.459  162.940
  449.750    7.537    0.347    0.424   58.375  162.943
  450.000    7.533    0.353    0.413   59.902  162.844
  450.250    7.487    0.350    0.407   60.819  162.645
  450.500    7.427    0.339    0.402   62.528  162.851
  450.750    7.383    0.333    0.401   64.359  162.855
  451.000    7.338    0.330    0.407   65.215  162.858
  451.250    7.320    0.329    0.410   61.864  162.354
  451.500    7.290    0.326    0.409   58.573  162.154
  451.750    7.259    0.324    0.409   56.624  162.056
  452.000    7.174    0.341    0.412   57.480  161.652
  452.250    7.091    0.359    0.421   59.555  160.538
  452.500    7.060    0.372    0.427   61.447  159.526
  452.750    7.057    0.358    0.430   63.035  158.513
  453.000    7.067    0.351    0.426   64.073  156.789
  453.250    7.064    0.345    0.419   63.526  155.979
  453.500    6.955    0.343    0.444   63.529  155.068
  453.750    6.784    0.345    0.465   67.067  154.259
  454.000    6.630    0.346    0.449   66.521  154.567
  454.250    6.577    0.332    0.433   65.059  155.586
