~VERSION INFORMATION
 VERS.                 2.0:   CWLS LOG ASCII STANDARD -VERSION 2.0
 WRAP.                  NO:   ONE LINE PER DEPTH STEP
~WELL INFORMATION BLOCK
#MNEM.UNIT           DATA                    DESCRIPTION OF MNEMONIC
#---------    -------------------            -------------------------------
# Generated from Intellog Unique Number	CS_73_76/WELL/2388
WELL.         07-24-075-13W4                 : Well_name    - WELL
LOC .         00/07-24-075-13W4/0            : Location     - LOCATION
UWI .         00/07-24-075-13W4/0            : Uwi          - UNIQUE WELL ID
ENTR.         SP                             : Entered      - ENTERED BY
SRVC.         SCHLUMBERGER                   : Scn          - SERVICE COMPANY
STRT.M        323.088                        : top_depth    - START DEPTH
STOP.M        548.338                        : bot_depth    - STOP DEPTH
STEP.M        0.25                           : increment    - STEP LENGTH
 NULL. -999.2500:NULL Value
~CURVE INFORMATION BLOCK
#MNEM UNIT       ERCB CURVE CODE    CURVE DESCRIPTION
#-----------   ------------------   ----------------------------------
DEPT.M        00 001 00 00         : DEPTH        - DEPTH
GR  .API      00 310 00 00         : GR           - GAMMA RAY
DPHI.V/V      00 890 00 00         : PHID         - DENSITY POROSITY (SANDSTONE)
NPHI.V/V      00 330 00 00         : PHIN         - NEUTRON POROSITY (SANDSTONE)
ILD .OHMM     00 120 00 00         : RESD         - DEEP RESISTIVITY (DIL)
~PARAMETER INFORMATION
#MNEM.UNIT           DATA             DESCRIPTION OF MNEMONIC
#---------         -----------     ------------------------------
GL  .M        698.602              : gl           - GROUND LEVEL ELEVATION
EREF.M        702.869              : kb           - ELEVATION OF DEPTH REFERENCE
DATM.M        698.602              : datum        - DATUM ELEVATION
TDD .M        554.126              : tdd          - TOTAL DEPTH DRILLER
RUN .         ONE                  : Run          - RUN NUMBER
ENG .         BILL                 : Engineer     - RECORDING ENGINEER
WIT .         JIM                  : Witness      - WITNESSED BY
MUD .         GEL                  : Mud_type     - MUD TYPE
MATR.         SANDSTONE            : Logunit      - NEUTRON MATRIX
TMAX.C        18.8889              : BHT          - MAXIMUM RECORDED TEMPERATURE
BHTD.M        554.126              : BHTDEP       - MAXIMUM RECORDED TEMPERATURE
MATR.         1                    : LOGUNIT      - NEUTRON MATRIX
RMT .C        25                   : MDTP         - TEMPERATURE OF MUD
NEUT.         1                    : NEUTRON      - NEUTRON TYPE
RESI.         0                    : RESIST       - RESISTIVITY TYPE
RMC .OHMM     0.25                 : RMC          - RESISTIVITY OF MUD CAKE
RMF .OHMM     0.25                 : RMF          - RESISTIVITY OF MUD FILTRATE
SUFT.C        15                   : SUFT         - SURFACE TEMPERATURE
~A  DEPTH       GR     PHID     PHIN     RESD
# ...
  410.088   49.736    0.364    0.567    8.650
  410.338   52.315    0.347    0.549    7.747
  410.588   57.274    0.325    0.537    6.781
  410.838   64.128    0.307    0.517    6.106
  411.088   69.479    0.282    0.497    5.582
  411.338   76.792    0.269    0.473    5.099
  411.588   78.644    0.260    0.462    4.796
  411.838   74.237    0.271    0.467    4.635
  412.088   72.346    0.262    0.469    4.491
  412.338   73.832    0.256    0.461    4.480
  412.588   77.212    0.255    0.460    4.570
  412.838   79.341    0.255    0.465    4.716
  413.088   81.488    0.242    0.450    4.966
  413.338   78.889    0.232    0.436    5.112
  413.588   76.252    0.222    0.425    5.201
  413.838   78.112    0.231    0.435    4.918
  414.088   77.004    0.225    0.431    4.536
  414.338   78.890    0.229    0.432    4.080
  414.588   82.735    0.239    0.443    3.664
  414.838   84.106    0.245    0.453    3.332
  415.088   83.426    0.252    0.453    3.026
  415.338   79.568    0.256    0.457    2.735
  415.588   76.817    0.263    0.463    2.537
  415.838   77.446    0.276    0.474    2.452
  416.088   77.458    0.291    0.496    2.496
  416.338   81.911    0.291    0.500    2.521
  416.588   84.410    0.290    0.498    2.645
  416.838   86.546    0.298    0.504    2.777
  417.088   76.722    0.309    0.517    2.883
  417.338   68.009    0.326    0.532    3.169
  417.588   62.938    0.329    0.536    3.457
  417.838   62.129    0.326    0.532    4.055
  418.088   66.355    0.325    0.531    4.780
  418.338   71.922    0.326    0.532    5.630
  418.588   77.913    0.323    0.525    5.894
  418.838   81.299    0.320    0.518    4.852
  419.088   84.789    0.312    0.510    3.556
  419.338   88.131    0.310    0.517    3.064
  419.588   89.928    0.312    0.517    2.403
  419.838   88.564    0.309    0.514    2.102
  420.088   78.191    0.314    0.515    2.187
  420.338   63.357    0.323    0.523    2.578
  420.588   60.946    0.330    0.532    3.020
  420.838   63.014    0.327    0.533    3.767
  421.088   65.319    0.323    0.529    4.605
  421.338   66.979    0.315    0.521    5.407
  421.588   64.810    0.311    0.515    6.142
  421.838   61.630    0.313    0.514    6.367
  422.088   62.990    0.321    0.527    6.494
  422.338   62.052    0.323    0.526    6.463
  422.588   59.415    0.325    0.529    6.370
  422.838   57.918    0.310    0.515    6.236
  423.088   59.690    0.305    0.507    6.248
  423.338   63.043    0.312    0.509    6.148
  423.588   67.155    0.309    0.516    6.129
  423.838   66.835    0.313    0.514    6.123
  424.088   63.377    0.315    0.522    6.124
  424.338   61.531    0.313    0.521    6.156
  424.588   64.458    0.316    0.522    6.230
  424.838   66.428    0.319    0.526    6.227
  425.088   62.642    0.325    0.529    6.225
  425.338   58.682    0.331    0.535    6.218
  425.588   57.177    0.334    0.539    6.413
  425.838   57.973    0.321    0.534    6.466
  426.088   59.457    0.303    0.517    6.562
  426.338   60.263    0.285    0.500    6.735
  426.588   56.456    0.247    0.467    7.085
  426.838   55.142    0.196    0.428    7.643
  427.088   53.944    0.169    0.389    7.919
  427.338   58.552    0.187    0.372    8.164
  427.588   65.939    0.240    0.452    8.275
  427.838   65.706    0.268    0.487    8.097
  428.088   67.679    0.292    0.499    7.874
  428.338   74.285    0.302    0.506    7.263
  428.588   76.147    0.295    0.497    6.866
  428.838   75.095    0.291    0.495    6.674
  429.088   72.216    0.294    0.497    6.537
  429.338   69.293    0.301    0.503    6.407
  429.588   69.325    0.297    0.500    6.311
  429.838   69.301    0.292    0.494    6.244
  430.088   68.299    0.293    0.496    6.175
  430.338   67.653    0.287    0.494    6.170
  430.588   69.807    0.287    0.492    6.168
  430.838   71.285    0.282    0.493    6.165
  431.088   69.309    0.277    0.487    6.150
  431.338   69.020    0.276    0.483    6.284
  431.588   64.313    0.278    0.484    6.277
  431.838   60.365    0.261    0.477    6.148
  432.088   56.326    0.185    0.438    6.168
  432.338   52.057    0.120    0.299    6.352
  432.588   44.565    0.050    0.255    6.661
  432.838   39.184    0.032    0.234    7.148
  433.088   42.851    0.063    0.265    7.922
  433.338   56.587    0.108    0.308    8.779
  433.588   65.942    0.145    0.353    9.720
  433.838   69.672    0.200    0.420    9.112
  434.088   70.613    0.242    0.449    8.082
  434.338   69.358    0.241    0.448    6.856
  434.588   67.876    0.250    0.452    6.263
  434.838   70.345    0.260    0.469    5.736
  435.088   69.562    0.273    0.479    5.486
  435.338   66.181    0.278    0.481    5.643
  435.588   69.083    0.275    0.476    5.811
  435.838   69.535    0.267    0.471    5.892
  436.088   69.213    0.271    0.470    6.065
  436.338   72.253    0.274    0.473    6.115
  436.588   70.578    0.271    0.480    6.231
  436.838   67.302    0.268    0.476    6.258
  437.088   65.560    0.270    0.474    6.330
  437.338   62.102    0.280    0.488    6.328
  437.588   66.039    0.291    0.499    6.324
  437.838   67.223    0.300    0.503    6.324
  438.088   65.864    0.297    0.500    6.387
  438.338   64.832    0.303    0.507    6.431
  438.588   64.799    0.294    0.499    6.431
  438.838   64.839    0.288    0.493    6.425
  439.088   65.654    0.285    0.491    6.414
  439.338   68.186    0.291    0.489    6.312
  439.588   68.578    0.293    0.494    6.186
  439.838   67.814    0.295    0.499    6.071
  440.088   67.419    0.294    0.498    6.077
  440.338   66.626    0.288    0.489    6.099
  440.588   68.889    0.281    0.485    5.743
  440.838   72.280    0.283    0.490    6.099
  441.088   71.736    0.279    0.486    6.066
  441.338   71.098    0.280    0.489    6.054
  441.588   75.704    0.287    0.493    5.838
  441.838   77.337    0.287    0.493    4.803
  442.088   81.800    0.299    0.500    4.364
  442.338   85.738    0.303    0.510    3.673
  442.588   87.916    0.310    0.516    3.100
  442.838   87.966    0.317    0.521    2.707
  443.088   84.941    0.296    0.511    2.507
  443.338   77.640    0.280    0.500    2.328
  443.588   73.610    0.275    0.478    2.204
  443.838   75.729    0.292    0.486    2.307
  444.088   77.681    0.303    0.495    2.538
  444.338   74.553    0.314    0.513    2.759
  444.588   71.034    0.301    0.507    3.214
  444.838   72.143    0.288    0.500    3.495
  445.088   74.632    0.279    0.492    3.960
  445.338   73.340    0.281    0.485    4.277
  445.588   73.945    0.292    0.492    4.533
  445.838   69.460    0.298    0.501    4.789
  446.088   56.381    0.310    0.513    4.824
  446.338   48.971    0.321    0.529    4.886
  446.588   44.300    0.334    0.545    4.880
  446.838   42.412    0.344    0.556    4.819
  447.088   43.259    0.353    0.559    4.817
  447.338   45.626    0.348    0.558    4.817
  447.588   46.473    0.345    0.552    4.809
  447.838   45.944    0.344    0.551    4.899
  448.088   43.894    0.348    0.557    4.994
  448.338   42.671    0.343    0.554    5.066
  448.588   46.870    0.338    0.548    5.099
  448.838   48.843    0.333    0.543    5.369
  449.088   45.723    0.329    0.536    5.418
  449.338   44.187    0.329    0.536    5.721
  449.588   44.078    0.338    0.539    5.765
  449.838   46.635    0.350    0.550    6.058
  450.088   48.445    0.343    0.552    6.232
  450.338   48.246    0.348    0.552    6.417
  450.588   44.850    0.346    0.553    6.535
  450.838   45.665    0.341    0.549    6.672
  451.088   50.814    0.343    0.551    6.647
  451.338   53.178    0.341    0.548    6.784
  451.588   53.726    0.342    0.552    6.759
  451.838   48.757    0.335    0.544    6.645
  452.088   41.977    0.326    0.522    6.701
  452.338   36.525    0.309    0.477    6.775
  452.588   32.679    0.202    0.403    7.116
  452.838   39.958    0.110    0.318    7.318
  453.088   43.227    0.206    0.340    7.541
  453.338   48.121    0.265    0.473    7.643
