~VERSION INFORMATION
 VERS.                 2.0:   CWLS LOG ASCII STANDARD -VERSION 2.0
 WRAP.                  NO:   ONE LINE PER DEPTH STEP
~WELL INFORMATION BLOCK
#MNEM.UNIT           DATA                    DESCRIPTION OF MNEMONIC
#---------    -------------------            -------------------------------
# Generated from Intellog Unique Number	CS_73_76/WELL/2176
WELL.         DOME ET AL KIRBY               : Well_name    - WELL
LOC .         00/07-26-074-05W4/0            : Location     - LOCATION
UWI .         00/07-26-074-05W4/0            : Uwi          - UNIQUE WELL ID
ENTR.         SP                             : Entered      - ENTERED BY
SRVC.         SCHLUMBERGER                   : Scn          - SERVICE COMPANY
STRT.M        260                            : top_depth    - START DEPTH
STOP.M        470                            : bot_depth    - STOP DEPTH
STEP.M        0.25                           : increment    - STEP LENGTH
 NULL. -999.2500:NULL Value
~CURVE INFORMATION BLOCK
#MNEM UNIT       ERCB CURVE CODE    CURVE DESCRIPTION
#-----------   ------------------   ----------------------------------
DEPT.M        00 001 00 00         : DEPTH        - DEPTH
ILD .OHMM     00 120 00 00         : RESD         - DEEP RESISTIVITY (DIL)
DPHI.V/V      00 890 00 00         : PHID         - DENSITY POROSITY (LIMESTONE)
NPHI.V/V      00 330 00 00         : PHIN         - NEUTRON POROSITY (LIMESTONE)
GR  .API      00 310 00 00         : GR           - GAMMA RAY
~PARAMETER INFORMATION
#MNEM.UNIT           DATA             DESCRIPTION OF MNEMONIC
#---------         -----------     ------------------------------
GL  .M        659.1                : gl           - GROUND LEVEL ELEVATION
EREF.M        663.6                : kb           - ELEVATION OF DEPTH REFERENCE
DATM.M        659.1                : datum        - DATUM ELEVATION
TDD .M        475                  : tdd          - TOTAL DEPTH DRILLER
RUN .         ONE                  : Run          - RUN NUMBER
ENG .         BILL                 : Engineer     - RECORDING ENGINEER
WIT .         JIM                  : Witness      - WITNESSED BY
MUD .         GEL                  : Mud_type     - MUD TYPE
MATR.         LIMESTONE            : Logunit      - NEUTRON MATRIX
TMAX.C        20                   : BHT          - MAXIMUM RECORDED TEMPERATURE
BHTD.M        475                  : BHTDEP       - MAXIMUM RECORDED TEMPERATURE
MATR.         1                    : LOGUNIT      - NEUTRON MATRIX
RMT .C        25                   : MDTP         - TEMPERATURE OF MUD
NEUT.         1                    : NEUTRON      - NEUTRON TYPE
RESI.         0                    : RESIST       - RESISTIVITY TYPE
RMC .OHMM     0.25                 : RMC          - RESISTIVITY OF MUD CAKE
RMF .OHMM     0.25                 : RMF          - RESISTIVITY OF MUD FILTRATE
SUFT.C        15                   : SUFT         - SURFACE TEMPERATURE
~A  DEPTH     RESD     PHID     PHIN       GR
  260.000    3.325    0.279    0.594  101.418
  260.250    3.204    0.290    0.594   97.782
  260.500    3.145    0.296    0.590  102.646
  260.750    3.266    0.287    0.545  105.082
  261.000    3.523    0.279    0.538  101.445
  261.250    3.658    0.280    0.538  100.238
  261.500    3.660    0.272    0.522   99.028
  261.750    3.661    0.276    0.519  102.072
  262.000    3.662    0.274    0.523  104.508
  262.250    3.732    0.266    0.495  101.476
  262.500    3.664    0.260    0.499  106.343
  262.750    3.597    0.254    0.528  109.993
  263.000    3.532    0.265    0.547  109.998
  263.250    3.533    0.274    0.560  103.933
  263.500    3.534    0.215    0.514  100.295
  263.750    3.602    0.181    0.522   98.479
  264.000    3.812    0.184    0.534  102.737
  264.250    4.268    0.236    0.539  103.958
  264.500    7.785    0.288    0.502   97.892
  264.750   11.124    0.314    0.470   93.041
  265.000   13.940    0.326    0.441   90.010
  265.250   15.607    0.320    0.365   97.306
  265.500   15.909    0.299    0.374   99.133
  265.750   15.329    0.290    0.376  103.996
  266.000   14.767    0.274    0.391  106.432
  266.250   13.964    0.288    0.395   97.938
  266.500   13.708    0.314    0.353   95.514
  266.750   14.237    0.344    0.386  100.382
  267.000   13.718    0.265    0.436  104.639
  267.250   13.468    0.261    0.447  104.643
  267.500   13.728    0.264    0.452   97.362
  267.750   13.991    0.247    0.423   93.725
  268.000   15.088    0.237    0.365   94.339
  268.250   15.968    0.248    0.349   82.808
  268.500   16.274    0.261    0.324   77.347
  268.750   15.681    0.270    0.302   67.637
  269.000   14.552    0.243    0.314   72.503
  269.250   13.006    0.197    0.343   84.654
  269.500   11.845    0.189    0.387   99.237
  269.750   10.992    0.215    0.413  104.710
  270.000   10.590    0.239    0.430  104.714
  270.250   10.593    0.254    0.437  102.295
  270.500   11.860    0.272    0.443  101.691
  270.750   13.031    0.289    0.431  101.699
  271.000   13.282    0.305    0.403   95.025
  271.250   12.096    0.320    0.381   90.779
  271.500   10.813    0.288    0.391   95.645
  271.750   10.417    0.241    0.405  105.368
  272.000    9.851    0.211    0.435  111.447
  272.250    9.670    0.250    0.449  109.631
  272.500    9.856    0.315    0.463   92.634
  272.750   11.459    0.333    0.387   81.709
  273.000   11.678    0.336    0.374   62.889
  273.250   11.903    0.346    0.382   73.219
  273.500   11.046    0.287    0.418   86.587
  273.750   10.251    0.225    0.416   99.347
  274.000    9.694    0.200    0.401  104.818
  274.250    9.695    0.211    0.410  107.861
  274.500   10.457    0.237    0.432  101.189
  274.750   11.488    0.265    0.420   92.692
  275.000   14.127    0.232    0.376   81.767
  275.250   18.380    0.222    0.349   79.953
  275.500   22.604    0.258    0.327   78.137
  275.750   23.038    0.281    0.306   69.643
  276.000   20.593    0.293    0.245   66.611
  276.250   18.753    0.297    0.250   67.226
  276.500   16.144    0.302    0.267   70.876
  276.750   13.386    0.292    0.299   76.348
  277.000   11.523    0.261    0.341   79.999
  277.250    9.735    0.228    0.385   86.080
  277.500    8.381    0.212    0.405   93.372
  277.750    7.633    0.195    0.420  106.738
  278.000    7.216    0.176    0.444  115.246
  278.250    6.824    0.130    0.508  114.645
  278.500    6.452    0.196    0.446  130.443
  278.750    5.988    0.214    0.469  134.699
  279.000    5.556    0.227    0.485  137.745
  279.250    5.254    0.229    0.503  137.141
  279.500    4.875    0.222    0.515  132.896
  279.750    4.524    0.214    0.528  129.259
  280.000    4.121    0.231    0.535  131.697
  280.250    3.753    0.249    0.521  133.523
  280.500    3.684    0.266    0.534  132.923
  280.750    3.549    0.278    0.548  132.930
  281.000    3.550    0.272    0.558  129.292
  281.250    4.051    0.283    0.564  124.441
  281.500    5.270    0.288    0.567  123.839
  281.750    8.429    0.260    0.519  121.418
  282.000   10.364    0.279    0.474  111.706
  282.250   15.669    0.297    0.359   89.851
  282.500   24.594    0.322    0.325   71.031
  282.750   33.222    0.356    0.300   57.069
  283.000   35.157    0.387    0.292   58.902
  283.250   33.873    0.404    0.303   61.336
  283.500   29.717    0.389    0.309   64.986
  283.750   27.061    0.376    0.312   65.599
  284.000   21.613    0.372    0.319   69.248
  284.250   19.680    0.344    0.327   74.720
  284.500   16.626    0.305    0.352   81.408
  284.750   16.021    0.305    0.382   83.843
  285.000   16.639    0.320    0.358   81.422
  285.250   17.280    0.332    0.344   82.034
  285.500   18.287    0.334    0.354   84.470
  285.750   19.355    0.336    0.367   83.871
  286.000   20.101    0.343    0.360   84.483
  286.250   20.491    0.345    0.359   85.096
  286.500   20.119    0.351    0.365   84.498
  286.750   19.750    0.353    0.369   83.287
  287.000   19.027    0.337    0.375   85.723
  287.250   17.989    0.323    0.380   94.842
  287.500   15.782    0.298    0.367   98.490
  287.750   15.492    0.310    0.364  107.608
  288.000   14.651    0.323    0.361  111.255
  288.250   14.654    0.314    0.371  108.833
  288.500   15.803    0.303    0.377   93.659
  288.750   16.722    0.312    0.342   79.697
  289.000   17.698    0.321    0.316   73.630
  289.250   18.380    0.314    0.309   80.318
  289.500   19.819    0.282    0.293   79.109
  289.750   23.475    0.361    0.271   68.184
  290.000   26.779    0.375    0.239   61.509
  290.250   30.555    0.362    0.240   57.873
  290.500   31.731    0.342    0.261   56.664
  290.750   28.897    0.318    0.277   60.925
  291.000   22.229    0.307    0.284   64.573
  291.250   18.779    0.289    0.305   68.223
  291.500   16.472    0.255    0.329   68.835
  291.750   13.917    0.224    0.348   68.235
  292.000   12.208    0.215    0.367   74.316
  292.250   10.509    0.249    0.376   78.572
  292.500    9.751    0.272    0.390   79.793
  292.750    8.554    0.288    0.403   77.978
  293.000    8.087    0.293    0.410   85.272
  293.250    7.792    0.289    0.390   92.567
  293.500    7.509    0.262    0.377   97.431
  293.750    7.371    0.244    0.400  100.474
  294.000    7.236    0.252    0.422   99.265
  294.250    7.104    0.307    0.422   82.268
  294.500    6.844    0.324    0.392   69.522
  294.750    6.719    0.346    0.392   69.530
  295.000    6.355    0.353    0.409   73.179
  295.250    6.238    0.355    0.428   78.651
  295.500    6.124    0.344    0.447   79.871
  295.750    6.012    0.338    0.464   73.197
  296.000    6.013    0.323    0.471   75.633
  296.250    6.246    0.318    0.423   89.608
  296.500    6.488    0.302    0.403   96.294
  296.750    6.614    0.293    0.408   99.337
  297.000    6.491    0.289    0.407  100.558
  297.250    6.617    0.276    0.392  106.032
  297.500    6.619    0.251    0.398  109.681
  297.750    6.621    0.249    0.425  112.724
  298.000    6.749    0.272    0.453  112.125
  298.250    6.750    0.252    0.470  110.916
  298.500    6.753    0.247    0.458  110.921
  298.750    6.630    0.252    0.475  114.572
  299.000    6.508    0.258    0.487  115.793
  299.250    6.271    0.271    0.486  113.371
  299.500    5.930    0.311    0.498  110.341
  299.750    5.821    0.304    0.506  106.095
  300.000    5.933    0.293    0.493  103.672
  300.250    6.163    0.308    0.486  105.503
  300.500    6.281    0.328    0.489  106.722
  300.750    6.403    0.312    0.482  106.731
  301.000    6.406    0.296    0.465  106.735
  301.250    6.529    0.293    0.444  102.492
  301.500    6.531    0.293    0.447   98.247
  301.750    6.532    0.283    0.423   97.038
  302.000    6.535    0.271    0.416  100.082
  302.250    6.661    0.264    0.425  106.768
  302.500    6.790    0.277    0.411  112.847
  302.750    6.922    0.277    0.423  117.105
  303.000    6.923    0.234    0.442  120.149
  303.250    7.056    0.212    0.451  119.549
