~VERSION INFORMATION
 VERS.                 2.0:   CWLS LOG ASCII STANDARD -VERSION 2.0
 WRAP.                  NO:   ONE LINE PER DEPTH STEP
~WELL INFORMATION BLOCK
#MNEM.UNIT           DATA                    DESCRIPTION OF MNEMONIC
#---------    -------------------            -------------------------------
# Generated from Intellog Unique Number	CW_70_72/WELL/913
NULL.         -999.25                        : NULL_VALUE
WELL.         SUNDANCE CANAL 07-24           : Well_name    - WELL              
LOC .         07-24-071-23W4                 : Location     - LOCATION          
UWI .         00/07-24-071-23W4/0            : Uwi          - UNIQUE WELL ID    
ENTR.         JAYE                           : Entered      - ENTERED BY        
SRVC.         SCHLUMBERGER                   : Scn          - SERVICE COMPANY   
DATE.         21 FEB 77                      : Date         - LOG DATE          
STRT.M        432.816                        : top_depth    - START DEPTH       
STOP.M        658.316                        : bot_depth    - STOP DEPTH        
STEP.M        0.25                           : increment    - STEP LENGTH       
~CURVE INFORMATION BLOCK
#MNEM UNIT       ERCB CURVE CODE    CURVE DESCRIPTION
#-----------   ------------------   ----------------------------------
DEPT.M        00 001 00 00         : DEPTH        - DEPTH                       
DPHI.V/V      00 890 00 00         : PHID         - DENSITY POROSITY (SANDSTONE)
NPHI.V/V      00 330 00 00         : PHIN         - NEUTRON POROSITY (SANDSTONE)
GR  .API      00 310 00 00         : GR           - GAMMA RAY                   
CALI.MM       00 280 01 00         : CAL          - CALIPER                     
ILD .OHMM     00 120 00 00         : RESD         - DEEP RESISTIVITY (DIL)      
~PARAMETER INFORMATION       
#MNEM.UNIT           DATA             DESCRIPTION OF MNEMONIC
#---------         -----------     ------------------------------
GL  .M        641.909              : gl           - GROUND LEVEL ELEVATION      
EREF.M        645.566              : kb           - ELEVATION OF DEPTH REFERENCE
DATM.M        641.909              : datum        - DATUM ELEVATION             
TDD .M        669.036              : tdd          - TOTAL DEPTH DRILLER         
RUN .         ONE                  : Run          - RUN NUMBER                  
ENG .         BIGG/LEDUC           : Engineer     - RECORDING ENGINEER          
WIT .         CHRISTENSEN          : Witness      - WITNESSED BY                
BASE.         EDM                  : Branch       - HOME BASE OF LOGGING UNIT   
MUD .         GEL CHEN             : Mud_type     - MUD TYPE                    
MATR.         SANDSTONE            : Logunit      - NEUTRON MATRIX              
TMAX.C        -17.7778             : BHT          - MAXIMUM RECORDED TEMPERATURE
BHTD.M        669.95               : BHTDEP       - MAXIMUM RECORDED TEMPERATURE
RMT .C        15.5556              : MDTP         - TEMPERATURE OF MUD          
MUDD.KG/M     1104                 : MWT          - MUD DENSITY                 
NEUT.         1                    : NEUTRON      - NEUTRON TYPE                
RESI.         0                    : RESIST       - RESISTIVITY TYPE            
RM  .OHMM     2.18                 : RM           - RESISTIVITY OF MUD          
RMC .OHMM     0                    : RMC          - RESISTIVITY OF MUD CAKE     
RMF .OHMM     4.77                 : RMF          - RESISTIVITY OF MUD FILTRATE 
SUFT.C        0                    : SUFT         - SURFACE TEMPERATURE         
~A  DEPTH     PHID     PHIN       GR      CAL     RESD
# ...
  469.316    0.282    0.427   96.860  163.154    4.293
  469.566    0.265    0.423   99.695  162.878    4.112
  469.816    0.260    0.433  109.897  163.034    4.056
  470.066    0.276    0.437  108.593  163.408    4.084
  470.316    0.263    0.433  110.086  164.172    4.173
  470.566    0.270    0.410  114.866  165.366    4.368
  470.816    0.268    0.411  116.603  165.730    4.692
  471.066    0.254    0.414  119.136  166.822    4.975
  471.316    0.233    0.414  122.030  167.902    5.276
  471.566    0.227    0.407  127.603  169.808    5.605
  471.816    0.222    0.395  125.021  171.827    5.791
  472.066    0.220    0.408  122.429  173.220    5.820
  472.316    0.239    0.418  118.992  174.206    5.512
  472.566    0.252    0.430  115.977  173.950    5.087
  472.816    0.265    0.435  112.421  171.730    4.704
  473.066    0.280    0.436  109.283  167.664    4.598
  473.316    0.278    0.429  108.462  164.419    4.604
  473.566    0.263    0.412  113.304  163.858    4.703
  473.816    0.249    0.405  118.025  163.497    4.816
  474.066    0.237    0.408  123.297  163.148    4.893
  474.316    0.229    0.427  125.341  163.609    4.909
  474.566    0.237    0.445  127.384  165.824    4.850
  474.816    0.246    0.435  128.693  167.946    4.848
  475.066    0.251    0.413  127.628  170.164    4.863
  475.316    0.230    0.419  126.261  172.898    4.915
  475.566    0.206    0.423  124.647  176.060    4.975
  475.816    0.188    0.428  122.001  178.476    5.008
  476.066    0.196    0.438  117.525  180.594    5.070
  476.316    0.202    0.449  107.326  182.295    5.191
  476.566    0.216    0.449   95.665  182.968    5.424
  476.816    0.241    0.411   80.410  182.403    5.741
  477.066    0.271    0.383   68.198  176.680    5.833
  477.316    0.292    0.366   57.450  169.104    5.394
  477.566    0.305    0.377   56.020  165.141    5.014
  477.816    0.315    0.395   56.174  162.517    4.551
  478.066    0.327    0.409   53.040  161.229    4.063
  478.316    0.337    0.415   52.340  160.047    3.756
  478.566    0.340    0.417   51.826  159.600    3.460
  478.816    0.335    0.416   50.397  159.635    3.241
  479.066    0.324    0.408   48.357  159.791    3.092
  479.316    0.327    0.402   50.042  160.574    3.005
  479.566    0.334    0.407   51.958  161.451    2.976
  479.816    0.328    0.412   55.222  162.133    3.002
  480.066    0.326    0.414   57.810  162.491    3.056
  480.316    0.329    0.417   59.237  162.754    3.128
  480.566    0.319    0.422   60.123  163.122    3.197
  480.816    0.311    0.432   59.302  162.866    3.249
  481.066    0.329    0.441   57.202  162.606    3.289
  481.316    0.344    0.430   56.077  162.461    3.329
  481.566    0.340    0.413   55.135  162.202    3.390
  481.816    0.332    0.395   53.097  162.258    3.400
  482.066    0.343    0.400   51.607  162.304    3.360
  482.316    0.331    0.399   49.203  162.680    3.248
  482.566    0.326    0.392   48.078  162.833    3.134
  482.816    0.329    0.388   49.936  162.780    2.974
  483.066    0.327    0.395   53.440  162.945    2.838
  483.316    0.309    0.402   52.076  163.095    2.733
  483.566    0.318    0.412   49.121  163.664    2.681
  483.816    0.316    0.420   46.228  164.037    2.680
  484.066    0.317    0.405   45.408  164.190    2.727
  484.316    0.330    0.388   48.001  164.446    2.844
  484.566    0.328    0.385   50.775  164.096    2.999
  484.816    0.320    0.394   52.508  164.244    3.128
  485.066    0.317    0.397   53.517  163.067    3.256
  485.316    0.315    0.413   54.097  160.333    3.358
  485.566    0.314    0.413   55.654  157.091    3.406
  485.816    0.316    0.412   55.626  156.834    3.373
  486.066    0.318    0.421   54.498  158.229    3.358
  486.316    0.316    0.428   55.993  161.897    3.306
  486.566    0.309    0.395   55.964  163.492    3.238
  486.816    0.303    0.392   53.624  163.033    3.165
  487.066    0.319    0.389   52.676  162.260    3.099
  487.316    0.316    0.385   52.530  161.604    3.023
  487.566    0.310    0.379   52.681  161.660    2.977
  487.816    0.311    0.379   53.629  161.711    2.948
  488.066    0.312    0.400   54.876  161.460    2.930
  488.316    0.321    0.431   56.067  161.101    2.933
  488.566    0.312    0.438   56.708  160.646    2.915
  488.816    0.305    0.424   56.861  160.090    2.897
  489.066    0.313    0.392   54.642  159.717    2.890
  489.316    0.319    0.398   52.359  159.763    2.883
  489.566    0.323    0.401   54.218  159.518    2.908
  489.816    0.328    0.402   56.200  159.361    2.922
  490.066    0.332    0.397   57.023  159.014    2.931
  490.316    0.322    0.390   58.033  158.849    2.946
  490.566    0.316    0.379   59.769  158.592    2.949
  490.816    0.330    0.378   60.898  157.200    2.958
  491.066    0.333    0.381   60.626  153.749    2.961
  491.316    0.339    0.386   56.759  153.089    2.972
  491.566    0.334    0.390   58.437  154.991    2.980
  491.816    0.321    0.389   61.147  157.834    3.000
  492.066    0.333    0.382   63.191  159.438    3.009
  492.316    0.315    0.386   63.527  160.116    3.036
  492.566    0.321    0.388   64.596  160.165    3.045
  492.816    0.330    0.384   66.151  160.216    3.054
  493.066    0.336    0.388   67.279  160.274    3.053
  493.316    0.335    0.394   67.979  160.335    3.045
  493.566    0.322    0.412   66.919  160.076    3.055
  493.816    0.321    0.403   65.484  160.038    3.046
  494.066    0.329    0.396   63.081  159.667    3.057
  494.316    0.330    0.404   60.314  159.525    3.054
  494.566    0.333    0.416   60.833  159.475    3.041
  494.816    0.336    0.407   62.874  159.525    3.045
  495.066    0.339    0.396   66.440  159.378    3.055
  495.316    0.342    0.408   70.430  159.324    3.058
  495.566    0.336    0.412   73.506  159.068    3.078
  495.816    0.328    0.399   74.757  157.983    3.100
  496.066    0.338    0.388   73.456  152.885    3.138
  496.316    0.343    0.396   73.177  154.692    3.188
  496.566    0.341    0.403   71.874  158.775    3.295
  496.816    0.333    0.396   68.613  161.204    3.392
  497.066    0.326    0.395   66.455  162.077    3.498
  497.316    0.321    0.410   68.561  162.131    3.568
  497.566    0.308    0.429   68.528  162.294    3.579
  497.816    0.320    0.443   66.793  162.446    3.511
  498.066    0.333    0.432   66.157  161.056    3.369
  498.316    0.347    0.422   65.822  156.363    3.226
  498.566    0.345    0.427   66.162  155.699    3.124
  498.816    0.347    0.421   67.472  159.985    3.077
  499.066    0.354    0.412   69.028  160.454    3.040
  499.316    0.356    0.406   68.754  157.203    2.989
  499.566    0.352    0.410   67.567  153.851    2.959
  499.816    0.337    0.426   65.772  152.570    2.925
  500.066    0.341    0.425   63.614  154.683    2.895
  500.316    0.358    0.421   64.986  159.275    2.883
  500.566    0.356    0.421   65.262  161.190    2.850
  500.816    0.343    0.423   64.807  161.555    2.843
  501.066    0.344    0.424   64.416  161.810    2.836
  501.316    0.353    0.422   63.775  162.082    2.813
  501.566    0.342    0.410   63.747  162.239    2.796
  501.816    0.334    0.401   64.507  162.295    2.788
  502.066    0.332    0.412   65.636  162.145    2.782
  502.316    0.329    0.422   65.425  161.894    2.785
  502.566    0.326    0.434   64.428  161.526    2.794
  502.816    0.317    0.443   63.907  161.269    2.786
  503.066    0.316    0.438   63.147  161.329    2.791
  503.316    0.346    0.426   62.386  161.286    2.804
  503.566    0.344    0.428   61.444  161.442    2.813
  503.816    0.334    0.428   60.628  161.495    2.826
  504.066    0.348    0.426   60.413  161.538    2.830
  504.316    0.352    0.418   60.994  161.196    2.833
  504.566    0.354    0.402   62.490  161.030    2.827
  504.816    0.358    0.408   64.043  161.099    2.830
  505.066    0.344    0.417   65.535  161.142    2.833
  505.316    0.336    0.413   64.717  161.093    2.826
  505.566    0.347    0.406   62.190  161.155    2.803
