~VERSION INFORMATION
 VERS.                 2.0:   CWLS LOG ASCII STANDARD -VERSION 2.0
 WRAP.                  NO:   ONE LINE PER DEPTH STEP
~WELL INFORMATION BLOCK
#MNEM.UNIT           DATA                    DESCRIPTION OF MNEMONIC
#---------    -------------------            -------------------------------
# Generated from Intellog Unique Number	CW_73_75/WELL/3517
WELL.         CABRE EXPLORATION              : Well_name    - WELL
LOC .         00/02-05-074-04W5/0            : Location     - LOCATION
UWI .         00/02-05-074-04W5/0            : Uwi          - UNIQUE WELL ID
ENTR.         T                              : Entered      - ENTERED BY
SRVC.         SCHLUMBERGER                   : Scn          - SERVICE COMPANY
DATE.         05\15\92                       : Date         - LOG DATE
STRT.M        335                            : top_depth    - START DEPTH
STOP.M        590                            : bot_depth    - STOP DEPTH
STEP.M        0.25                           : increment    - STEP LENGTH
 NULL. -999.2500:NULL Value
~CURVE INFORMATION BLOCK
#MNEM UNIT       ERCB CURVE CODE    CURVE DESCRIPTION
#-----------   ------------------   ----------------------------------
DEPT.M        00 001 00 00         : DEPTH        - DEPTH
ILD .OHMM     00 120 00 00         : RESD         - DEEP RESISTIVITY (DIL)
DPHI.V/V      00 890 00 00         : PHID         - DENSITY POROSITY (SANDSTONE)
NPHI.V/V      00 330 00 00         : PHIN         - NEUTRON POROSITY (SANDSTONE)
GR  .API      00 310 00 00         : GR           - GAMMA RAY
~PARAMETER INFORMATION
#MNEM.UNIT           DATA             DESCRIPTION OF MNEMONIC
#---------         -----------     ------------------------------
GL  .M        593                  : gl           - GROUND LEVEL ELEVATION
EREF.M        597                  : kb           - ELEVATION OF DEPTH REFERENCE
DATM.M        597                  : datum        - DATUM ELEVATION
TDD .M        1628                 : tdd          - TOTAL DEPTH DRILLER
RUN .         ONE                  : Run          - RUN NUMBER
ENG .         JO                   : Engineer     - RECORDING ENGINEER
WIT .         TIM                  : Witness      - WITNESSED BY
MUD .         GEL                  : Mud_type     - MUD TYPE
MATR.         SANDSTONE            : Logunit      - NEUTRON MATRIX
TMAX.C        44                   : BHT          - MAXIMUM RECORDED TEMPERATURE
BHTD.M        1628                 : BHTDEP       - MAXIMUM RECORDED TEMPERATURE
RMT .C        15                   : MDTP         - TEMPERATURE OF MUD
MUDD.KG/M     1080                 : MWT          - MUD DENSITY
NEUT.         1                    : NEUTRON      - NEUTRON TYPE
RESI.         0                    : RESIST       - RESISTIVITY TYPE
RM  .OHMM     0.97                 : RM           - RESISTIVITY OF MUD
RMC .OHMM     0.688                : RMC          - RESISTIVITY OF MUD CAKE
RMF .OHMM     0.84                 : RMF          - RESISTIVITY OF MUD FILTRATE
SUFT.C        4                    : SUFT         - SURFACE TEMPERATURE
~A  DEPTH     RESD     PHID     PHIN       GR
# ...
  552.500    7.565    0.142    0.293   68.875
  552.750    7.429    0.174    0.304   69.440
  553.000    7.295    0.194    0.333   69.432
  553.250    7.163    0.199    0.338   68.232
  553.500    7.163    0.206    0.338   64.686
  553.750    7.295    0.211    0.345   61.732
  554.000    7.296    0.209    0.352   61.716
  554.250    7.430    0.208    0.361   66.404
  554.500    7.431    0.206    0.373   68.153
  554.750    7.431    0.201    0.388   69.318
  555.000    7.568    0.194    0.382   69.887
  555.250    7.850    0.189    0.347   67.510
  555.500    7.995    0.174    0.327   65.144
  555.750    7.996    0.165    0.315   62.183
  556.000    7.709    0.149    0.306   60.998
  556.250    7.570    0.139    0.293   61.567
  556.500    7.037    0.152    0.321   64.497
  556.750    6.662    0.179    0.348   69.773
  557.000    6.423    0.193    0.376   71.522
  557.250    6.193    0.194    0.376   72.099
  557.500    6.081    0.190    0.365   73.256
  557.750    5.863    0.188    0.352   73.236
  558.000    5.757    0.188    0.341   72.632
  558.250    5.653    0.186    0.333   72.028
  558.500    5.551    0.185    0.328   72.013
  558.750    5.654    0.180    0.359   71.997
  559.000    5.654    0.178    0.350   72.569
  559.250    6.083    0.184    0.324   73.727
  559.500    6.309    0.194    0.321   74.295
  559.750    6.544    0.199    0.345   74.279
  560.000    6.913    0.192    0.339   73.683
  560.250    6.545    0.177    0.321   73.668
  560.500    5.655    0.157    0.311   74.240
  560.750    4.542    0.158    0.308   74.813
  561.000    3.854    0.166    0.314   75.385
  561.250    2.930    0.195    0.321   73.012
  561.500    2.148    0.222    0.328   65.936
  561.750    1.823    0.269    0.338   57.683
  562.000    1.694    0.435    0.354   49.430
  562.250    1.633    0.482    0.366   41.766
  562.500    1.634    0.511    0.372   35.866
  562.750    1.634    0.505    0.373   31.140
  563.000    1.694    0.492    0.371   33.477
  563.250    1.823    0.473    0.370   36.992
  563.500    2.072    0.441    0.365   41.683
  563.750    2.533    0.404    0.361   46.374
  564.000    3.154    0.351    0.351   52.827
  564.250    3.856    0.310    0.336   55.757
  564.500    5.165    0.250    0.319   66.332
  564.750    5.869    0.178    0.297   63.959
  565.000    6.550    0.138    0.266   61.005
  565.250    7.176    0.157    0.249   59.221
  565.500    7.444    0.210    0.270   61.558
  565.750    7.581    0.222    0.285   65.657
  566.000    6.920    0.215    0.381   67.407
  566.250    5.979    0.212    0.376   68.564
  566.500    5.262    0.440    0.367   67.968
  566.750    5.167    0.409    0.381   66.775
  567.000    5.262    0.387    0.452   63.813
  567.250    5.359    0.363    0.448   60.860
  567.500    5.458    0.362    0.444   56.722
  567.750    5.360    0.414    0.429   56.117
  568.000    4.982    0.452    0.436   57.867
  568.250    4.892    0.457    0.454   59.612
  568.500    4.548    0.440    0.465   60.185
  568.750    4.305    0.417    0.462   59.581
  569.000    4.151    0.436    0.452   58.392
  569.250    4.076    0.462    0.436   55.435
  569.500    4.076    0.478    0.447   54.827
  569.750    4.228    0.478    0.471   61.872
  570.000    4.306    0.465    0.491   68.324
  570.250    4.386    0.446    0.496   69.485
  570.500    4.549    0.419    0.499   74.180
  570.750    4.806    0.394    0.493   73.568
  571.000    4.985    0.367    0.475   71.203
  571.250    5.170    0.349    0.462   72.953
  571.500    5.363    0.349    0.437   74.706
  571.750    5.665    0.356    0.408   73.513
  572.000    5.876    0.365    0.388   72.313
  572.250    5.876    0.396    0.388   72.886
  572.500    5.770    0.367    0.414   74.051
  572.750    5.564    0.341    0.462   75.800
  573.000    5.564    0.300    0.451   76.953
  573.250    5.564    0.251    0.438   76.357
  573.500    5.667    0.232    0.425   77.514
  573.750    5.771    0.226    0.402   78.091
  574.000    5.772    0.351    0.387   80.421
  574.250    5.268    0.371    0.383   80.993
  574.500    4.987    0.385    0.406   81.570
  574.750    5.173    0.398    0.419   79.193
  575.000    5.269    0.403    0.421   78.597
  575.250    5.773    0.396    0.418   78.581
  575.500    6.560    0.382    0.432   76.796
  575.750    8.169    0.379    0.452   71.489
  576.000   10.550    0.434    0.462   64.409
  576.250   13.876    0.422    0.464   53.802
  576.500   16.356    0.411    0.458   43.196
  576.750   17.278    0.412    0.465   55.536
  577.000   18.931    0.470    0.464   60.816
  577.250   20.742    0.427    0.461   48.444
  577.500   22.315    0.376    0.456   36.657
  577.750   24.450    0.332    0.430   28.404
  578.000   26.305    0.292    0.363   21.916
  578.250   27.788    0.259    0.307   18.366
  578.500   29.895    0.265    0.296   18.351
  578.750   31.009    0.271    0.296   20.684
  579.000   30.449    0.279    0.297   21.261
  579.250   28.826    0.288    0.300   21.830
  579.500   27.290    0.297    0.305   21.226
  579.750   25.368    0.305    0.311   20.625
  580.000   24.016    0.299    0.316   19.425
  580.250   23.155    0.291    0.321   18.829
  580.500   22.737    0.285    0.323   18.221
  580.750   22.327    0.277    0.322   18.205
  581.000   21.526    0.272    0.319   18.189
  581.250   20.755    0.265    0.323   18.758
  581.500   19.649    0.264    0.328   18.742
  581.750   18.265    0.263    0.329   19.315
  582.000   16.979    0.279    0.328   21.653
  582.250   15.783    0.286    0.327   25.163
  582.500   14.146    0.280    0.323   26.332
  582.750   13.149    0.272    0.322   29.259
  583.000   11.156    0.257    0.322   32.185
  583.250   10.562    0.242    0.325   33.342
  583.500    9.294    0.215    0.331   31.557
  583.750    8.799    0.203    0.336   29.776
  584.000    8.484    0.164    0.335   29.757
  584.250    8.330    0.138    0.329   29.749
  584.500    8.484    0.119    0.322   29.733
  584.750    8.800    0.108    0.280   29.717
  585.000    9.468    0.108    0.217   28.521
  585.250   10.186    0.108    0.204   27.321
  585.500   10.760    0.108    0.202   26.724
  585.750   11.367    0.108    0.202   25.532
  586.000   11.790    0.108    0.202   24.928
  586.250   12.008    0.108    0.202   24.912
  586.500   12.008    0.108    0.200   24.896
  586.750   11.578    0.107    0.198   25.465
  587.000   11.579    0.107    0.196   26.042
  587.250   11.579    0.110    0.196   26.018
  587.500   11.579    0.120    0.198   25.418
  587.750   11.793    0.161    0.203   23.637
  588.000   12.011    0.206    0.206   22.441
  588.250   12.233    0.251    0.213   21.837
  588.500   12.234    0.249    0.276   21.817
  588.750   12.234    0.167    0.298   21.809
  589.000   12.235    0.141    0.293   21.793
  589.250   12.235    0.134    0.276   22.354
  589.500   12.236    0.131    0.259   22.343
  589.750   12.462    0.126    0.252   22.327
  590.000   12.692    0.123    0.245   22.311
