~VERSION INFORMATION
 VERS.                 2.0:   CWLS LOG ASCII STANDARD -VERSION 2.0
 WRAP.                  NO:   ONE LINE PER DEPTH STEP
~WELL INFORMATION BLOCK
#MNEM.UNIT           DATA                    DESCRIPTION OF MNEMONIC
#---------    -------------------            -------------------------------
# Generated from Intellog Unique Number	CS_77_79/WELL/926
WELL.         NOVALTA PORTAGE                : Well_name    - WELL
LOC .         00/09-25-078-16W4/0            : Location     - LOCATION
UWI .         00/09-25-078-16W4/0            : Uwi          - UNIQUE WELL ID
ENTR.         JHS                            : Entered      - ENTERED BY
SRVC.         SCHLUMBERGER                   : Scn          - SERVICE COMPANY
STRT.M        220                            : top_depth    - START DEPTH
STOP.M        435                            : bot_depth    - STOP DEPTH
STEP.M        0.25                           : increment    - STEP LENGTH
 NULL. -999.2500:NULL Value
~CURVE INFORMATION BLOCK
#MNEM UNIT       ERCB CURVE CODE    CURVE DESCRIPTION
#-----------   ------------------   ----------------------------------
DEPT.M        00 001 00 00         : DEPTH        - DEPTH
DPHI.V/V      00 890 00 00         : PHID         - DENSITY POROSITY (LIMESTONE)
NPHI.V/V      00 330 00 00         : PHIN         - NEUTRON POROSITY (LIMESTONE)
GR  .API      00 310 00 00         : GR           - GAMMA RAY
ILD .OHMM     00 120 00 00         : RESD         - DEEP RESISTIVITY (DIL)
~PARAMETER INFORMATION
#MNEM.UNIT           DATA             DESCRIPTION OF MNEMONIC
#---------         -----------     ------------------------------
GL  .M        624.14               : gl           - GROUND LEVEL ELEVATION
EREF.M        627.6                : kb           - ELEVATION OF DEPTH REFERENCE
DATM.M        627.6                : datum        - DATUM ELEVATION
TDD .M        442                  : tdd          - TOTAL DEPTH DRILLER
RUN .         ONE                  : Run          - RUN NUMBER
ENG .         BILL                 : Engineer     - RECORDING ENGINEER
WIT .         JIM                  : Witness      - WITNESSED BY
MUD .         GEL                  : Mud_type     - MUD TYPE
MATR.         LIMESTONE            : Logunit      - NEUTRON MATRIX
TMAX.C        26                   : BHT          - MAXIMUM RECORDED TEMPERATURE
BHTD.M        442                  : BHTDEP       - MAXIMUM RECORDED TEMPERATURE
MATR.         1                    : LOGUNIT      - NEUTRON MATRIX
RMT .C        25                   : MDTP         - TEMPERATURE OF MUD
NEUT.         1                    : NEUTRON      - NEUTRON TYPE
RESI.         0                    : RESIST       - RESISTIVITY TYPE
RMC .OHMM     0.25                 : RMC          - RESISTIVITY OF MUD CAKE
RMF .OHMM     0.25                 : RMF          - RESISTIVITY OF MUD FILTRATE
SUFT.C        15                   : SUFT         - SURFACE TEMPERATURE
~A  DEPTH     PHID     PHIN       GR     RESD
  220.000    0.280    0.000  104.760    2.675
  220.250    0.282    0.508  106.627    2.574
  220.500    0.287    0.467  107.878    2.525
  220.750    0.288    0.459  105.409    2.477
  221.000    0.285    0.467  102.937    2.571
  221.250    0.272    0.484   99.847    2.619
  221.500    0.261    0.491   97.377    2.770
  221.750    0.268    0.484  100.487    2.931
  222.000    0.280    0.466  103.595    3.042
  222.250    0.281    0.447  106.704    3.158
  222.500    0.266    0.456  108.572    3.217
  222.750    0.252    0.473  109.204    3.215
  223.000    0.236    0.475  107.970    3.214
  223.250    0.229    0.451  104.881    3.153
  223.500    0.226    0.426  103.652    3.151
  223.750    0.228    0.452  103.041    3.333
  224.000    0.233    0.513  104.909    3.461
  224.250    0.236    0.512  108.017    3.525
  224.500    0.241    0.488  108.029    3.524
  224.750    0.249    0.484  104.939    3.522
  225.000    0.257    0.504  103.086    3.389
  225.250    0.266    0.504  101.858    3.325
  225.500    0.261    0.470  101.867    3.139
  225.750    0.252    0.443  102.496    3.021
  226.000    0.247    0.417  106.224    3.020
  226.250    0.243    0.402  107.472    3.076
  226.500    0.232    0.432  104.384    3.193
  226.750    0.225    0.463  103.151    3.253
  227.000    0.224    0.466  105.024    3.377
  227.250    0.227    0.450  106.272    3.440
  227.500    0.235    0.433  106.280    3.438
  227.750    0.246    0.448  105.670    3.437
  228.000    0.256    0.453  104.439    3.308
  228.250    0.258    0.465  102.589    3.244
  228.500    0.256    0.485  101.357    3.122
  228.750    0.251    0.460  106.326    3.121
  229.000    0.251    0.467  105.097    3.119
  229.250    0.248    0.485  102.627    3.177
  229.500    0.248    0.495  105.733    3.176
  229.750    0.249    0.446  108.224    3.235
  230.000    0.249    0.427  104.514    3.234
  230.250    0.244    0.421   97.083    3.294
  230.500    0.244    0.380   87.795    3.552
  230.750    0.262    0.365   74.787    4.289
  231.000    0.336    0.380   71.697    5.280
  231.250    0.331    0.398   74.190    7.143
  231.500    0.319    0.374   74.198    8.960
  231.750    0.310    0.363   74.206   11.239
  232.000    0.316    0.364   73.594   13.070
  232.250    0.319    0.377   74.224   13.063
  232.500    0.316    0.407   76.713   12.812
  232.750    0.296    0.407   82.300   12.332
  233.000    0.282    0.409   90.988   11.868
  233.250    0.273    0.404   97.817   10.996
  233.500    0.266    0.390  101.544   10.385
  233.750    0.269    0.383  100.934    9.807
  234.000    0.277    0.385   97.845    9.088
  234.250    0.279    0.402   95.994    8.583
  234.500    0.265    0.407   94.143    7.659
  234.750    0.253    0.413   96.012    6.964
  235.000    0.248    0.434  101.600    6.214
  235.250    0.248    0.451  107.810    5.441
  235.500    0.255    0.499  112.156    4.674
  235.750    0.259    0.514  115.267    4.016
  236.000    0.256    0.474  115.897    3.516
  236.250    0.253    0.451  115.286    3.258
  236.500    0.251    0.435  113.434    3.195
  236.750    0.253    0.425  111.586    3.317
  237.000    0.251    0.425  110.974    3.509
  237.250    0.248    0.431  113.462    3.783
  237.500    0.229    0.399  112.852    3.854
  237.750    0.212    0.342  103.564    4.077
  238.000    0.170    0.333   93.655    4.480
  238.250    0.158    0.344   83.746    5.727
  238.500    0.178    0.369   76.937    7.183
  238.750    0.222    0.399   79.427    8.675
  239.000    0.186    0.404   87.496    9.532
  239.250    0.183    0.392   96.182   10.083
  239.500    0.203    0.374  105.488    9.705
  239.750    0.225    0.376  116.656    8.181
  240.000    0.246    0.394  119.765    6.897
  240.250    0.251    0.408  117.293    6.039
  240.500    0.260    0.387  109.864    5.596
  240.750    0.277    0.348   93.757    5.488
  241.000    0.294    0.335   83.229    6.382
  241.250    0.292    0.338   81.999    7.013
  241.500    0.289    0.378   90.688    7.852
  241.750    0.299    0.375   90.076    8.627
  242.000    0.309    0.357   80.168    9.127
  242.250    0.316    0.351   72.738    9.475
  242.500    0.317    0.351   68.407    9.836
  242.750    0.312    0.353   77.096   10.020
  243.000    0.309    0.363   82.066   10.599
  243.250    0.311    0.364   82.694   11.646
  243.500    0.312    0.362   81.465   12.321
  243.750    0.310    0.369   82.713   12.550
  244.000    0.306    0.380   88.920   12.543
  244.250    0.301    0.376   94.508   12.777
  244.500    0.302    0.371  100.096   12.770
  244.750    0.299    0.367  103.205   12.527
  245.000    0.295    0.365  103.836   12.521
  245.250    0.297    0.365  100.127   12.281
  245.500    0.307    0.359   99.513   12.275
  245.750    0.310    0.358  100.148   12.502
  246.000    0.305    0.384  100.152   12.498
  246.250    0.301    0.406   99.543   12.729
  246.500    0.300    0.392   97.073   12.724
  246.750    0.307    0.365   82.204   12.479
  247.000    0.313    0.329   71.676   12.240
  247.250    0.304    0.332   72.306   12.236
  247.500    0.287    0.356   76.033   11.555
  247.750    0.300    0.369   72.323   11.120
  248.000    0.311    0.375   66.134   10.703
  248.250    0.296    0.356   76.062   10.299
  248.500    0.278    0.360   81.650   10.102
  248.750    0.271    0.369   78.559    9.909
  249.000    0.281    0.369   72.991    9.719
  249.250    0.285    0.375   79.818    9.532
  249.500    0.286    0.365   79.828    9.527
  249.750    0.280    0.361   78.597    9.524
  250.000    0.269    0.366   84.185    9.700
  250.250    0.277    0.362   83.574    9.882
  250.500    0.284    0.353   78.005   10.065
  250.750    0.274    0.350   74.916    9.872
  251.000    0.243    0.362   87.323    9.324
  251.250    0.206    0.392  100.349    7.860
  251.500    0.195    0.446  113.996    6.379
  251.750    0.179    0.511  116.487    5.801
  252.000    0.191    0.519  118.352    4.984
  252.250    0.197    0.445  120.841    4.364
  252.500    0.195    0.408  115.893    3.968
  252.750    0.195    0.421  113.424    3.747
  253.000    0.197    0.456  119.631    3.675
  253.250    0.202    0.494  124.599    3.605
  253.500    0.217    0.494  125.231    3.603
  253.750    0.212    0.450  124.618    3.670
  254.000    0.203    0.443  124.007    3.669
  254.250    0.199    0.458  126.496    3.530
  254.500    0.199    0.480  126.507    3.271
  254.750    0.206    0.485  127.755    3.148
  255.000    0.234    0.484  129.623    3.088
  255.250    0.259    0.473  127.773    3.146
  255.500    0.254    0.414  123.443    3.457
  255.750    0.244    0.367  119.733    4.020
  256.000    0.238    0.344  114.164    5.042
  256.250    0.228    0.337  109.835    6.445
  256.500    0.215    0.341  111.084    7.638
  256.750    0.193    0.353  114.811    8.079
  257.000    0.177    0.372  121.019    8.231
  257.250    0.173    0.391  121.029    7.921
  257.500    0.182    0.409  114.220    7.480
  257.750    0.183    0.430  111.749    7.065
  258.000    0.179    0.435  116.099    6.185
  258.250    0.192    0.398  121.066    5.841
  258.500    0.228    0.370  124.176    5.729
  258.750    0.239    0.357  121.706    6.061
  259.000    0.248    0.351  114.276    7.049
  259.250    0.256    0.354  101.268    8.196
  259.500    0.251    0.380   98.180    9.006
  259.750    0.242    0.386  101.909    9.174
  260.000    0.240    0.370  105.637    8.998
  260.250    0.245    0.360  107.504    8.659
  260.500    0.248    0.357  106.274    8.177
  260.750    0.248    0.363  103.183    8.022
  261.000    0.256    0.363  105.054    7.867
  261.250    0.273    0.358  111.882    7.715
  261.500    0.289    0.364  115.608    7.713
  261.750    0.286    0.370  119.339    7.709
  262.000    0.275    0.375  119.968    7.704
  262.250    0.269    0.392  117.497    7.702
  262.500    0.270    0.389  114.409    7.553
  262.750    0.281    0.366  113.178    7.550
  263.000    0.291    0.402  108.847    7.690
  263.250    0.299    0.403   99.558    7.834
