~VERSION INFORMATION
 VERS.                 2.0:   CWLS LOG ASCII STANDARD -VERSION 2.0
 WRAP.                  NO:   ONE LINE PER DEPTH STEP
~WELL INFORMATION BLOCK
#MNEM.UNIT           DATA                    DESCRIPTION OF MNEMONIC
#---------    -------------------            -------------------------------
# Generated from Intellog Unique Number	CW_70_72/WELL/2899
NULL.         -999.25                        : NULL_VALUE
WELL.         MESA SULPETRO CALLS            : Well_name    - WELL              
LOC .         06-13-070-22W4                 : Location     - LOCATION          
UWI .         00/06-13-070-22W4/0            : Uwi          - UNIQUE WELL ID    
ENTR.         MAX                            : Entered      - ENTERED BY        
SRVC.         DRESSER ATLAS                  : Scn          - SERVICE COMPANY   
DATE.         24 FEB 79                      : Date         - LOG DATE
STRT.M        430                            : top_depth    - START DEPTH       
STOP.M        605                            : bot_depth    - STOP DEPTH        
STEP.M        0.25                           : increment    - STEP LENGTH       
~CURVE INFORMATION BLOCK
#MNEM UNIT       ERCB CURVE CODE    CURVE DESCRIPTION
#-----------   ------------------   ----------------------------------
DEPT.M        00 001 00 00         : DEPTH        - DEPTH                       
ILD .OHMM     00 120 00 00         : RESD         - DEEP RESISTIVITY (DIL)      
NPHI.V/V      00 330 00 00         : PHIN         - NEUTRON POROSITY (SANDSTONE)
DPHI.V/V      00 890 00 00         : PHID         - DENSITY POROSITY (SANDSTONE)
CALI.MM       00 280 01 00         : CAL          - CALIPER                     
GR  .API      00 310 00 00         : GR           - GAMMA RAY                   
~PARAMETER INFORMATION       
#MNEM.UNIT           DATA             DESCRIPTION OF MNEMONIC
#---------         -----------     ------------------------------
GL  .M        672.3                : gl           - GROUND LEVEL ELEVATION      
EREF.M        676.4                : kb           - ELEVATION OF DEPTH REFERENCE
DATM.M        672.3                : datum        - DATUM ELEVATION             
TDD .M        641                  : tdd          - TOTAL DEPTH DRILLER         
RUN .         ONE                  : Run          - RUN NUMBER                  
ENG .         BILL                 : Engineer     - RECORDING ENGINEER          
WIT .         JIM                  : Witness      - WITNESSED BY                
MUD .         GEL                  : Mud_type     - MUD TYPE                    
MATR.         SANDSTONE            : Logunit      - NEUTRON MATRIX              
TMAX.C        19                   : BHT          - MAXIMUM RECORDED TEMPERATURE
BHTD.M        641                  : BHTDEP       - MAXIMUM RECORDED TEMPERATURE
RMT .C        20                   : MDTP         - TEMPERATURE OF MUD          
MUDD.KG/M     1080                 : MWT          - MUD DENSITY                 
NEUT.         1                    : NEUTRON      - NEUTRON TYPE                
RESI.         0                    : RESIST       - RESISTIVITY TYPE            
RM  .OHMM     3                    : RM           - RESISTIVITY OF MUD          
RMC .OHMM     3.5                  : RMC          - RESISTIVITY OF MUD CAKE     
RMF .OHMM     1.8                  : RMF          - RESISTIVITY OF MUD FILTRATE 
SUFT.C        -20                  : SUFT         - SURFACE TEMPERATURE         
~A  DEPTH     RESD     PHIN     PHID      CAL       GR
# ...
  539.500    4.645    0.406    0.199  167.393   77.996
  539.750    4.733    0.400    0.190  166.868   79.167
  540.000    4.778    0.384    0.180  167.825   79.446
  540.250    4.824    0.382    0.179  167.301   78.535
  540.500    4.781    0.380    0.170  167.268   78.520
  540.750    4.696    0.380    0.147  167.243   78.203
  541.000    4.365    0.386    0.162  167.708   78.186
  541.250    3.875    0.390    0.217  169.167   84.998
  541.500    3.504    0.398    0.204  172.107   88.840
  541.750    3.169    0.409    0.196  174.058   91.495
  542.000    2.892    0.425    0.213  176.998   94.147
  542.250    2.615    0.449    0.230  182.408   97.102
  542.500    2.387    0.468    0.253  183.867  100.942
  542.750    2.410    0.468    0.280  183.340  100.924
  543.000    2.523    0.454    0.282  184.296   98.828
  543.250    2.692    0.440    0.247  182.786   97.922
  543.500    3.325    0.426    0.210  178.299   97.902
  543.750    3.612    0.407    0.173  175.799   98.479
  544.000    4.071    0.387    0.159  174.285   95.786
  544.250    4.589    0.377    0.170  174.252   93.690
  544.500    4.940    0.372    0.163  173.721   92.485
  544.750    5.269    0.365    0.135  173.201   91.280
  545.000    5.569    0.360    0.116  171.192   89.182
  545.250    5.470    0.362    0.157  169.183   87.679
  545.500    5.422    0.362    0.187  168.662   87.365
  545.750    5.423    0.361    0.201  167.145   87.941
  546.000    5.526    0.353    0.218  165.136   88.817
  546.250    5.629    0.347    0.237  164.605   89.096
  546.500    5.736    0.351    0.220  164.579   86.404
  546.750    5.898    0.350    0.151  165.540   82.823
  547.000    6.009    0.345    0.123  167.985   81.910
  547.250    6.011    0.343    0.140  170.925   82.194
  547.500    6.013    0.346    0.169  171.390   83.659
  547.750    5.905    0.351    0.166  171.357   85.128
  548.000    5.907    0.363    0.153  171.823   86.595
  548.250    5.909    0.365    0.161  173.278   88.058
  548.500    5.857    0.372    0.172  173.748   88.045
  548.750    5.859    0.378    0.165  172.725   88.322
  549.000    5.861    0.378    0.160  172.201   89.490
  549.250    5.917    0.375    0.158  171.680   90.069
  549.500    5.974    0.374    0.158  171.156   89.457
  549.750    5.976    0.380    0.151  171.120   87.361
  550.000    5.655    0.378    0.160  170.057   86.148
  550.250    5.507    0.373    0.159  170.072   86.751
  550.500    5.364    0.369    0.157  171.072   87.948
  550.750    5.320    0.367    0.166  171.582   89.144
  551.000    5.276    0.368    0.171  171.595   89.449
  551.250    5.329    0.373    0.166  171.611   89.754
  551.500    5.482    0.370    0.153  172.120   89.465
  551.750    5.588    0.358    0.138  172.129   88.581
  552.000    5.801    0.353    0.154  172.143   86.213
  552.250    6.076    0.343    0.163  172.157   84.141
  552.500    6.542    0.331    0.162  172.171   83.853
  552.750    7.238    0.325    0.119  171.689   82.078
  553.000    8.010    0.315    0.083  171.205   77.332
  553.250    8.090    0.298    0.068  170.230   75.262
  553.500    8.246    0.302    0.093  169.254   74.677
  553.750    8.483    0.318    0.138  167.785   75.279
  554.000    8.886    0.319    0.147  166.805   75.881
  554.250    9.567    0.310    0.108  165.333   69.650
  554.500   10.587    0.291    0.059  164.356   60.746
  554.750   11.821    0.268    0.075  163.874   54.813
  555.000   12.271    0.273    0.090  163.889   55.118
  555.250   12.172    0.288    0.104  164.892   56.017
  555.500   11.637    0.301    0.108  165.400   58.995
  555.750   10.160    0.304    0.121  166.404   62.569
  556.000    9.628    0.302    0.127  166.910   62.876
  556.250    9.637    0.310    0.125  167.420   63.178
  556.500    9.472    0.309    0.114  167.432   64.376
  556.750    9.139    0.306    0.091  167.447   67.056
  557.000    7.623    0.309    0.113  166.965   73.006
  557.250    6.715    0.318    0.169  167.473   76.579
  557.500    6.081    0.334    0.194  167.984   80.745
  557.750    5.710    0.345    0.168  168.491   80.753
  558.000    5.611    0.345    0.164  168.506   78.979
  558.250    5.616    0.343    0.161  168.021   76.613
  558.500    5.571    0.343    0.161  168.034   76.619
  558.750    5.575    0.336    0.170  168.050   77.220
  559.000    5.580    0.337    0.172  168.063   79.308
  559.250    5.636    0.334    0.162  168.075   81.396
  559.500    5.744    0.335    0.145  168.090   82.594
  559.750    6.018    0.335    0.146  167.606   82.897
  560.000    6.421    0.329    0.152  167.127   84.689
  560.250    6.427    0.329    0.145  167.632   86.774
  560.500    6.491    0.333    0.142  169.628   89.754
  560.750    6.616    0.342    0.164  171.621   92.434
  561.000    6.994    0.356    0.185  173.121   95.712
  561.250    7.328    0.370    0.200  174.620   97.798
  561.500    7.608    0.378    0.201  175.621   97.807
  561.750    7.753    0.377    0.195  176.131   94.249
  562.000    8.124    0.362    0.189  174.658   90.989
  562.250    8.355    0.356    0.171  171.707   86.244
  562.500    7.989    0.346    0.096  171.718   84.768
  562.750    6.484    0.332    0.091  173.712   86.557
  563.000    5.764    0.335    0.097  175.705   91.616
  563.250    5.315    0.384    0.136  177.202   96.675
  563.500    4.769    0.401    0.156  178.205   98.167
  563.750    4.240    0.393    0.163  178.219  101.740
  564.000    4.166    0.392    0.146  178.235  104.718
  564.250    4.326    0.393    0.139  178.740  107.400
  564.500    4.410    0.385    0.131  178.755  109.488
  564.750    4.412    0.374    0.146  179.263  109.497
  565.000    4.338    0.372    0.173  178.781  108.613
  565.250    4.341    0.377    0.209  178.299  107.730
  565.500    4.384    0.377    0.222  177.321  105.956
  565.750    4.635    0.369    0.209  175.853  102.695
  566.000    4.945    0.357    0.143  175.867   94.682
  566.250    5.227    0.348    0.082  175.386   89.344
  566.500    5.478    0.350    0.063  174.899   89.948
  566.750    5.531    0.354    0.128  174.419   91.736
  567.000    5.796    0.353    0.139  174.432   95.014
  567.250    6.126    0.351    0.116  174.447   95.318
  567.500    6.476    0.341    0.103  174.459   93.545
  567.750    6.364    0.336    0.089  174.472   92.066
  568.000    6.086    0.336    0.060  173.993   90.590
  568.250    5.927    0.342    0.093  174.003   90.301
  568.500    5.879    0.350    0.104  173.523   91.200
  568.750    5.832    0.360    0.109  174.031   93.287
  569.000    5.732    0.363    0.125  174.537   93.888
  569.250    5.788    0.362    0.090  175.046   92.709
  569.500    5.900    0.366    0.070  175.556   92.716
  569.750    6.069    0.367    0.109  176.559   94.210
  570.000    6.130    0.363    0.161  177.069   96.594
  570.250    6.135    0.361    0.186  177.575   98.385
  570.500    6.198    0.355    0.163  178.085   98.986
  570.750    6.261    0.355    0.155  178.594   97.213
  571.000    6.440    0.347    0.170  178.607   95.437
  571.250    6.745    0.346    0.179  177.136   94.257
  571.500    7.329    0.348    0.174  176.159   89.809
  571.750    7.470    0.348    0.142  175.181   86.252
  572.000    6.764    0.338   -0.007  175.194   85.964
  572.250    6.293    0.335    0.047  175.702   89.240
  572.500    5.909    0.337    0.088  175.717   94.594
  572.750    5.862    0.340    0.111  175.728   98.167
  573.000    5.975    0.339    0.114  175.250   96.987
  573.250    6.259    0.336    0.120  174.768   96.401
  573.500    6.438    0.335    0.114  174.783   97.599
  573.750    6.445    0.333    0.120  174.792   99.091
  574.000    6.508    0.332    0.154  174.310  102.071
  574.250    6.574    0.329    0.166  174.324  102.968
  574.500    6.646    0.320    0.165  174.338  102.978
  574.750    6.894    0.315    0.151  174.350  101.796
  575.000    7.489    0.305    0.148  174.368   91.704
  575.250    8.287    0.299    0.162  174.378   84.880
  575.500    9.596    0.290    0.151  174.393   82.513
  575.750   11.847    0.284    0.033  174.406   78.362
