~VERSION INFORMATION
 VERS.                 2.0:   CWLS LOG ASCII STANDARD -VERSION 2.0
 WRAP.                  NO:   ONE LINE PER DEPTH STEP
~WELL INFORMATION BLOCK
#MNEM.UNIT           DATA                    DESCRIPTION OF MNEMONIC
#---------    -------------------            -------------------------------
# Generated from Intellog Unique Number	CW_73_75/WELL/3522
WELL.         ALLIED ROXANA MINERALS LTD.    : Well_name    - WELL
LOC .         00/08-14-073-26W4/0            : Location     - LOCATION
UWI .         00/08-14-073-26W4/0            : Uwi          - UNIQUE WELL ID
ENTR.         JOETTE                         : Entered      - ENTERED BY
SRVC.         SCHLUMBERGER                   : Scn          - SERVICE COMPANY
DATE.         08-27-92                       : Date         - LOG DATE
STRT.M        381                            : top_depth    - START DEPTH
STOP.M        640                            : bot_depth    - STOP DEPTH
STEP.M        0.25                           : increment    - STEP LENGTH
 NULL. -999.2500:NULL Value
~CURVE INFORMATION BLOCK
#MNEM UNIT       ERCB CURVE CODE    CURVE DESCRIPTION
#-----------   ------------------   ----------------------------------
DEPT.M        00 001 00 00         : DEPTH        - DEPTH
GR  .API      00 310 00 00         : GR           - GAMMA RAY
DELT.US/F     00 520 00 00         : DELT         - SONIC TRAVEL TIME
ILD .OHMM     00 120 00 00         : RESD         - DEEP RESISTIVITY (DIL)
~PARAMETER INFORMATION
#MNEM.UNIT           DATA             DESCRIPTION OF MNEMONIC
#---------         -----------     ------------------------------
GL  .M        624.84               : gl           - GROUND LEVEL ELEVATION
EREF.M        628.498              : kb           - ELEVATION OF DEPTH REFERENCE
DATM.M        628.498              : datum        - DATUM ELEVATION
TDD .M        655.625              : tdd          - TOTAL DEPTH DRILLER
RUN .         ONE                  : Run          - RUN NUMBER
ENG .         BILL                 : Engineer     - RECORDING ENGINEER
WIT .         JIM                  : Witness      - WITNESSED BY
MUD .         GEL                  : Mud_type     - MUD TYPE
MATR.         SANDSTONE            : Logunit      - NEUTRON MATRIX
TMAX.C        26.6667              : BHT          - MAXIMUM RECORDED TEMPERATURE
BHTD.M        655.625              : BHTDEP       - MAXIMUM RECORDED TEMPERATURE
RMT .C        15.5556              : MDTP         - TEMPERATURE OF MUD
MUDD.KG/M     10300                : MWT          - MUD DENSITY
NEUT.         1                    : NEUTRON      - NEUTRON TYPE
RESI.         0                    : RESIST       - RESISTIVITY TYPE
RM  .OHMM     2.96                 : RM           - RESISTIVITY OF MUD
RMC .OHMM     2.96                 : RMC          - RESISTIVITY OF MUD CAKE
RMF .OHMM     2.96                 : RMF          - RESISTIVITY OF MUD FILTRATE
SUFT.C        15                   : SUFT         - SURFACE TEMPERATURE
~A  DEPTH       GR     DELT     RESD
# ...
  543.750   83.454  359.245    5.126
  544.000   84.643  358.565    5.131
  544.250   84.659  358.559    5.134
  544.500   85.255  359.215    5.138
  544.750   87.617  359.874    5.346
  545.000   87.046  361.195    5.554
  545.250   85.878  359.192    5.762
  545.500   77.683  340.575    5.968
  545.750   78.869  323.284    6.379
  546.000   78.885  323.273    6.994
  546.250   78.304  330.578    7.406
  546.500   77.146  344.526    7.003
  546.750   74.222  349.170    6.802
  547.000   70.717  351.820    6.398
  547.250   72.490  352.475    5.792
  547.500   73.675  352.466    5.794
  547.750   73.688  351.793    5.595
  548.000   71.353  351.120    5.599
  548.250   69.606  349.782    5.602
  548.500   67.858  347.113    5.809
  548.750   69.630  345.776    6.018
  549.000   73.752  341.778    6.226
  549.250   74.355  339.111    6.433
  549.500   71.434  335.781    6.437
  549.750   67.923  331.785    6.238
  550.000   64.418  327.789    6.240
  550.250   64.427  323.126    6.041
  550.500   65.029  320.457    5.840
  550.750   63.288  323.770    5.640
  551.000   62.121  325.759    5.644
  551.250   60.373  333.726    5.649
  551.500   59.215  346.341    6.468
  551.750   59.230  348.331    7.489
  552.000   59.240  351.642    8.920
  552.250   56.908  353.627   12.389
  552.500   53.398  354.285   14.430
  552.750   46.956  353.612   16.676
  553.000   40.515  311.068   18.516
  553.250   41.114  269.187   18.517
  553.500   55.794  236.612   17.706
  553.750   64.609  237.933   15.060
  554.000   75.185  258.528    9.561
  554.250   79.301  304.378    7.324
  554.500   84.594  348.234    5.903
  554.750   88.713  308.347    5.498
  555.000   88.145  316.314    5.094
  555.250   88.744  332.256    4.893
  555.500   91.693  337.563    4.693
  555.750   92.872  334.898    4.699
  556.000   92.888  328.908    4.701
  556.250   90.553  322.918    4.707
  556.500   86.459  330.883    4.710
  556.750   88.818  337.518    4.916
  557.000   89.420  339.506    4.922
  557.250   89.433  341.489    4.925
  557.500   91.208  344.137    4.927
  557.750   91.801  345.462    4.931
  558.000   88.883  349.439    4.931
  558.250   89.485  352.090    4.738
  558.500   92.428  347.429    4.535
  558.750   97.133  342.103    4.540
  559.000  101.253  350.735    4.545
  559.250   99.505  356.706    4.750
  559.500   95.410  349.389    4.754
  559.750   89.562  338.080    4.961
  560.000   86.054  330.096    5.577
  560.250   83.130  312.143    6.602
  560.500   77.865  308.811    6.808
  560.750   79.048  312.126    7.626
  561.000   84.344  310.124    8.445
  561.250   84.356  308.782    9.674
  561.500   80.262  310.105   10.084
  561.750   76.173  302.786   10.700
  562.000   76.766  293.473   10.094
  562.250   78.539  290.804    9.688
  562.500   77.967  294.116    8.672
  562.750   76.809  299.427    7.861
  563.000   78.576  306.729    7.050
  563.250   82.698  317.355    6.849
  563.500   85.644  313.359    6.649
  563.750   89.179  312.021    6.858
  564.000   92.122  313.342    7.269
  564.250   89.201  317.321    8.700
  564.500   83.346  320.634   10.334
  564.750   75.735  291.382   13.598
  565.000   72.227  280.740   14.620
  565.250   69.306  275.414   17.070
  565.500   67.558  259.453   18.704
  565.750   78.131  276.060   17.485
  566.000   81.080  261.430   15.247
  566.250   82.852  228.191   11.379
  566.500   85.801  301.955    9.956
  566.750   85.811  309.922    8.737
  567.000   83.479  313.235    7.721
  567.250   80.558  307.245    6.912
  567.500   79.397  292.612    6.507
  567.750   79.996  290.612    6.307
  568.000   80.015  298.579    6.310
  568.250   80.021  313.857    6.111
  568.500   79.450  325.147    6.319
  568.750   79.462  323.805    6.322
  569.000   80.648  323.137    6.530
  569.250   81.830  319.803    6.738
  569.500   84.782  319.794    6.947
  569.750   85.971  319.119    6.948
  570.000   85.980  315.788    7.156
  570.250   85.406  309.798    7.364
  570.500   84.829  311.117    7.776
  570.750   83.671  307.787    7.982
  571.000   84.270  307.110    9.210
  571.250   85.462  308.435   10.640
  571.500   84.881  311.083   11.867
  571.750   82.547  312.406   11.056
  572.000   76.105  313.725   10.243
  572.250   73.184  310.393    8.414
  572.500   78.477  297.757    7.398
  572.750   83.776  269.835    6.792
  573.000   82.615  287.771    6.590
  573.250   83.217  305.042    6.594
  573.500   82.636  300.380    6.394
  573.750   83.241  301.034    6.398
  574.000   84.424  305.680    6.402
  574.250   85.610  312.317    5.998
  574.500   87.382  313.634    5.594
  574.750   89.161  311.634    4.579
  575.000   89.754  308.969    3.767
  575.250   97.980  303.637    2.751
  575.500   97.998  303.633    1.534
  575.750   95.080  310.267    0.520
  576.000   94.500  308.931    0.114
  576.250   95.688  306.929   -0.289
  576.500   92.764  308.914   -0.286
  576.750   90.433  324.859   -0.282
  577.000   92.202  354.094   -0.075
  577.250   93.394  370.701    0.745
  577.500   92.230  448.453    1.564
  577.750   92.242  439.140    2.383
  578.000   94.015  421.849    2.998
  578.250   92.857  415.859    3.817
  578.500   93.453  417.845    4.432
  578.750   95.228  413.848    4.844
  579.000   92.894  355.351    5.052
  579.250   89.386  312.805    5.055
  579.500   85.292  327.421    5.467
  579.750   87.067  334.058    5.877
  580.000   87.079  337.373    6.902
  580.250   89.442  332.710    7.516
  580.500   90.038  324.726    8.539
  580.750   90.640  312.755    9.156
  581.000   87.716  282.839    9.158
  581.250   76.581  252.920    9.161
  581.500   77.183  245.601    8.758
  581.750   80.713  272.842    8.557
  582.000   86.592  289.449    8.153
  582.250   86.023  275.484    7.139
  582.500   87.206  312.694    6.327
  582.750   90.739  323.984    5.720
  583.000   92.511  314.671    4.704
  583.250   86.070  275.448    3.486
  583.500   62.028  260.818    2.878
  583.750   46.787  162.444    2.067
  584.000   41.519  293.367    1.662
  584.250   36.838  314.627    1.260
  584.500   32.746  321.264    1.059
  584.750   30.412  331.223    0.858
  585.000   28.664  329.221    0.864
  585.250   27.503  328.546    0.866
  585.500   26.342  329.867    0.871
  585.750   26.355  332.517    0.875
  586.000   25.786  333.838    0.879
  586.250   24.625  333.831    0.881
  586.500   24.054  332.489    0.886
  586.750   24.653  331.152    0.888
  587.000   26.422  329.152    1.098
  587.250   28.192  326.483    1.101
  587.500   31.141  326.474    1.104
  587.750   32.333  327.797    1.313
  588.000   31.755  332.437    1.316
  588.250   31.184  332.424    1.319
  588.500   31.777  332.420    1.528
  588.750   31.789  331.084    1.531
  589.000   31.805  329.080    1.739
  589.250   31.823  327.742    1.742
  589.500   32.416  327.734    1.950
  589.750   33.018  327.059    1.953
  590.000   34.204  325.719    1.957
  590.250   35.389  325.050    2.165
  590.500   35.985  326.371    2.168
  590.750   37.174  329.686    2.582
  591.000   37.773  331.667    2.584
  591.250   39.552  332.323    2.792
  591.500   39.561  331.650    3.000
  591.750   38.403  330.975    3.208
  592.000   37.823  329.642    3.414
  592.250   36.665  328.304    3.826
  592.500   35.504  329.625    4.238
  592.750   36.689  328.950    4.445
  593.000   38.465  325.618    4.856
  593.250   40.237  320.957    5.268
  593.500   42.593  316.294    5.885
  593.750   45.539  314.294    6.091
  594.000   46.728  308.969    6.300
  594.250   47.330  296.995    6.302
  594.500   50.279  279.040    6.306
  594.750   51.459  271.058    6.106
  595.000   55.578  287.665    5.703
  595.250   56.770  300.285    5.502
  595.500   55.608  308.916    5.099
  595.750   55.034  312.894    4.900
  596.000   54.460  312.218    4.698
  596.250   55.059  310.883    4.703
  596.500   55.658  308.214    4.707
  596.750   58.020  308.205    4.711
  597.000   59.789  308.864    4.714
  597.250   52.765  312.843    4.718
  597.500   55.707  314.826    4.721
  597.750   61.587  315.481    4.725
