~VERSION INFORMATION
 VERS.                 2.0:   CWLS LOG ASCII STANDARD -VERSION 2.0
 WRAP.                  NO:   ONE LINE PER DEPTH STEP
~WELL INFORMATION BLOCK
#MNEM.UNIT           DATA                    DESCRIPTION OF MNEMONIC
#---------    -------------------            -------------------------------
# Generated from Intellog Unique Number	CS_77_79/WELL/843
WELL.         CANADIAN WORLDWIDE ENERGY      : Well_name    - WELL
LOC .         00/03-01-077-05W4/0            : Location     - LOCATION
UWI .         00/03-01-077-05W4/0            : Uwi          - UNIQUE WELL ID
ENTR.         SP                             : Entered      - ENTERED BY
SRVC.         SCHLUMBERGER                   : Scn          - SERVICE COMPANY
STRT.M        150                            : top_depth    - START DEPTH
STOP.M        405                            : bot_depth    - STOP DEPTH
STEP.M        0.25                           : increment    - STEP LENGTH
 NULL. -999.2500:NULL Value
~CURVE INFORMATION BLOCK
#MNEM UNIT       ERCB CURVE CODE    CURVE DESCRIPTION
#-----------   ------------------   ----------------------------------
DEPT.M        00 001 00 00         : DEPTH        - DEPTH
ILD .OHMM     00 120 00 00         : RESD         - DEEP RESISTIVITY (DIL)
DPHI.V/V      00 890 00 00         : PHID         - DENSITY POROSITY (SANDSTONE)
NPHI.V/V      00 330 00 00         : PHIN         - NEUTRON POROSITY (SANDSTONE)
GR  .API      00 310 00 00         : GR           - GAMMA RAY
~PARAMETER INFORMATION
#MNEM.UNIT           DATA             DESCRIPTION OF MNEMONIC
#---------         -----------     ------------------------------
GL  .M        571.1                : gl           - GROUND LEVEL ELEVATION
EREF.M        574.9                : kb           - ELEVATION OF DEPTH REFERENCE
DATM.M        571.1                : datum        - DATUM ELEVATION
TDD .M        405.5                : tdd          - TOTAL DEPTH DRILLER
RUN .         ONE                  : Run          - RUN NUMBER
ENG .         BILL                 : Engineer     - RECORDING ENGINEER
WIT .         JIM                  : Witness      - WITNESSED BY
MUD .         GEL                  : Mud_type     - MUD TYPE
MATR.         SANDSTONE            : Logunit      - NEUTRON MATRIX
TMAX.C        21                   : BHT          - MAXIMUM RECORDED TEMPERATURE
BHTD.M        431                  : BHTDEP       - MAXIMUM RECORDED TEMPERATURE
MATR.         1                    : LOGUNIT      - NEUTRON MATRIX
RMT .C        25                   : MDTP         - TEMPERATURE OF MUD
NEUT.         1                    : NEUTRON      - NEUTRON TYPE
RESI.         0                    : RESIST       - RESISTIVITY TYPE
RMC .OHMM     0.25                 : RMC          - RESISTIVITY OF MUD CAKE
RMF .OHMM     0.25                 : RMF          - RESISTIVITY OF MUD FILTRATE
SUFT.C        15                   : SUFT         - SURFACE TEMPERATURE
~A  DEPTH     RESD     PHID     PHIN       GR
# ...
  280.500    2.491    0.245    0.505  109.160
  280.750    2.540    0.239    0.497  111.043
  281.000    2.591    0.235    0.489  112.926
  281.250    2.693    0.231    0.545  113.561
  281.500    2.799    0.240    0.531  111.086
  281.750    2.909    0.253    0.535  109.233
  282.000    3.023    0.267    0.539  105.516
  282.250    3.263    0.274    0.513  102.419
  282.500    3.589    0.272    0.479   99.942
  282.750    4.024    0.250    0.459   99.957
  283.000    4.426    0.228    0.448   98.104
  283.250    4.777    0.233    0.453   94.388
  283.500    5.255    0.248    0.454   93.158
  283.750    5.893    0.257    0.438   95.662
  284.000    6.241    0.265    0.420  103.770
  284.250    6.486    0.274    0.416  111.871
  284.500    6.741    0.271    0.410  109.396
  284.750    7.141    0.258    0.412   99.456
  285.000    7.565    0.270    0.439   91.380
  285.250    7.861    0.276    0.439   83.303
  285.500    8.327    0.280    0.424   77.720
  285.750    8.653    0.274    0.413   75.860
  286.000    9.344    0.256    0.411   71.521
  286.250    9.526    0.218    0.404   70.289
  286.500    9.714    0.196    0.391   73.416
  286.750    9.726    0.220    0.410   77.790
  287.000    9.731    0.245    0.419   80.916
  287.250    9.736    0.268    0.420   85.286
  287.500    9.932    0.266    0.418   87.792
  287.750   10.130    0.265    0.412   85.314
  288.000   10.328    0.284    0.409   79.728
  288.250   10.535    0.299    0.405   78.498
  288.500   10.741    0.297    0.392   79.756
  288.750   11.167    0.289    0.388   80.394
  289.000   11.605    0.289    0.385   77.924
  289.250   11.836    0.274    0.390   77.936
  289.500   12.300    0.231    0.387   76.082
  289.750   12.310    0.257    0.385   77.349
  290.000   12.089    0.298    0.420   79.228
  290.250   10.798    0.318    0.436   81.729
  290.500    9.465    0.302    0.446   82.365
  290.750    8.953    0.294    0.457   82.381
  291.000    8.626    0.290    0.450   84.889
  291.250    8.633    0.282    0.428   86.771
  291.500    8.640    0.278    0.405   89.274
  291.750    7.861    0.268    0.398   92.406
  292.000    8.021    0.251    0.417   93.657
  292.250    8.179    0.240    0.428   95.540
  292.500    8.184    0.242    0.432   94.933
  292.750    8.346    0.248    0.419   93.082
  293.000    8.510    0.248    0.402   92.472
  293.250    8.847    0.248    0.398   91.863
  293.500    9.021    0.252    0.410   94.993
  293.750    9.556    0.244    0.399   97.496
  294.000    9.561    0.241    0.388   91.285
  294.250    9.393    0.241    0.386   90.686
  294.500    9.397    0.256    0.382   90.074
  294.750    9.227    0.267    0.399   89.462
  295.000    8.894    0.279    0.418   87.616
  295.250    8.732    0.283    0.425   87.627
  295.500    8.414    0.279    0.431   88.262
  295.750    8.418    0.276    0.431   88.277
  296.000    8.269    0.283    0.432   87.669
  296.250    8.117    0.287    0.437   87.065
  296.500    7.824    0.284    0.447   86.454
  296.750    7.537    0.279    0.457   87.092
  297.000    6.607    0.270    0.449   89.598
  297.250    5.902    0.234    0.434   91.478
  297.500    5.272    0.223    0.432   95.235
  297.750    4.366    0.233    0.444   97.111
  298.000    3.353    0.238    0.447   98.990
  298.250    3.170    0.236    0.445   96.520
  298.500    3.234    0.233    0.447   95.913
  298.750    3.360    0.229    0.447   96.548
  299.000    3.628    0.223    0.455   98.435
  299.250    3.915    0.225    0.474   98.445
  299.500    4.306    0.230    0.485   99.079
  299.750    4.561    0.232    0.492  100.337
  300.000    4.314    0.233    0.498  103.470
  300.250    4.078    0.239    0.503  104.102
  300.500    3.930    0.250    0.505  101.627
  300.750    3.932    0.260    0.508   98.534
  301.000    4.247    0.265    0.481   96.677
  301.250    5.134    0.267    0.462   92.335
  301.500    5.541    0.268    0.447   89.239
  301.750    5.980    0.262    0.441   89.877
  302.000    6.334    0.266    0.426   92.380
  302.250    6.710    0.276    0.411   85.548
  302.500    6.714    0.280    0.425   79.339
  302.750    6.978    0.289    0.429   78.731
  303.000    7.678    0.294    0.421   77.501
  303.250    8.132    0.298    0.421   72.540
  303.500    8.777    0.298    0.416   66.951
  303.750    9.474    0.264    0.353   61.986
  304.000   10.034    0.102    0.283   54.533
  304.250   10.432    0.043    0.252   52.679
  304.500    9.675    0.120    0.269   60.784
  304.750    7.863    0.163    0.318   76.360
  305.000    7.159    0.217    0.387   86.337
  305.250    6.520    0.227    0.439   88.841
  305.500    6.525    0.222    0.443   90.723
  305.750    6.654    0.233    0.440   91.981
  306.000    6.786    0.235    0.427   93.242
  306.250    6.790    0.233    0.437   95.746
  306.500    6.795    0.230    0.449   97.001
  306.750    6.798    0.231    0.443   93.906
  307.000    6.676    0.233    0.440   91.430
  307.250    6.683    0.231    0.441   93.942
  307.500    6.561    0.233    0.440   94.571
  307.750    6.569    0.241    0.441   92.099
  308.000    6.573    0.247    0.446   90.866
  308.250    6.578    0.256    0.437   89.019
  308.500    6.583    0.260    0.405   89.030
  308.750    6.463    0.252    0.389   88.421
  309.000    6.467    0.243    0.399   88.436
  309.250    6.350    0.233    0.408   92.810
  309.500    6.354    0.230    0.414   95.315
  309.750    6.125    0.238    0.415   94.085
  310.000    6.014    0.230    0.410   95.347
  310.250    5.685    0.223    0.409   97.228
  310.500    5.176    0.232    0.432   98.488
  310.750    4.800    0.233    0.458   97.878
  311.000    3.976    0.252    0.475   92.911
  311.250    3.552    0.280    0.486   86.081
  311.500    2.998    0.299    0.497   86.718
  311.750    2.628    0.307    0.516   87.976
  312.000    2.393    0.305    0.537   87.371
  312.250    2.305    0.300    0.545   83.032
  312.500    2.222    0.295    0.553   81.174
  312.750    2.182    0.306    0.555   78.079
  313.000    2.267    0.302    0.553   78.718
  313.250    2.357    0.296    0.548   81.843
  313.500    2.403    0.287    0.544   83.725
  313.750    2.451    0.276    0.538   84.983
  314.000    2.696    0.275    0.535   89.978
  314.250    2.966    0.284    0.521   93.727
  314.500    3.263    0.297    0.502   95.611
  314.750    3.589    0.293    0.474   93.136
  315.000    4.023    0.267    0.453   89.413
  315.250    4.425    0.255    0.394   86.316
  315.500    5.353    0.266    0.390   86.334
  315.750    5.668    0.267    0.389   86.967
  316.000    6.118    0.266    0.389   86.362
  316.250    6.359    0.256    0.385   83.889
  316.500    6.488    0.231    0.386   86.390
  316.750    6.492    0.210    0.407   90.762
  317.000    6.137    0.222    0.400   86.422
  317.250    5.482    0.260    0.401   88.306
  317.500    4.897    0.276    0.417   92.677
  317.750    4.375    0.254    0.434   96.426
  318.000    4.295    0.243    0.437   98.304
  318.250    4.140    0.248    0.433   99.563
  318.500    4.143    0.245    0.426   93.355
  318.750    4.068    0.234    0.423   93.991
  319.000    3.995    0.238    0.423   97.123
  319.250    3.924    0.240    0.448   97.756
  319.500    3.709    0.239    0.444  100.269
  319.750    3.575    0.230    0.435  100.901
  320.000    3.444    0.222    0.439  100.919
  320.250    3.381    0.220    0.465   99.684
  320.500    3.320    0.228    0.467   97.208
  320.750    3.260    0.239    0.454   98.468
  321.000    3.325    0.246    0.430   98.484
  321.250    3.456    0.252    0.415   95.385
  321.500    3.803    0.242    0.436   93.533
  321.750    4.026    0.246    0.434   89.812
  322.000    4.688    0.248    0.431   86.715
  322.250    5.357    0.240    0.424   87.352
  322.500    5.892    0.229    0.405   90.479
  322.750    6.605    0.225    0.373   89.250
  323.000    7.547    0.226    0.359   81.795
  323.250    8.302    0.225    0.341   71.852
  323.500    9.308    0.252    0.330   68.755
  323.750    9.856    0.286    0.318   68.767
