~VERSION INFORMATION
 VERS.                 2.0:   CWLS LOG ASCII STANDARD -VERSION 2.0
 WRAP.                  NO:   ONE LINE PER DEPTH STEP
~WELL INFORMATION BLOCK
#MNEM.UNIT           DATA                    DESCRIPTION OF MNEMONIC
#---------    -------------------            -------------------------------
# Generated from Intellog Unique Number	CW_76_78/WELL/2574
WELL.         NOVALTA BOVINE                 : Well_name    - WELL
LOC .         00/08-28-078-20W4/0            : Location     - LOCATION
UWI .         00/08-28-078-20W4/0            : Uwi          - UNIQUE WELL ID
ENTR.         MAX                            : Entered      - ENTERED BY
SRVC.         WESTERN ATLAS                  : Scn          - SERVICE COMPANY
STRT.M        200                            : top_depth    - START DEPTH
STOP.M        390                            : bot_depth    - STOP DEPTH
STEP.M        0.25                           : increment    - STEP LENGTH
 NULL. -999.2500:NULL Value
~CURVE INFORMATION BLOCK
#MNEM UNIT       ERCB CURVE CODE    CURVE DESCRIPTION
#-----------   ------------------   ----------------------------------
DEPT.M        00 001 00 00         : DEPTH        - DEPTH
ILD .OHMM     00 120 00 00         : RESD         - DEEP RESISTIVITY (DIL)
NPHI.V/V      00 330 00 00         : PHIN         - NEUTRON POROSITY (SANDSTONE)
DPHI.V/V      00 890 00 00         : PHID         - DENSITY POROSITY (SANDSTONE)
CALI.MM       00 280 01 00         : CAL          - CALIPER
GR  .API      00 310 00 00         : GR           - GAMMA RAY
~PARAMETER INFORMATION
#MNEM.UNIT           DATA             DESCRIPTION OF MNEMONIC
#---------         -----------     ------------------------------
GL  .M        568                  : gl           - GROUND LEVEL ELEVATION
EREF.M        572                  : kb           - ELEVATION OF DEPTH REFERENCE
DATM.M        568                  : datum        - DATUM ELEVATION
TDD .M        389.6                : tdd          - TOTAL DEPTH DRILLER
RUN .         ONE                  : Run          - RUN NUMBER
ENG .         BILL                 : Engineer     - RECORDING ENGINEER
WIT .         JIM                  : Witness      - WITNESSED BY
MUD .         GEL                  : Mud_type     - MUD TYPE
MATR.         SANDSTONE            : Logunit      - NEUTRON MATRIX
TMAX.C        17                   : BHT          - MAXIMUM RECORDED TEMPERATURE
BHTD.M        389.6                : BHTDEP       - MAXIMUM RECORDED TEMPERATURE
RMT .C        21                   : MDTP         - TEMPERATURE OF MUD
MUDD.KG/M     1170                 : MWT          - MUD DENSITY
NEUT.         1                    : NEUTRON      - NEUTRON TYPE
RESI.         0                    : RESIST       - RESISTIVITY TYPE
RM  .OHMM     3.5                  : RM           - RESISTIVITY OF MUD
RMC .OHMM     3.5                  : RMC          - RESISTIVITY OF MUD CAKE
RMF .OHMM     3.8                  : RMF          - RESISTIVITY OF MUD FILTRATE
SUFT.C        -20                  : SUFT         - SURFACE TEMPERATURE
~A  DEPTH     RESD     PHIN     PHID      CAL       GR
  200.000    2.959    0.412    0.240  171.734  124.391
  200.250    3.015    0.409    0.239  171.235  122.303
  200.500    2.961    0.420    0.236  171.234  124.092
  200.750    2.907    0.424    0.234  171.233  124.389
  201.000    2.908    0.427    0.231  171.729  120.212
  201.250    2.908    0.432    0.231  172.225  116.632
  201.500    2.910    0.446    0.235  172.721  113.649
  201.750    2.884    0.464    0.244  172.720  115.736
  202.000    2.884    0.475    0.246  172.221  118.718
  202.250    2.885    0.482    0.243  171.226  124.683
  202.500    2.913    0.465    0.242  171.224  124.385
  202.750    2.967    0.442    0.240  170.727  122.892
  203.000    3.051    0.401    0.235  169.234  120.804
  203.250    3.166    0.401    0.222  168.238  120.803
  203.500    3.346    0.425    0.215  167.740  120.504
  203.750    3.473    0.423    0.217  167.739  119.608
  204.000    3.571    0.404    0.221  167.738  119.011
  204.250    3.671    0.390    0.233  167.737  117.817
  204.500    3.775    0.380    0.237  167.736  114.833
  204.750    3.917    0.373    0.249  167.237  110.060
  205.000    4.416    0.356    0.263  165.745   99.320
  205.250    6.150    0.334    0.277  164.252   85.896
  205.500    9.218    0.329    0.285  161.765   79.035
  205.750   13.817    0.331    0.311  160.769   67.997
  206.000   14.471    0.352    0.321  160.271   66.206
  206.250   14.211    0.354    0.316  160.270   66.504
  206.500   12.966    0.347    0.307  161.263   67.995
  206.750    8.815    0.339    0.302  162.256   71.275
  207.000    6.942    0.355    0.301  162.753   73.959
  207.250    4.385    0.385    0.306  162.752   78.135
  207.500    3.390    0.406    0.304  162.253   82.012
  207.750    3.009    0.421    0.301  160.760   90.364
  208.000    2.982    0.474    0.305  160.759   98.119
  208.250    3.095    0.489    0.315  160.758  106.471
  208.500    4.193    0.443    0.328  161.254  103.785
  208.750    6.461    0.362    0.342  161.253   81.412
  209.000    9.249    0.360    0.340  161.252   72.462
  209.250   11.018    0.365    0.331  160.754   69.180
  209.500   12.081    0.362    0.335  160.255   66.197
  209.750   15.207    0.362    0.342  160.255   62.020
  210.000   23.007    0.370    0.353  160.253   59.334
  210.250   22.593    0.382    0.360  160.749   59.930
  210.500   20.238    0.388    0.360  161.245   61.421
  210.750   16.842    0.394    0.344  162.238   59.034
  211.000   13.635    0.393    0.330  162.237   59.928
  211.250   11.453    0.375    0.313  162.236   68.578
  211.500   10.165    0.362    0.299  162.732   82.598
  211.750    9.447    0.362    0.298  163.725   84.685
  212.000    9.363    0.387    0.300  163.724   75.437
  212.250    9.627    0.392    0.307  163.225   72.453
  212.500    9.630    0.386    0.324  162.727   75.436
  212.750   10.084    0.370    0.329  162.727   76.927
  213.000   14.705    0.357    0.333  161.730   70.065
  213.250   21.247    0.352    0.337  160.735   65.888
  213.500   22.665    0.318    0.337  160.237   60.816
  213.750   21.453    0.316    0.332  159.739   58.429
  214.000   17.691    0.334    0.327  159.737   61.710
  214.250   14.859    0.371    0.323  159.736   61.411
  214.500   11.595    0.378    0.306  159.735   60.515
  214.750    7.811    0.391    0.280  159.237   62.901
  215.000    5.822    0.426    0.259  159.236   82.886
  215.250    4.845    0.455    0.233  159.732  103.767
  215.500    4.300    0.478    0.231  160.228  115.996
  215.750    4.301    0.463    0.245  160.724  117.189
  216.000    4.463    0.394    0.259  160.722  120.469
  216.250    5.618    0.379    0.263  160.722  120.171
  216.500    6.105    0.381    0.269  160.720  119.573
  216.750    7.475    0.386    0.276  160.719  117.484
  217.000    7.901    0.374    0.280  161.712  109.131
  217.250    8.744    0.361    0.289  162.208   97.199
  217.500    9.677    0.358    0.295  163.202   88.547
  217.750    9.950    0.368    0.297  164.692   85.563
  218.000   10.044    0.370    0.277  164.691   87.651
  218.250   10.519    0.364    0.251  164.690   87.949
  218.500   11.535    0.368    0.250  163.694   84.368
  218.750   12.533    0.385    0.275  162.202   77.805
  219.000   14.127    0.392    0.302  162.202   75.418
  219.250   15.635    0.389    0.344  161.205   73.627
  219.500   15.639    0.375    0.351  160.706   67.661
  219.750   15.078    0.359    0.346  160.705   64.379
  220.000   14.537    0.357    0.332  161.201   64.080
  220.250   14.540    0.351    0.326  161.697   64.377
  220.500   15.368    0.342    0.324  162.194   63.183
  220.750   15.803    0.328    0.316  162.192   64.376
  221.000   15.806    0.326    0.303  162.191   69.148
  221.250   15.380    0.329    0.306  162.190   77.798
  221.500   14.425    0.332    0.306  162.686   77.201
  221.750   13.530    0.354    0.306  162.685   69.146
  222.000   13.044    0.371    0.314  162.186   66.461
  222.250   12.809    0.378    0.327  161.688   65.565
  222.500   12.579    0.380    0.333  161.688   71.829
  222.750   12.353    0.379    0.332  161.686   75.407
  223.000   12.243    0.360    0.326  160.690   79.285
  223.250   11.913    0.359    0.310  160.689   81.372
  223.500   11.486    0.354    0.297  160.688   86.144
  223.750   11.279    0.342    0.297  160.687   88.232
  224.000   11.386    0.322    0.294  161.680   88.231
  224.250   11.389    0.319    0.287  162.673   87.932
  224.500   11.081    0.338    0.275  163.170   85.545
  224.750    9.927    0.356    0.267  164.163   80.771
  225.000    8.892    0.369    0.267  164.161   82.561
  225.250    8.264    0.366    0.273  164.658   90.614
  225.500    8.496    0.349    0.280  165.154  107.915
  225.750    9.666    0.343    0.281  165.650  117.161
  226.000   11.835    0.343    0.281  165.648  126.110
  226.250   12.742    0.349    0.280  163.659  104.930
  226.500   13.223    0.363    0.271  162.663  100.753
  226.750   13.348    0.371    0.265  161.668  103.437
  227.000   13.600    0.369    0.264  160.672  109.104
  227.250   14.112    0.354    0.269  160.671  113.578
  227.500   15.054    0.345    0.290  160.173  111.191
  227.750   16.814    0.339    0.307  159.674  103.732
  228.000   20.778    0.334    0.322  159.674   85.535
  228.250   25.442    0.341    0.328  159.175   61.372
  228.500   28.418    0.354    0.329  159.174   53.019
  228.750   28.687    0.356    0.325  159.670   47.649
  229.000   28.431    0.351    0.325  160.166   43.770
  229.250   27.412    0.345    0.328  160.662   45.560
  229.500   26.187    0.340    0.327  161.158   52.718
  229.750   24.787    0.330    0.312  162.648   58.982
  230.000   22.824    0.332    0.293  163.144   65.245
  230.250   20.444    0.339    0.280  163.143   68.526
  230.500   17.653    0.342    0.265  163.639   72.701
  230.750   15.668    0.338    0.252  164.632   77.772
  231.000   13.528    0.337    0.235  166.123   81.947
  231.250   11.897    0.330    0.218  167.116   88.211
  231.500   10.854    0.331    0.206  168.606   98.353
  231.750    9.903    0.348    0.207  171.091  104.915
  232.000    9.036    0.356    0.205  172.084  108.792
  232.250    7.383    0.368    0.203  172.580  115.652
  232.500    6.924    0.365    0.203  171.585  117.739
  232.750    6.494    0.349    0.204  169.595  115.949
  233.000    6.091    0.347    0.199  165.616  114.158
  233.250    5.507    0.375    0.165  161.638  116.544
  233.500    5.071    0.388    0.138  160.145  121.316
  233.750    4.542    0.391    0.145  160.144  126.088
  234.000    4.183    0.399    0.168  161.635  126.088
  234.250    3.887    0.403    0.182  161.633  127.579
  234.500    3.645    0.399    0.188  160.638  135.035
  234.750    3.515    0.414    0.188  160.638  140.106
  235.000    3.420    0.440    0.183  160.138  144.580
  235.250    3.421    0.443    0.178  159.640  150.247
  235.500    3.485    0.433    0.182  160.633  149.649
  235.750    3.616    0.431    0.189  160.632  147.859
  236.000    3.787    0.453    0.199  160.631  147.560
  236.250    4.681    0.463    0.224  161.624  149.647
