~VERSION INFORMATION
 VERS.                 2.0:   CWLS LOG ASCII STANDARD -VERSION 2.0
 WRAP.                  NO:   ONE LINE PER DEPTH STEP
~WELL INFORMATION BLOCK
#MNEM.UNIT           DATA                    DESCRIPTION OF MNEMONIC
#---------    -------------------            -------------------------------
# Generated from Intellog Unique Number	CS_73_76/WELL/699
WELL.         PEX KIRBY                      : Well_name    - WELL
LOC .         00/06-34-073-08W4/0            : Location     - LOCATION
UWI .         00/06-34-073-08W4/0            : Uwi          - UNIQUE WELL ID
ENTR.         SP                             : Entered      - ENTERED BY
SRVC.         SCHLUMBERGER                   : Scn          - SERVICE COMPANY
STRT.M        325                            : top_depth    - START DEPTH
STOP.M        550                            : bot_depth    - STOP DEPTH
STEP.M        0.25                           : increment    - STEP LENGTH
 NULL. -999.2500:NULL Value
~CURVE INFORMATION BLOCK
#MNEM UNIT       ERCB CURVE CODE    CURVE DESCRIPTION
#-----------   ------------------   ----------------------------------
DEPT.M        00 001 00 00         : DEPTH        - DEPTH
ILD .OHMM     00 120 00 00         : RESD         - DEEP RESISTIVITY (DIL)
DPHI.V/V      00 890 00 00         : PHID         - DENSITY POROSITY (LIMESTONE)
NPHI.V/V      00 330 00 00         : PHIN         - NEUTRON POROSITY (LIMESTONE)
GR  .API      00 310 00 00         : GR           - GAMMA RAY
~PARAMETER INFORMATION
#MNEM.UNIT           DATA             DESCRIPTION OF MNEMONIC
#---------         -----------     ------------------------------
GL  .M        705.44               : gl           - GROUND LEVEL ELEVATION
EREF.M        708.84               : kb           - ELEVATION OF DEPTH REFERENCE
DATM.M        705.44               : datum        - DATUM ELEVATION
TDD .M        555                  : tdd          - TOTAL DEPTH DRILLER
RUN .         ONE                  : Run          - RUN NUMBER
ENG .         BILL                 : Engineer     - RECORDING ENGINEER
WIT .         JIM                  : Witness      - WITNESSED BY
MUD .         GEL                  : Mud_type     - MUD TYPE
MATR.         LIMESTONE            : Logunit      - NEUTRON MATRIX
TMAX.C        20                   : BHT          - MAXIMUM RECORDED TEMPERATURE
BHTD.M        555                  : BHTDEP       - MAXIMUM RECORDED TEMPERATURE
MATR.         1                    : LOGUNIT      - NEUTRON MATRIX
RMT .C        25                   : MDTP         - TEMPERATURE OF MUD
NEUT.         1                    : NEUTRON      - NEUTRON TYPE
RESI.         0                    : RESIST       - RESISTIVITY TYPE
RMC .OHMM     0.25                 : RMC          - RESISTIVITY OF MUD CAKE
RMF .OHMM     0.25                 : RMF          - RESISTIVITY OF MUD FILTRATE
SUFT.C        15                   : SUFT         - SURFACE TEMPERATURE
~A  DEPTH     RESD     PHID     PHIN       GR
  325.000    3.174    0.202    0.417   91.835
  325.250    3.174    0.208    0.415   92.442
  325.500    3.116    0.216    0.419   96.110
  325.750    3.117    0.214    0.411   97.328
  326.000    3.117    0.210    0.398   92.422
  326.250    3.177    0.181    0.398   90.580
  326.500    3.238    0.166    0.408   93.023
  326.750    3.300    0.173    0.391   93.629
  327.000    3.426    0.203    0.381   93.622
  327.250    3.558    0.196    0.377   92.394
  327.500    3.626    0.190    0.377   96.059
  327.750    3.695    0.197    0.390   97.279
  328.000    3.696    0.208    0.405   97.885
  328.250    3.767    0.204    0.412  101.553
  328.500    3.839    0.194    0.416  102.159
  328.750    3.913    0.188    0.429  102.153
  329.000    3.987    0.181    0.420   98.472
  329.250    4.140    0.181    0.411   96.630
  329.500    4.300    0.188    0.414   96.010
  329.750    4.381    0.184    0.414   99.678
  330.000    4.550    0.167    0.416   99.061
  330.250    4.724    0.170    0.424   97.218
  330.500    4.815    0.192    0.406   95.375
  330.750    4.816    0.202    0.410  100.879
  331.000    4.728    0.193    0.425   95.362
  331.250    4.641    0.187    0.431   91.071
  331.500    4.472    0.189    0.413   96.574
  331.750    4.308    0.178    0.397   94.118
  332.000    4.229    0.173    0.408   97.173
  332.250    4.152    0.173    0.425   99.005
  332.500    4.076    0.179    0.397   97.775
  332.750    4.077    0.179    0.412   92.871
  333.000    4.002    0.175    0.383  100.211
  333.250    4.078    0.142    0.376   92.246
  333.500    4.396    0.065    0.363   87.342
  333.750    5.609    0.021    0.354   84.275
  334.000    7.292    0.000    0.328   81.208
  334.250    8.472    0.220    0.342   78.141
  334.500    9.842    0.264    0.343   85.479
  334.750   11.871    0.238    0.338   89.147
  335.000   13.793    0.235    0.350   92.816
  335.250   14.592    0.248    0.361   92.807
  335.500   16.331    0.241    0.371   92.191
  335.750   17.278    0.219    0.349   94.023
  336.000   16.648    0.192    0.336  100.749
  336.250   15.450    0.180    0.354  103.806
  336.500   14.072    0.192    0.362  103.799
  336.750   13.060    0.207    0.367  106.855
  337.000   12.821    0.230    0.345   90.929
  337.250   14.895    0.248    0.327   76.228
  337.500   17.306    0.274    0.315   70.101
  337.750   18.655    0.292    0.321   62.136
  338.000   21.272    0.280    0.333   58.456
  338.250   23.366    0.281    0.330   59.061
  338.500   23.370    0.280    0.331   62.730
  338.750   22.518    0.262    0.339   65.173
  339.000   21.695    0.264    0.347   68.837
  339.250   20.901    0.269    0.350   68.835
  339.500   19.400    0.254    0.354   71.276
  339.750   18.005    0.246    0.346   75.556
  340.000   17.024    0.220    0.344   79.225
  340.250   15.219    0.203    0.336   85.952
  340.500   14.125    0.197    0.331   87.172
  340.750   13.356    0.202    0.347   89.612
  341.000   12.629    0.197    0.355   90.832
  341.250   11.721    0.185    0.354   92.051
  341.500   11.292    0.180    0.346   90.820
  341.750   11.726    0.190    0.344   88.365
  342.000   12.881    0.224    0.364   87.135
  342.250   13.884    0.248    0.360   85.904
  342.500   15.539    0.245    0.346   84.060
  342.750   17.720    0.255    0.338   84.055
  343.000   18.398    0.257    0.327   74.863
  343.250   19.465    0.262    0.316   69.348
  343.500   20.212    0.257    0.312   69.953
  343.750   19.113    0.246    0.306   71.785
  344.000   17.738    0.231    0.315   72.391
  344.250   17.090    0.217    0.327   69.324
  344.500   17.746    0.256    0.338   55.848
  344.750   19.861    0.276    0.354   47.883
  345.000   22.647    0.281    0.343   42.980
  345.250   26.313    0.291    0.337   46.035
  345.500   27.320    0.296    0.348   54.600
  345.750   30.008    0.291    0.354   58.877
  346.000   26.828    0.289    0.377   60.711
  346.250   20.646    0.312    0.400   63.153
  346.500   15.022    0.372    0.444   64.981
  346.750   11.347    0.289    0.355   62.527
  347.000    9.590    0.260    0.323   59.461
  347.250   11.353    0.246    0.332   56.392
  347.500   12.468    0.233    0.336   57.612
  347.750   15.039    0.239    0.325   63.116
  348.000   17.473    0.254    0.307   66.172
  348.250   18.835    0.237    0.308   63.717
  348.500   19.197    0.217    0.326   69.220
  348.750   17.485    0.201    0.331   75.336
  349.000   13.457    0.182    0.330   82.064
  349.250   11.807    0.173    0.347   90.631
  349.500    9.793    0.141    0.356   99.196
  349.750    8.277    0.125    0.370  100.413
  350.000    7.399    0.107    0.360   96.120
  350.250    6.492    0.156    0.360   99.177
  350.500    5.804    0.178    0.394  105.294
  350.750    5.386    0.161    0.410  105.901
  351.000    4.638    0.161    0.415  111.403
  351.250    4.225    0.146    0.427  110.174
  351.500    3.995    0.173    0.415  107.718
  351.750    3.707    0.206    0.413  110.773
  352.000    4.643    0.218    0.408  106.481
  352.250    5.195    0.223    0.378   99.129
  352.500    6.385    0.231    0.357   86.877
  352.750    7.012    0.240    0.350   77.075
  353.000    8.781    0.226    0.356   73.396
  353.250   11.414    0.237    0.348   73.389
  353.500   14.028    0.256    0.342   73.996
  353.750   14.841    0.242    0.346   75.827
  354.000   14.035    0.233    0.347   77.657
  354.250   13.521    0.221    0.347   79.486
  354.500   12.549    0.208    0.351   80.706
  354.750   11.867    0.206    0.353   80.700
  355.000   11.434    0.208    0.345   83.144
  355.250   11.435    0.212    0.341   88.035
  355.500   12.328    0.219    0.350   90.478
  355.750   12.801    0.198    0.352   97.819
  356.000   13.046    0.125    0.342  100.874
  356.250   12.336    0.130    0.347   91.072
  356.500   10.624    0.158    0.351   97.798
  356.750   10.046    0.183    0.363  101.468
  357.000    9.150    0.174    0.373  108.807
  357.250    8.179    0.157    0.367  111.251
  357.500    7.312    0.163    0.368  110.633
  357.750    6.537    0.165    0.381  108.790
  358.000    6.181    0.142    0.386  112.457
  358.250    5.845    0.137    0.397  114.900
  358.500    5.737    0.130    0.417  116.730
  358.750    5.847    0.187    0.403  117.948
  359.000    7.186    0.234    0.384  111.820
  359.250    8.507    0.269    0.364  100.180
  359.500    9.883    0.295    0.363   95.278
  359.750   12.146    0.287    0.371   89.150
  360.000   15.210    0.269    0.366   93.429
  360.250   16.704    0.261    0.362   88.524
  360.500   17.346    0.254    0.361   85.457
  360.750   16.403    0.254    0.355   87.898
  361.000   15.803    0.256    0.357   89.119
  361.250   15.227    0.261    0.351   85.437
  361.500   15.229    0.264    0.345   86.046
  361.750   15.234    0.252    0.337   78.693
  362.000   16.422    0.264    0.334   68.276
  362.250   17.702    0.288    0.334   63.374
  362.500   19.084    0.303    0.334   54.796
  362.750   19.447    0.292    0.339   49.280
  363.000   19.820    0.293    0.331   52.946
  363.250   19.826    0.297    0.327   56.612
  363.500   19.829    0.303    0.335   59.669
  363.750   19.465    0.291    0.339   67.008
  364.000   19.110    0.287    0.327   70.677
  364.250   18.760    0.276    0.312   74.956
  364.500   18.074    0.261    0.331   73.727
  364.750   17.091    0.248    0.340   74.332
  365.000   16.466    0.236    0.349   76.774
  365.250   16.470    0.131    0.343   80.440
  365.500   16.169    0.159    0.343   83.496
  365.750   15.578    0.191    0.339   86.553
  366.000   14.730    0.192    0.329   88.997
  366.250   13.170    0.180    0.327   88.377
  366.500   12.688    0.179    0.325   89.596
  366.750   12.224    0.190    0.325   90.814
  367.000   11.560    0.195    0.351   90.809
  367.250   11.347    0.201    0.359   93.864
  367.500   11.139    0.206    0.357   92.632
  367.750   10.936    0.200    0.344   90.177
  368.000   11.145    0.195    0.333   85.886
  368.250   11.572    0.203    0.338   83.431
