~VERSION INFORMATION
 VERS.                 2.0:   CWLS LOG ASCII STANDARD -VERSION 2.0
 WRAP.                  NO:   ONE LINE PER DEPTH STEP
~WELL INFORMATION BLOCK
#MNEM.UNIT           DATA                    DESCRIPTION OF MNEMONIC
#---------    -------------------            -------------------------------
# Generated from Intellog Unique Number	CS_77_79/WELL/889
WELL.         KANDEX HOMESTEAD THORNBURY     : Well_name    - WELL
LOC .         00/07-01-079-13W4/0            : Location     - LOCATION
UWI .         00/07-01-079-13W4/0            : Uwi          - UNIQUE WELL ID
ENTR.         JHS                            : Entered      - ENTERED BY
SRVC.         SCHLUMBERGER                   : Scn          - SERVICE COMPANY
STRT.M        259.08                         : top_depth    - START DEPTH
STOP.M        493.58                         : bot_depth    - STOP DEPTH
STEP.M        0.25                           : increment    - STEP LENGTH
 NULL. -999.2500:NULL Value
~CURVE INFORMATION BLOCK
#MNEM UNIT       ERCB CURVE CODE    CURVE DESCRIPTION
#-----------   ------------------   ----------------------------------
DEPT.M        00 001 00 00         : DEPTH        - DEPTH
RHOB.KG/M3    00 350 00 00         : DENS         - BULK DENSITY
GR  .API      00 310 00 00         : GR           - GAMMA RAY
DPHI.V/V      00 890 00 00         : PHID         - DENSITY POROSITY (SANDSTONE)
NPHI.V/V      00 330 00 00         : PHIN         - NEUTRON POROSITY (SANDSTONE)
ILD .OHMM     00 120 00 00         : RESD         - DEEP RESISTIVITY (DIL)
~PARAMETER INFORMATION
#MNEM.UNIT           DATA             DESCRIPTION OF MNEMONIC
#---------         -----------     ------------------------------
GL  .M        679.399              : gl           - GROUND LEVEL ELEVATION
EREF.M        683.057              : kb           - ELEVATION OF DEPTH REFERENCE
DATM.M        683.057              : datum        - DATUM ELEVATION
TDD .M        499.872              : tdd          - TOTAL DEPTH DRILLER
RUN .         ONE                  : Run          - RUN NUMBER
ENG .         BILL                 : Engineer     - RECORDING ENGINEER
WIT .         JIM                  : Witness      - WITNESSED BY
MUD .         GEL                  : Mud_type     - MUD TYPE
MATR.         SANDSTONE            : Logunit      - NEUTRON MATRIX
TMAX.C        21.6667              : BHT          - MAXIMUM RECORDED TEMPERATURE
BHTD.M        499.872              : BHTDEP       - MAXIMUM RECORDED TEMPERATURE
MATR.         1                    : LOGUNIT      - NEUTRON MATRIX
RMT .C        25                   : MDTP         - TEMPERATURE OF MUD
NEUT.         1                    : NEUTRON      - NEUTRON TYPE
RESI.         0                    : RESIST       - RESISTIVITY TYPE
RMC .OHMM     0.25                 : RMC          - RESISTIVITY OF MUD CAKE
RMF .OHMM     0.25                 : RMF          - RESISTIVITY OF MUD FILTRATE
SUFT.C        15                   : SUFT         - SURFACE TEMPERATURE
~A  DEPTH     DENS       GR     PHID     PHIN     RESD
# ...
  441.580 2348.850   85.588    0.211    0.421    4.586
  441.830 2320.390   82.919    0.228    0.398    5.220
  442.080 2292.320   87.111    0.244    0.394    6.168
  442.330 2321.900   91.010    0.227    0.417    7.390
  442.580 2329.710   91.279    0.222    0.413    8.439
  442.830 2303.630   84.033    0.238    0.394    9.522
  443.080 2293.450   79.842    0.244    0.398   10.238
  443.330 2264.970   76.133    0.260    0.402   10.562
  443.580 2277.230   78.174    0.253    0.402   10.688
  443.830 2331.170   85.360    0.222    0.424   10.343
  444.080 2284.460   87.055    0.249    0.433   10.216
  444.330 2271.110   87.033    0.257    0.418    9.998
  444.580 2254.050   87.785    0.267    0.408   10.276
  444.830 2270.950   89.751    0.257    0.401   10.971
  445.080 2275.660   92.873    0.251    0.398   11.423
  445.330 2317.730   99.053    0.223    0.398   11.912
  445.580 2703.790  104.432    0.184    0.414   11.965
  445.830  543.183  111.493    0.176    0.435   10.982
  446.080 2415.960  114.663    0.174    0.451    9.721
  446.330 2398.010  113.725    0.192    0.428    8.308
  446.580 2377.540  111.054    0.195    0.418    7.764
  446.830 2337.310  108.154    0.218    0.420    7.773
  447.080 2352.920  103.760    0.209    0.412    8.368
  447.330 2379.380   99.929    0.193    0.400    9.037
  447.580 2376.130   96.657    0.195    0.396   10.819
  447.830 2366.100   91.907    0.201    0.389   11.760
  448.080 2372.250   88.722    0.198    0.377   12.771
  448.330 2379.950   87.385    0.193    0.371   13.213
  448.580 2356.030   84.735    0.207    0.371   13.575
  448.830 2319.760   82.808    0.228    0.371   14.001
  449.080 2290.260   80.431    0.245    0.357   14.984
  449.330 2273.460   77.501    0.255    0.347   17.098
  449.580 2312.160   76.131    0.233    0.339   19.256
  449.830 2317.740   77.758    0.229    0.339   20.528
  450.080 2315.300   80.684    0.231    0.352   21.323
  450.330 2295.350   83.867    0.242    0.367   21.639
  450.580 2317.960   85.036    0.229    0.380   22.733
  450.830 2302.980   85.331    0.238    0.389   23.811
  451.080 2298.780   85.125    0.240    0.399   23.812
  451.330 2316.460   88.228    0.230    0.393   23.697
  451.580 2322.180   89.770    0.227    0.382   22.456
  451.830 2348.950   92.352    0.211    0.373   20.771
  452.080 2378.950   94.085    0.194    0.361   18.980
  452.330 2391.900   92.673    0.186    0.351   16.444
  452.580 2389.000   89.038    0.188    0.344   15.258
  452.830 2397.700   83.420    0.183    0.337   15.030
  453.080 2400.550   77.171    0.181    0.327   14.999
  453.330 2400.140   68.042    0.181    0.314   16.107
  453.580 2246.560   61.618    0.271    0.297   17.763
  453.830 2207.220   58.977    0.294    0.290   20.835
  454.080 2241.240   65.847    0.274    0.305   24.057
  454.330 2297.400   72.300    0.241    0.339   26.366
  454.580 2349.650   74.522    0.211    0.358   25.204
  454.830 2327.810   70.130    0.224    0.370   22.756
  455.080 2280.440   54.453    0.251    0.379   22.461
  455.330 2230.270   48.795    0.281    0.385   27.207
  455.580 2209.620   50.839    0.293    0.379   34.697
  455.830 2202.310   55.255    0.297    0.385   47.233
  456.080 2180.510   59.541    0.310    0.400   67.469
  456.330 2211.490   65.279    0.292    0.404   73.024
  456.580 2256.200   69.126    0.265    0.392   64.323
  456.830 2261.670   73.314    0.262    0.396   47.162
  457.080 2260.830   75.139    0.263    0.410   36.314
  457.330 2272.690   75.593    0.256    0.413   27.287
  457.580 2252.590   75.447    0.267    0.407   26.767
  457.830 2234.810   72.948    0.278    0.405   27.909
  458.080 2224.320   70.730    0.284    0.404   30.573
  458.330 2219.360   71.865    0.287    0.396   35.878
  458.580 2210.620   75.625    0.292    0.396   39.006
  458.830 2253.640   78.680    0.267    0.387   40.739
  459.080 2269.350   82.159    0.258    0.386   38.428
  459.330 2260.670   86.487    0.263    0.390   35.141
  459.580 2280.840   89.333    0.251    0.384   30.212
  459.830 2305.860   93.213    0.236    0.380   25.671
  460.080 2333.980   97.777    0.220    0.380   20.782
  460.330 2353.840  102.634    0.208    0.384   15.923
  460.580 2384.240  104.990    0.191    0.391   12.829
  460.830 2365.070  104.656    0.202    0.400   11.580
  461.080 2400.470  101.918    0.181    0.405   10.330
  461.330 2387.370   96.858    0.189    0.399    9.657
  461.580 2369.050   86.100    0.199    0.393    9.765
  461.830 2331.860   79.567    0.221    0.389   10.659
  462.080 2355.190   83.475    0.207    0.385   12.569
  462.330 2332.760   89.926    0.221    0.380   14.378
  462.580 2318.920   98.071    0.229    0.373   16.280
  462.830 2357.520  102.952    0.206    0.372   15.860
  463.080 2392.250  105.125    0.186    0.367   15.134
  463.330 2389.150  105.574    0.188    0.370   13.423
  463.580 2397.660  103.611    0.183    0.377   12.312
  463.830 2412.260   98.360    0.174    0.374   10.914
  464.080 2365.750   93.699    0.201    0.367   10.911
  464.330 2382.390   87.589    0.192    0.362   11.027
  464.580 2356.010   83.098    0.207    0.354   11.953
  464.830 2353.100   83.626    0.209    0.349   12.965
  465.080 2377.350   85.216    0.195    0.361   13.546
  465.330 2337.560   82.577    0.218    0.372   14.117
  465.580 2281.670   77.002    0.250    0.370   14.801
  465.830 2267.020   75.512    0.259    0.364   15.256
  466.080 2292.820   77.222    0.244    0.367   16.850
  466.330 2308.080   78.174    0.235    0.373   18.816
  466.580 2302.760   77.332    0.238    0.373   20.078
  466.830 2335.160   78.829    0.219    0.372   20.337
  467.080 2354.940   80.299    0.208    0.386   19.441
  467.330 2325.750   71.017    0.225    0.395   17.845
  467.580 2301.990   62.578    0.239    0.393   16.325
  467.830 2268.040   54.850    0.258    0.387   16.005
  468.080 2228.800   46.299    0.281    0.378   16.827
  468.330 2215.340   40.824    0.289    0.365   19.740
  468.580 2196.860   35.268    0.300    0.359   24.757
  468.830 2194.150   34.793    0.302    0.356   31.726
  469.080 2215.020   36.409    0.289    0.364   40.588
  469.330 2222.060   37.284    0.285    0.377   54.973
  469.580 2241.550   35.800    0.274    0.384   68.390
  469.830 2240.220   32.823    0.275    0.377   82.628
  470.080 2207.930   29.463    0.294    0.378   93.287
  470.330 2180.080   27.938    0.310    0.384  100.056
  470.580 2162.150   28.504    0.320    0.389  104.891
  470.830 2155.490   30.104    0.324    0.377  111.240
  471.080 2163.780   31.025    0.319    0.367  118.325
  471.330 2189.710   33.852    0.304    0.364  126.213
  471.580 2189.320   42.026    0.304    0.376  131.527
  471.830 2208.250   53.242    0.293    0.373  135.185
  472.080 2234.590   68.277    0.278    0.362  123.079
  472.330 2312.400   81.755    0.233    0.357   85.412
  472.580 2442.660   92.487    0.156    0.363   24.470
  472.830 2438.230   95.586    0.159    0.380   15.143
  473.080 2380.180   93.836    0.193    0.390   12.184
  473.330 2355.700   88.142    0.207    0.391   11.513
  473.580 2354.350   85.146    0.208    0.385   11.319
  473.830 2343.960   80.992    0.214    0.377   11.994
  474.080 2343.930   78.340    0.214    0.370   13.008
  474.330 2341.680   76.595    0.215    0.366   14.432
  474.580 2336.850   76.967    0.218    0.362   14.695
  474.830 2353.570   78.442    0.208    0.360   14.607
  475.080 2334.350   78.924    0.220    0.358   13.567
  475.330 2362.140   79.441    0.203    0.356   12.534
  475.580 2332.070   77.945    0.221    0.352   11.278
  475.830 2328.620   79.004    0.223    0.349   10.576
  476.080 2353.000   80.432    0.209    0.341    9.829
  476.330 2365.000   82.255    0.202    0.328    8.918
  476.580 2383.870   78.588    0.191    0.328    9.116
  476.830 2396.950   75.392    0.183    0.343    9.285
  477.080 2373.210   70.730    0.197    0.350    8.974
  477.330 2316.600   67.136    0.230    0.356    8.434
  477.580 2260.370   68.456    0.263    0.359    7.629
  477.830 2292.560   70.745    0.244    0.350    7.166
