~VERSION INFORMATION
 VERS.                 2.0:   CWLS LOG ASCII STANDARD -VERSION 2.0
 WRAP.                  NO:   ONE LINE PER DEPTH STEP
~WELL INFORMATION BLOCK
#MNEM.UNIT           DATA                    DESCRIPTION OF MNEMONIC
#---------    -------------------            -------------------------------
# Generated from Intellog Unique Number	CN_91_93/WELL/4153
WELL.         CDN-SUP LIEGE                  : Well_name    - WELL
LOC .         00/06-13-092-21W4/0            : Location     - LOCATION
UWI .         00/06-13-092-21W4/0            : Uwi          - UNIQUE WELL ID
ENTR.         TIM                            : Entered      - ENTERED BY
SRVC.         SCHLUMBERGER                   : Scn          - SERVICE COMPANY
DATE.         01/22/92                       : Date         - LOG DATE
STRT.M        50                             : top_depth    - START DEPTH
STOP.M        250                            : bot_depth    - STOP DEPTH
STEP.M        0.25                           : increment    - STEP LENGTH
 NULL. -999.2500:NULL Value
~CURVE INFORMATION BLOCK
#MNEM UNIT       ERCB CURVE CODE    CURVE DESCRIPTION
#-----------   ------------------   ----------------------------------
DEPT.M        00 001 00 00         : DEPTH        - DEPTH
GR  .API      00 310 00 00         : GR           - GAMMA RAY
NPHI.V/V      00 330 00 00         : PHIN         - NEUTRON POROSITY (SANDSTONE)
DPHI.V/V      00 890 00 00         : PHID         - DENSITY POROSITY (SANDSTONE)
ILD .OHMM     00 120 00 00         : RESD         - DEEP RESISTIVITY (DIL)
~PARAMETER INFORMATION
#MNEM.UNIT           DATA             DESCRIPTION OF MNEMONIC
#---------         -----------     ------------------------------
GL  .M        545.44               : gl           - GROUND LEVEL ELEVATION
EREF.M        549.3                : kb           - ELEVATION OF DEPTH REFERENCE
DATM.M        549.3                : datum        - DATUM ELEVATION
TDD .M        251                  : tdd          - TOTAL DEPTH DRILLER
RUN .         ONE                  : Run          - RUN NUMBER
ENG .         JO                   : Engineer     - RECORDING ENGINEER
WIT .         TIM                  : Witness      - WITNESSED BY
MUD .         GEL                  : Mud_type     - MUD TYPE
MATR.         SANDSTONE            : Logunit      - NEUTRON MATRIX
TMAX.C        20.5                 : BHT          - MAXIMUM RECORDED TEMPERATURE
BHTD.M        251                  : BHTDEP       - MAXIMUM RECORDED TEMPERATURE
RMT .C        18                   : MDTP         - TEMPERATURE OF MUD
MUDD.KG/M     1107                 : MWT          - MUD DENSITY
NEUT.         1                    : NEUTRON      - NEUTRON TYPE
RESI.         0                    : RESIST       - RESISTIVITY TYPE
RM  .OHMM     6.44                 : RM           - RESISTIVITY OF MUD
RMC .OHMM     6.5                  : RMC          - RESISTIVITY OF MUD CAKE
RMF .OHMM     6.35                 : RMF          - RESISTIVITY OF MUD FILTRATE
SUFT.C        4                    : SUFT         - SURFACE TEMPERATURE
~A  DEPTH       GR     PHIN     PHID     RESD
# ...
  180.500   66.021    0.428    0.240   10.450
  180.750   62.398    0.425    0.182   10.865
  181.000   59.990    0.428    0.115   11.738
  181.250   60.008    0.425    0.131   12.684
  181.500   61.248    0.397    0.231   13.703
  181.750   61.257    0.387    0.260   14.808
  182.000   58.849    0.372    0.247   15.100
  182.250   54.013    0.358    0.137   16.005
  182.500   54.638    0.339    0.006   16.643
  182.750   63.756    0.326   -0.003   16.978
  183.000   70.448    0.355    0.102   15.742
  183.250   78.965    0.406    0.132   13.015
  183.500   86.263    0.443    0.158    8.555
  183.750   88.106    0.465    0.183    6.070
  184.000   86.906    0.494    0.227    4.649
  184.250   83.284    0.474    0.197    5.218
  184.500   84.520    0.451    0.181    5.970
  184.750   86.965    0.440    0.202    6.701
  185.000   88.803    0.437    0.201    7.380
  185.250   89.423    0.429    0.177    8.778
  185.500   88.839    0.418    0.174    9.300
  185.750   86.426    0.407    0.169   10.443
  186.000   80.377    0.397    0.160   11.064
  186.250   75.541    0.382    0.150   12.184
  186.500   73.137    0.356    0.139   13.163
  186.750   73.757    0.356    0.131   14.495
  187.000   76.818    0.381    0.161   15.969
  187.250   76.836    0.393    0.167   16.284
  187.500   75.029    0.393    0.135   15.997
  187.750   74.445    0.394    0.120   15.704
  188.000   75.672    0.408    0.171   14.848
  188.250   79.937    0.427    0.185   14.576
  188.500   83.595    0.436    0.196   14.312
  188.750   85.434    0.431    0.206   14.056
  189.000   81.205    0.416    0.168   13.796
  189.250   76.374    0.400    0.145   13.550
  189.500   74.572    0.399    0.143   13.558
  189.750   73.372    0.405    0.136   13.319
  190.000   68.541    0.407    0.110   13.330
  190.250   67.341    0.401    0.099   13.086
  190.500   68.572    0.380    0.069   13.095
  190.750   70.411    0.361    0.115   12.860
  191.000   74.680    0.360    0.184   12.869
  191.250   75.305    0.378    0.209   12.641
  191.500   74.716    0.391    0.224   12.410
  191.750   74.734    0.392    0.230   12.418
  192.000   75.359    0.399    0.235   11.739
  192.250   80.842    0.406    0.240   10.886
  192.500   85.709    0.433    0.241   10.091
  192.750   91.188    0.460    0.241    9.180
  193.000   94.850    0.480    0.241    7.736
  193.250   95.475    0.483    0.235    6.646
  193.500   89.422    0.507    0.229    5.931
  193.750   70.025    0.516    0.190    6.286
  194.000   62.763    0.402    0.155    6.923
  194.250   60.363    0.376    0.215    7.770
  194.500   60.979    0.380    0.282    8.555
  194.750   65.855    0.386    0.292    9.977
  195.000   67.698    0.396    0.290   12.088
  195.250   65.896    0.414    0.282   13.834
  195.500   63.492    0.423    0.275   14.113
  195.750   63.501    0.435    0.264   13.860
  196.000   64.737    0.408    0.233   13.610
  196.250   65.357    0.386    0.218   13.110
  196.500   67.806    0.383    0.187   12.870
  196.750   70.251    0.414    0.177   12.637
  197.000   72.089    0.429    0.206   13.144
  197.250   71.501    0.441    0.232   13.406
  197.500   69.087    0.450    0.240   14.484
  197.750   63.038    0.439    0.248   15.651
  198.000   56.989    0.406    0.233   17.239
  198.250   47.300    0.374    0.183   18.264
  198.500   46.109    0.322    0.109   20.505
  198.750   48.550    0.286    0.061   23.016
  199.000   57.071    0.303    0.042   26.841
  199.250   58.904    0.338    0.062   30.128
  199.500   61.349    0.321    0.034   29.583
  199.750   66.828    0.256    0.008   26.401
  200.000   71.699    0.310    0.099   23.561
  200.250   76.571    0.341    0.162   19.855
  200.500   80.229    0.405    0.189   17.058
  200.750   82.674    0.416    0.208   15.812
  201.000   80.872    0.409    0.215   14.114
  201.250   80.288    0.419    0.219   13.084
  201.500   80.917    0.416    0.225   11.902
  201.750   78.508    0.402    0.236   11.248
  202.000   77.309    0.417    0.202   11.047
  202.250   73.686    0.437    0.177   11.054
  202.500   67.031    0.408    0.147   11.280
  202.750   60.986    0.319    0.113   11.289
  203.000   61.607    0.287    0.049   11.742
  203.250   67.085    0.268    0.090   11.978
  203.500   71.957    0.318    0.165   12.458
  203.750   75.615    0.365    0.201   12.466
  204.000   76.847    0.381    0.206   12.474
  204.250   78.689    0.403    0.180   12.251
  204.500   82.343    0.407    0.174   11.802
  204.750   86.608    0.411    0.145   11.369
  205.000   87.237    0.409    0.122   11.161
  205.250   87.871    0.378    0.143   11.386
  205.500   86.667    0.407    0.185   11.842
  205.750   84.262    0.397    0.213   12.552
  206.000   82.460    0.392    0.221   13.304
  206.250   80.052    0.398    0.215   14.104
  206.500   76.429    0.398    0.181   14.383
  206.750   75.845    0.386    0.145   14.398
  207.000   76.470    0.366    0.084   14.137
  207.250   78.910    0.362    0.055   13.619
  207.500   83.171    0.352    0.177   13.373
  207.750   88.649    0.400    0.193   12.399
  208.000   95.341    0.413    0.201   11.720
  208.250   95.368    0.409    0.208   11.288
  208.500   94.173    0.405    0.209   10.874
  208.750   92.973    0.398    0.209   10.680
  209.000   91.787    0.393    0.204   10.486
  209.250   91.194    0.420    0.198   10.295
  209.500   91.212    0.431    0.189   10.303
  209.750   91.230    0.432    0.184   10.117
  210.000   91.248    0.413    0.176   10.128
  210.250   91.868    0.404    0.163   10.332
  210.500   92.493    0.400    0.158   10.343
  210.750   91.297    0.396    0.166   10.547
  211.000   81.608    0.385    0.171   11.402
  211.250   69.497    0.349    0.167   12.083
  211.500   72.544    0.296    0.155   13.057
  211.750   79.842    0.324    0.154   13.833
  212.000   79.258    0.353    0.163   14.662
  212.250   78.665    0.373    0.084   14.964
  212.500   82.328    0.317    0.021   14.974
  212.750   85.986    0.283    0.135   14.700
  213.000   90.858    0.382    0.209   14.440
  213.250   93.909    0.390    0.218   14.176
  213.500   95.145    0.387    0.210   13.659
  213.750   96.377    0.382    0.183   13.152
  214.000   97.608    0.377    0.173   12.672
  214.250   95.806    0.372    0.177   12.207
  214.500   93.397    0.367    0.173   11.987
  214.750   92.202    0.364    0.162   11.997
  215.000   91.609    0.356    0.152   12.242
  215.250   91.025    0.351    0.145   12.975
  215.500   91.043    0.352    0.139   13.234
  215.750   91.061    0.385    0.169   13.507
  216.000   92.908    0.399    0.197   13.259
  216.250   93.524    0.414    0.205   12.776
  216.500   95.362    0.419    0.177   12.302
  216.750   90.527    0.427    0.155   11.626
  217.000   82.657    0.434    0.123   11.200
  217.250   78.429    0.387   -0.001   10.789
  217.500   80.874    0.288    0.134   10.798
  217.750   87.565    0.335    0.159   11.231
  218.000   90.010    0.400    0.196   11.455
  218.250   91.848    0.488    0.213   11.686
  218.500   91.260    0.495    0.221   10.232
  218.750   89.458    0.472    0.218    8.622
  219.000   88.869    0.451    0.206    6.861
  219.250   88.887    0.431    0.195    6.008
  219.500   89.525    0.423    0.182    6.615
  219.750   89.534    0.418    0.149    8.018
  220.000   89.553    0.424    0.156    9.172
  220.250   82.897    0.429    0.161   10.295
  220.500   74.421    0.408    0.114   10.912
  220.750   76.259    0.396    0.103   10.921
  221.000   83.558    0.385    0.078   10.933
  221.250   89.036    0.395    0.142   10.942
  221.500   92.088    0.419    0.148   10.541
  221.750   93.930    0.423    0.157   10.548
  222.000   93.337    0.423    0.162   10.357
  222.250   91.540    0.420    0.171   10.568
  222.500   90.344    0.418    0.176   11.201
  222.750   88.538    0.413    0.162   12.104
  223.000   77.029    0.401    0.080   12.584
  223.250   75.231    0.324    0.002   13.595
  223.500   77.671    0.292    0.035   14.688
  223.750   81.339    0.332    0.070   14.422
