~VERSION INFORMATION
 VERS.                 2.0:   CWLS LOG ASCII STANDARD -VERSION 2.0
 WRAP.                  NO:   ONE LINE PER DEPTH STEP
~WELL INFORMATION BLOCK
#MNEM.UNIT           DATA                    DESCRIPTION OF MNEMONIC
#---------    -------------------            -------------------------------
# Generated from Intellog Unique Number	CC_80_83/WELL/2301
NULL.         -999.25                        : NULL_VALUE
WELL.         PARA ET AL GRANOR              : Well_name    - WELL
LOC .         07-25-083-18W4                 : Location     - LOCATION          
UWI .         00/07-25-083-18W400            : Uwi          - UNIQUE WELL ID    
ENTR.         DW                             : Entered      - ENTERED BY        
SRVC.         COMPUTALOG                     : Scn          - SERVICE COMPANY   
DATE.         18 JAN 82                      : Date         - LOG DATE
STRT.M        95                             : top_depth    - START DEPTH       
STOP.M        290                            : bot_depth    - STOP DEPTH        
STEP.M        0.3                            : increment    - STEP LENGTH       
~CURVE INFORMATION BLOCK
#MNEM UNIT       ERCB CURVE CODE    CURVE DESCRIPTION
#-----------   ------------------   ----------------------------------
DEPT.M        00 001 00 00         : DEPTH        - DEPTH                       
DPHI.V/V      00 890 00 00         : PHID         - DENSITY POROSITY (LIMESTONE)
NPHI.V/V      00 330 00 00         : PHIN         - NEUTRON POROSITY (LIMESTONE)
GR  .API      00 310 00 00         : GR           - GAMMA RAY                   
ILD .OHMM     00 120 00 00         : RESD         - DEEP RESISTIVITY (DIL)      
~PARAMETER INFORMATION       
#MNEM.UNIT           DATA             DESCRIPTION OF MNEMONIC
#---------         -----------     ------------------------------
GL  .M        543.08               : gl           - GROUND LEVEL ELEVATION      
EREF.M        546.68               : kb           - ELEVATION OF DEPTH REFERENCE
DATM.M        546.68               : datum        - DATUM ELEVATION             
TDD .M        298                  : tdd          - TOTAL DEPTH DRILLER         
RUN .         ONE                  : Run          - RUN NUMBER                  
ENG .         BILL                 : Engineer     - RECORDING ENGINEER          
WIT .         JIM                  : Witness      - WITNESSED BY                
MUD .         GEL                  : Mud_type     - MUD TYPE                    
MATR.         LIMESTONE            : Logunit      - NEUTRON MATRIX              
TMAX.C        20                   : BHT          - MAXIMUM RECORDED TEMPERATURE
BHTD.M        298                  : BHTDEP       - MAXIMUM RECORDED TEMPERATURE
MATR.         1                    : LOGUNIT      - NEUTRON MATRIX              
RMT .C        25                   : MDTP         - TEMPERATURE OF MUD          
NEUT.         1                    : NEUTRON      - NEUTRON TYPE                
RESI.         0                    : RESIST       - RESISTIVITY TYPE            
RMC .OHMM     0.25                 : RMC          - RESISTIVITY OF MUD CAKE     
RMF .OHMM     0.25                 : RMF          - RESISTIVITY OF MUD FILTRATE 
SUFT.C        15                   : SUFT         - SURFACE TEMPERATURE         
~A  DEPTH     PHID     PHIN       GR     RESD
# ...
  147.201    0.292    0.406   63.689   14.269
  147.501    0.292    0.491   60.050   13.751
  147.801    0.305    0.520   60.668   14.296
  148.101    0.325    0.565   62.512   14.578
  148.401    0.317    0.494   62.521   14.865
  148.701    0.310    0.443   61.923   14.609
  149.001    0.302    0.431   64.375   14.345
  149.301    0.295    0.434   68.043   13.575
  149.601    0.295    0.464   69.884   13.081
  149.901    0.301    0.484   68.677   12.379
  150.201    0.310    0.462   64.423   11.931
  150.501    0.317    0.421   65.043   11.722
  150.801    0.319    0.388   67.493   11.953
  151.101    0.326    0.402   68.115   12.428
  151.401    0.330    0.484   67.519   12.437
  151.701    0.345    0.524   66.926   12.447
  152.001    0.340    0.464   66.326   12.223
  152.301    0.324    0.441   66.339   11.784
  152.601    0.312    0.475   65.741   12.480
  152.901    0.313    0.508   65.143   13.216
  153.201    0.314    0.493   70.032   13.476
  153.501    0.314    0.427   71.261   13.241
  153.801    0.308    0.374   69.444   12.766
  154.101    0.289    0.383   69.458   12.301
  154.401    0.275    0.454   76.174   10.595
  154.701    0.273    0.453   73.748    9.126
  155.001    0.277    0.442   59.744    9.134
  155.301    0.284    0.429   53.663   10.428
  155.601    0.286    0.471   66.475   12.360
  155.901    0.290    0.504   68.314   14.376
  156.201    0.299    0.470   64.060   15.222
  156.501    0.310    0.385   61.634   15.525
  156.801    0.317    0.378   62.258   14.973
  157.101    0.320    0.426   60.440   14.702
  157.401    0.325    0.406   61.674   14.182
  157.701    0.332    0.388   69.002   13.927
  158.001    0.341    0.412   71.448   13.935
  158.301    0.341    0.452   67.802   13.439
  158.601    0.329    0.436   65.379   13.447
  158.901    0.324    0.429   67.828   13.460
  159.201    0.324    0.465   71.496   13.224
  159.501    0.319    0.452   73.337   12.987
  159.801    0.324    0.431   70.302   12.523
  160.101    0.342    0.425   68.485   12.071
  160.401    0.343    0.446   68.498   11.636
  160.701    0.333    0.444   71.558   11.644
  161.001    0.331    0.417   73.396   11.441
  161.301    0.321    0.419   68.534   11.666
  161.601    0.311    0.436   67.330   11.675
  161.901    0.311    0.441   67.344   12.133
  162.201    0.317    0.442   66.748   13.098
  162.501    0.314    0.484   66.761   13.356
  162.801    0.296    0.564   66.767   13.625
  163.101    0.261    0.494   67.392   13.634
  163.401    0.095    0.203   64.354   14.170
  163.701    0.074    0.147   55.227   15.001
  164.001    0.027    0.116   56.459   17.785
  164.301    0.002    0.119   60.738   22.300
  164.601    0.150    0.174   63.186   26.435
  164.901    0.248    0.451   63.810   27.465
  165.201    0.302    0.436   60.773   18.183
  165.501    0.297    0.403   60.175   12.505
  165.801    0.308    0.442   66.892   11.607
  166.101    0.315    0.490   65.074   10.984
  166.401    0.312    0.480   62.651   10.990
  166.701    0.303    0.470   64.490   11.421
  167.001    0.299    0.523   65.112   12.567
  167.301    0.316    0.464   62.688   12.576
  167.601    0.319    0.450   56.610   12.585
  167.901    0.329    0.441   55.399   12.132
  168.201    0.336    0.428   62.114   11.915
  168.501    0.319    0.425   63.347   11.701
  168.801    0.314    0.469   63.359   11.502
  169.101    0.322    0.460   64.590   11.510
  169.401    0.307    0.449   65.213   11.518
  169.701    0.277    0.471   67.052   11.746
  170.001    0.263    0.496   66.453   11.761
  170.301    0.287    0.477   60.986   11.552
  170.601    0.298    0.509   59.166   11.344
  170.901    0.318    0.484   57.350   10.737
  171.201    0.337    0.428   59.799   10.742
  171.501    0.326    0.421   64.691   11.162
  171.801    0.308    0.415   70.793   11.175
  172.101    0.292    0.427   76.901   11.614
  172.401    0.270    0.437   67.771   11.843
  172.701    0.227    0.419   56.205   12.311
  173.001    0.291    0.495   55.000   12.793
  173.301    0.297    0.555   56.839   14.064
  173.601    0.249    0.169   48.321   16.361
  173.901    0.020    0.088   39.807   18.672
  174.201    0.000    0.082   38.600   25.724
  174.501    0.000    0.081   37.999   36.786
  174.801    0.000    0.091   39.229   39.697
  175.101    0.100    0.157   45.338   37.558
  175.401    0.275    0.398   49.005   30.572
  175.701    0.303    0.462   48.408   22.666
  176.001    0.309    0.480   42.325   21.434
  176.301    0.309    0.507   38.072   19.901
  176.601    0.314    0.550   38.089   18.137
  176.901    0.310    0.535   41.149   16.525
  177.201    0.314    0.490   44.814   15.634
  177.501    0.323    0.419   49.701   15.071
  177.801    0.315    0.430   52.150   15.087
  178.101    0.311    0.506   47.896   15.383
  178.401    0.327    0.497   44.863   16.599
  178.701    0.317    0.469   45.485   17.579
  179.001    0.299    0.442   43.674   17.594
  179.301    0.278    0.420   43.682   17.283
  179.601    0.267    0.405   44.913   16.976
  179.901    0.285    0.449   48.579   16.675
  180.201    0.273    0.422   49.204   17.007
  180.501    0.258    0.411   49.217   17.349
  180.801    0.243    0.484   51.053   17.690
  181.101    0.251    0.432   57.162   18.042
  181.401    0.257    0.412   59.612   18.407
  181.701    0.264    0.464   57.793   18.085
  182.001    0.298    0.484   54.760   18.094
  182.301    0.312    0.474   49.289   18.117
  182.601    0.308    0.517   46.255   18.128
  182.901    0.311    0.546   44.438   18.147
  183.201    0.317    0.469   43.846   18.165
  183.501    0.309    0.420   41.417   18.182
  183.801    0.311    0.450   38.993   17.853
  184.101    0.314    0.438   39.613   16.896
  184.401    0.315    0.417   40.843   16.593
  184.701    0.312    0.405   44.512   16.302
  185.001    0.309    0.532   48.183   16.314
  185.301    0.304    0.516   48.803   16.331
  185.601    0.299    0.455   46.985   16.351
  185.901    0.302    0.396   45.170   16.360
  186.201    0.292    0.374   45.187   16.380
  186.501    0.285    0.437   45.196   16.389
  186.801    0.287    0.460   44.603   16.102
  187.101    0.321    0.449   45.829   15.816
  187.401    0.307    0.401   53.155   14.963
  187.701    0.259    0.407   56.214   13.895
  188.001    0.307    0.492   53.179   13.392
  188.301    0.308    0.526   52.582   12.672
  188.601    0.281    0.507   60.515   12.443
  188.901    0.251    0.431   72.105   11.128
  189.201    0.200    0.456   94.054    7.795
  189.501    0.181    0.434  102.597    6.227
  189.801    0.178    0.406  108.096    5.363
  190.101    0.164    0.442  111.158    4.887
  190.401    0.168    0.412   98.980    4.624
  190.701    0.165    0.370   97.162    4.460
  191.001    0.153    0.393  108.754    4.548
  191.301    0.151    0.441  111.813    4.637
  191.601    0.171    0.435  117.310    4.640
  191.901    0.179    0.416  119.148    4.645
  192.201    0.175    0.474  117.336    4.562
  192.501    0.179    0.561  113.690    4.399
  192.801    0.182    0.567  110.657    4.321
  193.101    0.180    0.541  110.060    4.327
  193.401    0.176    0.434  108.850    4.330
  193.701    0.161    0.403  102.163    4.333
  194.001    0.149    0.403  108.879    4.336
  194.301    0.152    0.465  113.156    4.424
  194.601    0.177    0.448  111.947    4.428
  194.901    0.188    0.490   97.944    4.349
  195.201    0.205    0.513   95.521    4.436
  195.501    0.209    0.463   96.140    4.522
  195.801    0.162    0.446   86.404    4.881
  196.101    0.175    0.411   82.759    5.366
  196.401    0.225    0.363   91.914    6.125
  196.701    0.218    0.365   93.754    6.994
  197.001    0.214    0.358   92.546    7.546
  197.301    0.210    0.385   87.074    7.992
  197.601    0.195    0.417   93.793    8.149
  197.901    0.193    0.414   98.681    8.005
  198.201    0.204    0.398   99.300    8.164
  198.501    0.203    0.388   87.734    8.325
  198.801    0.210    0.454   84.088    8.819
  199.101    0.211    0.464   86.540    8.992
