~VERSION INFORMATION
 VERS.                 2.0:   CWLS LOG ASCII STANDARD -VERSION 2.0
 WRAP.                  NO:   ONE LINE PER DEPTH STEP
~WELL INFORMATION BLOCK
#MNEM.UNIT           DATA                    DESCRIPTION OF MNEMONIC
#---------    -------------------            -------------------------------
# Generated from Intellog Unique Number	CS_77_79/WELL/868
WELL.         CAVALIER ET AL PORTAGE         : Well_name    - WELL
LOC .         00/06-10-078-15W4/0            : Location     - LOCATION
UWI .         00/06-10-078-15W4/0            : Uwi          - UNIQUE WELL ID
ENTR.         JHS                            : Entered      - ENTERED BY
SRVC.         SCHLUMBERGER                   : Scn          - SERVICE COMPANY
STRT.M        225                            : top_depth    - START DEPTH
STOP.M        453                            : bot_depth    - STOP DEPTH
STEP.M        0.25                           : increment    - STEP LENGTH
 NULL. -999.2500:NULL Value
~CURVE INFORMATION BLOCK
#MNEM UNIT       ERCB CURVE CODE    CURVE DESCRIPTION
#-----------   ------------------   ----------------------------------
DEPT.M        00 001 00 00         : DEPTH        - DEPTH
DPHI.V/V      00 890 00 00         : PHID         - DENSITY POROSITY (LIMESTONE)
NPHI.V/V      00 330 00 00         : PHIN         - NEUTRON POROSITY (LIMESTONE)
GR  .API      00 310 00 00         : GR           - GAMMA RAY
ILD .OHMM     00 120 00 00         : RESD         - DEEP RESISTIVITY (DIL)
~PARAMETER INFORMATION
#MNEM.UNIT           DATA             DESCRIPTION OF MNEMONIC
#---------         -----------     ------------------------------
GL  .M        631.2                : gl           - GROUND LEVEL ELEVATION
EREF.M        635.2                : kb           - ELEVATION OF DEPTH REFERENCE
DATM.M        635.2                : datum        - DATUM ELEVATION
TDD .M        453.7                : tdd          - TOTAL DEPTH DRILLER
RUN .         ONE                  : Run          - RUN NUMBER
ENG .         BILL                 : Engineer     - RECORDING ENGINEER
WIT .         JIM                  : Witness      - WITNESSED BY
MUD .         GEL                  : Mud_type     - MUD TYPE
MATR.         LIMESTONE            : Logunit      - NEUTRON MATRIX
TMAX.C        21                   : BHT          - MAXIMUM RECORDED TEMPERATURE
BHTD.M        453.7                : BHTDEP       - MAXIMUM RECORDED TEMPERATURE
MATR.         1                    : LOGUNIT      - NEUTRON MATRIX
RMT .C        25                   : MDTP         - TEMPERATURE OF MUD
NEUT.         1                    : NEUTRON      - NEUTRON TYPE
RESI.         0                    : RESIST       - RESISTIVITY TYPE
RMC .OHMM     0.25                 : RMC          - RESISTIVITY OF MUD CAKE
RMF .OHMM     0.25                 : RMF          - RESISTIVITY OF MUD FILTRATE
SUFT.C        15                   : SUFT         - SURFACE TEMPERATURE
~A  DEPTH     PHID     PHIN       GR     RESD
# ...
  355.500    0.224    0.438  103.280    5.957
  355.750    0.219    0.424  105.729    5.964
  356.000    0.229    0.415  103.910    5.968
  356.250    0.219    0.411   99.654    5.862
  356.500    0.226    0.411   97.833    5.760
  356.750    0.222    0.406   98.455    5.765
  357.000    0.217    0.423  103.342    5.880
  357.250    0.225    0.421  105.181    6.110
  357.500    0.236    0.418  103.364    6.350
  357.750    0.236    0.428   99.716    6.598
  358.000    0.252    0.434   95.456    6.728
  358.250    0.266    0.438   91.807    7.125
  358.500    0.265    0.440   89.383    7.404
  358.750    0.243    0.435   90.612    7.840
  359.000    0.243    0.430   94.888    8.148
  359.250    0.231    0.413   97.337    8.468
  359.500    0.226    0.395   96.738    8.473
  359.750    0.239    0.389   93.700    8.482
  360.000    0.260    0.391   88.834    8.493
  360.250    0.277    0.391   86.405    8.497
  360.500    0.303    0.392   83.973    8.347
  360.750    0.325    0.382   79.715    8.200
  361.000    0.330    0.380   75.457    8.054
  361.250    0.331    0.391   73.029    7.911
  361.500    0.338    0.403   76.698    7.918
  361.750    0.324    0.430   77.927    7.781
  362.000    0.313    0.438   78.547    7.785
  362.250    0.320    0.429   79.168    7.793
  362.500    0.338    0.415   77.959    7.802
  362.750    0.349    0.404   79.801    7.809
  363.000    0.353    0.393   76.763    7.816
  363.250    0.353    0.393   74.941    7.823
  363.500    0.344    0.410   73.731    7.683
  363.750    0.346    0.429   68.866    7.690
  364.000    0.335    0.440   67.654    7.554
  364.250    0.327    0.436   66.448    7.561
  364.500    0.325    0.421   66.457    7.568
  364.750    0.316    0.409   67.078    7.717
  365.000    0.301    0.408   68.916    7.871
  365.250    0.303    0.413   72.585    8.027
  365.500    0.307    0.403   73.813    8.034
  365.750    0.314    0.389   73.215    8.352
  366.000    0.321    0.381   73.228    8.516
  366.250    0.327    0.394   73.846    8.523
  366.500    0.322    0.408   73.858    8.694
  366.750    0.315    0.403   72.647    8.701
  367.000    0.312    0.391   70.217    8.709
  367.250    0.313    0.384   70.837    8.716
  367.500    0.317    0.405   71.459    8.564
  367.750    0.320    0.433   70.858    8.571
  368.000    0.321    0.437   69.042    8.420
  368.250    0.326    0.441   68.442    8.271
  368.500    0.329    0.428   69.061    8.279
  368.750    0.338    0.421   71.511    8.132
  369.000    0.346    0.419   72.129    8.141
  369.250    0.353    0.406   70.921    7.993
  369.500    0.352    0.404   67.881    8.001
  369.750    0.355    0.415   64.843    8.009
  370.000    0.356    0.412   65.465    8.015
  370.250    0.354    0.423   68.523    7.874
  370.500    0.351    0.421   70.971    7.734
  370.750    0.338    0.421   70.984    7.458
  371.000    0.328    0.416   70.993    7.462
  371.250    0.323    0.407   70.394    7.330
  371.500    0.319    0.404   72.846    7.337
  371.750    0.323    0.409   72.853    7.208
  372.000    0.334    0.421   71.645    7.215
  372.250    0.335    0.426   72.267    7.085
  372.500    0.327    0.423   72.887    7.092
  372.750    0.316    0.422   72.894    6.967
  373.000    0.329    0.424   72.296    6.973
  373.250    0.342    0.422   74.136    6.983
  373.500    0.338    0.413   73.536    6.986
  373.750    0.344    0.404   71.716    6.864
  374.000    0.340    0.417   69.288    6.869
  374.250    0.337    0.423   68.079    6.748
  374.500    0.333    0.412   71.141    6.754
  374.750    0.330    0.410   72.976    6.759
  375.000    0.346    0.396   73.600    6.768
  375.250    0.361    0.394   71.780    6.772
  375.500    0.350    0.406   71.787    6.908
  375.750    0.347    0.416   73.017    7.043
  376.000    0.356    0.423   73.028    7.184
  376.250    0.337    0.418   71.819    7.190
  376.500    0.334    0.410   71.219    7.197
  376.750    0.347    0.399   71.231    7.203
  377.000    0.336    0.392   70.633    7.076
  377.250    0.338    0.409   71.859    6.950
  377.500    0.349    0.423   73.091    6.956
  377.750    0.337    0.422   71.271    6.833
  378.000    0.334    0.414   69.453    6.841
  378.250    0.333    0.411   70.074    6.722
  378.500    0.338    0.413   73.743    6.727
  378.750    0.341    0.424   73.753    6.732
  379.000    0.337    0.438   75.591    6.739
  379.250    0.322    0.414   73.774    6.744
  379.500    0.316    0.412   72.564    6.749
  379.750    0.315    0.403   73.793    6.884
  380.000    0.304    0.401   74.412    7.022
  380.250    0.306    0.402   71.985    7.162
  380.500    0.315    0.391   70.166    7.304
  380.750    0.305    0.381   68.956    7.308
  381.000    0.316    0.375   71.408    7.453
  381.250    0.316    0.374   73.247    7.602
  381.500    0.323    0.375   73.255    7.611
  381.750    0.322    0.377   71.437    7.476
  382.000    0.322    0.383   69.007    7.343
  382.250    0.322    0.391   68.412    7.211
  382.500    0.316    0.397   70.248    7.086
  382.750    0.301    0.405   71.478    6.960
  383.000    0.316    0.413   70.878    6.838
  383.250    0.327    0.424   69.671    6.717
  383.500    0.325    0.427   69.681    6.720
  383.750    0.317    0.422   70.298    6.601
  384.000    0.328    0.420   73.970    6.486
  384.250    0.309    0.410   76.419    6.492
  384.500    0.307    0.402   78.259    6.375
  384.750    0.301    0.399   78.877    6.265
  385.000    0.311    0.415   78.278    6.153
  385.250    0.307    0.449   75.850    6.043
  385.500    0.317    0.460   73.424    6.049
  385.750    0.331    0.455   73.432    6.054
  386.000    0.342    0.451   73.442    6.061
  386.250    0.339    0.444   76.502    6.067
  386.500    0.345    0.433   78.339    6.070
  386.750    0.343    0.425   74.691    6.078
  387.000    0.329    0.425   72.875    6.083
  387.250    0.327    0.430   69.833    6.204
  387.500    0.319    0.425   71.674    6.209
  387.750    0.313    0.431   75.345    6.098
  388.000    0.313    0.441   77.184    6.219
  388.250    0.308    0.460   78.413    6.110
  388.500    0.307    0.470   77.204    6.349
  388.750    0.301    0.470   75.993    6.476
  389.000    0.292    0.456   74.785    6.604
  389.250    0.308    0.448   74.794    6.609
  389.500    0.295    0.443   74.805    6.618
  389.750    0.290    0.427   76.644    6.498
  390.000    0.291    0.422   80.315    6.505
  390.250    0.295    0.422   83.984    6.390
  390.500    0.279    0.428   84.602    6.396
  390.750    0.285    0.434   82.173    6.283
  391.000    0.284    0.438   82.186    6.172
  391.250    0.268    0.442   85.855    6.177
  391.500    0.252    0.440   85.865    6.182
  391.750    0.247    0.439   84.654    5.961
  392.000    0.235    0.439   85.885    5.854
  392.250    0.233    0.434   85.285    5.644
  392.500    0.247    0.430   90.783    5.441
  392.750    0.242    0.423   98.111    5.148
  393.000    0.234    0.429  104.829    5.056
  393.250    0.232    0.437  108.497    5.061
  393.500    0.216    0.434  106.679    5.260
  393.750    0.203    0.418  101.203    5.568
  394.000    0.193    0.400   97.552    6.239
  394.250    0.167    0.394   92.686    6.605
  394.500    0.149    0.391   88.426    7.263
  394.750    0.127    0.360   83.559    7.547
  395.000    0.114    0.289   75.643    8.298
  395.250    0.113    0.253   68.945    8.954
  395.500    0.142    0.242   65.297    9.304
  395.750    0.152    0.293   65.916    9.491
  396.000    0.175    0.324   76.293    9.321
  396.250    0.184    0.386   89.109    8.655
  396.500    0.162    0.436   95.828    8.036
  396.750    0.166    0.411   97.057    7.746
  397.000    0.175    0.386   95.847    7.755
  397.250    0.182    0.379   94.638    7.762
  397.500    0.186    0.386   94.648    7.916
  397.750    0.199    0.404   95.269    8.072
  398.000    0.191    0.413   96.499    8.079
  398.250    0.188    0.417   94.678    8.396
  398.500    0.179    0.413   91.031    8.565
  398.750    0.166    0.415   89.212    8.735
