~VERSION INFORMATION
 VERS.                 2.0:   CWLS LOG ASCII STANDARD -VERSION 2.0
 WRAP.                  NO:   ONE LINE PER DEPTH STEP
~WELL INFORMATION BLOCK
#MNEM.UNIT           DATA                    DESCRIPTION OF MNEMONIC
#---------    -------------------            -------------------------------
# Generated from Intellog Unique Number	CS_73_76/WELL/1997
WELL.         06-31-076-12W4                 : Well_name    - WELL
LOC .         00/06-31-076-12W4/0            : Location     - LOCATION
UWI .         00/06-31-076-12W4/0            : Uwi          - UNIQUE WELL ID
ENTR.         SP                             : Entered      - ENTERED BY
SRVC.         SCHLUMBERGER                   : Scn          - SERVICE COMPANY
STRT.M        310.896                        : top_depth    - START DEPTH
STOP.M        545.396                        : bot_depth    - STOP DEPTH
STEP.M        0.25                           : increment    - STEP LENGTH
 NULL. -999.2500:NULL Value
~CURVE INFORMATION BLOCK
#MNEM UNIT       ERCB CURVE CODE    CURVE DESCRIPTION
#-----------   ------------------   ----------------------------------
DEPT.M        00 001 00 00         : DEPTH        - DEPTH
GR  .API      00 310 00 00         : GR           - GAMMA RAY
DPHI.V/V      00 890 00 00         : PHID         - DENSITY POROSITY (SANDSTONE)
NPHI.V/V      00 330 00 00         : PHIN         - NEUTRON POROSITY (SANDSTONE)
ILD .OHMM     00 120 00 00         : RESD         - DEEP RESISTIVITY (DIL)
~PARAMETER INFORMATION
#MNEM.UNIT           DATA             DESCRIPTION OF MNEMONIC
#---------         -----------     ------------------------------
GL  .M        698.998              : gl           - GROUND LEVEL ELEVATION
EREF.M        702.564              : kb           - ELEVATION OF DEPTH REFERENCE
DATM.M        698.998              : datum        - DATUM ELEVATION
TDD .M        547.726              : tdd          - TOTAL DEPTH DRILLER
RUN .         ONE                  : Run          - RUN NUMBER
ENG .         BILL                 : Engineer     - RECORDING ENGINEER
WIT .         JIM                  : Witness      - WITNESSED BY
MUD .         GEL                  : Mud_type     - MUD TYPE
MATR.         SANDSTONE            : Logunit      - NEUTRON MATRIX
TMAX.C        23.3333              : BHT          - MAXIMUM RECORDED TEMPERATURE
BHTD.M        547.726              : BHTDEP       - MAXIMUM RECORDED TEMPERATURE
MATR.         1                    : LOGUNIT      - NEUTRON MATRIX
RMT .C        25                   : MDTP         - TEMPERATURE OF MUD
NEUT.         1                    : NEUTRON      - NEUTRON TYPE
RESI.         0                    : RESIST       - RESISTIVITY TYPE
RMC .OHMM     0.25                 : RMC          - RESISTIVITY OF MUD CAKE
RMF .OHMM     0.25                 : RMF          - RESISTIVITY OF MUD FILTRATE
SUFT.C        15                   : SUFT         - SURFACE TEMPERATURE
~A  DEPTH       GR     PHID     PHIN     RESD
# ...
  354.396  101.106    0.246    0.557    6.536
  354.646   96.404    0.268    0.576    7.413
  354.896   86.225    0.295    0.529    8.726
  355.146   76.320    0.320    0.501    9.883
  355.396   62.078    0.300    0.508   10.970
  355.646   54.266    0.310    0.504   11.619
  355.896   49.755    0.304    0.468   11.903
  356.146   54.582    0.321    0.456   10.666
  356.396   59.391    0.332    0.463    9.751
  356.646   64.745    0.338    0.533    8.544
  356.896   67.194    0.331    0.606    7.916
  357.146   66.814    0.328    0.589    8.041
  357.396   64.699    0.320    0.562    9.023
  357.646   61.472    0.332    0.534   10.334
  357.896   61.496    0.328    0.502   11.799
  358.146   62.511    0.321    0.485   12.927
  358.396   62.928    0.320    0.487   14.276
  358.646   63.252    0.331    0.496   14.661
  358.896   63.681    0.337    0.509   14.917
  359.146   64.669    0.331    0.505   14.943
  359.396   65.713    0.343    0.498   14.615
  359.646   64.530    0.344    0.497   14.660
  359.896   62.569    0.350    0.495   14.343
  360.146   59.985    0.344    0.487   14.364
  360.396   61.994    0.343    0.501   14.367
  360.646   65.484    0.332    0.506   14.467
  360.896   67.339    0.325    0.505   14.611
  361.146   68.638    0.336    0.496   14.641
  361.396   65.922    0.335    0.485   14.314
  361.646   63.633    0.328    0.480   14.336
  361.896   63.691    0.342    0.491   14.161
  362.146   65.871    0.349    0.477   14.074
  362.396   67.890    0.344    0.486   14.060
  362.646   64.233    0.356    0.501   13.938
  362.896   62.053    0.361    0.518   13.520
  363.146   62.702    0.343    0.531   13.763
  363.396   64.157    0.334    0.528   13.783
  363.646   64.757    0.326    0.509   13.790
  363.896   64.818    0.337    0.490   13.581
  364.146   63.800    0.330    0.479   13.525
  364.396   60.453    0.343    0.493   13.514
  364.646   59.863    0.340    0.502   13.253
  364.896   62.309    0.335    0.498   13.259
  365.146   64.129    0.336    0.504   13.268
  365.396   65.109    0.355    0.478   12.997
  365.646   66.109    0.370    0.467   13.023
  365.896   66.509    0.370    0.464   12.790
  366.146   67.428    0.363    0.467   12.671
  366.396   68.329    0.359    0.474   12.263
  366.646   68.835    0.356    0.463   12.059
  366.896   67.789    0.355    0.478   11.879
  367.146   65.782    0.353    0.490   11.627
  367.396   64.607    0.355    0.500   11.410
  367.646   65.723    0.360    0.502   11.475
  367.896   67.084    0.354    0.494   11.840
  368.146   68.711    0.358    0.497   12.568
  368.396   69.664    0.347    0.490   13.295
  368.646   70.091    0.344    0.481   13.669
  368.896   69.214    0.349    0.500   13.808
  369.146   67.728    0.345    0.497   13.659
  369.396   69.836    0.352    0.521   13.208
  369.646   70.616    0.352    0.553   13.188
  369.896   68.305    0.354    0.544   13.179
  370.146   69.823    0.354    0.518   13.172
  370.396   72.190    0.330    0.497   13.148
  370.646   73.031    0.332    0.503   13.415
  370.896   70.915    0.325    0.507   13.421
  371.146   71.700    0.330    0.507   13.069
  371.396   68.873    0.322    0.520   12.687
  371.646   67.939    0.323    0.528   12.432
  371.896   69.428    0.329    0.512   12.452
  372.146   70.786    0.324    0.513   12.226
  372.396   65.675    0.315    0.507   12.070
  372.646   62.170    0.304    0.486   12.218
  372.896   64.496    0.280    0.470   12.373
  373.146   66.329    0.277    0.583   12.774
  373.396   68.265    0.318    0.573   12.889
  373.646   70.004    0.312    0.562   13.313
  373.896   67.429    0.312    0.566   13.346
  374.146   68.151    0.305    0.562   13.346
  374.396   69.032    0.318    0.550   13.371
  374.646   69.438    0.327    0.558   13.087
  374.896   66.301    0.336    0.537   12.863
  375.146   67.832    0.336    0.524   12.738
  375.396   69.244    0.329    0.513   12.336
  375.646   67.021    0.330    0.518   11.968
  375.896   65.927    0.340    0.523   11.684
  376.146   66.454    0.334    0.523   11.662
  376.396   67.688    0.343    0.525   11.265
  376.646   65.326    0.336    0.518   11.279
  376.896   64.497    0.350    0.535   11.279
  377.146   66.170    0.352    0.531   11.124
  377.396   67.396    0.345    0.521   11.066
  377.646   66.301    0.336    0.507   11.064
  377.896   63.963    0.349    0.539   10.834
  378.146   63.853    0.360    0.557   10.807
  378.396   66.667    0.369    0.545   10.649
  378.646   66.574    0.364    0.533   10.663
  378.896   69.662    0.356    0.517   10.415
  379.146   71.146    0.354    0.507   10.109
  379.396   69.410    0.360    0.509    9.877
  379.646   69.169    0.365    0.522    9.897
  379.896   69.061    0.356    0.529   10.055
  380.146   75.450    0.359    0.508   10.268
  380.396   77.032    0.357    0.498   10.243
  380.646   78.425    0.351    0.502   10.722
  380.896   77.691    0.358    0.511   10.927
  381.146   72.982    0.364    0.520   12.236
  381.396   68.244    0.357    0.525   13.732
  381.646   67.289    0.355    0.528   14.407
  381.896   67.894    0.351    0.418   16.025
  382.146   67.928    0.341    0.371   17.792
  382.396   67.913    0.345    0.331   18.402
  382.646   66.316    0.335    0.310   17.434
  382.896   67.558    0.321    0.332   14.839
  383.146   69.208    0.338    0.397   13.629
  383.396   71.507    0.356    0.469   12.572
  383.646   70.485    0.359    0.572   12.042
  383.896   69.121    0.359    0.570   11.180
  384.146   67.322    0.361    0.586   10.420
  384.396   68.853    0.356    0.562   10.134
  384.646   70.783    0.354    0.576    9.838
  384.896   72.823    0.357    0.574    9.649
  385.146   74.134    0.346    0.582    9.479
  385.396   74.153    0.343    0.584    9.473
  385.646   72.143    0.355    0.567    9.652
  385.896   70.204    0.360    0.568    9.625
  386.146   70.618    0.367    0.580    9.619
  386.396   72.070    0.359    0.593    9.602
  386.646   73.278    0.348    0.598    9.795
  386.896   74.670    0.341    0.604    9.790
  387.146   74.705    0.348    0.599    9.837
  387.396   70.296    0.357    0.605    9.965
  387.646   71.430    0.353    0.605    9.962
  387.896   74.782    0.351    0.591    9.959
  388.146   74.030    0.359    0.571    9.941
  388.396   71.577    0.350    0.573   10.143
  388.646   72.454    0.346    0.574    9.808
  388.896   76.750    0.350    0.546    8.686
  389.146   78.653    0.351    0.522    7.369
  389.396   81.719    0.346    0.540    6.723
  389.646   85.200    0.320    0.559    6.237
  389.896   89.518    0.296    0.581    5.940
  390.146   88.766    0.291    0.598    5.729
  390.396   85.688    0.300    0.576    5.622
  390.646   86.642    0.314    0.538    5.641
  390.896   87.244    0.301    0.526    5.822
  391.146   85.796    0.275    0.525    6.047
  391.396   89.802    0.277    0.538    6.413
  391.646   87.127    0.281    0.529    7.170
  391.896   84.470    0.290    0.535    7.786
  392.146   87.172    0.305    0.548    8.430
  392.396   85.403    0.319    0.553    8.833
  392.646   80.959    0.328    0.563    9.058
  392.896   78.460    0.327    0.576    8.858
  393.146   78.978    0.322    0.577    8.778
  393.396   79.354    0.326    0.555    8.321
  393.646   81.986    0.319    0.551    7.947
  393.896   86.312    0.312    0.541    7.356
  394.146   88.356    0.290    0.531    6.633
  394.396   90.761    0.271    0.529    6.281
  394.646   94.787    0.255    0.534    5.848
  394.896   97.306    0.238    0.563    5.432
  395.146   99.226    0.225    0.578    5.042
  395.396   99.872    0.218    0.567    4.777
  395.646   98.811    0.211    0.553    4.642
  395.896   97.086    0.216    0.552    4.503
  396.146  100.202    0.212    0.566    4.362
  396.396  103.030    0.217    0.562    4.316
  396.646  104.090    0.226    0.593    4.185
  396.896  103.441    0.234    0.597    4.056
  397.146  101.891    0.240    0.601    4.010
  397.396   99.551    0.228    0.601    3.925
  397.646   98.247    0.210    0.591    3.920
