~VERSION INFORMATION
 VERS.                 2.0:   CWLS LOG ASCII STANDARD -VERSION 2.0
 WRAP.                  NO:   ONE LINE PER DEPTH STEP
~WELL INFORMATION BLOCK
#MNEM.UNIT           DATA                    DESCRIPTION OF MNEMONIC
#---------    -------------------            -------------------------------
# Generated from Intellog Unique Number	CS_71_72/WELL/805
WELL.         PEX PHILLIPS AEC GRIST         : Well_name    - WELL
LOC .         00/07-09-072-08W4/0            : Location     - LOCATION
UWI .         00/07-09-072-08W4/0            : Uwi          - UNIQUE WELL ID
ENTR.         SP                             : Entered      - ENTERED BY
SRVC.         SCHLUMBERGER                   : Scn          - SERVICE COMPANY
STRT.M        315                            : top_depth    - START DEPTH
STOP.M        535                            : bot_depth    - STOP DEPTH
STEP.M        0.25                           : increment    - STEP LENGTH
 NULL. -999.2500:NULL Value
~CURVE INFORMATION BLOCK
#MNEM UNIT       ERCB CURVE CODE    CURVE DESCRIPTION
#-----------   ------------------   ----------------------------------
DEPT.M        00 001 00 00         : DEPTH        - DEPTH
ILD .OHMM     00 120 00 00         : RESD         - DEEP RESISTIVITY (DIL)
DPHI.V/V      00 890 00 00         : PHID         - DENSITY POROSITY (LIMESTONE)
NPHI.V/V      00 330 00 00         : PHIN         - NEUTRON POROSITY (LIMESTONE)
GR  .API      00 310 00 00         : GR           - GAMMA RAY
~PARAMETER INFORMATION
#MNEM.UNIT           DATA             DESCRIPTION OF MNEMONIC
#---------         -----------     ------------------------------
GL  .M        673.1                : gl           - GROUND LEVEL ELEVATION
EREF.M        676.9                : kb           - ELEVATION OF DEPTH REFERENCE
DATM.M        673.1                : datum        - DATUM ELEVATION
TDD .M        547                  : tdd          - TOTAL DEPTH DRILLER
RUN .         ONE                  : Run          - RUN NUMBER
ENG .         BILL                 : Engineer     - RECORDING ENGINEER
WIT .         JIM                  : Witness      - WITNESSED BY
MUD .         GEL                  : Mud_type     - MUD TYPE
MATR.         LIMESTONE            : Logunit      - NEUTRON MATRIX
TMAX.C        23                   : BHT          - MAXIMUM RECORDED TEMPERATURE
BHTD.M        547                  : BHTDEP       - MAXIMUM RECORDED TEMPERATURE
MATR.         1                    : LOGUNIT      - NEUTRON MATRIX
RMT .C        25                   : MDTP         - TEMPERATURE OF MUD
NEUT.         1                    : NEUTRON      - NEUTRON TYPE
RESI.         0                    : RESIST       - RESISTIVITY TYPE
RMC .OHMM     0.25                 : RMC          - RESISTIVITY OF MUD CAKE
RMF .OHMM     0.25                 : RMF          - RESISTIVITY OF MUD FILTRATE
SUFT.C        15                   : SUFT         - SURFACE TEMPERATURE
~A  DEPTH     RESD     PHID     PHIN       GR
# ...
  489.000   10.062    0.215    0.364   75.405
  489.250    9.345    0.182    0.388   72.385
  489.500    9.878    0.225    0.416   60.861
  489.750   11.035    0.259    0.367   52.379
  490.000   12.103    0.276    0.359   45.712
  490.250   13.031    0.299    0.365   41.474
  490.500   15.106    0.309    0.370   37.846
  490.750   17.511    0.315    0.378   43.937
  491.000   18.509    0.277    0.385   58.528
  491.250   18.509    0.250    0.362   64.009
  491.500   17.511    0.237    0.350   67.672
  491.750   16.264    0.233    0.358   66.470
  492.000   14.829    0.238    0.364   67.700
  492.250   13.274    0.236    0.370   69.540
  492.500   12.792    0.249    0.376   54.978
  492.750   13.031    0.267    0.386   47.708
  493.000   16.567    0.283    0.387   43.473
  493.250   25.809    0.304    0.387   34.987
  493.500   35.329    0.324    0.386   36.823
  493.750   40.205    0.327    0.380   41.090
  494.000   44.095    0.315    0.368   46.574
  494.250   44.917    0.310    0.372   49.015
  494.500   43.288    0.317    0.392   47.825
  494.750   40.205    0.311    0.403   46.625
  495.000   36.658    0.316    0.397   45.425
  495.250   34.682    0.325    0.392   45.435
  495.500   34.682    0.320    0.384   44.237
  495.750   31.623    0.310    0.379   43.037
  496.000   22.678    0.305    0.371   45.486
  496.250   18.509    0.298    0.359   49.752
  496.500   14.292    0.294    0.347   56.449
  496.750   11.450    0.299    0.358   61.932
  497.000    8.841    0.301    0.369   64.375
  497.250    7.627    0.297    0.375   63.784
  497.500    6.702    0.283    0.382   62.584
  497.750    6.225    0.277    0.360   60.776
  498.000    5.889    0.280    0.348   64.438
  498.250    6.111    0.269    0.340   67.491
  498.500    6.111    0.275    0.369   68.721
  498.750    6.225    0.284    0.378   68.739
  499.000    6.341    0.293    0.378   69.361
  499.250    6.459    0.291    0.372   69.981
  499.500    6.579    0.282    0.367   68.175
  499.750    6.702    0.271    0.367   65.766
  500.000    6.702    0.207    0.372   64.563
  500.250    6.827    0.126    0.343   68.224
  500.500    6.954    0.077    0.314   74.317
  500.750    6.954    0.166    0.339   79.797
  501.000    6.954    0.255    0.371   84.062
  501.250    6.954    0.274    0.390   90.758
  501.500    6.827    0.220    0.380   96.240
  501.750    6.702    0.195    0.373  101.113
  502.000    6.225    0.200    0.389  102.344
  502.250    6.111    0.224    0.406   95.679
  502.500    5.999    0.234    0.349   87.192
  502.750    6.111    0.195    0.316   92.676
  503.000    5.999    0.177    0.361   99.372
  503.250    5.999    0.176    0.386   98.782
  503.500    6.111    0.162    0.379   98.188
  503.750    6.341    0.205    0.396   93.345
  504.000    6.459    0.232    0.431   84.860
  504.250    6.702    0.197    0.472   79.418
  504.500    6.827    0.199    0.372   75.180
  504.750    6.954    0.231    0.334   72.761
  505.000    6.702    0.249    0.334   66.703
  505.250    6.225    0.255    0.340   66.114
  505.500    5.781    0.256    0.336   67.346
  505.750    5.676    0.295    0.333   64.931
  506.000    5.889    0.398    0.359   61.299
  506.250    6.111    0.465    0.522   64.961
  506.500    6.341    0.281    0.585   74.085
  506.750    6.702    0.165    0.352   85.034
  507.000    7.216    0.143    0.328   91.731
  507.250    7.350    0.155    0.331   92.354
  507.500    7.216    0.180    0.343   86.304
  507.750    7.084    0.188    0.355   84.491
  508.000    6.954    0.186    0.337   81.468
  508.250    6.702    0.195    0.337   77.240
  508.500    6.579    0.211    0.348   76.034
  508.750    6.459    0.214    0.354   72.412
  509.000    6.459    0.225    0.350   71.208
  509.250    6.341    0.220    0.338   71.832
  509.500    6.341    0.217    0.335   71.846
  509.750    6.459    0.231    0.352   69.433
  510.000    6.459    0.231    0.348   68.849
  510.250    6.459    0.231    0.345   68.253
  510.500    6.579    0.233    0.338   67.665
  510.750    6.579    0.241    0.333   67.673
  511.000    6.827    0.235    0.328   69.511
  511.250    7.350    0.247    0.345   68.314
  511.500    7.769    0.268    0.366   62.863
  511.750    8.062    0.286    0.372   58.021
  512.000    8.212    0.302    0.379   52.571
  512.250    8.365    0.316    0.369   50.763
  512.500    6.827    0.314    0.358   52.601
  512.750    5.470    0.309    0.355   62.340
  513.000    4.632    0.308    0.350   67.209
  513.250    4.223    0.309    0.368   72.083
  513.500    3.780    0.306    0.374   62.999
  513.750    3.577    0.304    0.381   59.974
  514.000    3.384    0.302    0.380   58.170
  514.250    3.322    0.303    0.367   56.965
  514.500    3.261    0.306    0.361   66.701
  514.750    3.201    0.314    0.362   70.964
  515.000    3.143    0.318    0.362   61.263
  515.250    3.143    0.321    0.357   56.419
  515.500    3.085    0.319    0.356   61.297
  515.750    3.085    0.319    0.353   66.776
  516.000    3.085    0.322    0.354   71.044
  516.250    3.085    0.318    0.365   69.239
  516.500    3.029    0.318    0.377   74.116
  516.750    3.029    0.320    0.381   78.380
  517.000    3.029    0.322    0.382   81.432
  517.250    3.029    0.325    0.378   72.945
  517.500    3.029    0.328    0.385   64.459
  517.750    3.029    0.325    0.381   66.296
  518.000    2.973    0.320    0.371   65.711
  518.250    2.973    0.317    0.366   62.683
  518.500    2.973    0.314    0.382   66.345
  518.750    2.919    0.314    0.388   70.006
  519.000    2.866    0.319    0.378   68.199
  519.250    2.866    0.320    0.373   65.785
  519.500    2.813    0.321    0.364   62.767
  519.750    2.762    0.321    0.362   60.958
  520.000    2.762    0.321    0.377   59.760
  520.250    2.711    0.322    0.377   57.951
  520.500    2.711    0.332    0.368   50.072
  520.750    2.711    0.327    0.355   56.778
  521.000    2.711    0.321    0.348   58.606
  521.250    2.662    0.321    0.349   62.268
  521.500    2.613    0.330    0.358   62.893
  521.750    2.565    0.333    0.363   63.512
  522.000    2.565    0.334    0.370   57.459
  522.250    2.472    0.334    0.374   50.187
  522.500    2.472    0.333    0.360   44.733
  522.750    2.427    0.335    0.372   42.320
  523.000    2.382    0.337    0.381   44.164
  523.250    2.382    0.335    0.382   45.998
  523.500    2.339    0.332    0.377   44.801
  523.750    2.296    0.329    0.374   41.779
  524.000    2.254    0.324    0.379   40.578
  524.250    2.254    0.320    0.391   41.201
  524.500    2.254    0.315    0.392   43.647
  524.750    2.213    0.318    0.382   38.804
  525.000    2.172    0.328    0.370   33.971
  525.250    2.132    0.335    0.358   31.556
  525.500    2.132    0.339    0.357   29.742
  525.750    2.093    0.341    0.377   27.935
  526.000    2.093    0.343    0.396   29.775
  526.250    2.093    0.342    0.406   31.609
  526.500    2.093    0.329    0.404   35.273
  526.750    2.093    0.322    0.393   38.929
  527.000    2.093    0.316    0.383   45.028
  527.250    2.132    0.313    0.376   47.469
  527.500    2.132    0.312    0.376   48.694
  527.750    2.132    0.309    0.376   50.531
  528.000    2.296    0.318    0.376   41.439
  528.250    2.296    0.327    0.382   32.951
  528.500    2.172    0.331    0.386   29.938
  528.750    2.132    0.324    0.374   29.342
  529.000    2.055    0.316    0.369   29.356
  529.250    1.981    0.313    0.375   29.986
  529.500    2.055    0.326    0.379   29.996
  529.750    2.172    0.315    0.392   30.013
  530.000    2.172    0.321    0.399   28.816
  530.250    2.132    0.343    0.403   27.009
  530.500    2.055    0.350    0.398   25.808
  530.750    2.055    0.340    0.383   24.607
  531.000    2.055    0.307    0.373   24.625
  531.250    2.296    0.274    0.361   28.892
  531.500    2.662    0.244    0.354   33.764
  531.750    3.029    0.198    0.341   37.427
  532.000    4.632    0.175    0.244   34.406
  532.250    8.680   -0.001    0.185   26.525
