~VERSION INFORMATION
 VERS.                 2.0:   CWLS LOG ASCII STANDARD -VERSION 2.0
 WRAP.                  NO:   ONE LINE PER DEPTH STEP
~WELL INFORMATION BLOCK
#MNEM.UNIT           DATA                    DESCRIPTION OF MNEMONIC
#---------    -------------------            -------------------------------
# Generated from Intellog Unique Number	CW_70_72/WELL/3008
NULL.         -999.25                        : NULL_VALUE
WELL.         CHIEFCO ET AL RANCH 06-18      : Well_name    - WELL              
LOC .         06-18-070-26W4                 : Location     - LOCATION          
UWI .         00/06-18-070-26W4/0            : Uwi          - UNIQUE WELL ID    
ENTR.         J                              : Entered      - ENTERED BY        
SRVC.         SCHLUMBERGER                   : Scn          - SERVICE COMPANY   
DATE.         9 AUG 76                       : Date         - LOG DATE          
STRT.M        454.152                        : top_depth    - START DEPTH       
STOP.M        710.152                        : bot_depth    - STOP DEPTH        
STEP.M        0.25                           : increment    - STEP LENGTH       
~CURVE INFORMATION BLOCK
#MNEM UNIT       ERCB CURVE CODE    CURVE DESCRIPTION
#-----------   ------------------   ----------------------------------
DEPT.M        00 001 00 00         : DEPTH        - DEPTH                       
ILD .OHMM     00 120 00 00         : RESD         - DEEP RESISTIVITY (DIL)      
CALI.MM       00 280 01 00         : CAL          - CALIPER                     
GR  .API      00 310 00 00         : GR           - GAMMA RAY                   
NPHI.V/V      00 330 00 00         : PHIN         - NEUTRON POROSITY (SANDSTONE)
DPHI.V/V      00 890 00 00         : PHID         - DENSITY POROSITY (SANDSTONE)
~PARAMETER INFORMATION       
#MNEM.UNIT           DATA             DESCRIPTION OF MNEMONIC
#---------         -----------     ------------------------------
GL  .M        623.316              : gl           - GROUND LEVEL ELEVATION      
EREF.M        626.059              : kb           - ELEVATION OF DEPTH REFERENCE
DATM.M        623.316              : datum        - DATUM ELEVATION             
TDD .M        723.9                : tdd          - TOTAL DEPTH DRILLER         
RUN .         ONE                  : Run          - RUN NUMBER                  
ENG .         MUNRO/SEDGWICK       : Engineer     - RECORDING ENGINEER          
BASE.         EDM                  : Branch       - HOME BASE OF LOGGING UNIT   
MUD .         GEL                  : Mud_type     - MUD TYPE                    
MATR.         SANDSTONE            : Logunit      - NEUTRON MATRIX              
TMAX.C        28.3333              : BHT          - MAXIMUM RECORDED TEMPERATURE
BHTD.M        722.681              : BHTDEP       - MAXIMUM RECORDED TEMPERATURE
RMT .C        22.2222              : MDTP         - TEMPERATURE OF MUD          
MUDD.KG/M     1116                 : MWT          - MUD DENSITY                 
NEUT.         1                    : NEUTRON      - NEUTRON TYPE                
RESI.         0                    : RESIST       - RESISTIVITY TYPE            
RM  .OHMM     3.29                 : RM           - RESISTIVITY OF MUD          
RMC .OHMM     2.5                  : RMC          - RESISTIVITY OF MUD CAKE     
RMF .OHMM     3.04                 : RMF          - RESISTIVITY OF MUD FILTRATE 
SUFT.C        -17.7778             : SUFT         - SURFACE TEMPERATURE         
~A  DEPTH     RESD      CAL       GR     PHIN     PHID
# ...
  600.152    2.332  141.663   63.496    0.475    0.281
  600.402    2.232  141.243   61.719    0.454    0.293
  600.652    2.063  141.314   61.396    0.442    0.298
  600.902    1.997  141.381   61.554    0.440    0.298
  601.152    1.946  141.436   61.349    0.438    0.301
  601.402    1.901  141.398   59.448    0.439    0.310
  601.652    1.874  141.398   59.918    0.447    0.306
  601.902    1.867  141.543   61.474    0.464    0.297
  602.152    1.895  141.281   62.181    0.385    0.281
  602.402    1.963  141.281   60.585    0.349    0.258
  602.652    2.097  142.687   58.500    0.321    0.232
  602.902    2.389  143.551   56.233    0.294    0.152
  603.152    2.619  145.670   54.092    0.282    0.103
  603.402    2.768  147.893   54.857    0.278    0.068
  603.652    2.635  149.705   59.024    0.311    0.095
  603.902    2.247  147.410   65.495    0.423    0.177
  604.152    1.977  146.046   68.694    0.440    0.212
  604.402    1.781  145.081   68.666    0.427    0.265
  604.652    1.658  144.125   64.398    0.419    0.286
  604.902    1.708  143.475   61.472    0.417    0.287
  605.152    1.772  143.030   61.202    0.420    0.282
  605.402    1.887  142.997   60.521    0.424    0.285
  605.652    2.064  142.967   62.443    0.419    0.272
  605.902    2.210  142.615   65.876    0.398    0.242
  606.152    2.318  142.786   70.284    0.425    0.224
  606.402    2.195  142.654   71.716    0.453    0.249
  606.652    2.018  142.833   70.421    0.465    0.262
  606.902    1.917  142.580   70.403    0.462    0.276
  607.152    1.818  142.651   71.957    0.439    0.289
  607.402    1.845  142.814   72.179    0.429    0.273
  607.652    1.954  143.204   70.102    0.427    0.265
  607.902    2.142  143.676   67.164    0.419    0.278
  608.152    2.214  143.340   63.450    0.376    0.234
  608.402    2.235  142.996   60.938    0.328    0.185
  608.652    2.147  142.965   66.867    0.377    0.215
  608.902    2.007  142.813   70.603    0.415    0.248
  609.152    1.831  142.777   73.796    0.428    0.273
  609.402    1.849  142.648   75.051    0.427    0.269
  609.652    1.954  144.705   73.856    0.428    0.278
  609.902    1.925  144.039   75.505    0.428    0.283
  610.152    2.020  143.458   78.972    0.438    0.284
  610.402    2.117  143.287   76.696    0.448    0.275
  610.652    2.210  142.904   75.148    0.449    0.265
  610.902    2.244  142.848   79.037    0.443    0.260
  611.152    2.245  142.679   81.958    0.456    0.255
  611.402    2.210  142.713   81.615    0.453    0.243
  611.652    2.168  143.053   81.877    0.439    0.260
  611.902    2.107  142.982   80.933    0.434    0.272
  612.152    2.043  143.119   75.515    0.444    0.280
  612.402    2.016  143.564   74.445    0.432    0.282
  612.652    2.032  144.414   76.222    0.425    0.279
  612.902    2.101  145.062   77.388    0.445    0.272
  613.152    2.259  144.897   78.981    0.464    0.262
  613.402    2.354  144.519   81.299    0.458    0.248
  613.652    2.368  144.350   83.072    0.430    0.258
  613.902    2.370  143.981   83.397    0.419    0.272
  614.152    2.367  143.707   76.044    0.437    0.276
  614.402    2.383  143.437   73.163    0.443    0.263
  614.652    2.401  142.965   75.781    0.431    0.247
  614.902    2.448  142.790   78.106    0.415    0.234
  615.152    2.508  143.129   78.063    0.401    0.236
  615.402    2.614  142.968   76.148    0.393    0.239
  615.652    2.778  142.795   75.205    0.399    0.224
  615.902    2.900  142.621   78.001    0.386    0.205
  616.152    2.897  142.658   77.116    0.407    0.203
  616.402    2.873  142.285   79.372    0.419    0.221
  616.652    2.844  142.016   79.999    0.406    0.225
  616.902    2.820  141.947   78.872    0.388    0.213
  617.152    2.812  142.390   78.772    0.376    0.199
  617.402    2.840  143.864   82.176    0.380    0.190
  617.652    2.889  145.128   86.671    0.388    0.216
  617.902    2.983  146.182   89.228    0.393    0.201
  618.152    3.074  147.035   93.179    0.384    0.187
  618.402    3.167  148.306   92.778    0.364    0.175
  618.652    3.355  149.054   95.818    0.354    0.161
  618.902    3.680  149.297   98.135    0.350    0.176
  619.152    3.912  149.326   93.688    0.355    0.169
  619.402    4.346  149.155   86.458    0.360    0.150
  619.652    4.792  148.995   80.794    0.364    0.123
  619.902    5.324  149.328   72.658    0.353    0.083
  620.152    5.893  149.777   65.786    0.307    0.060
  620.402    6.404  150.121   57.409    0.340    0.082
  620.652    6.846  150.767   62.443    0.317    0.084
  620.902    6.875  151.723   68.208    0.304    0.084
  621.152    6.383  152.477   69.680    0.339    0.118
  621.402    5.914  152.817   67.159    0.329    0.107
  621.652    5.332  153.262   75.704    0.339    0.100
  621.902    4.720  153.201   84.305    0.360    0.118
  622.152    4.216  152.946   91.276    0.374    0.130
  622.402    3.794  152.961   98.186    0.388    0.147
  622.652    3.458  153.404   92.406    0.395    0.161
  622.902    3.330  153.138   96.958    0.393    0.157
  623.152    3.357  153.376   95.955    0.393    0.144
  623.402    3.384  153.098   92.228    0.401    0.156
  623.652    3.507  150.985   87.355    0.414    0.170
  623.902    3.634  149.795   86.768    0.399    0.171
  624.152    3.793  149.214   88.421    0.370    0.135
  624.402    3.873  148.945   90.617    0.372    0.137
  624.652    3.791  148.465   91.061    0.391    0.154
  624.902    3.638  148.706   91.928    0.397    0.172
  625.152    3.510  150.175   93.278    0.393    0.171
  625.402    3.480  150.618   96.323    0.404    0.176
  625.652    3.489  150.146   99.971    0.415    0.165
  625.902    3.492  149.769  102.287    0.420    0.161
  626.152    3.546  149.295  100.864    0.422    0.162
  626.402    3.621  149.126   98.884    0.424    0.172
  626.652    3.697  149.157   96.850    0.424    0.178
  626.902    3.741  149.305   96.033    0.416    0.162
  627.152    3.792  149.646   96.772    0.391    0.160
  627.402    3.822  149.475   99.210    0.393    0.160
  627.652    3.847  149.102   98.203    0.412    0.165
  627.902    3.878  148.115   97.808    0.423    0.158
  628.152    3.909  147.224   99.332    0.400    0.159
  628.402    3.984  146.645  100.444    0.409    0.167
  628.652    4.099  146.175   97.261    0.413    0.172
  628.902    4.154  146.202   94.681    0.410    0.142
  629.152    4.243  147.267   94.580    0.385    0.111
  629.402    4.253  148.429   96.294    0.382    0.121
  629.652    4.249  149.792   93.476    0.389    0.130
  629.902    4.252  151.362   92.349    0.373    0.135
  630.152    4.255  151.905   93.578    0.383    0.142
  630.402    4.235  151.230   96.137    0.390    0.152
  630.652    4.246  150.348   99.421    0.394    0.167
  630.902    4.241  149.361  102.764    0.392    0.162
  631.152    4.237  148.772   97.833    0.389    0.147
  631.402    4.240  148.808   95.435    0.371    0.127
  631.652    4.220  149.149   95.333    0.368    0.140
  631.902    4.207  150.419   97.590    0.383    0.151
  632.152    4.165  151.784  100.213    0.379    0.153
  632.402    4.055  153.455  102.108    0.370    0.148
  632.652    3.963  155.540  106.961    0.373    0.145
  632.902    3.914  156.699  111.634    0.387    0.146
  633.152    3.840  157.138  117.699    0.423    0.155
  633.402    3.821  156.768  113.129    0.440    0.163
  633.652    3.945  155.575  106.021    0.392    0.157
  633.902    4.148  152.752   98.788    0.366    0.147
  634.152    4.474  150.635   93.790    0.364    0.139
  634.402    4.907  149.141   89.519    0.354    0.136
  634.652    4.289  149.676   96.008    0.359    0.152
  634.902    3.168  152.475   98.990    0.383    0.177
  635.152    2.902  156.296  102.095    0.438    0.225
  635.402    2.531  160.222  102.235    0.479    0.254
  635.652    2.015  176.734   99.172    0.497    0.273
  635.902    1.773  167.766   97.199    0.460    0.279
  636.152    1.631  161.145   97.945    0.482    0.265
  636.402    1.681  169.266  100.323    0.518    0.242
