~VERSION INFORMATION
 VERS.                 2.0:   CWLS LOG ASCII STANDARD -VERSION 2.0
 WRAP.                  NO:   ONE LINE PER DEPTH STEP
~WELL INFORMATION BLOCK
#MNEM.UNIT           DATA                    DESCRIPTION OF MNEMONIC
#---------    -------------------            -------------------------------
# Generated from Intellog Unique Number	CX_WELLS/WELL/1070
WELL.         07-19-088-18W4                 : Well_name    - WELL
LOC .         00/07-19-088-18W4/0            : Location     - LOCATION
UWI .         00/07-19-088-18W400            : Uwi          - UNIQUE WELL ID
ENTR.         DW                             : Entered      - ENTERED BY
SRVC.         SCHLUMBERGER                   : Scn          - SERVICE COMPANY
STRT.M        25                             : top_depth    - START DEPTH
STOP.M        173                            : bot_depth    - STOP DEPTH
STEP.M        0.25                           : increment    - STEP LENGTH
 NULL. -999.2500:NULL Value
~CURVE INFORMATION BLOCK
#MNEM UNIT       ERCB CURVE CODE    CURVE DESCRIPTION
#-----------   ------------------   ----------------------------------
DEPT.M        00 001 00 00         : DEPTH        - DEPTH
GR  .API      00 310 00 00         : GR           - GAMMA RAY
NPHI.V/V      00 330 00 00         : PHIN         - NEUTRON POROSITY (SANDSTONE)
DPHI.V/V      00 890 00 00         : PHID         - DENSITY POROSITY (SANDSTONE)
ILD .OHMM     00 120 00 00         : RESD         - DEEP RESISTIVITY (DIL)
~PARAMETER INFORMATION
#MNEM.UNIT           DATA             DESCRIPTION OF MNEMONIC
#---------         -----------     ------------------------------
GL  .M        512.14               : gl           - GROUND LEVEL ELEVATION
EREF.M        515.64               : kb           - ELEVATION OF DEPTH REFERENCE
DATM.M        515.64               : datum        - DATUM ELEVATION
TDD .M        175                  : tdd          - TOTAL DEPTH DRILLER
RUN .         ONE                  : Run          - RUN NUMBER
ENG .         BILL                 : Engineer     - RECORDING ENGINEER
WIT .         JIM                  : Witness      - WITNESSED BY
MUD .         GEL                  : Mud_type     - MUD TYPE
MATR.         SANDSTONE            : Logunit      - NEUTRON MATRIX
TMAX.C        17                   : BHT          - MAXIMUM RECORDED TEMPERATURE
BHTD.M        234                  : BHTDEP       - MAXIMUM RECORDED TEMPERATURE
MATR.         1                    : LOGUNIT      - NEUTRON MATRIX
RMT .C        25                   : MDTP         - TEMPERATURE OF MUD
NEUT.         1                    : NEUTRON      - NEUTRON TYPE
RESI.         0                    : RESIST       - RESISTIVITY TYPE
RMC .OHMM     0.25                 : RMC          - RESISTIVITY OF MUD CAKE
RMF .OHMM     0.25                 : RMF          - RESISTIVITY OF MUD FILTRATE
SUFT.C        15                   : SUFT         - SURFACE TEMPERATURE
~A  DEPTH       GR     PHIN     PHID     RESD
# ...
  112.000  104.424    0.473    0.184    5.987
  112.250  104.499    0.485    0.174    6.233
  112.500  105.171    0.500    0.173    6.242
  112.750  107.057    0.505    0.181    6.500
  113.000  108.326    0.475    0.190    6.509
  113.250  107.804    0.464    0.193    6.518
  113.500  107.281    0.432    0.191    6.534
  113.750  106.759    0.463    0.180    6.546
  114.000  106.834    0.478    0.183    6.556
  114.250  106.890    0.484    0.184    6.452
  114.500  108.757    0.468    0.188    6.464
  114.750  110.046    0.467    0.189    6.473
  115.000  111.315    0.470    0.185    6.486
  115.250  110.830    0.476    0.182    6.621
  115.500  109.673    0.484    0.181    6.760
  115.750  107.359    0.491    0.178    7.042
  116.000  106.855    0.501    0.178    7.052
  116.250  106.911    0.506    0.177    7.058
  116.500  107.602    0.502    0.175    7.075
  116.750  107.677    0.476    0.178    7.089
  117.000  107.733    0.456    0.181    6.588
  117.250  106.613    0.458    0.186    5.788
  117.500  104.896    0.500    0.187    4.992
  117.750  104.374    0.485    0.187    4.556
  118.000  104.468    0.464    0.190    4.314
  118.250  104.543    0.473    0.195    4.161
  118.500  104.618    0.484    0.207    4.017
  118.750  105.290    0.469    0.222    3.801
  119.000  105.981    0.477    0.231    3.670
  119.250  104.861    0.473    0.234    3.608
  119.500  103.144    0.474    0.239    3.548
  119.750  102.024    0.482    0.245    3.555
  120.000  101.502    0.547    0.249    3.563
  120.250   99.785    0.518    0.256    3.568
  120.500   98.068    0.497    0.261    3.578
  120.750   97.527    0.485    0.267    3.582
  121.000   97.004    0.508    0.267    3.589
  121.250   95.287    0.516    0.260    3.665
  121.500   94.186    0.517    0.234    3.670
  121.750   94.261    0.492    0.204    3.751
  122.000   94.952    0.482    0.185    3.756
  122.250   95.587    0.486    0.194    3.833
  122.500   95.681    0.516    0.213    3.915
  122.750   95.177    0.526    0.230    3.996
  123.000   94.636    0.554    0.249    4.240
  123.250   93.535    0.550    0.262    4.325
  123.500   93.572    0.498    0.266    4.584
  123.750   93.069    0.496    0.267    5.047
  124.000   92.565    0.509    0.270    5.451
  124.250   92.024    0.511    0.271    6.470
  124.500   90.904    0.473    0.268    7.124
  124.750   89.206    0.475    0.257    7.403
  125.000   88.086    0.472    0.230    8.632
  125.250   86.948    0.468    0.206    9.145
  125.500   84.633    0.464    0.182    9.509
  125.750   79.929    0.457    0.190   10.084
  126.000   77.615    0.473    0.200   10.490
  126.250   75.898    0.509    0.223   10.912
  126.500   74.778    0.479    0.232   11.145
  126.750   74.872    0.451    0.251   10.953
  127.000   74.928    0.447    0.266   10.770
  127.250   75.619    0.457    0.267   10.393
  127.500   76.272    0.447    0.269   10.034
  127.750   76.945    0.436    0.270   10.048
  128.000   77.617    0.437    0.265   10.067
  128.250   78.308    0.442    0.258   10.282
  128.500   77.804    0.445    0.247   10.502
  128.750   77.263    0.456    0.236   10.919
  129.000   76.144    0.458    0.235   11.580
  129.250   74.427    0.447    0.238   12.046
  129.500   72.709    0.454    0.246   12.297
  129.750   70.992    0.456    0.259   12.804
  130.000   69.873    0.436    0.294   13.059
  130.250   69.948    0.417    0.273   13.097
  130.500   68.847    0.413    0.259   13.109
  130.750   68.305    0.444    0.265   13.147
  131.000   67.783    0.479    0.275   13.172
  131.250   66.085    0.498    0.291   13.190
  131.500   65.562    0.475    0.297   13.209
  131.750   65.040    0.461    0.293   13.247
  132.000   65.115    0.439    0.295   13.266
  132.250   65.171    0.442    0.296   13.297
  132.500   65.265    0.436    0.292   13.323
  132.750   65.321    0.424    0.278   13.348
  133.000   65.993    0.409    0.274   12.880
  133.250   66.068    0.410    0.274   12.198
  133.500   64.967    0.419    0.276   11.988
  133.750   63.866    0.432    0.278   11.358
  134.000   63.306    0.456    0.271   10.956
  134.250   63.419    0.474    0.262   10.577
  134.500   65.883    0.437    0.248   10.400
  134.750   68.926    0.419    0.229   10.036
  135.000   72.006    0.405    0.224    9.684
  135.250   72.081    0.408    0.220    9.005
  135.500   72.156    0.404    0.218    8.369
  135.750   73.463    0.391    0.218    7.778
  136.000   74.098    0.378    0.216    7.226
  136.250   76.581    0.385    0.219    6.594
  136.500   79.642    0.398    0.225    6.242
  136.750   82.723    0.411    0.227    5.693
  137.000   85.784    0.424    0.202    5.193
  137.250   88.230    0.437    0.161    4.650
  137.500   90.694    0.461    0.141    4.573
  137.750   93.177    0.470    0.152    4.757
  138.000   95.044    0.496    0.180    5.137
  138.250   96.911    0.515    0.204    5.445
  138.500   95.791    0.443    0.249    5.772
  138.750   88.717    0.408    0.240    6.352
  139.000   86.963    0.420    0.242    7.258
  139.250   84.051    0.453    0.252    7.988
  139.500   80.542    0.463    0.241    9.305
  139.750   75.259    0.429    0.232   10.444
  140.000   72.926    0.419    0.240   10.854
  140.250   69.436    0.423    0.261   11.291
  140.500   67.103    0.428    0.279   11.751
  140.750   64.826    0.455    0.292   11.773
  141.000   66.058    0.461    0.294   11.796
  141.250   69.157    0.493    0.279   11.171
  141.500   70.389    0.506    0.256   10.004
  141.750   71.715    0.517    0.230    9.294
  142.000   71.752    0.510    0.234    8.319
  142.250   73.022    0.441    0.254    7.732
  142.500   76.102    0.416    0.266    7.186
  142.750   79.761    0.421    0.261    6.805
  143.000   82.842    0.440    0.266    7.489
  143.250   80.508    0.471    0.272    8.089
  143.500   76.999    0.503    0.285    8.736
  143.750   74.666    0.504    0.290    9.992
  144.000   71.176    0.468    0.295   10.591
  144.250   68.264    0.472    0.301   10.611
  144.500   65.950    0.473    0.305   10.627
  144.750   63.635    0.479    0.306   10.454
  145.000   62.497    0.493    0.305    9.716
  145.250   60.780    0.495    0.298    8.535
  145.500   60.855    0.496    0.292    8.079
  145.750   65.148    0.502    0.288    7.655
  146.000   66.997    0.505    0.279    7.959
  146.250   67.669    0.495    0.259    8.776
  146.500   67.763    0.477    0.238    8.946
  146.750   67.819    0.458    0.220    9.483
  147.000   68.491    0.425    0.215   10.052
  147.250   69.761    0.393    0.217   10.861
  147.500   71.646    0.388    0.217   11.309
  147.750   74.111    0.387    0.211   11.320
  148.000   75.978    0.397    0.203   11.141
  148.250   77.863    0.416    0.187   10.949
  148.500   78.536    0.428    0.172   10.566
  148.750   79.805    0.411    0.154    9.825
  149.000   81.075    0.402    0.171    9.481
  149.250   82.344    0.407    0.191    9.490
  149.500   83.035    0.408    0.190    9.512
  149.750   83.110    0.410    0.181    9.711
  150.000   83.185    0.418    0.192    9.914
  150.250   82.066    0.428    0.208    9.571
  150.500   79.732    0.429    0.245    8.730
  150.750   78.015    0.414    0.256    8.110
  151.000   78.109    0.426    0.242    7.397
  151.250   77.587    0.450    0.239    6.747
  151.500   77.064    0.463    0.257    6.042
  151.750   76.542    0.456    0.262    5.828
  152.000   77.811    0.443    0.250    5.519
  152.250   86.268    0.437    0.229    5.430
  152.500   91.700    0.444    0.216    5.445
  152.750   99.559    0.454    0.206    5.448
  153.000  104.413    0.461    0.218    5.461
  153.250  108.688    0.472    0.217    5.471
  153.500  110.555    0.477    0.212    5.583
  153.750  108.837    0.471    0.206    5.816
  154.000  106.561    0.457    0.198    6.047
  154.250  105.422    0.442    0.192    6.290
  154.500  103.108    0.438    0.181    6.540
  154.750  101.988    0.439    0.175    7.067
  155.000  100.868    0.443    0.150    7.785
  155.250   99.170    0.450    0.137    8.090
