~VERSION INFORMATION
 VERS.                 2.0:   CWLS LOG ASCII STANDARD -VERSION 2.0
 WRAP.                  NO:   ONE LINE PER DEPTH STEP
~WELL INFORMATION BLOCK
#MNEM.UNIT           DATA                    DESCRIPTION OF MNEMONIC
#---------    -------------------            -------------------------------
# Generated from Intellog Unique Number	CS_67_68/WELL/2173
WELL.         06-34-067-02W4                 : Well_name    - WELL
LOC .         00/06-34-067-02W4/0            : Location     - LOCATION
UWI .         00/06-34-067-02W4/0            : Uwi          - UNIQUE WELL ID
ENTR.         SP                             : Entered      - ENTERED BY
SRVC.         SCHLUMBERGER                   : Scn          - SERVICE COMPANY
STRT.M        360                            : top_depth    - START DEPTH
STOP.M        615                            : bot_depth    - STOP DEPTH
STEP.M        0.25                           : increment    - STEP LENGTH
 NULL. -999.2500:NULL Value
~CURVE INFORMATION BLOCK
#MNEM UNIT       ERCB CURVE CODE    CURVE DESCRIPTION
#-----------   ------------------   ----------------------------------
DEPT.M        00 001 00 00         : DEPTH        - DEPTH
ILD .OHMM     00 120 00 00         : RESD         - DEEP RESISTIVITY (DIL)
DPHI.V/V      00 890 00 00         : PHID         - DENSITY POROSITY (LIMESTONE)
NPHI.V/V      00 330 00 00         : PHIN         - NEUTRON POROSITY (LIMESTONE)
GR  .API      00 310 00 00         : GR           - GAMMA RAY
CALI.MM       00 280 01 00         : CAL          - CALIPER
~PARAMETER INFORMATION
#MNEM.UNIT           DATA             DESCRIPTION OF MNEMONIC
#---------         -----------     ------------------------------
GL  .M        686.22               : gl           - GROUND LEVEL ELEVATION
EREF.M        689.57               : kb           - ELEVATION OF DEPTH REFERENCE
DATM.M        689.57               : datum        - DATUM ELEVATION
TDD .M        628                  : tdd          - TOTAL DEPTH DRILLER
RUN .         ONE                  : Run          - RUN NUMBER
ENG .         BILL                 : Engineer     - RECORDING ENGINEER
WIT .         JIM                  : Witness      - WITNESSED BY
MUD .         GEL                  : Mud_type     - MUD TYPE
MATR.         LIMESTONE            : Logunit      - NEUTRON MATRIX
TMAX.C        25                   : BHT          - MAXIMUM RECORDED TEMPERATURE
BHTD.M        627.2                : BHTDEP       - MAXIMUM RECORDED TEMPERATURE
MATR.         1                    : LOGUNIT      - NEUTRON MATRIX
RMT .C        25                   : MDTP         - TEMPERATURE OF MUD
NEUT.         1                    : NEUTRON      - NEUTRON TYPE
RESI.         0                    : RESIST       - RESISTIVITY TYPE
RMC .OHMM     0.25                 : RMC          - RESISTIVITY OF MUD CAKE
RMF .OHMM     0.25                 : RMF          - RESISTIVITY OF MUD FILTRATE
SUFT.C        15                   : SUFT         - SURFACE TEMPERATURE
~A  DEPTH     RESD     PHID     PHIN       GR      CAL
# ...
  396.500    8.488    0.278    0.462   99.389  162.679
  396.750    8.390    0.293    0.438   96.246  162.456
  397.000    8.497    0.280    0.429   97.339  161.926
  397.250    8.998    0.273    0.415   98.681  160.987
  397.500    9.583    0.277    0.398   94.186  160.353
  397.750   10.186    0.285    0.375   82.626  160.233
  398.000   10.337    0.290    0.362   77.518  159.806
  398.250   10.508    0.307    0.366   72.899  159.376
  398.500   10.426    0.337    0.375   64.964  159.256
  398.750   10.344    0.352    0.379   60.654  159.439
  399.000   10.283    0.360    0.396   60.213  159.631
  399.250   10.222    0.345    0.408   67.204  159.919
  399.500    9.990    0.339    0.400   72.659  160.106
  399.750    9.859    0.331    0.392   75.967  159.679
  400.000    9.547    0.327    0.387   76.571  158.944
  400.250    9.247    0.324    0.394   80.183  157.594
  400.500    8.757    0.324    0.398   84.902  156.758
  400.750    8.370    0.312    0.406   89.376  156.840
  401.000    8.122    0.305    0.422   93.602  157.642
  401.250    7.924    0.297    0.432   96.293  158.853
  401.500    7.877    0.289    0.430   98.186  159.653
  401.750    7.904    0.288    0.419   99.159  159.943
  402.000    7.945    0.289    0.411   97.980  160.025
  402.250    7.839    0.286    0.416   97.848  160.007
  402.500    7.522    0.270    0.423   97.837  159.681
  402.750    7.449    0.253    0.411   99.793  159.665
  403.000    7.729    0.245    0.405  102.237  159.647
  403.250    8.005    0.263    0.445  102.166  159.833
  403.500    8.244    0.283    0.439  100.311  159.198
  403.750    8.349    0.291    0.430   98.212  158.876
  404.000    8.393    0.278    0.444   96.543  157.832
  404.250    8.389    0.272    0.444   97.577  157.300
  404.500    8.340    0.275    0.432   99.838  156.976
  404.750    8.290    0.280    0.423  101.671  156.549
  405.000    8.119    0.285    0.414  102.642  156.532
  405.250    7.951    0.278    0.420  102.814  156.923
  405.500    7.904    0.272    0.434  102.558  157.209
  405.750    8.065    0.269    0.444  102.057  157.398
  406.000    8.321    0.284    0.434  101.430  157.482
  406.250    8.553    0.299    0.417  100.684  157.563
  406.500    8.825    0.308    0.405   96.618  157.549
  406.750    8.988    0.310    0.410  101.767  157.221
  407.000    9.001    0.312    0.435  105.749  156.897
  407.250    8.797    0.312    0.450  107.027  156.365
  407.500    8.714    0.310    0.444  107.508  156.350
  407.750    8.424    0.301    0.439  108.788  156.639
  408.000    8.127    0.290    0.439  109.760  157.027
  408.250    8.034    0.285    0.431  111.160  157.625
  408.500    7.972    0.281    0.416  109.738  158.325
  408.750    7.954    0.278    0.407  107.454  159.126
  409.000    8.085    0.278    0.403  114.507  159.107
  409.250    8.280    0.289    0.410  132.371  159.601
  409.500    8.449    0.294    0.404  181.500  159.481
  409.750    8.733    0.294    0.396  164.843  158.644
  410.000    8.845    0.293    0.388  146.036  157.704
  410.250    8.908    0.291    0.384  132.389  156.759
  410.500    8.954    0.295    0.406  134.651  156.232
  410.750    8.951    0.299    0.422  116.948  155.909
  411.000    8.815    0.309    0.431  108.830  155.584
  411.250    8.714    0.294    0.417  103.168  155.054
  411.500    8.598    0.287    0.411  104.631  155.035
  411.750    8.610    0.300    0.416  107.201  155.118
  412.000    8.591    0.310    0.410  104.180  155.614
  412.250    8.076    0.318    0.402  100.913  156.822
  412.500    7.099    0.303    0.404  103.297  158.237
  412.750    6.229    0.290    0.410  109.614  159.243
  413.000    5.757    0.280    0.424  115.745  160.659
  413.250    5.974    0.283    0.445  118.437  162.483
  413.500    6.245    0.285    0.456  117.750  165.639
  413.750    6.614    0.284    0.463  111.290  167.668
  414.000    7.004    0.277    0.437  104.214  167.958
  414.250    7.349    0.261    0.424   99.474  164.458
  414.500    7.710    0.243    0.421   95.962  161.676
  414.750    7.853    0.250    0.439   91.774  160.017
  415.000    8.058    0.262    0.454   93.421  159.283
  415.250    8.252    0.267    0.426   95.377  159.471
  415.500    8.326    0.259    0.392   92.602  160.170
  415.750    8.322    0.256    0.383   86.263  161.584
  416.000    8.182    0.280    0.392   85.822  162.693
  416.250    7.396    0.299    0.417   92.752  163.698
  416.500    6.965    0.306    0.436   98.025  163.475
  416.750    6.670    0.282    0.452  104.279  162.844
  417.000    6.484    0.263    0.464  103.285  163.848
  417.250    6.303    0.245    0.457   96.149  166.082
  417.500    6.230    0.247    0.452   96.260  167.805
  417.750    6.275    0.262    0.447   96.433  166.968
  418.000    6.402    0.275    0.437   96.117  166.437
  418.250    6.869    0.289    0.428   92.482  167.033
  418.500    7.303    0.300    0.422   86.634  166.197
  418.750    7.909    0.311    0.431   82.938  163.209
  419.000    8.314    0.309    0.445   85.752  160.323
  419.250    8.562    0.301    0.460   88.384  158.770
  419.500    8.687    0.299    0.449   91.383  157.725
  419.750    8.864    0.305    0.440   94.013  156.995
  420.000    8.944    0.310    0.442   87.797  156.567
  420.250    8.990    0.314    0.443   88.154  156.032
  420.500    9.020    0.309    0.428   89.864  155.916
  420.750    8.984    0.308    0.411   91.449  156.100
  421.000    8.847    0.316    0.392   87.202  156.081
  421.250    8.844    0.322    0.380   83.136  156.266
  421.500    9.041    0.320    0.385   85.153  156.252
  421.750    8.970    0.311    0.401   83.790  156.439
  422.000    8.802    0.299    0.412   85.498  156.415
  422.250    8.620    0.291    0.418   88.189  156.504
  422.500    8.505    0.284    0.426   89.593  156.998
  422.750    8.470    0.286    0.424   90.196  158.207
  423.000    8.546    0.296    0.415   89.571  158.601
  423.250    8.736    0.306    0.409   88.515  157.559
  423.500    9.148    0.311    0.413   84.144  156.104
  423.750    9.299    0.313    0.421   80.078  155.679
  424.000    9.297    0.317    0.428   79.086  155.763
  424.250    9.190    0.321    0.439   81.959  156.051
  424.500    9.085    0.325    0.444   83.363  156.238
  424.750    8.947    0.317    0.436   83.475  155.913
  425.000    8.713    0.309    0.431   83.340  155.788
  425.250    8.391    0.300    0.435   84.004  155.775
  425.500    8.172    0.292    0.436   85.223  155.756
  425.750    8.048    0.294    0.429   86.503  155.840
  426.000    8.135    0.305    0.425   87.536  156.026
  426.250    8.240    0.308    0.425   85.867  156.111
  426.500    8.453    0.308    0.434   82.293  156.298
  426.750    8.562    0.314    0.439   79.457  156.792
  427.000    8.736    0.323    0.437   83.070  157.797
  427.250    8.749    0.327    0.428   84.778  158.598
  427.500    8.680    0.329    0.424   84.705  159.293
  427.750    8.549    0.330    0.425   84.573  159.482
  428.000    8.126    0.320    0.429   86.956  159.666
  428.250    7.610    0.306    0.428   89.831  159.651
  428.500    7.329    0.290    0.429   92.709  159.732
  428.750    7.124    0.275    0.432   96.627  159.819
  429.000    6.977    0.264    0.435   99.260  160.006
  429.250    6.846    0.265    0.429   99.495  160.296
  429.500    6.767    0.271    0.425   95.184  161.093
  429.750    6.828    0.274    0.430   92.716  161.689
  430.000    6.941    0.272    0.426   94.424  161.879
  430.250    6.913    0.270    0.419   95.090  161.961
  430.500    6.757    0.284    0.413   94.158  161.941
  430.750    6.704    0.305    0.413   90.584  161.617
  431.000    6.714    0.316    0.408   87.008  160.781
  431.250    6.775    0.321    0.412   84.112  160.147
  431.500    6.951    0.318    0.422   81.153  159.518
  431.750    7.053    0.308    0.408   81.142  159.090
  432.000    7.277    0.293    0.393   81.192  158.968
  432.250    7.494    0.285    0.384   81.119  159.051
  432.500    7.661    0.286    0.379   81.049  159.031
  432.750    7.817    0.291    0.377   80.421  159.120
