~VERSION INFORMATION
 VERS.                 2.0:   CWLS LOG ASCII STANDARD -VERSION 2.0
 WRAP.                  NO:   ONE LINE PER DEPTH STEP
~WELL INFORMATION BLOCK
#MNEM.UNIT           DATA                    DESCRIPTION OF MNEMONIC
#---------    -------------------            -------------------------------
# Generated from Intellog Unique Number	CS_69_70/WELL/644
NULL.         -999.25                        : NULL_VALUE
WELL.         MAYNARD ENERGY                 : Well_name    - WELL              
LOC .         00/05-32-070-14W4/0            : Location     - LOCATION          
UWI .         00/05-32-070-14W4/0            : Uwi          - UNIQUE WELL ID    
ENTR.         SP                             : Entered      - ENTERED BY        
SRVC.         SCHLUMBERGER                   : Scn          - SERVICE COMPANY   
STRT.M        325                            : top_depth    - START DEPTH       
STOP.M        528                            : bot_depth    - STOP DEPTH        
STEP.M        0.25                           : increment    - STEP LENGTH       
~CURVE INFORMATION BLOCK
#MNEM UNIT       ERCB CURVE CODE    CURVE DESCRIPTION
#-----------   ------------------   ----------------------------------
DEPT.M        00 001 00 00         : DEPTH        - DEPTH                       
ILD .OHMM     00 120 00 00         : RESD         - DEEP RESISTIVITY (DIL)      
DPHI.V/V      00 890 00 00         : PHID         - DENSITY POROSITY (LIMESTONE)
NPHI.V/V      00 330 00 00         : PHIN         - NEUTRON POROSITY (LIMESTONE)
GR  .API      00 310 00 00         : GR           - GAMMA RAY                   
~PARAMETER INFORMATION       
#MNEM.UNIT           DATA             DESCRIPTION OF MNEMONIC
#---------         -----------     ------------------------------
GL  .M        631.3                : gl           - GROUND LEVEL ELEVATION      
EREF.M        634.74               : kb           - ELEVATION OF DEPTH REFERENCE
DATM.M        631.3                : datum        - DATUM ELEVATION             
TDD .M        536                  : tdd          - TOTAL DEPTH DRILLER         
RUN .         ONE                  : Run          - RUN NUMBER                  
ENG .         BILL                 : Engineer     - RECORDING ENGINEER          
WIT .         JIM                  : Witness      - WITNESSED BY                
MUD .         GEL                  : Mud_type     - MUD TYPE                    
MATR.         LIMESTONE            : Logunit      - NEUTRON MATRIX              
TMAX.C        25                   : BHT          - MAXIMUM RECORDED TEMPERATURE
BHTD.M        536                  : BHTDEP       - MAXIMUM RECORDED TEMPERATURE
MATR.         1                    : LOGUNIT      - NEUTRON MATRIX              
RMT .C        25                   : MDTP         - TEMPERATURE OF MUD          
NEUT.         1                    : NEUTRON      - NEUTRON TYPE                
RESI.         0                    : RESIST       - RESISTIVITY TYPE            
RMC .OHMM     0.25                 : RMC          - RESISTIVITY OF MUD CAKE     
RMF .OHMM     0.25                 : RMF          - RESISTIVITY OF MUD FILTRATE 
SUFT.C        15                   : SUFT         - SURFACE TEMPERATURE         
~A  DEPTH     RESD     PHID     PHIN       GR
  325.000    2.479    0.305    0.522  101.449
  325.250    2.593    0.308    0.513  102.899
  325.500    2.650    0.294    0.489  102.060
  325.750    2.837    0.265    0.475  104.294
  326.000    3.000    0.255    0.464  103.937
  326.250    3.106    0.259    0.482   98.761
  326.500    3.228    0.257    0.502   93.826
  326.750    3.301    0.237    0.467   91.300
  327.000    3.318    0.232    0.476   91.365
  327.250    3.319    0.247    0.505   93.177
  327.500    3.222    0.254    0.520   99.990
  327.750    3.117    0.271    0.524  103.247
  328.000    3.021    0.269    0.532  101.866
  328.250    2.940    0.264    0.538   96.028
  328.500    2.860    0.271    0.493   92.177
  328.750    2.861    0.271    0.466   95.615
  329.000    2.950    0.261    0.471   99.055
  329.250    3.113    0.251    0.480  101.107
  329.500    3.235    0.238    0.496  102.257
  329.750    3.300    0.238    0.465  100.936
  330.000    3.358    0.243    0.500   95.458
  330.250    3.350    0.233    0.536   92.572
  330.500    3.254    0.220    0.503   89.926
  330.750    3.173    0.209    0.471   90.292
  331.000    3.093    0.228    0.499   93.489
  331.250    3.191    0.236    0.531   92.230
  331.500    3.410    0.198    0.468   87.957
  331.750    3.556    0.179    0.430   84.527
  332.000    3.557    0.232    0.453   81.099
  332.250    3.460    0.297    0.473   85.501
  332.500    3.429    0.335    0.510   90.747
  332.750    3.486    0.364    0.605   90.691
  333.000    3.811    0.395    0.540   80.876
  333.250    4.143    0.357    0.377   68.592
  333.500    4.597    0.323    0.356   61.729
  333.750    5.060    0.283    0.358   65.589
  334.000    5.530    0.298    0.367   79.811
  334.250    5.798    0.280    0.380   84.334
  334.500    5.783    0.267    0.377   86.688
  334.750    5.564    0.263    0.367   89.043
  335.000    5.330    0.280    0.363   91.457
  335.250    5.225    0.296    0.366   95.259
  335.500    5.153    0.308    0.375   96.346
  335.750    5.097    0.302    0.400   98.338
  336.000    5.033    0.297    0.432  100.271
  336.250    4.936    0.301    0.446  100.276
  336.500    4.807    0.293    0.424  102.691
  336.750    4.670    0.299    0.420   91.731
  337.000    4.525    0.316    0.424   77.338
  337.250    4.404    0.337    0.394   63.125
  337.500    4.218    0.350    0.365   51.563
  337.750    4.008    0.357    0.351   43.556
  338.000    3.798    0.363    0.359   40.489
  338.250    3.588    0.346    0.366   43.686
  338.500    3.443    0.339    0.372   45.197
  338.750    3.306    0.335    0.387   47.250
  339.000    3.193    0.326    0.398   49.182
  339.250    3.210    0.306    0.395   54.669
  339.500    3.324    0.287    0.387   67.626
  339.750    3.495    0.270    0.387   78.414
  340.000    3.738    0.267    0.391   88.901
  340.250    4.047    0.265    0.373   91.195
  340.500    4.331    0.257    0.368   90.055
  340.750    4.591    0.247    0.377   88.313
  341.000    4.794    0.239    0.383   86.148
  341.250    5.094    0.233    0.375   87.177
  341.500    5.411    0.241    0.367   87.905
  341.750    5.581    0.266    0.368   87.850
  342.000    5.720    0.291    0.364   86.650
  342.250    5.874    0.306    0.362   82.980
  342.500    6.045    0.323    0.366   75.875
  342.750    6.224    0.330    0.356   65.157
  343.000    6.395    0.341    0.349   57.391
  343.250    6.509    0.352    0.342   60.287
  343.500    5.975    0.360    0.334   62.099
  343.750    5.441    0.366    0.339   63.430
  344.000    4.834    0.369    0.346   63.434
  344.250    4.373    0.361    0.350   59.583
  344.500    4.017    0.351    0.360   57.660
  344.750    3.726    0.343    0.369   56.761
  345.000    3.524    0.336    0.372   58.091
  345.250    3.395    0.331    0.380   59.603
  345.500    3.306    0.324    0.391   59.848
  345.750    3.258    0.319    0.399   58.527
  346.000    3.308    0.317    0.392   57.628
  346.250    3.365    0.317    0.384   58.898
  346.500    3.422    0.311    0.388   62.518
  346.750    3.479    0.303    0.407   67.344
  347.000    3.464    0.297    0.430   70.481
  347.250    3.464    0.295    0.430   72.412
  347.500    3.481    0.307    0.423   75.308
  347.750    3.668    0.311    0.446   75.312
  348.000    3.717    0.306    0.441   74.293
  348.250    3.823    0.284    0.444   74.057
  348.500    4.100    0.265    0.463   72.134
  348.750    4.149    0.256    0.478   67.621
  349.000    4.311    0.258    0.480   64.372
  349.250    4.393    0.294    0.470   65.220
  349.500    4.385    0.315    0.461   67.815
  349.750    4.248    0.322    0.454   72.218
  350.000    4.079    0.328    0.463   75.174
  350.250    3.933    0.332    0.491   77.950
  350.500    3.764    0.330    0.472   77.774
  350.750    3.692    0.326    0.443   77.177
  351.000    3.684    0.323    0.428   78.627
  351.250    3.814    0.318    0.416   81.945
  351.500    4.034    0.312    0.401   83.034
  351.750    4.196    0.306    0.401   80.147
  352.000    4.359    0.294    0.407   77.201
  352.250    4.505    0.292    0.411   75.880
  352.500    4.603    0.284    0.434   76.969
  352.750    4.652    0.280    0.462   79.204
  353.000    4.685    0.274    0.444   80.834
  353.250    4.686    0.268    0.427   84.272
  353.500    4.687    0.258    0.439   88.133
  353.750    4.639    0.246    0.470   91.391
  354.000    4.510    0.237    0.490   94.829
  354.250    4.356    0.229    0.497   97.484
  354.500    4.252    0.217    0.507  100.080
  354.750    4.236    0.222    0.509  101.289
  355.000    4.204    0.227    0.471  101.535
  355.250    4.140    0.232    0.453  104.311
  355.500    4.092    0.232    0.455  106.665
  355.750    4.174    0.230    0.460  105.886
  356.000    4.304    0.253    0.472  103.361
  356.250    4.442    0.264    0.459  105.173
  356.500    4.637    0.271    0.448  109.094
  356.750    4.921    0.267    0.435  110.906
  357.000    5.230    0.261    0.401  109.103
  357.250    5.530    0.261    0.386  105.795
  357.500    5.741    0.254    0.385  103.088
  357.750    5.880    0.253    0.399   99.298
  358.000    5.953    0.263    0.392   98.941
  358.250    5.929    0.267    0.391  100.151
  358.500    5.776    0.267    0.385  100.939
  358.750    5.558    0.278    0.384  101.124
  359.000    5.340    0.291    0.391   94.924
  359.250    5.122    0.301    0.397   85.230
  359.500    5.001    0.309    0.386   78.306
  359.750    4.945    0.308    0.375   78.251
  360.000    4.994    0.289    0.372   90.786
  360.250    5.246    0.271    0.382  100.670
  360.500    5.465    0.259    0.386  104.893
  360.750    5.547    0.252    0.388  106.825
  361.000    5.564    0.260    0.394  105.082
  361.250    5.515    0.283    0.410  102.256
  361.500    5.419    0.297    0.423  100.634
  361.750    5.484    0.286    0.422  101.000
  362.000    5.696    0.273    0.399  104.017
  362.250    5.866    0.259    0.377  107.877
  362.500    6.029    0.245    0.380  110.292
  362.750    6.167    0.232    0.384  111.622
  363.000    6.257    0.226    0.383  109.398
  363.250    6.274    0.226    0.381  105.728
  363.500    6.218    0.233    0.380  105.130
  363.750    5.935    0.226    0.379  108.689
  364.000    5.595    0.215    0.386  110.862
  364.250    5.255    0.203    0.404  107.252
  364.500    4.989    0.204    0.422  105.209
  364.750    4.779    0.232    0.453  108.226
  365.000    4.682    0.256    0.469  110.159
  365.250    4.829    0.242    0.464  111.187
  365.500    4.902    0.223    0.443  107.517
  365.750    4.862    0.211    0.439   99.871
  366.000    4.636    0.205    0.514   94.695
  366.250    4.572    0.241    0.540   93.615
  366.500    4.564    0.265    0.430   93.740
  366.750    4.613    0.279    0.396   94.228
  367.000    4.881    0.287    0.387   94.112
  367.250    5.044    0.301    0.401   91.405
  367.500    5.158    0.302    0.409   86.169
  367.750    5.183    0.295    0.411   81.535
  368.000    5.143    0.289    0.405   77.082
  368.250    5.014    0.286    0.396   81.002
