~VERSION INFORMATION
 VERS.                 2.0:   CWLS LOG ASCII STANDARD -VERSION 2.0
 WRAP.                  NO:   ONE LINE PER DEPTH STEP
~WELL INFORMATION BLOCK
#MNEM.UNIT           DATA                    DESCRIPTION OF MNEMONIC
#---------    -------------------            -------------------------------
# Generated from Intellog Unique Number	CW_79_81/WELL/2459
WELL.         07-20-081-22W4                 : Well_name    - WELL
LOC .         00/07-20-081-22W4/0            : Location     - LOCATION
UWI .         00/07-20-081-22W4/0            : Uwi          - UNIQUE WELL ID
ENTR.         MAX                            : Entered      - ENTERED BY
SRVC.         SCHLUMBERGER                   : Scn          - SERVICE COMPANY
STRT.M        225                            : top_depth    - START DEPTH
STOP.M        439.75                         : bot_depth    - STOP DEPTH
STEP.M        0.25                           : increment    - STEP LENGTH
 NULL. -999.2500:NULL Value
~CURVE INFORMATION BLOCK
#MNEM UNIT       ERCB CURVE CODE    CURVE DESCRIPTION
#-----------   ------------------   ----------------------------------
DEPT.M        00 001 00 00         : DEPTH        - DEPTH
ILD .OHMM     00 120 00 00         : RESD         - DEEP RESISTIVITY (DIL)
NPHI.V/V      00 330 00 00         : PHIN         - NEUTRON POROSITY (SANDSTONE)
DPHI.V/V      00 890 00 00         : PHID         - DENSITY POROSITY (SANDSTONE)
GR  .API      00 310 00 00         : GR           - GAMMA RAY
CALI.MM       00 280 01 00         : CAL          - CALIPER
~PARAMETER INFORMATION
#MNEM.UNIT           DATA             DESCRIPTION OF MNEMONIC
#---------         -----------     ------------------------------
GL  .M        606.19               : gl           - GROUND LEVEL ELEVATION
EREF.M        609.8                : kb           - ELEVATION OF DEPTH REFERENCE
DATM.M        606.19               : datum        - DATUM ELEVATION
TDD .M        449                  : tdd          - TOTAL DEPTH DRILLER
RUN .         ONE                  : Run          - RUN NUMBER
ENG .         BILL                 : Engineer     - RECORDING ENGINEER
WIT .         JIM                  : Witness      - WITNESSED BY
MUD .         GEL                  : Mud_type     - MUD TYPE
MATR.         SANDSTONE            : Logunit      - NEUTRON MATRIX
TMAX.C        28                   : BHT          - MAXIMUM RECORDED TEMPERATURE
BHTD.M        449                  : BHTDEP       - MAXIMUM RECORDED TEMPERATURE
MATR.         1                    : LOGUNIT      - NEUTRON MATRIX
RMT .C        16                   : MDTP         - TEMPERATURE OF MUD
NEUT.         1                    : NEUTRON      - NEUTRON TYPE
RESI.         0                    : RESIST       - RESISTIVITY TYPE
RMC .OHMM     5                    : RMC          - RESISTIVITY OF MUD CAKE
RMF .OHMM     5                    : RMF          - RESISTIVITY OF MUD FILTRATE
SUFT.C        -20                  : SUFT         - SURFACE TEMPERATURE
~A  DEPTH     RESD     PHIN     PHID       GR      CAL
  225.000    2.898    0.560    0.325   91.672  180.380
  225.250    2.767    0.556    0.346   91.668  181.193
  225.500    2.636    0.544    0.348   91.662  180.161
  225.750    2.504    0.543    0.337   91.181  176.591
  226.000    2.392    0.552    0.324   89.929  170.648
  226.250    2.322    0.550    0.322   87.390  163.351
  226.500    2.322    0.568    0.290   85.405  162.517
  226.750    2.373    0.549    0.299   86.587  177.143
  227.000    2.451    0.533    0.291   88.480  181.385
  227.250    2.560    0.527    0.283   90.966  184.342
  227.500    2.661    0.525    0.280   93.155  188.487
  227.750    2.665    0.510    0.275   93.138  190.568
  228.000    2.684    0.506    0.288   91.896  195.089
  228.250    2.684    0.524    0.271   92.602  191.520
  228.500    2.683    0.530    0.263   92.596  188.839
  228.750    2.672    0.532    0.262   91.641  186.456
  229.000    2.657    0.535    0.264   90.270  184.964
  229.250    2.652    0.544    0.271   89.590  186.633
  229.500    2.631    0.559    0.285   88.596  189.095
  229.750    2.669    0.564    0.287   89.302  190.271
  230.000    2.782    0.580    0.283   91.254  188.482
  230.250    2.928    0.579    0.276   93.740  187.087
  230.500    3.050    0.558    0.268   95.692  186.582
  230.750    3.057    0.536    0.260   95.487  185.004
  231.000    2.987    0.538    0.263   94.491  187.055
  231.250    2.878    0.543    0.258   94.011  187.836
  231.500    2.773    0.544    0.267   93.887  189.805
  231.750    2.743    0.545    0.277   92.813  190.388
  232.000    2.802    0.547    0.282   89.958  189.785
  232.250    2.984    0.549    0.291   83.682  190.218
  232.500    3.298    0.532    0.314   77.248  186.499
  232.750    4.226    0.492    0.346   70.359  180.556
  233.000    5.182    0.465    0.382   62.936  174.910
  233.250    6.363    0.467    0.421   56.878  176.680
  233.500    8.343    0.486    0.447   52.956  181.515
  233.750   13.446    0.474    0.420   50.763  172.355
  234.000   16.857    0.451    0.362   50.510  166.163
  234.250   21.598    0.436    0.353   50.741  166.154
  234.500   25.824    0.439    0.352   50.972  165.551
  234.750   28.507    0.450    0.355   53.102  164.354
  235.000   29.733    0.461    0.361   56.420  162.761
  235.250   31.209    0.469    0.368   57.105  160.591
  235.500   33.180    0.484    0.371   54.627  157.696
  235.750   36.190    0.484    0.367   53.671  160.061
  236.000   39.700    0.461    0.359   53.605  162.127
  236.250   43.516    0.443    0.355   53.717  162.710
  236.500   46.962    0.441    0.356   53.592  161.908
  236.750   48.857    0.446    0.358   52.963  161.186
  237.000   49.596    0.457    0.361   52.215  161.589
  237.250   51.055    0.464    0.361   52.922  161.581
  237.500   53.132    0.472    0.360   53.627  161.570
  237.750   54.320    0.479    0.357   54.334  161.757
  238.000   54.600    0.485    0.352   54.328  162.044
  238.250   56.468    0.495    0.354   51.987  161.868
  238.500   60.037    0.492    0.367   50.992  161.033
  238.750   64.547    0.487    0.366   52.410  161.024
  239.000   68.317    0.496    0.362   52.047  161.608
  239.250   70.879    0.502    0.359   50.617  161.993
  239.500   72.048    0.502    0.363   48.832  161.982
  239.750   71.467    0.495    0.372   47.401  162.138
  240.000   68.780    0.483    0.371   47.394  162.951
  240.250   62.905    0.472    0.354   46.912  162.545
  240.500   59.888    0.458    0.289   46.611  162.139
  240.750   59.229    0.451    0.249   46.249  160.942
  241.000   61.148    0.465    0.267   46.006  159.350
  241.250   68.919    0.515    0.345   46.276  159.273
  241.500   81.738    0.497    0.369   45.281  160.910
  241.750   87.250    0.486    0.372   46.224  162.482
  242.000   92.168    0.490    0.377   46.812  163.164
  242.250   95.626    0.495    0.376   47.993  163.155
  242.500   97.377    0.493    0.369   49.469  162.751
  242.750   98.210    0.482    0.369   49.304  162.344
  243.000   98.936    0.480    0.372   47.321  162.333
  243.250  100.372    0.474    0.371   45.653  162.322
  243.500  100.721    0.472    0.369   45.232  162.014
  243.750  100.324    0.475    0.369   44.870  161.807
  244.000   99.376    0.476    0.369   44.212  161.996
  244.250   97.600    0.470    0.367   44.076  162.856
  244.500   96.095    0.469    0.363   45.800  163.258
  244.750   95.371    0.471    0.367   46.507  163.249
  245.000   93.590    0.471    0.369   46.501  162.944
  245.250   94.909    0.472    0.371   46.732  162.737
  245.500   98.492    0.474    0.373   46.963  162.924
  245.750   97.441    0.473    0.375   45.967  163.701
  246.000   95.932    0.477    0.376   46.949  163.693
  246.250   95.212    0.510    0.370   47.894  164.076
  246.500   93.971    0.515    0.371   47.413  164.166
  246.750   91.885    0.508    0.372   46.576  164.157
  247.000   89.541    0.498    0.371   46.213  163.949
  247.250   87.806    0.486    0.370   46.819  163.062
  247.500   85.793    0.481    0.375   46.319  162.641
  247.750   85.144    0.477    0.375   45.601  162.236
  248.000   83.567    0.472    0.375   45.773  162.721
  248.250   82.030    0.469    0.374   45.885  163.305
  248.500   80.511    0.465    0.370   45.405  163.492
  248.750   77.805    0.450    0.357   43.767  163.085
  249.000   76.028    0.435    0.324   41.536  163.075
  249.250   76.003    0.415    0.264   35.359  162.273
  249.500   77.241    0.390    0.196   30.962  162.660
  249.750   80.076    0.355    0.179   29.056  163.243
  250.000   83.543    0.321    0.207   29.526  163.826
  250.250   83.143    0.319    0.210   31.863  165.577
  250.500   75.902    0.320    0.213   34.082  168.452
  250.750   54.285    0.337    0.252   35.262  169.234
  251.000   38.775    0.343    0.251   36.265  168.235
  251.250   25.022    0.375    0.242   38.870  170.005
  251.500   15.672    0.441    0.253   45.035  175.929
  251.750    9.100    0.523    0.330   58.330  182.575
  252.000    5.970    0.505    0.407   65.493  174.325
  252.250    5.583    0.489    0.352   65.724  161.657
  252.500    6.014    0.468    0.351   61.861  159.668
  252.750    6.512    0.451    0.354   58.532  156.889
  253.000    7.122    0.441    0.349   57.814  152.034
  253.250   10.090    0.436    0.358   59.726  154.164
  253.500   11.326    0.427    0.361   62.192  154.978
  253.750    9.977    0.437    0.358   65.509  156.153
  254.000    7.460    0.471    0.364   69.182  165.934
  254.250    6.131    0.497    0.379   74.517  179.573
  254.500    5.717    0.501    0.397   80.326  192.124
  254.750    5.913    0.485    0.407   83.226  197.287
  255.000    6.286    0.468    0.422   84.703  191.507
  255.250    6.662    0.451    0.389   85.883  192.684
  255.500    7.213    0.458    0.403   84.038  197.421
  255.750    7.875    0.471    0.414   80.591  200.378
  256.000    8.769    0.476    0.415   76.195  202.642
  256.250   10.664    0.461    0.438   69.492  210.576
  256.500   11.605    0.448    0.386   63.305  204.796
  256.750   13.974    0.430    0.327   55.229  181.050
  257.000   16.619    0.417    0.324   46.264  163.538
  257.250   18.574    0.411    0.337   42.460  156.407
  257.500   19.270    0.414    0.347   44.055  157.287
  257.750   19.458    0.422    0.358   45.522  156.698
  258.000   19.012    0.432    0.357   45.763  153.802
  258.250   18.183    0.430    0.358   47.420  153.398
  258.500   17.199    0.407    0.362   52.813  150.917
  258.750   15.273    0.396    0.367   58.978  142.798
  259.000   12.395    0.406    0.375   65.855  131.416
  259.250    8.851    0.433    0.389   78.022  127.876
  259.500    7.178    0.462    0.397   86.668  141.876
  259.750    6.516    0.474    0.396   86.662  173.514
  260.000    6.159    0.490    0.403   86.657  192.686
  260.250    5.689    0.507    0.419   88.431  203.555
  260.500    5.150    0.520    0.431   91.036  205.722
  260.750    4.728    0.525    0.405   90.495  196.462
  261.000    4.448    0.531    0.368   89.005  207.577
  261.250    4.381    0.536    0.379   88.287  192.931
