~VERSION INFORMATION
 VERS.                 2.0:   CWLS LOG ASCII STANDARD -VERSION 2.0
 WRAP.                  NO:   ONE LINE PER DEPTH STEP
~WELL INFORMATION BLOCK
#MNEM.UNIT           DATA                    DESCRIPTION OF MNEMONIC
#---------    -------------------            -------------------------------
# Generated from Intellog Unique Number	CS_77_79/WELL/892
WELL.         BOW VALLEY INDUSTRIES LTD      : Well_name    - WELL
LOC .         00/07-07-077-14W4/0            : Location     - LOCATION
UWI .         00/07-07-077-14W4/0            : Uwi          - UNIQUE WELL ID
ENTR.         SP                             : Entered      - ENTERED BY
SRVC.         SCHLUMBERGER                   : Scn          - SERVICE COMPANY
STRT.M        260                            : top_depth    - START DEPTH
STOP.M        510                            : bot_depth    - STOP DEPTH
STEP.M        0.25                           : increment    - STEP LENGTH
 NULL. -999.2500:NULL Value
~CURVE INFORMATION BLOCK
#MNEM UNIT       ERCB CURVE CODE    CURVE DESCRIPTION
#-----------   ------------------   ----------------------------------
DEPT.M        00 001 00 00         : DEPTH        - DEPTH
ILD .OHMM     00 120 00 00         : RESD         - DEEP RESISTIVITY (DIL)
DPHI.V/V      00 890 00 00         : PHID         - DENSITY POROSITY (LIMESTONE)
NPHI.V/V      00 330 00 00         : PHIN         - NEUTRON POROSITY (LIMESTONE)
GR  .API      00 310 00 00         : GR           - GAMMA RAY
~PARAMETER INFORMATION
#MNEM.UNIT           DATA             DESCRIPTION OF MNEMONIC
#---------         -----------     ------------------------------
GL  .M        657                  : gl           - GROUND LEVEL ELEVATION
EREF.M        660.5                : kb           - ELEVATION OF DEPTH REFERENCE
DATM.M        657                  : datum        - DATUM ELEVATION
TDD .M        535                  : tdd          - TOTAL DEPTH DRILLER
RUN .         ONE                  : Run          - RUN NUMBER
ENG .         BILL                 : Engineer     - RECORDING ENGINEER
WIT .         JIM                  : Witness      - WITNESSED BY
MUD .         GEL                  : Mud_type     - MUD TYPE
MATR.         LIMESTONE            : Logunit      - NEUTRON MATRIX
TMAX.C        25                   : BHT          - MAXIMUM RECORDED TEMPERATURE
BHTD.M        535                  : BHTDEP       - MAXIMUM RECORDED TEMPERATURE
MATR.         1                    : LOGUNIT      - NEUTRON MATRIX
RMT .C        25                   : MDTP         - TEMPERATURE OF MUD
NEUT.         1                    : NEUTRON      - NEUTRON TYPE
RESI.         0                    : RESIST       - RESISTIVITY TYPE
RMC .OHMM     0.25                 : RMC          - RESISTIVITY OF MUD CAKE
RMF .OHMM     0.25                 : RMF          - RESISTIVITY OF MUD FILTRATE
SUFT.C        15                   : SUFT         - SURFACE TEMPERATURE
~A  DEPTH     RESD     PHID     PHIN       GR
# ...
  390.500    5.060    0.263    0.492   84.043
  390.750    5.061    0.263    0.487   88.336
  391.000    5.062    0.263    0.482   91.411
  391.250    5.063    0.267    0.480   89.000
  391.500    5.064    0.275    0.491   88.423
  391.750    4.971    0.267    0.497   87.832
  392.000    4.972    0.255    0.499   87.250
  392.250    4.972    0.251    0.506   85.443
  392.500    5.067    0.249    0.513   85.463
  392.750    5.360    0.247    0.496   83.671
  393.000    5.670    0.253    0.472   82.465
  393.250    5.998    0.259    0.466   79.442
  393.500    6.227    0.264    0.469   74.592
  393.750    6.465    0.270    0.477   72.180
  394.000    6.588    0.291    0.482   70.983
  394.250    6.840    0.306    0.485   66.747
  394.500    6.970    0.317    0.477   64.329
  394.750    6.971    0.328    0.467   63.135
  395.000    6.972    0.328    0.472   61.946
  395.250    6.844    0.324    0.479   61.360
  395.500    6.846    0.324    0.474   60.767
  395.750    6.847    0.330    0.452   58.358
  396.000    6.848    0.328    0.439   56.555
  396.250    6.849    0.325    0.435   56.576
  396.500    6.850    0.322    0.439   56.607
  396.750    6.981    0.325    0.440   56.641
  397.000    6.982    0.326    0.444   56.662
  397.250    6.854    0.323    0.448   56.676
  397.500    6.855    0.321    0.448   57.920
  397.750    6.730    0.324    0.446   59.781
  398.000    6.731    0.325    0.448   60.420
  398.250    6.607    0.322    0.453   60.435
  398.500    6.608    0.326    0.453   58.028
  398.750    6.609    0.330    0.448   57.438
  399.000    6.611    0.327    0.443   55.652
  399.250    6.612    0.328    0.443   55.068
  399.500    6.613    0.332    0.450   55.092
  399.750    6.615    0.332    0.452   54.504
  400.000    6.493    0.335    0.450   53.906
  400.250    6.494    0.339    0.445   54.545
  400.500    6.375    0.338    0.437   55.787
  400.750    6.258    0.324    0.436   57.648
  401.000    6.259    0.321    0.439   58.897
  401.250    6.145    0.312    0.444   59.524
  401.500    6.032    0.312    0.452   60.169
  401.750    6.033    0.313    0.462   60.188
  402.000    6.034    0.327    0.466   59.004
  402.250    5.924    0.336    0.470   59.024
  402.500    5.925    0.334    0.461   58.432
  402.750    5.925    0.326    0.463   58.467
  403.000    5.926    0.329    0.463   58.487
  403.250    6.040    0.326    0.456   58.523
  403.500    6.041    0.323    0.465   59.153
  403.750    6.156    0.319    0.481   59.176
  404.000    6.157    0.319    0.493   59.804
  404.250    6.274    0.326    0.499   61.054
  404.500    6.393    0.330    0.514   59.861
  404.750    6.394    0.328    0.483   59.272
  405.000    6.515    0.328    0.466   58.691
  405.250    6.516    0.331    0.459   58.715
  405.500    6.518    0.323    0.452   58.740
  405.750    6.280    0.328    0.452   60.600
  406.000    6.165    0.326    0.453   61.844
  406.250    6.052    0.320    0.453   61.866
  406.500    5.941    0.318    0.462   61.276
  406.750    5.832    0.320    0.468   60.692
  407.000    5.834    0.324    0.483   60.119
  407.250    5.834    0.312    0.490   60.748
  407.500    5.945    0.317    0.485   60.778
  407.750    6.172    0.324    0.465   60.190
  408.000    6.529    0.323    0.467   59.606
  408.250    7.169    0.316    0.461   59.027
  408.500    7.583    0.300    0.450   59.053
  408.750    8.484    0.259    0.417   59.073
  409.000    9.143    0.215    0.375   58.484
  409.250    9.492    0.188    0.349   56.679
  409.500    8.488    0.205    0.366   56.095
  409.750    7.879    0.250    0.411   56.731
  410.000    7.313    0.277    0.453   58.590
  410.250    6.788    0.327    0.485   59.227
  410.500    6.540    0.333    0.493   59.249
  410.750    6.186    0.338    0.491   59.289
  411.000    6.187    0.339    0.487   59.921
  411.250    6.073    0.336    0.482   59.943
  411.500    6.074    0.333    0.472   59.968
  411.750    5.963    0.337    0.470   60.598
  412.000    5.854    0.328    0.467   61.248
  412.250    5.747    0.322    0.470   61.266
  412.500    5.747    0.320    0.477   61.278
  412.750    5.748    0.318    0.478   61.914
  413.000    5.749    0.323    0.472   60.721
  413.250    5.750    0.326    0.462   59.529
  413.500    5.859    0.323    0.457   59.552
  413.750    5.860    0.316    0.454   60.808
  414.000    5.861    0.312    0.464   60.827
  414.250    5.973    0.311    0.458   60.242
  414.500    5.974    0.310    0.453   59.659
  414.750    6.088    0.312    0.456   59.080
  415.000    6.089    0.314    0.450   59.096
  415.250    6.090    0.319    0.448   60.340
  415.500    6.091    0.321    0.446   60.979
  415.750    5.980    0.323    0.440   61.621
  416.000    5.980    0.319    0.440   61.638
  416.250    5.981    0.316    0.445   60.443
  416.500    5.982    0.313    0.443   59.252
  416.750    6.096    0.310    0.437   59.275
  417.000    6.097    0.309    0.437   59.301
  417.250    6.099    0.309    0.446   59.322
  417.500    5.660    0.315    0.457   59.350
  417.750    5.661    0.313    0.458   58.154
  418.000    5.878    0.317    0.452   57.579
  418.250    5.990    0.299    0.448   57.614
  418.500    5.991    0.297    0.445   57.628
  418.750    6.104    0.304    0.443   58.880
  419.000    6.221    0.321    0.442   59.503
  419.250    6.222    0.327    0.449   60.750
  419.500    6.223    0.333    0.453   60.172
  419.750    6.224    0.317    0.454   60.193
  420.000    6.225    0.319    0.449   60.228
  420.250    6.111    0.324    0.449   60.852
  420.500    6.112    0.326    0.449   62.098
  420.750    6.000    0.328    0.455   63.347
  421.000    6.001    0.330    0.458   63.376
  421.250    6.002    0.314    0.459   63.389
  421.500    6.116    0.314    0.457   63.420
  421.750    6.232    0.314    0.462   64.053
  422.000    6.471    0.315    0.452   64.081
  422.250    6.718    0.321    0.424   62.886
  422.500    6.719    0.315    0.408   62.309
  422.750    6.720    0.309    0.414   62.332
  423.000    6.476    0.304    0.453   62.964
  423.250    6.357    0.304    0.468   63.611
  423.500    6.357    0.309    0.466   64.240
  423.750    6.126    0.305    0.464   65.485
  424.000    5.902    0.300    0.470   66.111
  424.250    5.687    0.309    0.477   66.136
  424.500    5.688    0.316    0.482   66.162
  424.750    5.689    0.320    0.484   66.185
  425.000    5.690    0.306    0.485   67.431
  425.250    5.691    0.298    0.480   69.287
  425.500    5.587    0.289    0.486   71.758
  425.750    5.484    0.284    0.490   72.394
  426.000    5.485    0.282    0.490   73.634
  426.250    5.285    0.288    0.495   75.487
  426.500    5.188    0.285    0.497   76.128
  426.750    5.093    0.274    0.503   78.593
  427.000    4.999    0.271    0.505   80.449
  427.250    4.817    0.268    0.510   81.082
  427.500    4.729    0.251    0.516   81.102
  427.750    4.730    0.236    0.517   82.347
  428.000    4.911    0.231    0.500   84.210
  428.250    5.194    0.245    0.480   84.228
  428.500    5.393    0.257    0.468   79.381
  428.750    5.704    0.244    0.485   76.964
  429.000    5.813    0.247    0.491   76.381
  429.250    5.924    0.250    0.487   76.407
  429.500    5.925    0.251    0.476   76.429
  429.750    5.925    0.263    0.471   75.844
  430.000    6.268    0.245    0.456   72.819
  430.250    6.882    0.182    0.432   71.018
  430.500    7.280    0.144    0.404   69.820
  430.750    7.147    0.109    0.354   69.847
  431.000    7.016    0.172    0.368   70.482
  431.250    6.760    0.214    0.436   75.996
  431.500    6.514    0.229    0.505   80.292
  431.750    6.395    0.231    0.494   80.930
  432.000    6.277    0.223    0.479   82.178
  432.250    6.162    0.217    0.473   84.641
  432.500    6.163    0.215    0.466   85.278
  432.750    6.280    0.226    0.474   84.076
  433.000    6.769    0.241    0.473   82.286
  433.250    6.897    0.231    0.456   81.087
  433.500    7.028    0.216    0.449   81.110
  433.750    7.162    0.216    0.453   80.525
