~VERSION INFORMATION
 VERS.                 2.0:   CWLS LOG ASCII STANDARD -VERSION 2.0
 WRAP.                  NO:   ONE LINE PER DEPTH STEP
~WELL INFORMATION BLOCK
#MNEM.UNIT           DATA                    DESCRIPTION OF MNEMONIC
#---------    -------------------            -------------------------------
# Generated from Intellog Unique Number	CW_79_81/WELL/642
WELL.         07-36-079-21W4                 : Well_name    - WELL
LOC .         00/07-36-079-21W4/0            : Location     - LOCATION
UWI .         00/07-36-079-21W4/0            : Uwi          - UNIQUE WELL ID
ENTR.         MAX                            : Entered      - ENTERED BY
SRVC.         SCHLUMBERGER                   : Scn          - SERVICE COMPANY
STRT.M        215                            : top_depth    - START DEPTH
STOP.M        417                            : bot_depth    - STOP DEPTH
STEP.M        0.25                           : increment    - STEP LENGTH
 NULL. -999.2500:NULL Value
~CURVE INFORMATION BLOCK
#MNEM UNIT       ERCB CURVE CODE    CURVE DESCRIPTION
#-----------   ------------------   ----------------------------------
DEPT.M        00 001 00 00         : DEPTH        - DEPTH
ILD .OHMM     00 120 00 00         : RESD         - DEEP RESISTIVITY (DIL)
NPHI.V/V      00 330 00 00         : PHIN         - NEUTRON POROSITY (SANDSTONE)
DPHI.V/V      00 890 00 00         : PHID         - DENSITY POROSITY (SANDSTONE)
CALI.MM       00 280 01 00         : CAL          - CALIPER
GR  .API      00 310 00 00         : GR           - GAMMA RAY
~PARAMETER INFORMATION
#MNEM.UNIT           DATA             DESCRIPTION OF MNEMONIC
#---------         -----------     ------------------------------
GL  .M        572.05               : gl           - GROUND LEVEL ELEVATION
EREF.M        575.35               : kb           - ELEVATION OF DEPTH REFERENCE
DATM.M        572.05               : datum        - DATUM ELEVATION
TDD .M        420                  : tdd          - TOTAL DEPTH DRILLER
RUN .         ONE                  : Run          - RUN NUMBER
ENG .         BILL                 : Engineer     - RECORDING ENGINEER
WIT .         JIM                  : Witness      - WITNESSED BY
MUD .         GEL                  : Mud_type     - MUD TYPE
MATR.         SANDSTONE            : Logunit      - NEUTRON MATRIX
TMAX.C        29.4                 : BHT          - MAXIMUM RECORDED TEMPERATURE
BHTD.M        420                  : BHTDEP       - MAXIMUM RECORDED TEMPERATURE
RMT .C        23                   : MDTP         - TEMPERATURE OF MUD
MUDD.KG/M     1130                 : MWT          - MUD DENSITY
NEUT.         1                    : NEUTRON      - NEUTRON TYPE
RESI.         0                    : RESIST       - RESISTIVITY TYPE
RM  .OHMM     6.08                 : RM           - RESISTIVITY OF MUD
RMC .OHMM     0.25                 : RMC          - RESISTIVITY OF MUD CAKE
RMF .OHMM     5.02                 : RMF          - RESISTIVITY OF MUD FILTRATE
SUFT.C        -10                  : SUFT         - SURFACE TEMPERATURE
~A  DEPTH     RESD     PHIN     PHID      CAL       GR
# ...
  288.000   11.299    0.457    0.324  157.930   58.383
  288.250   11.204    0.482    0.297  157.465   56.310
  288.500   11.204    0.492    0.293  157.003   55.733
  288.750   11.020    0.499    0.278  157.040   56.951
  289.000   10.924    0.483    0.264  157.564   54.276
  289.250   11.132    0.465    0.302  158.105   53.398
  289.500   11.658    0.480    0.281  158.134   54.314
  289.750   12.661    0.490    0.286  157.174   52.839
  290.000   13.747    0.477    0.292  156.213   52.263
  290.250   15.200    0.461    0.304  154.246   52.879
  290.500   19.440    0.472    0.304  154.275   52.303
  290.750   20.917    0.454    0.290  154.808   51.427
  291.000   25.561    0.439    0.253  156.346   51.148
  291.250   30.953    0.393    0.136  155.881   52.964
  291.500   39.941    0.272    0.078  155.910   53.583
  291.750   44.975    0.256    0.066  158.937   51.205
  292.000   47.959    0.229    0.061  160.472   48.830
  292.250   48.433    0.192    0.042  161.004   47.652
  292.500   46.315    0.165    0.013  161.042   47.674
  292.750   41.940    0.173   -0.003  160.576   47.694
  293.000   33.444    0.194   -0.006  160.106   49.516
  293.250   25.718    0.222    0.045  159.641   51.028
  293.500   20.322    0.270    0.069  159.682   53.446
  293.750   16.504    0.319    0.081  159.711   56.161
  294.000   15.217    0.352    0.108  159.250   59.477
  294.250   12.700    0.376    0.154  158.780   62.189
  294.500   11.605    0.411    0.181  158.817   66.705
  294.750   10.510    0.428    0.208  157.861   70.316
  295.000    9.958    0.446    0.243  157.391   74.528
  295.250    9.610    0.443    0.236  156.925   79.942
  295.500    9.529    0.465    0.225  156.955   82.355
  295.750    9.799    0.492    0.231  157.487   83.872
  296.000   10.262    0.499    0.247  158.531   84.191
  296.250   11.042    0.503    0.251  158.560   82.420
  296.500   11.563    0.511    0.256  157.100   80.042
  296.750   11.677    0.510    0.245  156.131   79.765
  297.000   11.474    0.498    0.225  156.668   82.183
  297.250   10.974    0.499    0.262  157.196   82.799
  297.500   10.493    0.488    0.262  157.229   81.322
  297.750   10.033    0.482    0.255  156.764   81.641
  298.000    9.252    0.494    0.248  157.300   83.757
  298.250    8.532    0.492    0.257  157.828   87.071
  298.500    8.086    0.479    0.226  158.365   92.186
  298.750    7.803    0.488    0.217  159.899   95.799
  299.000    7.667    0.493    0.200  161.430   91.028
  299.250    7.672    0.501    0.215  161.459   89.551
  299.500    7.678    0.502    0.213  160.997   87.777
  299.750    7.682    0.490    0.220  161.031   86.597
  300.000    7.549    0.496    0.215  161.563   85.123
  300.250    7.555    0.497    0.224  162.100   84.846
  300.500    8.204    0.493    0.221  162.129   82.468
  300.750    8.989    0.484    0.226  162.665   81.590
  301.000   10.033    0.500    0.239  163.697   78.912
  301.250   10.795    0.502    0.264  163.235   75.938
  301.500   11.937    0.484    0.267  161.771   72.068
  301.750   13.321    0.473    0.250  160.807   72.088
  302.000   13.948    0.470    0.214  161.339   71.212
  302.250   13.706    0.443    0.170  161.372   68.535
  302.500   12.188    0.336    0.138  161.410   68.854
  302.750   10.838    0.371    0.152  161.447   76.959
  303.000    9.465    0.408    0.185  161.476   84.167
  303.250    8.494    0.453    0.207  162.005   87.481
  303.500    8.123    0.515    0.210  162.038   89.297
  303.750    8.128    0.509    0.221  163.082   91.715
  304.000    8.061    0.505    0.218  163.610   94.133
  304.250    7.849    0.510    0.207  164.637   95.653
  304.500    7.713    0.473    0.195  165.174   94.470
  304.750    7.648    0.464    0.187  164.213   90.597
  305.000    7.793    0.485    0.228  168.738   87.626
  305.250    8.161    0.486    0.247  166.775   80.762
  305.500    8.782    0.468    0.244  165.806   79.582
  305.750    9.031    0.465    0.246  161.352   79.008
  306.000    9.120    0.446    0.237  159.884   79.025
  306.250    9.125    0.444    0.243  158.928   80.245
  306.500    8.727    0.456    0.263  158.928   81.760
  306.750    8.575    0.454    0.249  158.999   81.785
  307.000    8.582    0.445    0.243  158.525   79.704
  307.250    8.824    0.447    0.228  158.558   78.529
  307.500    9.410    0.473    0.221  158.600   77.351
  307.750   10.126    0.490    0.262  158.633   73.778
  308.000   10.997    0.475    0.268  158.662   70.205
  308.250   10.903    0.475    0.284  158.695   66.033
  308.500   10.912    0.468    0.287  158.733   67.850
  308.750   10.529    0.438    0.259  158.770   80.148
  309.000    9.448    0.425    0.218  158.800   85.558
  309.250    8.635    0.483    0.199  158.841   89.770
  309.500    8.257    0.488    0.218  158.367   92.185
  309.750    8.114    0.507    0.209  157.906   90.413
  310.000    8.192    0.542    0.198  157.440   89.233
  310.250    8.424    0.526    0.256  157.972   84.465
  310.500    8.824    0.472    0.273  158.006   85.982
  310.750    8.990    0.480    0.247  158.538   85.101
  311.000    9.414    0.507    0.221  161.565   80.630
  311.250   10.039    0.512    0.243  160.106   68.673
  311.500   10.705    0.489    0.200  159.644   61.507
  311.750   10.811    0.252    0.045  160.172   63.324
  312.000   10.338    0.265    0.109  160.206   78.617
  312.250    9.620    0.442    0.199  160.247   85.523
  312.500    9.116    0.471    0.225  160.277   89.735
  312.750    8.639    0.477    0.228  160.314   86.768
  313.000    8.489    0.491    0.227  160.343   84.987
  313.250    8.417    0.487    0.249  159.882   85.908
  313.500    8.427    0.482    0.258  159.911   89.518
  313.750    8.277    0.499    0.251  159.944   88.640
  314.000    8.060    0.493    0.209  159.483   86.866
  314.250    7.921    0.481    0.231  160.522   85.988
  314.500    7.784    0.492    0.226  161.545   85.409
  314.750    7.718    0.494    0.223  163.579   87.525
  315.000    7.653    0.494    0.220  166.112   88.742
  315.250    7.653    0.503    0.198  163.654   87.572
  315.500    7.526    0.509    0.225  166.182   86.389
  315.750    7.328    0.499    0.242  166.711   86.112
  316.000    7.335    0.483    0.232  165.746   86.432
  316.250    7.474    0.478    0.212  160.789   86.751
  316.500    7.474    0.503    0.209  162.319   88.268
  316.750    7.555    0.518    0.208  163.351   88.288
  317.000    7.697    0.524    0.235  159.396   86.514
  317.250    7.772    0.506    0.228  158.926   88.328
  317.500    7.849    0.501    0.201  158.959   91.941
  317.750    7.854    0.507    0.186  158.498   89.272
  318.000    7.717    0.482    0.192  159.034   87.794
  318.250    7.515    0.477    0.175  160.561   86.317
  318.500    7.869    0.485    0.202  159.596   83.044
  318.750    8.545    0.484    0.199  158.136   76.177
  319.000    8.630    0.503    0.219  158.170   77.093
  319.250    8.480    0.501    0.235  158.702   80.107
  319.500    8.480    0.504    0.223  158.735   85.220
  319.750    8.265    0.499    0.211  159.268   87.036
  320.000    8.046    0.482    0.196  163.297   90.055
  320.250    7.764    0.481    0.210  160.336   92.473
  320.500    7.700    0.494    0.195  161.376   93.686
  320.750    7.847    0.478    0.202  163.896   92.209
  321.000    7.782    0.501    0.220  167.423   90.432
  321.250    7.716    0.514    0.226  165.460   88.658
  321.500    8.228    0.503    0.229  162.008   86.285
  321.750    9.520    0.511    0.246  160.046   83.309
  322.000   11.219    0.508    0.178  159.576   79.439
  322.250   12.866    0.326    0.122  158.615   76.462
  322.500   13.113    0.287    0.067  158.644   72.892
  322.750   12.652    0.314    0.081  158.183   73.510
  323.000   11.879    0.348    0.107  157.218   78.019
  323.250   10.280    0.396    0.196  156.752   85.230
  323.500    9.741    0.434    0.219  156.752   86.448
  323.750    9.838    0.462    0.219  156.332   87.962
  324.000   10.209    0.470    0.209  156.357   88.883
  324.250   10.592    0.484    0.180  155.892   86.807
