~VERSION INFORMATION
 VERS.                 2.0:   CWLS LOG ASCII STANDARD -VERSION 2.0
 WRAP.                  NO:   ONE LINE PER DEPTH STEP
~WELL INFORMATION BLOCK
#MNEM.UNIT           DATA                    DESCRIPTION OF MNEMONIC
#---------    -------------------            -------------------------------
# Generated from Intellog Unique Number	CW_76_78/WELL/620
WELL.         PACIFIC MARTENCK 07-16         : Well_name    - WELL
LOC .         00/07-16-077-04W5/0            : Location     - LOCATION
UWI .         00/07-16-077-04W5/0            : Uwi          - UNIQUE WELL ID
ENTR.         JAYE                           : Entered      - ENTERED BY
SRVC.         SCHLUMBERGER                   : Scn          - SERVICE COMPANY
DATE.         14 FEB 78                      : Date         - LOG DATE
STRT.M        405.384                        : top_depth    - START DEPTH
STOP.M        637.134                        : bot_depth    - STOP DEPTH
STEP.M        0.25                           : increment    - STEP LENGTH
 NULL. -999.2500:NULL Value
~CURVE INFORMATION BLOCK
#MNEM UNIT       ERCB CURVE CODE    CURVE DESCRIPTION
#-----------   ------------------   ----------------------------------
DEPT.M        00 001 00 00         : DEPTH        - DEPTH
ILD .OHMM     00 120 00 00         : RESD         - DEEP RESISTIVITY (DIL)
DPHI.V/V      00 890 00 00         : PHID         - DENSITY POROSITY (SANDSTONE)
NPHI.V/V      00 330 00 00         : PHIN         - NEUTRON POROSITY (SANDSTONE)
GR  .API      00 310 00 00         : GR           - GAMMA RAY
CALI.MM       00 280 01 00         : CAL          - CALIPER
~PARAMETER INFORMATION
#MNEM.UNIT           DATA             DESCRIPTION OF MNEMONIC
#---------         -----------     ------------------------------
GL  .M        690.982              : gl           - GROUND LEVEL ELEVATION
EREF.M        694.334              : kb           - ELEVATION OF DEPTH REFERENCE
DATM.M        690.982              : datum        - DATUM ELEVATION
TDD .M        648.614              : tdd          - TOTAL DEPTH DRILLER
RUN .         ONE                  : Run          - RUN NUMBER
ENG .         DALV                 : Engineer     - RECORDING ENGINEER
WIT .         MEZEL                : Witness      - WITNESSED BY
BASE.         EDM                  : Branch       - HOME BASE OF LOGGING UNIT
MUD .         GEL CHEM             : Mud_type     - MUD TYPE
MATR.         SANDSTONE            : Logunit      - NEUTRON MATRIX
TMAX.C        0                    : BHT          - MAXIMUM RECORDED TEMPERATURE
BHTD.M        648                  : BHTDEP       - MAXIMUM RECORDED TEMPERATURE
RMT .C        14.4444              : MDTP         - TEMPERATURE OF MUD
MUDD.KG/M     1116                 : MWT          - MUD DENSITY
NEUT.         1                    : NEUTRON      - NEUTRON TYPE
RESI.         0                    : RESIST       - RESISTIVITY TYPE
RM  .OHMM     3.94                 : RM           - RESISTIVITY OF MUD
RMC .OHMM     0                    : RMC          - RESISTIVITY OF MUD CAKE
RMF .OHMM     0                    : RMF          - RESISTIVITY OF MUD FILTRATE
SUFT.C        -17                  : SUFT         - SURFACE TEMPERATURE
~A  DEPTH     RESD     PHID     PHIN       GR      CAL
  405.384    2.085    0.217    0.571  104.016  184.170
  405.634    2.053    0.214    0.560  102.532  186.596
  405.884    2.041    0.215    0.546  101.171  188.180
  406.134    2.060    0.205    0.536  101.486  189.449
  406.384    2.150    0.200    0.541  102.111  190.193
  406.634    2.286    0.210    0.553  105.405  190.305
  406.884    2.477    0.227    0.555  105.844  190.418
  407.134    2.735    0.223    0.536  101.939  190.007
  407.384    3.020    0.201    0.515   97.351  186.757
  407.634    3.123    0.194    0.472   91.584  181.405
  407.884    3.104    0.194    0.446   88.114  180.046
  408.134    2.950    0.214    0.454   90.849  179.949
  408.384    2.767    0.234    0.515   94.391  181.954
  408.634    2.639    0.227    0.518   98.554  178.073
  408.884    2.614    0.217    0.503   99.056  175.875
  409.134    2.707    0.218    0.492   97.943  174.623
  409.384    2.820    0.246    0.537   91.493  173.788
  409.634    2.977    0.255    0.540   83.616  170.224
  409.884    3.477    0.265    0.501   76.608  169.390
  410.134    3.942    0.279    0.493   73.571  167.612
  410.384    4.352    0.289    0.504   71.342  167.094
  410.634    4.770    0.313    0.513   76.808  161.638
  410.884    5.120    0.317    0.485   81.530  158.914
  411.134    5.476    0.312    0.478   83.334  157.029
  411.384    5.956    0.315    0.471   81.352  156.302
  411.634    6.370    0.316    0.461   74.903  156.206
  411.884    6.902    0.299    0.454   68.950  156.633
  412.134    7.396    0.314    0.451   63.741  157.167
  412.384    7.836    0.315    0.451   58.470  157.281
  412.634    8.027    0.312    0.455   55.620  157.078
  412.884    8.191    0.304    0.464   54.570  157.085
  413.134    8.312    0.304    0.468   53.458  156.988
  413.384    8.372    0.315    0.455   52.221  156.682
  413.634    8.416    0.309    0.441   54.150  156.584
  413.884    8.414    0.324    0.422   56.451  156.907
  414.134    8.458    0.327    0.417   56.828  156.915
  414.384    8.455    0.327    0.432   56.832  156.923
  414.634    8.453    0.326    0.440   55.906  156.826
  414.884    8.434    0.320    0.439   56.159  156.414
  415.134    8.384    0.309    0.438   57.033  155.370
  415.384    8.287    0.316    0.441   56.603  154.222
  415.634    8.161    0.323    0.447   56.608  153.810
  415.884    8.022    0.328    0.450   57.295  153.188
  416.134    7.929    0.328    0.453   57.858  152.671
  416.384    7.809    0.328    0.454   58.173  152.153
  416.634    7.777    0.328    0.456   58.426  151.635
  416.884    7.804    0.326    0.458   59.238  151.328
  417.134    7.830    0.324    0.461   59.367  151.336
  417.384    7.872    0.328    0.471   59.061  151.343
  417.634    7.869    0.339    0.471   59.066  151.562
  417.884    7.926    0.334    0.465   57.767  151.990
  418.134    8.013    0.321    0.452   56.282  152.419
  418.384    8.085    0.301    0.460   56.473  152.636
  418.634    8.189    0.287    0.470   58.588  152.750
  418.884    8.233    0.294    0.458   59.586  152.758
  419.134    8.292    0.319    0.455   58.163  152.556
  419.384    8.352    0.321    0.458   55.685  152.458
  419.634    8.318    0.321    0.461   56.311  152.676
  419.884    8.222    0.315    0.449   57.184  153.105
  420.134    8.067    0.301    0.439   58.492  153.533
  420.384    7.885    0.280    0.451   58.807  154.277
  420.634    7.837    0.294    0.473   59.618  155.021
  420.884    7.791    0.316    0.479   62.230  155.554
  421.134    7.745    0.316    0.475   63.228  156.087
  421.384    7.757    0.318    0.468   63.667  156.200
  421.634    7.739    0.317    0.463   63.609  156.103
  421.884    7.679    0.315    0.456   61.814  156.216
  422.134    7.619    0.317    0.450   60.330  156.329
  422.384    7.617    0.316    0.447   59.279  156.232
  422.634    7.657    0.307    0.444   58.725  155.925
  422.884    7.814    0.282    0.419   59.847  155.513
  423.134    7.959    0.295    0.419   61.838  155.100
  423.384    8.092    0.312    0.440   63.704  155.003
  423.634    8.196    0.310    0.467   63.150  155.011
  423.884    8.271    0.304    0.483   57.569  154.914
  424.134    8.284    0.320    0.476   55.899  155.027
  424.384    8.234    0.322    0.463   57.207  155.034
  424.634    8.124    0.315    0.459   59.818  155.463
  424.884    7.926    0.310    0.463   59.264  155.892
  425.134    7.660    0.319    0.469   58.586  155.689
  425.384    7.515    0.317    0.484   57.164  156.013
  425.634    7.641    0.320    0.489   55.927  156.652
  425.884    8.327    0.325    0.484   55.497  157.079
  426.134    9.350    0.317    0.469   55.998  157.508
  426.384   11.191    0.271    0.440   56.500  157.726
  426.634   12.519    0.017    0.383   55.697  157.840
  426.884   13.339   -0.022    0.198   51.978  157.952
  427.134   13.062   -0.012    0.143   48.135  157.960
  427.384   11.323    0.105    0.210   48.761  157.652
  427.634   10.210    0.158    0.375   51.620  157.555
  427.884    9.086    0.264    0.460   54.480  157.248
  428.134    8.178    0.315    0.472   57.774  156.731
  428.384    7.815    0.335    0.466   58.213  156.528
  428.634    7.667    0.336    0.459   56.852  156.431
  428.884    7.665    0.330    0.473   58.160  156.335
  429.134    7.648    0.320    0.472   59.468  156.237
  429.384    7.660    0.318    0.465   57.983  156.351
  429.634    7.586    0.326    0.466   56.561  156.464
  429.884    7.498    0.333    0.469   56.007  156.681
  430.134    7.482    0.330    0.463   56.322  157.005
  430.384    7.521    0.324    0.451   57.196  157.222
  430.634    7.690    0.320    0.444   58.255  157.441
  430.884    8.011    0.317    0.443   56.522  157.449
  431.134    8.665    0.322    0.450   55.596  157.668
  431.384    9.567    0.313    0.460   55.725  157.780
  431.634   10.764    0.296    0.461   53.557  158.103
  431.884   12.132    0.249    0.417   49.714  158.426
  432.134   13.700    0.139    0.291   45.871  158.540
  432.384   14.326    0.035    0.256   42.649  159.074
  432.634   13.563    0.011    0.216   40.853  159.607
  432.884   12.276    0.031    0.230   41.168  160.140
  433.134   11.152    0.095    0.284   44.524  160.148
  433.384   10.094    0.224    0.336   49.308  159.841
  433.634    9.153    0.244    0.394   53.595  159.535
  433.884    8.520    0.270    0.418   58.937  159.331
  434.134    8.235    0.309    0.438   61.734  159.023
  434.384    8.263    0.305    0.441   62.298  158.926
  434.634    8.369    0.321    0.444   58.517  158.725
  434.884    8.573    0.325    0.458   55.418  158.523
  435.134    8.749    0.316    0.466   56.788  158.530
  435.384    8.945    0.286    0.447   56.607  158.433
  435.634    9.060    0.260    0.419   55.122  158.020
  435.884    9.006    0.220    0.360   56.244  158.029
  436.134    8.803    0.279    0.444   58.359  158.247
  436.384    8.734    0.280    0.473   58.364  158.570
  436.634    8.897    0.278    0.456   58.492  158.999
  436.884    9.199    0.287    0.443   57.877  159.217
  437.134    9.441    0.296    0.432   56.454  159.225
  437.384    9.707    0.298    0.425   56.148  159.023
  437.634    9.980    0.304    0.425   55.718  159.030
  437.884   10.281    0.309    0.431   54.916  159.038
  438.134   10.710    0.302    0.428   54.611  159.152
  438.384   11.221    0.296    0.418   54.615  159.160
  438.634   11.537    0.280    0.413   54.372  159.062
  438.884   11.576    0.290    0.442   54.687  159.176
  439.134   11.443    0.296    0.441   55.933  159.288
  439.384   11.290    0.288    0.434   57.054  159.402
  439.634   11.286    0.278    0.440   56.252  159.514
  439.884   11.367    0.274    0.446   55.450  159.732
  440.134   11.514    0.274    0.443   54.959  159.846
  440.384   11.728    0.276    0.438   55.273  159.854
  440.634   11.901    0.277    0.435   54.410  160.072
  440.884   12.145    0.281    0.435   53.793  160.185
  441.134   12.324    0.271    0.449   53.674  160.297
  441.384   12.390    0.275    0.463   53.493  160.622
  441.634   12.270    0.272    0.451   53.559  160.944
