~VERSION INFORMATION
 VERS.                 2.0:   CWLS LOG ASCII STANDARD -VERSION 2.0
 WRAP.                  NO:   ONE LINE PER DEPTH STEP
~WELL INFORMATION BLOCK
#MNEM.UNIT           DATA                    DESCRIPTION OF MNEMONIC
#---------    -------------------            -------------------------------
# Generated from Intellog Unique Number	CX_WELLS/WELL/2711
WELL.         MAYNARD THORTANY               : Well_name    - WELL
LOC .         00/06-03-080-12W4/0            : Location     - LOCATION
UWI .         00/06-03-080-12W4/0            : Uwi          - UNIQUE WELL ID
ENTR.         T                              : Entered      - ENTERED BY
SRVC.         SCHLUMBERGER                   : Scn          - SERVICE COMPANY
STRT.M        250                            : top_depth    - START DEPTH
STOP.M        495                            : bot_depth    - STOP DEPTH
STEP.M        0.25                           : increment    - STEP LENGTH
 NULL. -999.2500:NULL Value
~CURVE INFORMATION BLOCK
#MNEM UNIT       ERCB CURVE CODE    CURVE DESCRIPTION
#-----------   ------------------   ----------------------------------
DEPT.M        00 001 00 00         : DEPTH        - DEPTH
GR  .API      00 310 00 00         : GR           - GAMMA RAY
NPHI.V/V      00 330 00 00         : PHIN         - NEUTRON POROSITY (SANDSTONE)
DPHI.V/V      00 890 00 00         : PHID         - DENSITY POROSITY (SANDSTONE)
ILD .OHMM     00 120 00 00         : RESD         - DEEP RESISTIVITY (DIL)
~PARAMETER INFORMATION
#MNEM.UNIT           DATA             DESCRIPTION OF MNEMONIC
#---------         -----------     ------------------------------
GL  .M        687                  : gl           - GROUND LEVEL ELEVATION
EREF.M        690                  : kb           - ELEVATION OF DEPTH REFERENCE
DATM.M        690                  : datum        - DATUM ELEVATION
TDD .M        505                  : tdd          - TOTAL DEPTH DRILLER
RUN .         ONE                  : Run          - RUN NUMBER
ENG .         BILL                 : Engineer     - RECORDING ENGINEER
WIT .         JIM                  : Witness      - WITNESSED BY
MUD .         GEL                  : Mud_type     - MUD TYPE
MATR.         SANDSTONE            : Logunit      - NEUTRON MATRIX
TMAX.C        21                   : BHT          - MAXIMUM RECORDED TEMPERATURE
BHTD.M        505                  : BHTDEP       - MAXIMUM RECORDED TEMPERATURE
MATR.         1                    : LOGUNIT      - NEUTRON MATRIX
RMT .C        20                   : MDTP         - TEMPERATURE OF MUD
NEUT.         1                    : NEUTRON      - NEUTRON TYPE
RESI.         3.2                  : RESIST       - RESISTIVITY TYPE
RMC .OHMM     3                    : RMC          - RESISTIVITY OF MUD CAKE
RMF .OHMM     2.1                  : RMF          - RESISTIVITY OF MUD FILTRATE
SUFT.C        3                    : SUFT         - SURFACE TEMPERATURE
~A  DEPTH       GR     PHIN     PHID     RESD
# ...
  293.500  105.912    0.405    0.266   13.365
  293.750  102.317    0.412    0.260   13.293
  294.000  105.393    0.420    0.255   13.139
  294.250  108.458    0.425    0.249   12.749
  294.500  116.999    0.430    0.238   12.356
  294.750  124.334    0.436    0.228   11.646
  295.000  128.634    0.429    0.222   10.059
  295.250  131.102    0.416    0.220    9.669
  295.500  131.131    0.406    0.244    9.117
  295.750  128.741    0.399    0.265    8.727
  296.000  122.707    0.396    0.275    9.209
  296.250  117.898    0.399    0.289   10.570
  296.500  114.900    0.402    0.300   11.292
  296.750  113.118    0.402    0.307   11.938
  297.000  110.120    0.399    0.298   12.102
  297.250  107.720    0.397    0.281   12.107
  297.500  105.340    0.395    0.268   12.033
  297.750  102.960    0.394    0.254   11.882
  298.000  102.372    0.394    0.252   11.807
  298.250  103.028    0.394    0.253   11.976
  298.500  103.664    0.393    0.262   12.139
  298.750  103.096    0.391    0.299   12.626
  299.000  100.716    0.389    0.311   12.871
  299.250   98.933    0.389    0.310   13.113
  299.500   96.543    0.395    0.301   13.915
  299.750   95.377    0.396    0.296   14.240
  300.000   95.396    0.399    0.295   14.647
  300.250   94.838    0.402    0.292   14.731
  300.500   94.279    0.406    0.293   14.898
  300.750   94.299    0.408    0.295   14.986
  301.000   93.750    0.411    0.295   14.912
  301.250   93.779    0.416    0.292   14.680
  301.500   93.211    0.418    0.290   14.524
  301.750   93.259    0.422    0.285   14.212
  302.000   93.906    0.425    0.277   13.823
  302.250   93.944    0.429    0.270   13.351
  302.500   94.591    0.431    0.271   12.799
  302.750   95.237    0.430    0.273   12.246
  303.000   95.276    0.426    0.277   11.616
  303.250   95.922    0.423    0.282   11.145
  303.500   95.951    0.421    0.283   10.836
  303.750   95.990    0.420    0.282   11.239
  304.000   95.422    0.417    0.280   11.805
  304.250   94.246    0.416    0.281   11.967
  304.500   94.912    0.416    0.281   12.053
  304.750   97.370    0.417    0.280   11.902
  305.000   98.623    0.418    0.280   11.747
  305.250   99.877    0.419    0.280   11.517
  305.500  101.130    0.420    0.278   11.364
  305.750  101.169    0.420    0.278   11.211
  306.000  100.601    0.419    0.277   11.058
  306.250  100.033    0.416    0.275   10.983
  306.500   96.428    0.413    0.272   10.830
  306.750   97.691    0.410    0.268   10.599
  307.000  100.776    0.406    0.268   10.367
  307.250  103.244    0.408    0.273   10.136
  307.500  103.293    0.407    0.281   10.060
  307.750  102.705    0.406    0.288    9.907
  308.000  101.549    0.403    0.291    9.913
  308.250  100.961    0.401    0.291   10.319
  308.500   98.571    0.405    0.288   10.801
  308.750   93.145    0.409    0.286   11.364
  309.000   88.933    0.411    0.286   12.567
  309.250   84.114    0.406    0.286   13.925
  309.500   79.304    0.398    0.288   14.332
  309.750   75.690    0.392    0.289   14.494
  310.000   70.880    0.385    0.294   15.218
  310.250   68.481    0.380    0.298   15.781
  310.500   66.100    0.378    0.303   16.822
  310.750   64.317    0.376    0.305   20.014
  311.000   61.927    0.376    0.310   20.259
  311.250   60.145    0.375    0.314   20.345
  311.500   59.566    0.375    0.318   20.351
  311.750   58.998    0.373    0.322   20.359
  312.000   58.440    0.372    0.328   20.362
  312.250   58.469    0.370    0.332   20.450
  312.500   57.910    0.370    0.336   20.534
  312.750   57.959    0.372    0.338   20.861
  313.000   57.988    0.374    0.342   21.106
  313.250   58.017    0.375    0.348   21.272
  313.500   57.459    0.377    0.352   21.359
  313.750   57.498    0.379    0.351   21.444
  314.000   58.144    0.382    0.350   21.451
  314.250   58.800    0.386    0.349   21.454
  314.500   59.446    0.388    0.345   21.383
  314.750   59.485    0.392    0.345   21.309
  315.000   58.916    0.393    0.345   21.157
  315.250   58.955    0.393    0.345   21.082
  315.500   59.602    0.393    0.348   20.852
  315.750   60.248    0.393    0.353   20.698
  316.000   62.108    0.391    0.358   20.623
  316.250   63.352    0.390    0.360   20.470
  316.500   63.998    0.389    0.366   20.397
  316.750   64.047    0.387    0.369   20.403
  317.000   64.086    0.387    0.373   20.333
  317.250   64.115    0.387    0.361   20.336
  317.500   63.547    0.389    0.350   20.344
  317.750   62.391    0.392    0.337   20.351
  318.000   62.430    0.395    0.332   20.358
  318.250   63.076    0.400    0.332   20.361
  318.500   63.115    0.404    0.336   20.449
  318.750   61.949    0.406    0.341   20.536
  319.000   61.978    0.408    0.347   20.621
  319.250   60.812    0.410    0.354   20.708
  319.500   60.234    0.413    0.355   20.873
  319.750   59.666    0.417    0.353   20.959
  320.000   59.088    0.419    0.350   21.044
  320.250   58.520    0.415    0.343   21.131
  320.500   57.961    0.420    0.340   21.298
  320.750   57.402    0.423    0.341   21.381
  321.000   57.422    0.428    0.349   21.546
  321.250   58.087    0.430    0.350   21.712
  321.500   58.714    0.424    0.357   21.797
  321.750   59.987    0.418    0.356   21.964
  322.000   60.026    0.414    0.341   21.971
  322.250   60.672    0.414    0.337   21.977
  322.500   60.711    0.418    0.336   21.986
  322.750   60.750    0.419    0.340   21.991
  323.000   60.799    0.415    0.349   21.996
  323.250   60.828    0.413    0.350   21.922
  323.500   60.857    0.410    0.344   21.929
  323.750   60.896    0.408    0.343   21.857
  324.000   60.935    0.404    0.342   21.865
  324.250   58.564    0.401    0.343   21.788
  324.500   57.369    0.400    0.350   21.717
  324.750   57.408    0.398    0.351   21.645
  325.000   58.054    0.398    0.353   21.569
  325.250   58.103    0.397    0.355   21.495
  325.500   58.152    0.397    0.358   21.342
  325.750   58.191    0.400    0.360   21.271
  326.000   58.230    0.400    0.364   21.118
  326.250   58.278    0.400    0.368   21.045
  326.500   58.307    0.399    0.377   20.971
  326.750   58.346    0.399    0.367   20.898
  327.000   58.376    0.399    0.360   20.825
  327.250   59.041    0.399    0.354   20.831
  327.500   59.061    0.399    0.351   20.837
  327.750   59.707    0.399    0.351   20.923
  328.000   60.980    0.399    0.357   21.009
  328.250   62.233    0.399    0.364   21.174
  328.500   62.870    0.400    0.354   21.260
  328.750   63.516    0.403    0.336   21.429
  329.000   64.162    0.406    0.335   21.593
  329.250   64.828    0.409    0.334   21.678
  329.500   65.454    0.410    0.335   21.763
  329.750   66.718    0.409    0.344   21.849
  330.000   67.981    0.410    0.343   21.934
  330.250   68.617    0.412    0.338   22.022
  330.500   68.647    0.414    0.337   22.028
  330.750   68.695    0.414    0.337   22.034
  331.000   68.127    0.412    0.337   21.883
  331.250   67.558    0.407    0.334   21.808
  331.500   67.010    0.404    0.333   21.733
  331.750   67.029    0.401    0.331   21.582
  332.000   67.078    0.401    0.330   21.429
  332.250   67.724    0.397    0.329   21.356
  332.500   67.763    0.396    0.328   21.202
  332.750   67.792    0.394    0.325   21.049
  333.000   67.234    0.391    0.324   20.899
  333.250   65.451    0.390    0.324   20.824
  333.500   63.070    0.389    0.324   20.671
  333.750   61.875    0.386    0.322   20.598
  334.000   59.485    0.384    0.322   20.526
  334.250   55.900    0.377    0.325   20.529
  334.500   53.500    0.377    0.328   20.539
  334.750   51.110    0.375    0.329   20.545
  335.000   49.327    0.374    0.332   20.470
  335.250   48.161    0.372    0.335   20.477
  335.500   47.583    0.370    0.337   20.403
  335.750   46.398    0.368    0.337   20.171
  336.000   45.840    0.367    0.336   20.018
  336.250   45.271    0.367    0.332   19.865
  336.500   44.703    0.366    0.330   19.873
  336.750   44.135    0.366    0.326   19.878
