~VERSION INFORMATION
 VERS.                 2.0:   CWLS LOG ASCII STANDARD -VERSION 2.0
 WRAP.                  NO:   ONE LINE PER DEPTH STEP
~WELL INFORMATION BLOCK
#MNEM.UNIT           DATA                    DESCRIPTION OF MNEMONIC
#---------    -------------------            -------------------------------
# Generated from Intellog Unique Number	CW_70_72/WELL/3017
NULL.         -999.25                        : NULL_VALUE
WELL.         MESA SULPETRO CALL 07-30       : Well_name    - WELL              
LOC .         07-30-070-22W4                 : Location     - LOCATION          
UWI .         00/07-30-070-22W4/0            : Uwi          - UNIQUE WELL ID    
ENTR.         jj                             : Entered      - ENTERED BY        
SRVC.         SCHLUMBERGER                   : Scn          - SERVICE COMPANY   
DATE.         14 JAN 78                      : Date         - LOG DATE          
STRT.M        411.48                         : top_depth    - START DEPTH       
STOP.M        636.98                         : bot_depth    - STOP DEPTH        
STEP.M        0.25                           : increment    - STEP LENGTH       
~CURVE INFORMATION BLOCK
#MNEM UNIT       ERCB CURVE CODE    CURVE DESCRIPTION
#-----------   ------------------   ----------------------------------
DEPT.M        00 001 00 00         : DEPTH        - DEPTH                       
ILD .OHMM     00 120 00 00         : RESD         - DEEP RESISTIVITY (DIL)      
CALI.MM       00 280 01 00         : CAL          - CALIPER                     
GR  .API      00 310 00 00         : GR           - GAMMA RAY                   
NPHI.V/V      00 330 00 00         : PHIN         - NEUTRON POROSITY (SANDSTONE)
DPHI.V/V      00 890 00 00         : PHID         - DENSITY POROSITY (SANDSTONE)
~PARAMETER INFORMATION       
#MNEM.UNIT           DATA             DESCRIPTION OF MNEMONIC
#---------         -----------     ------------------------------
GL  .M        659.282              : gl           - GROUND LEVEL ELEVATION      
EREF.M        662.33               : kb           - ELEVATION OF DEPTH REFERENCE
DATM.M        659.282              : datum        - DATUM ELEVATION             
TDD .M        652.882              : tdd          - TOTAL DEPTH DRILLER         
RUN .         ONE                  : Run          - RUN NUMBER                  
ENG .         RUMSEY               : Engineer     - RECORDING ENGINEER          
WIT .         STRANDBERG           : Witness      - WITNESSED BY                
BASE.         EDM                  : Branch       - HOME BASE OF LOGGING UNIT   
MUD .         GEL CHEM             : Mud_type     - MUD TYPE                    
MATR.         SANDSTONE            : Logunit      - NEUTRON MATRIX              
TMAX.C        25                   : BHT          - MAXIMUM RECORDED TEMPERATURE
BHTD.M        652.882              : BHTDEP       - MAXIMUM RECORDED TEMPERATURE
RMT .C        15.5556              : MDTP         - TEMPERATURE OF MUD          
MUDD.KG/M     1008                 : MWT          - MUD DENSITY                 
NEUT.         1                    : NEUTRON      - NEUTRON TYPE                
RESI.         0                    : RESIST       - RESISTIVITY TYPE            
RM  .OHMM     2.88                 : RM           - RESISTIVITY OF MUD          
RMC .OHMM     2.5                  : RMC          - RESISTIVITY OF MUD CAKE     
RMF .OHMM     3.34                 : RMF          - RESISTIVITY OF MUD FILTRATE 
SUFT.C        -17.7778             : SUFT         - SURFACE TEMPERATURE         
~A  DEPTH     RESD      CAL       GR     PHIN     PHID
  411.480    2.295  185.734   92.693    0.564    0.247
  411.730    2.302  180.654   88.319    0.542    0.248
  411.980    2.308  169.106   91.782    0.540    0.231
  412.230    2.324  180.920   95.935    0.535    0.252
  412.480    2.352  192.521  100.593    0.510    0.245
  412.730    2.385  191.486  100.481    0.505    0.241
  412.980    2.410  188.441   96.734    0.528    0.239
  413.230    2.454  187.187   93.866    0.557    0.232
  413.480    2.493  189.334   99.525    0.568    0.225
  413.730    2.528  190.316  103.177    0.540    0.220
  413.980    2.574  191.722  102.943    0.509    0.211
  414.230    2.620  193.236  102.205    0.530    0.206
  414.480    2.657  191.247  101.155    0.506    0.213
  414.730    2.706  187.552  100.041    0.514    0.221
  414.980    2.739  184.079   98.739    0.534    0.227
  415.230    2.761  186.548   96.876    0.544    0.227
  415.480    2.764  191.348   96.512    0.547    0.212
  415.730    2.782  192.866   99.914    0.542    0.220
  415.980    2.800  190.449   99.867    0.540    0.214
  416.230    2.814  188.779   97.499    0.542    0.205
  416.480    2.832  187.418   98.519    0.538    0.218
  416.730    2.809  186.915  100.414    0.514    0.209
  416.980    2.759  186.732   97.484    0.522    0.190
  417.230    2.665  186.859   97.312    0.535    0.190
  417.480    2.564  185.614   99.646    0.515    0.212
  417.730    2.490  186.167   99.598    0.521    0.239
  417.980    2.419  189.803  100.805    0.533    0.252
  418.230    2.380  196.095  103.705    0.552    0.229
  418.480    2.387  201.436  102.279    0.559    0.223
  418.730    2.504  200.820   98.971    0.568    0.225
  418.980    2.637  195.966   96.667    0.579    0.234
  419.230    2.669  193.014   96.869    0.583    0.227
  419.480    2.647  189.644   99.019    0.577    0.215
  419.730    2.595  185.315  100.975    0.561    0.207
  419.980    2.544  183.853  101.619    0.525    0.200
  420.230    2.490  186.640  101.571    0.513    0.207
  420.480    2.450  187.942  100.584    0.513    0.219
  420.730    2.425  185.529   98.654    0.513    0.233
  420.980    2.612  187.253   94.781    0.528    0.251
  421.230    3.131  193.222   89.533    0.561    0.274
  421.480    4.437  198.133   82.459    0.592    0.302
  421.730    5.671  197.313   72.941    0.478    0.234
  421.980    6.488  178.752   66.248    0.381    0.112
  422.230    6.804  158.602   60.868    0.351    0.079
  422.480    6.735  156.505   56.431    0.364    0.148
  422.730    6.289  156.004   57.074    0.381    0.231
  422.980    5.634  155.393   60.979    0.421    0.268
  423.230    4.888  154.782   58.547    0.455    0.251
  423.480    4.471  154.278   60.634    0.483    0.280
  423.730    4.326  154.838   64.285    0.464    0.294
  423.980    4.521  157.093   72.264    0.435    0.255
  424.230    4.842  166.778   79.868    0.451    0.266
  424.480    5.215  182.200   85.090    0.494    0.285
  424.730    5.018  175.007   82.974    0.457    0.239
  424.980    4.512  165.474   76.216    0.451    0.253
  425.230    4.020  163.376   72.468    0.443    0.284
  425.480    3.601  160.855   72.359    0.445    0.309
  425.730    3.226  157.693   76.389    0.515    0.394
  425.980    2.906  159.209   81.043    0.556    0.439
  426.230    2.812  175.799   86.200    0.593    0.480
  426.480    2.995  196.746   91.985    0.566    0.435
  426.730    3.293  216.947   95.387    0.580    0.353
  426.980    3.711  271.558   95.466    0.598    0.376
  427.230    4.158  295.052  100.937    0.586    0.312
  427.480    4.616  262.903  104.655    0.467    0.244
  427.730    4.770  228.311  106.613    0.449    0.222
  427.980    4.818  193.186  107.130    0.428    0.204
  428.230    4.620  172.717  103.570    0.407    0.215
  428.480    4.130  159.361   99.574    0.418    0.256
  428.730    3.543  150.469   96.013    0.467    0.295
  428.980    2.809  150.710   89.757    0.502    0.316
  429.230    2.406  152.649   82.811    0.588    0.378
  429.480    2.372  155.538   76.868    0.604    0.422
  429.730    2.536  163.104   81.088    0.587    0.401
  429.980    2.732  178.528   82.107    0.556    0.353
  430.230    2.987  198.305   81.306    0.551    0.339
  430.480    3.247  194.084   78.184    0.565    0.324
  430.730    3.471  185.829   82.217    0.557    0.314
  430.980    3.773  178.951   82.982    0.508    0.270
  431.230    4.134  170.378   81.868    0.497    0.301
  431.480    4.452  166.370   80.944    0.487    0.299
  431.730    4.592  169.262   79.518    0.434    0.244
  431.980    4.545  159.407   78.154    0.418    0.234
  432.230    4.490  154.663   76.038    0.413    0.219
  432.480    4.511  153.095   72.916    0.408    0.239
  432.730    4.706  151.949   69.921    0.397    0.231
  432.980    5.578  150.276   72.511    0.403    0.193
  433.230    7.743  147.221   77.100    0.410    0.191
  433.480   10.588  143.429   80.504    0.426    0.214
  433.730   14.836  143.132   81.144    0.449    0.196
  433.980   20.907  153.670   75.077    0.460    0.305
  434.230   26.618  166.122   64.369    0.434    0.302
  434.480   29.602  159.351   51.215    0.413    0.287
  434.730   30.537  154.393   40.569    0.394    0.309
  434.980   29.991  153.775   34.501    0.386    0.308
  435.230   27.901  156.145   32.824    0.375    0.302
  435.480   25.759  158.184   32.587    0.372    0.293
  435.730   24.092  158.527   33.795    0.373    0.299
  435.980   21.829  158.242   36.319    0.382    0.301
  436.230   19.086  158.056   37.336    0.399    0.297
  436.480   16.405  157.446   37.041    0.415    0.311
  436.730   13.479  156.728   36.303    0.432    0.323
  436.980    9.950  156.221   36.069    0.439    0.324
  437.230    7.345  154.862   36.962    0.432    0.317
  437.480    5.662  152.128   38.605    0.385    0.304
  437.730    4.885  149.927   43.199    0.369    0.279
  437.980    4.136  150.166   51.931    0.362    0.242
  438.230    3.995  152.102   63.988    0.373    0.197
  438.480    4.036  154.567   74.853    0.439    0.216
  438.730    4.292  156.080   82.080    0.409    0.233
  438.980    4.344  155.682   87.237    0.392    0.246
  439.230    4.109  155.178   92.835    0.388    0.210
  439.480    3.473  156.481   97.995    0.403    0.201
  439.730    2.974  160.643   95.188    0.422    0.192
  439.980    2.635  173.627   91.315    0.436    0.217
  440.230    2.410  177.690   90.892    0.418    0.247
  440.480    2.245  172.832   92.223    0.407    0.266
  440.730    2.153  168.081   93.430    0.490    0.300
  440.980    2.258  165.872   95.200    0.536    0.358
  441.230    2.549  169.827   96.031    0.592    0.465
  441.480    3.016  190.030   94.481    0.578    0.445
  441.730    3.595  210.978   94.808    0.570    0.415
  441.980    4.310  216.525   98.398    0.593    0.428
  442.230    4.866  219.204  102.929    0.601    0.436
  442.480    4.981  228.362  106.270    0.587    0.294
  442.730    4.776  217.344  104.654    0.454    0.230
  442.980    4.780  170.752   99.151    0.450    0.209
  443.230    4.977  167.811   92.519    0.466    0.215
  443.480    5.230  182.805   85.385    0.476    0.278
  443.730    5.742  168.389   80.256    0.430    0.242
  443.980    6.102  153.444   82.341    0.469    0.263
  444.230    6.426  169.076   85.368    0.482    0.303
  444.480    6.408  167.089   83.064    0.478    0.301
  444.730    6.051  161.061   76.745    0.486    0.262
  444.980    5.660  155.990   77.765    0.502    0.243
  445.230    5.197  157.182   79.535    0.511    0.255
  445.480    4.944  157.851   80.868    0.500    0.257
  445.730    4.839  157.871   83.390    0.486    0.269
  445.980    4.717  157.684   87.420    0.453    0.260
  446.230    4.607  156.233   87.939    0.447    0.238
  446.480    4.509  155.300   87.013    0.458    0.234
  446.730    4.479  154.157   87.342    0.451    0.229
  446.980    4.449  153.439   87.732    0.451    0.207
  447.230    4.607  153.356   87.563    0.480    0.237
  447.480    5.554  154.238   87.074    0.470    0.219
  447.730    6.571  155.330   85.833    0.458    0.216
