~VERSION INFORMATION
 VERS.                 2.0:   CWLS LOG ASCII STANDARD -VERSION 2.0
 WRAP.                  NO:   ONE LINE PER DEPTH STEP
~WELL INFORMATION BLOCK
#MNEM.UNIT           DATA                    DESCRIPTION OF MNEMONIC
#---------    -------------------            -------------------------------
# Generated from Intellog Unique Number	CS_73_76/WELL/2166
WELL.         BOW VALLEY INDUSTRIES LTD.     : Well_name    - WELL
LOC .         00/06-23-074-14W4/0            : Location     - LOCATION
UWI .         00/06-23-074-14W4/0            : Uwi          - UNIQUE WELL ID
ENTR.         SP                             : Entered      - ENTERED BY
SRVC.         SCHLUMBERGER                   : Scn          - SERVICE COMPANY
STRT.M        410                            : top_depth    - START DEPTH
STOP.M        625                            : bot_depth    - STOP DEPTH
STEP.M        0.25                           : increment    - STEP LENGTH
 NULL. -999.2500:NULL Value
~CURVE INFORMATION BLOCK
#MNEM UNIT       ERCB CURVE CODE    CURVE DESCRIPTION
#-----------   ------------------   ----------------------------------
DEPT.M        00 001 00 00         : DEPTH        - DEPTH
GR  .API      00 310 00 00         : GR           - GAMMA RAY
NPHI.V/V      00 330 00 00         : PHIN         - NEUTRON POROSITY (LIMESTONE)
ILD .OHMM     00 120 00 00         : RESD         - DEEP RESISTIVITY (DIL)
DPHI.V/V      00 890 00 00         : PHID         - DENSITY POROSITY (LIMESTONE)
~PARAMETER INFORMATION
#MNEM.UNIT           DATA             DESCRIPTION OF MNEMONIC
#---------         -----------     ------------------------------
GL  .M        770.81               : gl           - GROUND LEVEL ELEVATION
EREF.M        774.16               : kb           - ELEVATION OF DEPTH REFERENCE
DATM.M        770.81               : datum        - DATUM ELEVATION
TDD .M        626                  : tdd          - TOTAL DEPTH DRILLER
RUN .         ONE                  : Run          - RUN NUMBER
ENG .         BILL                 : Engineer     - RECORDING ENGINEER
WIT .         JIM                  : Witness      - WITNESSED BY
MUD .         GEL                  : Mud_type     - MUD TYPE
MATR.         LIMESTONE            : Logunit      - NEUTRON MATRIX
TMAX.C        22                   : BHT          - MAXIMUM RECORDED TEMPERATURE
BHTD.M        626                  : BHTDEP       - MAXIMUM RECORDED TEMPERATURE
MATR.         1                    : LOGUNIT      - NEUTRON MATRIX
RMT .C        25                   : MDTP         - TEMPERATURE OF MUD
NEUT.         1                    : NEUTRON      - NEUTRON TYPE
RESI.         0                    : RESIST       - RESISTIVITY TYPE
RMC .OHMM     0.25                 : RMC          - RESISTIVITY OF MUD CAKE
RMF .OHMM     0.25                 : RMF          - RESISTIVITY OF MUD FILTRATE
SUFT.C        15                   : SUFT         - SURFACE TEMPERATURE
~A  DEPTH       GR     PHIN     RESD     PHID
# ...
  540.500   87.675    0.454    4.890    0.210
  540.750   89.503    0.456    4.624    0.211
  541.000   87.672    0.458    4.538    0.211
  541.250   85.842    0.457    4.708    0.180
  541.500   80.352    0.446    5.162    0.150
  541.750   76.693    0.433    5.455    0.083
  542.000   74.252    0.364    5.659    0.089
  542.250   80.348    0.429    5.762    0.213
  542.500   84.005    0.465    5.551    0.231
  542.750   84.614    0.454    5.347    0.234
  543.000   82.782    0.428    5.247    0.214
  543.250   82.781    0.416    5.343    0.199
  543.500   82.779    0.421    5.341    0.213
  543.750   83.388    0.427    5.241    0.225
  544.000   83.997    0.432    5.049    0.213
  544.250   84.605    0.432    4.864    0.217
  544.500   83.384    0.438    4.772    0.220
  544.750   82.163    0.454    4.771    0.240
  545.000   80.333    0.458    5.041    0.251
  545.250   76.063    0.461    5.134    0.244
  545.500   74.232    0.462    5.228    0.251
  545.750   74.841    0.471    5.324    0.256
  546.000   73.010    0.477    5.322    0.272
  546.250   69.350    0.471    5.222    0.255
  546.500   68.739    0.475    5.030    0.257
  546.750   70.566    0.485    4.936    0.255
  547.000   71.174    0.479    4.844    0.265
  547.250   71.173    0.457    4.753    0.273
  547.500   71.782    0.443    4.752    0.280
  547.750   71.780    0.445    4.750    0.270
  548.000   72.389    0.455    4.748    0.267
  548.250   75.436    0.480    4.660    0.265
  548.500   76.044    0.467    4.657    0.261
  548.750   74.214    0.450    4.656    0.262
  549.000   72.993    0.440    4.654    0.266
  549.250   71.772    0.432    4.567    0.261
  549.500   72.380    0.443    4.565    0.253
  549.750   72.989    0.459    4.564    0.258
  550.000   74.816    0.467    4.648    0.261
  550.250   76.034    0.466    4.645    0.260
  550.500   76.643    0.462    4.730    0.242
  550.750   76.641    0.454    4.729    0.220
  551.000   76.639    0.444    4.728    0.248
  551.250   76.639    0.452    4.726    0.248
  551.500   77.246    0.465    4.638    0.258
  551.750   77.855    0.466    4.722    0.254
  552.000   79.073    0.456    4.721    0.258
  552.250   79.681    0.457    4.718    0.260
  552.500   81.509    0.461    4.717    0.241
  552.750   82.118    0.457    4.715    0.227
  553.000   83.946    0.457    4.714    0.235
  553.250   89.432    0.456    4.712    0.240
  553.500   96.748    0.460    4.710    0.244
  553.750  105.283    0.465    4.708    0.253
  554.000  116.867    0.454    4.620    0.260
  554.250  140.646    0.442    4.619    0.253
  554.500  155.278    0.436    4.617    0.256
  554.750  158.326    0.444    4.616    0.258
  555.000  156.495    0.453    4.529    0.252
  555.250  133.933    0.459    4.527    0.237
  555.500   84.541    0.467    4.442    0.242
  555.750   84.540    0.471    4.441    0.230
  556.000   85.148    0.457    4.278    0.240
  556.250   88.196    0.454    4.121    0.248
  556.500   93.072    0.461    4.044    0.224
  556.750   96.729    0.462    4.042    0.209
  557.000   99.777    0.465    4.116    0.213
  557.250   93.068    0.474    4.192    0.238
  557.500   82.701    0.457    4.430    0.246
  557.750   78.431    0.451    4.681    0.253
  558.000   77.210    0.442    4.856    0.237
  558.250   75.380    0.440    4.945    0.218
  558.500   74.159    0.438    5.035    0.226
  558.750   72.328    0.443    5.128    0.225
  559.000   71.106    0.455    5.222    0.203
  559.250   69.886    0.459    5.833    0.166
  559.500   68.665    0.405    6.638    0.136
  559.750   67.444    0.310    7.696    0.064
  560.000   64.393    0.277   10.155    0.051
  560.250   62.563    0.243   11.772    0.020
  560.500   61.343    0.227   12.441    0.011
  560.750   58.902    0.239   11.337    0.034
  561.000   61.950    0.302    8.744    0.127
  561.250   68.655    0.419    7.263    0.173
  561.500   77.190    0.443    6.261    0.223
  561.750   81.457    0.450    5.601    0.231
  562.000   80.846    0.451    5.103    0.234
  562.250   77.186    0.432    5.101    0.217
  562.500   74.746    0.411    5.100    0.191
  562.750   74.744    0.391    5.194    0.164
  563.000   75.962    0.403    5.289    0.224
  563.250   79.619    0.424    5.189    0.235
  563.500   80.838    0.432    5.093    0.219
  563.750   83.275    0.432    4.905    0.222
  564.000   82.664    0.436    4.814    0.218
  564.250   79.004    0.432    4.811    0.193
  564.500   75.954    0.439    5.180    0.158
  564.750   72.904    0.455    6.004    0.127
  565.000   66.195    0.447    6.585    0.138
  565.250   62.535    0.362    7.494    0.050
  565.500   68.631    0.294    8.067    0.040
  565.750   76.556    0.317    8.369    0.112
  566.000   80.214    0.348    7.485    0.144
  566.250   85.700    0.398    7.079    0.170
  566.500   89.967    0.425    6.450    0.161
  566.750   91.794    0.433    6.100    0.172
  567.000   91.793    0.436    5.662    0.158
  567.250   93.621    0.426    5.454    0.140
  567.500   96.668    0.439    5.254    0.155
  567.750   97.886    0.450    5.251    0.172
  568.000   97.885    0.445    5.250    0.166
  568.250   96.664    0.438    5.445    0.193
  568.500   98.491    0.419    5.444    0.180
  568.750   99.100    0.402    5.442    0.170
  569.000  100.318    0.393    5.542    0.189
  569.250  101.537    0.391    5.643    0.194
  569.500  102.144    0.392    5.642    0.181
  569.750  102.144    0.399    5.334    0.184
  570.000   98.484    0.404    5.138    0.180
  570.250   93.604    0.408    5.043    0.161
  570.500   87.505    0.426    4.858    0.160
  570.750   82.626    0.435    4.679    0.145
  571.000   83.234    0.431    4.592    0.131
  571.250   86.891    0.428    4.676    0.164
  571.500   90.548    0.437    4.504    0.189
  571.750   92.376    0.450    4.104    0.197
  572.000   92.984    0.456    3.409    0.204
  572.250   92.373    0.456    3.050    0.214
  572.500   91.762    0.475    2.581    0.233
  572.750   90.541    0.513    2.224    0.247
  573.000   89.930    0.532    2.027    0.243
  573.250   89.929    0.536    1.989    0.234
  573.500   90.537    0.523    1.952    0.226
  573.750   94.194    0.529    1.951    0.223
  574.000   97.851    0.536    1.950    0.216
  574.250  100.288    0.547    1.950    0.208
  574.500  100.897    0.538    2.022    0.197
  574.750   99.675    0.532    2.059    0.183
  575.000   98.455    0.544    2.098    0.192
  575.250   97.235    0.550    2.618    0.206
  575.500   92.965    0.501    3.268    0.186
  575.750   91.134    0.441    3.720    0.176
  576.000   90.523    0.408    4.393    0.166
  576.250   91.741    0.409    4.817    0.150
  576.500   92.350    0.415    5.090    0.144
  576.750   92.348    0.402    5.379    0.147
  577.000   91.737    0.408    5.478    0.130
  577.250   86.248    0.422    5.788    0.092
  577.500   81.978    0.374    6.117    0.023
  577.750   79.537    0.364    6.345    0.060
  578.000   85.634    0.393    5.676    0.165
  578.250   91.729    0.416    5.367    0.182
  578.500   94.167    0.425    4.983    0.188
  578.750   95.385    0.430    4.540    0.194
  579.000   94.773    0.436    4.215    0.188
  579.250   94.163    0.448    4.060    0.162
  579.500   94.161    0.454    3.984    0.150
  579.750   95.379    0.459    3.909    0.144
  580.000   95.988    0.466    3.836    0.151
  580.250   97.816    0.463    3.764    0.162
  580.500   99.644    0.464    3.626    0.179
  580.750  100.252    0.471    3.493    0.164
  581.000  102.080    0.484    3.365    0.163
  581.250  102.688    0.495    3.181    0.155
  581.500   99.028    0.504    3.122    0.139
  581.750   97.198    0.492    3.064    0.135
  582.000  104.513    0.488    2.951    0.135
  582.250  107.561    0.499    2.896    0.169
  582.500  104.510    0.483    2.842    0.180
  582.750  100.240    0.480    2.841    0.172
  583.000   98.410    0.477    3.002    0.153
  583.250   98.409    0.459    3.232    0.144
  583.500   99.017    0.432    3.544    0.138
  583.750   99.626    0.427    3.745    0.129
