~VERSION INFORMATION
 VERS.                 2.0:   CWLS LOG ASCII STANDARD -VERSION 2.0
 WRAP.                  NO:   ONE LINE PER DEPTH STEP
~WELL INFORMATION BLOCK
#MNEM.UNIT           DATA                    DESCRIPTION OF MNEMONIC
#---------    -------------------            -------------------------------
# Generated from Intellog Unique Number	CW_70_72/WELL/528
NULL.         -999.25                        : NULL_VALUE
WELL.         RAVENNA ET AL CALL 05-24       : Well_name    - WELL              
LOC .         05-24-071-19W4                 : Location     - LOCATION          
UWI .         00/05-24-071-19W4/0            : Uwi          - UNIQUE WELL ID    
ENTR.         JAYE                           : Entered      - ENTERED BY        
SRVC.         COMPUTALOG                     : Scn          - SERVICE COMPANY   
DATE.         31 JAN 82                      : Date         - LOG DATE          
STRT.M        310                            : top_depth    - START DEPTH       
STOP.M        477                            : bot_depth    - STOP DEPTH        
STEP.M        0.25                           : increment    - STEP LENGTH       
~CURVE INFORMATION BLOCK
#MNEM UNIT       ERCB CURVE CODE    CURVE DESCRIPTION
#-----------   ------------------   ----------------------------------
DEPT.M        00 001 00 00         : DEPTH        - DEPTH                       
DPHI.V/V      00 890 00 00         : PHID         - DENSITY POROSITY (SANDSTONE)
NPHI.V/V      00 330 00 00         : PHIN         - NEUTRON POROSITY (SANDSTONE)
GR  .API      00 310 00 00         : GR           - GAMMA RAY                   
CALI.MM       00 280 01 00         : CAL          - CALIPER                     
ILD .OHMM     00 120 00 00         : RESD         - DEEP RESISTIVITY (DIL)      
~PARAMETER INFORMATION       
#MNEM.UNIT           DATA             DESCRIPTION OF MNEMONIC
#---------         -----------     ------------------------------
GL  .M        589.6                : gl           - GROUND LEVEL ELEVATION      
EREF.M        593.2                : kb           - ELEVATION OF DEPTH REFERENCE
DATM.M        589.6                : datum        - DATUM ELEVATION             
TDD .M        480                  : tdd          - TOTAL DEPTH DRILLER         
RUN .         ONE                  : Run          - RUN NUMBER                  
ENG .         EISLER               : Engineer     - RECORDING ENGINEER          
WIT .         TAVATAVAI            : Witness      - WITNESSED BY                
BASE.         LLOYDMINISTER        : Branch       - HOME BASE OF LOGGING UNIT   
MUD .         GEL CHEM             : Mud_type     - MUD TYPE                    
MATR.         SANDSTONE            : Logunit      - NEUTRON MATRIX              
TMAX.C        22                   : BHT          - MAXIMUM RECORDED TEMPERATURE
BHTD.M        479.4                : BHTDEP       - MAXIMUM RECORDED TEMPERATURE
RMT .C        17.2                 : MDTP         - TEMPERATURE OF MUD          
MUDD.KG/M     1110                 : MWT          - MUD DENSITY                 
NEUT.         1                    : NEUTRON      - NEUTRON TYPE                
RESI.         0                    : RESIST       - RESISTIVITY TYPE            
RM  .OHMM     5.2                  : RM           - RESISTIVITY OF MUD          
RMC .OHMM     0                    : RMC          - RESISTIVITY OF MUD CAKE     
RMF .OHMM     5                    : RMF          - RESISTIVITY OF MUD FILTRATE 
SUFT.C        0                    : SUFT         - SURFACE TEMPERATURE         
~A  DEPTH     PHID     PHIN       GR      CAL     RESD
# ...
  383.000    0.230    0.383   93.706  146.771    4.917
  383.250    0.217    0.410   88.289  147.412    4.959
  383.500    0.208    0.398   88.171  148.474    5.019
  383.750    0.198    0.389   89.753  149.430    5.051
  384.000    0.191    0.372   92.660  150.911    5.161
  384.250    0.183    0.355   95.251  154.181    5.690
  384.500    0.179    0.333   96.960  153.562    6.050
  384.750    0.183    0.370   97.093  152.837    6.360
  385.000    0.188    0.397   97.100  154.738    6.462
  385.250    0.195    0.385   95.908  155.590    6.479
  385.500    0.196    0.343   96.987  154.550    6.434
  385.750    0.191    0.345   98.570  158.028    6.368
  386.000    0.186    0.361  100.341  155.622    6.324
  386.250    0.176    0.378  102.239  154.058    6.293
  386.500    0.170    0.396  102.120  154.910    6.321
  386.750    0.176    0.412  101.559  153.974    6.314
  387.000    0.172    0.360  101.628  153.984    6.319
  387.250    0.170    0.327  103.211  157.569    6.300
  387.500    0.163    0.348  105.046  159.681    6.304
  387.750    0.155    0.372  103.791  160.322    6.309
  388.000    0.155    0.380  103.420  160.649    6.362
  388.250    0.155    0.386  104.877  160.766    6.343
  388.500    0.154    0.395  106.964  161.300    6.205
  388.750    0.152    0.410  110.375  161.945    5.956
  389.000    0.151    0.420  111.958  162.163    5.484
  389.250    0.147    0.375  111.649  162.383    5.068
  389.500    0.143    0.353  110.143  162.605    4.588
  389.750    0.148    0.336  109.140  162.826    4.248
  390.000    0.162    0.350  109.020  162.941    3.867
  390.250    0.218    0.374  105.874  163.164    3.568
  390.500    0.243    0.382  100.963  163.279    3.639
  390.750    0.254    0.403  102.547  163.185    3.936
  391.000    0.258    0.446  104.318  163.300    4.264
  391.250    0.247    0.395  105.018  162.576    4.656
  391.500    0.209    0.389  101.052  163.532    5.143
  391.750    0.194    0.403   98.410  160.496    5.478
  392.000    0.201    0.410   97.030  156.934    5.715
  392.250    0.198    0.359   96.280  154.004    5.688
  392.500    0.192    0.341   95.845  152.857    5.659
  392.750    0.194    0.368   95.410  152.973    5.621
  393.000    0.195    0.387   96.489  152.984    5.636
  393.250    0.194    0.396   97.440  154.150    5.640
  393.500    0.194    0.390   98.329  152.480    5.676
  393.750    0.198    0.385   98.777  150.705    5.778
  394.000    0.189    0.386   98.595  149.981    5.904
  394.250    0.187    0.401   98.097  150.411    6.011
  394.500    0.189    0.409   91.105  150.423    6.131
  394.750    0.178    0.362   88.778  150.012    6.216
  395.000    0.172    0.339   88.911  149.287    6.280
  395.250    0.174    0.324   90.935  148.984    6.297
  395.500    0.179    0.363   90.502  149.730    6.033
  395.750    0.193    0.399   88.237  151.948    5.430
  396.000    0.216    0.438   85.028  154.585    5.038
  396.250    0.232    0.432   84.152  155.543    4.919
  396.500    0.250    0.410   85.356  155.557    4.877
  396.750    0.269    0.379   87.191  155.252    4.880
  397.000    0.268    0.341   90.287  155.156    4.866
  397.250    0.255    0.339   94.581  155.376    4.823
  397.500    0.237    0.417   96.605  155.596    4.700
  397.750    0.236    0.448   91.694  155.817    4.572
  398.000    0.247    0.484   83.755  155.828    4.524
  398.250    0.266    0.514   82.249  154.262    4.588
  398.500    0.249    0.426   83.706  151.541    4.851
  398.750    0.232    0.445   83.712  151.026    5.148
  399.000    0.175    0.238   79.368  152.404    5.706
  399.250    0.130    0.169   70.484  155.882    6.810
  399.500    0.072    0.148   63.240  159.256    7.931
  399.750    0.032    0.147   58.139  160.002    8.758
  400.000    0.027    0.156   58.209  160.225    9.436
  400.250    0.045    0.168   60.297  160.027    9.127
  400.500    0.070    0.191   63.202  160.035    6.980
  400.750    0.105    0.291   66.866  159.730    5.846
  401.000    0.183    0.344   68.827  159.111    5.312
  401.250    0.260    0.378   69.844  158.701    4.603
  401.500    0.277    0.404   70.355  158.081    4.311
  401.750    0.285    0.383   70.865  157.147    4.226
  402.000    0.290    0.376   72.132  155.791    4.245
  402.250    0.295    0.368   73.967  152.965    4.313
  402.500    0.291    0.355   74.037  150.768    4.458
  402.750    0.281    0.361   74.170  149.731    4.581
  403.000    0.266    0.388   74.808  149.529    4.690
  403.250    0.254    0.436   75.570  149.542    4.756
  403.500    0.246    0.493   77.721  149.657    4.805
  403.750    0.241    0.457   79.681  150.297    4.827
  404.000    0.242    0.419   82.146  151.571    4.821
  404.250    0.259    0.405   83.351  153.472    4.797
  404.500    0.267    0.392   83.674  155.691    4.774
  404.750    0.261    0.376   82.545  156.121    4.715
  405.000    0.255    0.388   80.975  156.027    4.647
  405.250    0.256    0.412   78.648  155.408    4.598
  405.500    0.260    0.445   76.575  155.209    4.576
  405.750    0.263    0.437   75.825  155.325    4.588
  406.000    0.261    0.432   75.831  155.336    4.592
  406.250    0.258    0.405   76.152  155.451    4.612
  406.500    0.259    0.394   76.159  154.936    4.669
  406.750    0.264    0.376   76.355  154.107    4.734
  407.000    0.268    0.378   76.299  153.382    4.847
  407.250    0.268    0.388   75.927  153.077    4.953
  407.500    0.262    0.398   75.428  152.983    5.003
  407.750    0.257    0.419   74.552  152.890    4.979
  408.000    0.256    0.395   74.370  153.111    4.852
  408.250    0.260    0.383   74.565  153.542    4.693
  408.500    0.259    0.372   75.265  153.972    4.522
  408.750    0.256    0.369   76.092  154.194    4.441
  409.000    0.254    0.383   77.170  154.624    4.410
  409.250    0.255    0.402   78.817  155.056    4.398
  409.500    0.257    0.408   80.083  154.225    4.401
  409.750    0.260    0.392   81.604  152.978    4.379
  410.000    0.261    0.391   82.114  152.566    4.374
  410.250    0.261    0.417   82.499  152.369    4.394
  410.500    0.260    0.408   82.632  152.483    4.481
  410.750    0.258    0.389   82.890  152.598    4.588
  411.000    0.259    0.365   83.086  153.240    4.715
  411.250    0.251    0.386   82.525  152.200    4.966
  411.500    0.198    0.321   80.766  146.746    5.351
  411.750    0.172    0.279   75.097  148.123    5.754
  412.000    0.142    0.235   70.375  151.497    6.259
  412.250    0.087    0.205   66.598  157.077    6.432
  412.500    0.051    0.238   62.443  155.722    5.469
  412.750    0.114    0.283   63.900  151.110    4.848
  413.000    0.189    0.318   67.248  152.381    4.389
  413.250    0.276    0.378   72.803  156.175    4.142
  413.500    0.272    0.354   76.719  153.138    4.036
  413.750    0.263    0.354   78.365  151.047    4.109
  414.000    0.257    0.366   79.444  150.534    4.223
  414.250    0.255    0.372   79.955  150.335    4.347
  414.500    0.257    0.348   80.087  150.451    4.485
  414.750    0.258    0.342   80.472  150.566    4.591
  415.000    0.249    0.353   81.298  150.579    4.727
  415.250    0.241    0.373   82.818  150.694    4.775
  415.500    0.235    0.391   85.788  150.706    4.761
  415.750    0.226    0.403   90.901  150.611    4.747
  416.000    0.213    0.412   99.231  150.621    4.705
  416.250    0.209    0.423  115.316  150.630    4.665
  416.500    0.214    0.418  115.764  150.746    4.589
  416.750    0.225    0.409  105.241  150.968    4.456
  417.000    0.234    0.394   98.563  151.295    4.261
  417.250    0.230    0.375   96.741  151.409    4.059
  417.500    0.216    0.351  105.260  151.420    3.759
  417.750    0.203    0.364  110.878  156.686    3.534
  418.000    0.188    0.378  113.470  161.950    3.260
  418.250    0.171    0.395  114.548  165.640    2.985
  418.500    0.182    0.419  116.951  167.016    2.790
  418.750    0.193    0.420  118.786  166.713    2.776
  419.000    0.195    0.401  120.116  166.512    2.869
  419.250    0.194    0.367  121.068  166.208    3.022
