~VERSION INFORMATION
 VERS.                 2.0:   CWLS LOG ASCII STANDARD -VERSION 2.0
 WRAP.                  NO:   ONE LINE PER DEPTH STEP
~WELL INFORMATION BLOCK
#MNEM.UNIT           DATA                    DESCRIPTION OF MNEMONIC
#---------    -------------------            -------------------------------
# Generated from Intellog Unique Number	CW_70_72/WELL/3013
NULL.         -999.25                        : NULL_VALUE
WELL.         MESA MEYER 06-33               : Well_name    - WELL              
LOC .         06-33-070-24W4                 : Location     - LOCATION          
UWI .         00/06-33-070-24W4/0            : Uwi          - UNIQUE WELL ID    
ENTR.         J                              : Entered      - ENTERED BY        
SRVC.         SCHLUMBERGER                   : Scn          - SERVICE COMPANY   
DATE.         20 FEB 76                      : Date         - LOG DATE          
STRT.M        390.144                        : top_depth    - START DEPTH       
STOP.M        606.644                        : bot_depth    - STOP DEPTH        
STEP.M        0.25                           : increment    - STEP LENGTH       
~CURVE INFORMATION BLOCK
#MNEM UNIT       ERCB CURVE CODE    CURVE DESCRIPTION
#-----------   ------------------   ----------------------------------
DEPT.M        00 001 00 00         : DEPTH        - DEPTH                       
ILD .OHMM     00 120 00 00         : RESD         - DEEP RESISTIVITY (DIL)      
CALI.MM       00 280 01 00         : CAL          - CALIPER                     
GR  .API      00 310 00 00         : GR           - GAMMA RAY                   
NPHI.V/V      00 330 00 00         : PHIN         - NEUTRON POROSITY (SANDSTONE)
DPHI.V/V      00 890 00 00         : PHID         - DENSITY POROSITY (SANDSTONE)
~PARAMETER INFORMATION       
#MNEM.UNIT           DATA             DESCRIPTION OF MNEMONIC
#---------         -----------     ------------------------------
GL  .M        601.98               : gl           - GROUND LEVEL ELEVATION      
EREF.M        605.638              : kb           - ELEVATION OF DEPTH REFERENCE
DATM.M        601.98               : datum        - DATUM ELEVATION             
TDD .M        624.84               : tdd          - TOTAL DEPTH DRILLER         
RUN .         ONE                  : Run          - RUN NUMBER                  
ENG .         SLUSARCHUK           : Engineer     - RECORDING ENGINEER          
WIT .         HOVER                : Witness      - WITNESSED BY                
BASE.         EDM                  : Branch       - HOME BASE OF LOGGING UNIT   
MUD .         GEL CHEM             : Mud_type     - MUD TYPE                    
MATR.         SANDSTONE            : Logunit      - NEUTRON MATRIX              
TMAX.C        28.3333              : BHT          - MAXIMUM RECORDED TEMPERATURE
BHTD.M        625.45               : BHTDEP       - MAXIMUM RECORDED TEMPERATURE
RMT .C        16.1111              : MDTP         - TEMPERATURE OF MUD          
MUDD.KG/M     1080                 : MWT          - MUD DENSITY                 
NEUT.         1                    : NEUTRON      - NEUTRON TYPE                
RESI.         0                    : RESIST       - RESISTIVITY TYPE            
RM  .OHMM     4.6                  : RM           - RESISTIVITY OF MUD          
RMC .OHMM     0.25                 : RMC          - RESISTIVITY OF MUD CAKE     
RMF .OHMM     4.22                 : RMF          - RESISTIVITY OF MUD FILTRATE 
SUFT.C        -17.7778             : SUFT         - SURFACE TEMPERATURE         
~A  DEPTH     RESD      CAL       GR     PHIN     PHID
# ...
  536.144    4.703  163.062  108.112    0.386    0.119
  536.394    4.741  162.544  107.937    0.376    0.095
  536.644    4.826  161.092  111.487    0.375    0.101
  536.894    4.912  159.956  110.693    0.392    0.130
  537.144    5.000  159.956  111.388    0.401    0.119
  537.394    5.060  159.903  119.159    0.390    0.126
  537.644    5.060  160.125  123.329    0.376    0.141
  537.894    5.174  160.782  126.569    0.371    0.141
  538.144    5.188  160.782  125.529    0.378    0.127
  538.394    5.194  163.566  122.126    0.390    0.140
  538.644    5.206  163.889  118.477    0.386    0.151
  538.894    5.238  164.651  115.634    0.384    0.145
  539.144    5.331  164.986  121.171    0.387    0.138
  539.394    5.668  164.986  122.114    0.394    0.143
  539.644    5.798  164.986  121.632    0.405    0.148
  539.894    6.395  165.798  120.711    0.402    0.140
  540.144    7.172  165.809  114.334    0.385    0.150
  540.394    8.815  165.614  107.021    0.371    0.160
  540.644   14.697  164.908   97.290    0.374    0.177
  540.894   16.148  164.185   87.559    0.385    0.149
  541.144   15.598  161.579   78.076    0.344    0.060
  541.394   12.685  161.579   73.496    0.298    0.036
  541.644    9.865  160.064   75.246    0.260    0.006
  541.894    8.313  159.966   81.155    0.231    0.022
  542.144    7.437  159.880   90.850    0.249    0.051
  542.394    6.691  160.009   94.710    0.311    0.092
  542.644    6.122  160.552   97.142    0.330    0.111
  542.894    5.687  160.994   91.323    0.345    0.105
  543.144    5.361  161.757   81.217    0.365    0.099
  543.394    5.119  161.757   87.003    0.344    0.070
  543.644    4.826  162.114   94.151    0.336    0.071
  543.894    4.670  162.233  101.363    0.408    0.135
  544.144    4.710  162.051  108.699    0.411    0.154
  544.394    5.004  161.649   98.721    0.400    0.139
  544.644    5.498  161.790   93.271    0.402    0.155
  544.894    6.007  161.903   92.415    0.413    0.135
  545.144    6.253  161.919   93.730    0.426    0.156
  545.394    6.063  162.053   95.107    0.442    0.154
  545.644    5.779  162.053   93.135    0.470    0.144
  545.894    5.478  162.053   81.603    0.422    0.128
  546.144    5.331  161.171   86.644    0.344    0.108
  546.394    5.140  160.976   95.779    0.369    0.109
  546.644    4.910  160.994  100.693    0.398    0.128
  546.894    4.813  161.127  103.437    0.418    0.153
  547.144    4.702  161.036  103.822    0.398    0.158
  547.394    4.627  161.377  106.444    0.400    0.145
  547.644    4.562  161.613  108.129    0.412    0.141
  547.894    4.480  161.851  110.004    0.414    0.160
  548.144    4.459  162.284  109.895    0.406    0.168
  548.394    4.488  163.048  106.987    0.392    0.156
  548.644    4.559  163.058  102.967    0.389    0.144
  548.894    4.495  163.292  100.995    0.389    0.153
  549.144    4.399  162.999  101.005    0.389    0.157
  549.394    4.395  163.334  105.550    0.376    0.129
  549.644    4.422  163.780  109.285    0.361    0.117
  549.894    4.485  164.008  111.098    0.359    0.122
  550.144    4.572  164.135  112.603    0.373    0.133
  550.394    4.831  164.047  113.109    0.380    0.119
  550.644    5.171  163.964  114.364    0.386    0.116
  550.894    5.598  163.878  114.871    0.391    0.127
  551.144    6.026  163.796  112.649    0.399    0.146
  551.394    6.586  164.340  107.511    0.390    0.131
  551.644    6.791  164.994  102.434    0.374    0.104
  551.894    6.846  164.385   97.916    0.361    0.084
  552.144    6.299  163.144   99.293    0.332    0.042
  552.394    5.732  162.012  104.892    0.315    0.063
  552.644    5.453  161.192  102.922    0.342    0.114
  552.894    5.199  160.268  101.876    0.314    0.060
  553.144    5.117  159.453  111.446    0.318    0.077
  553.394    5.130  159.053  113.012    0.339    0.104
  553.644    5.658  158.754  108.368    0.373    0.140
  553.894    6.713  158.458  101.996    0.388    0.163
  554.144    7.744  157.953  100.326    0.378    0.135
  554.394    9.000  158.189   96.365    0.334    0.090
  554.644    8.420  158.417   90.482    0.309    0.055
  554.894    7.230  159.383   98.190    0.278    0.051
  555.144    6.504  161.611  110.243    0.277    0.069
  555.394    5.907  165.525  115.592    0.306    0.095
  555.644    5.394  166.595  116.724    0.335    0.117
  555.894    5.124  162.621  118.722    0.369    0.130
  556.144    5.118  160.332  122.521    0.370    0.141
  556.394    5.200  161.823  125.636    0.363    0.151
  556.644    5.342  164.367  128.813    0.365    0.155
  556.894    5.519  165.122  125.909    0.379    0.153
  557.144    5.648  162.312  120.398    0.382    0.149
  557.394    5.780  161.173  120.039    0.367    0.138
  557.644    5.972  161.090  118.686    0.364    0.129
  557.894    6.044  161.844  115.101    0.366    0.129
  558.144    5.666  163.760  111.016    0.392    0.129
  558.394    4.669  164.204  108.171    0.377    0.127
  558.644    3.927  163.382  103.157    0.359    0.122
  558.894    3.378  162.459   96.343    0.349    0.106
  559.144    2.879  161.846  102.812    0.323    0.084
  559.394    2.467  169.538  115.484    0.344    0.111
  559.644    2.374  177.758  123.192    0.456    0.180
  559.894    2.541  189.759  124.631    0.504    0.230
  560.144    2.861  208.486  117.573    0.530    0.211
  560.394    3.471  205.040  113.737    0.560    0.217
  560.644    4.323  196.969  108.287    0.589    0.238
  560.894    5.129  182.697  102.836    0.593    0.227
  561.144    5.604  165.379   96.269    0.349    0.115
  561.394    5.118  162.249  110.805    0.332    0.014
  561.644    4.596  162.278  116.715    0.352    0.050
  561.894    4.398  162.931  119.084    0.367    0.115
  562.144    4.451  164.105  118.106    0.375    0.090
  562.394    4.556  164.541  120.973    0.382    0.080
  562.644    4.671  165.301  124.522    0.391    0.103
  562.894    4.982  165.955  125.467    0.405    0.093
  563.144    5.205  166.073  128.146    0.406    0.078
  563.394    4.139  167.885  131.882    0.407    0.143
  563.644    3.366  169.060  127.676    0.410    0.131
  563.894    2.832  168.134  119.312    0.401    0.111
  564.144    2.486  163.638  111.688    0.387    0.100
  564.394    2.300  161.979  102.452    0.326    0.075
  564.644    2.281  161.264   87.384    0.287    0.033
  564.894    2.530  162.232   94.969    0.279    0.012
  565.144    2.832  163.412  101.189    0.311    0.054
  565.394    3.261  164.901  104.924    0.356    0.114
  565.644    3.658  166.603  106.984    0.387    0.108
  565.894    3.990  167.572  105.261    0.399    0.089
  566.144    4.183  167.281  103.409    0.394    0.094
  566.394    4.428  166.875  101.934    0.378    0.081
  566.644    4.714  165.638  104.367    0.368    0.037
  566.894    4.879  164.081  109.281    0.367    0.019
  567.144    4.838  162.525  114.010    0.360    0.101
  567.394    4.681  162.235  116.629    0.369    0.106
  567.644    4.463  164.145  117.452    0.380    0.116
  567.894    3.623  166.062  118.144    0.397    0.139
  568.144    1.509  166.399  120.763    0.409    0.139
  568.394    1.460  166.210  116.372    0.413    0.127
  568.644    1.749  165.910  113.464    0.410    0.097
  568.894    2.110  165.512  114.101    0.416    0.099
  569.144    2.565  163.538  117.402    0.432    0.073
  569.394    2.953  163.562  121.137    0.442    0.099
  569.644    3.143  163.269  120.653    0.448    0.111
  569.894    3.545  162.550  117.625    0.418    0.129
  570.144    4.067  161.728  114.286    0.393    0.148
  570.394    4.386  161.015  110.641    0.383    0.094
  570.644    4.565  160.511  109.346    0.374    0.082
  570.894    4.682  163.685  107.495    0.359    0.101
  571.144    4.650  166.967  107.198    0.337    0.123
  571.394    4.534  166.354  111.306    0.344    0.116
  571.644    4.371  162.069  118.457    0.358    0.102
  571.894    4.129  161.144  125.234    0.368    0.072
  572.144    4.010  162.427  129.343    0.395    0.086
  572.394    3.830  164.338  130.410    0.424    0.132
