~VERSION INFORMATION
 VERS.                 2.0:   CWLS LOG ASCII STANDARD -VERSION 2.0
 WRAP.                  NO:   ONE LINE PER DEPTH STEP
~WELL INFORMATION BLOCK
#MNEM.UNIT           DATA                    DESCRIPTION OF MNEMONIC
#---------    -------------------            -------------------------------
# Generated from Intellog Unique Number	CS_77_79/WELL/3293
WELL.         SCURRY                         : Well_name    - WELL
LOC .         00/06-20-078-02W5/0            : Location     - LOCATION
UWI .         00/06-20-078-02W5/0            : Uwi          - UNIQUE WELL ID
ENTR.         TIM                            : Entered      - ENTERED BY
SRVC.         COMPUTALOG                     : Scn          - SERVICE COMPANY
STRT.M        320.04                         : top_depth    - START DEPTH
STOP.M        573.04                         : bot_depth    - STOP DEPTH
STEP.M        0.25                           : increment    - STEP LENGTH
 NULL. -999.2500:NULL Value
~CURVE INFORMATION BLOCK
#MNEM UNIT       ERCB CURVE CODE    CURVE DESCRIPTION
#-----------   ------------------   ----------------------------------
DEPT.M        00 001 00 00         : DEPTH        - DEPTH
ILD .OHMM     00 120 00 00         : RESD         - DEEP RESISTIVITY (DIL)
GR  .API      00 310 00 00         : GR           - GAMMA RAY
DELT.US/F     00 520 00 00         : DELT         - SONIC TRAVEL TIME
~PARAMETER INFORMATION
#MNEM.UNIT           DATA             DESCRIPTION OF MNEMONIC
#---------         -----------     ------------------------------
GL  .M        641.635              : gl           - GROUND LEVEL ELEVATION
EREF.M        645.262              : kb           - ELEVATION OF DEPTH REFERENCE
DATM.M        645.262              : datum        - DATUM ELEVATION
TDD .M        575.158              : tdd          - TOTAL DEPTH DRILLER
RUN .         ONE                  : Run          - RUN NUMBER
ENG .         BILL                 : Engineer     - RECORDING ENGINEER
WIT .         JIM                  : Witness      - WITNESSED BY
MUD .         GEL                  : Mud_type     - MUD TYPE
MATR.         SANDSTONE            : Logunit      - NEUTRON MATRIX
TMAX.C        27.7778              : BHT          - MAXIMUM RECORDED TEMPERATURE
BHTD.M        573.024              : BHTDEP       - MAXIMUM RECORDED TEMPERATURE
MATR.         1                    : LOGUNIT      - NEUTRON MATRIX
RMT .C        18.8889              : MDTP         - TEMPERATURE OF MUD
NEUT.         1                    : NEUTRON      - NEUTRON TYPE
RESI.         0                    : RESIST       - RESISTIVITY TYPE
RMC .OHMM     4                    : RMC          - RESISTIVITY OF MUD CAKE
RMF .OHMM     13.1                 : RMF          - RESISTIVITY OF MUD FILTRATE
SUFT.C        5                    : SUFT         - SURFACE TEMPERATURE
~A  DEPTH     RESD       GR     DELT
# ...
  537.040    6.955  106.466  334.238
  537.290    6.959  103.508  334.915
  537.540    6.963  102.323  335.582
  537.790    6.965  101.726  336.904
  538.040    6.969   99.945  338.227
  538.290    6.973   99.936  339.549
  538.540    7.375   99.333  339.576
  538.790    7.377   98.736  337.657
  539.040    7.778   98.133  337.668
  539.290    8.179   95.769  340.296
  539.540    8.979   93.405  344.220
  539.790    9.977   91.041  348.145
  540.040   10.575   86.328  348.166
  540.290   11.970   69.259  348.198
  540.540   13.962   63.367  349.526
  540.790   18.340   59.238  350.843
  541.040   24.706   55.695  350.859
  541.290   25.705   51.570  350.230
  541.540   25.309   45.675  348.946
  541.790   24.716   38.018  347.021
  542.040   23.130   36.239  345.097
  542.290   20.749   36.815  345.113
  542.540   20.750   37.395  346.441
  542.790   20.755   39.147  347.107
  543.040   20.559   41.487  348.435
  543.290   19.966   43.237  349.102
  543.540   19.173   43.807  349.779
  543.790   17.984   43.802  349.806
  544.040   16.993   43.199  349.822
  544.290   16.202   42.599  349.193
  544.540   16.603   43.178  347.924
  544.790   17.600   46.104  346.634
  545.040   18.398   48.447  343.409
  545.290   19.595   51.961  340.173
  545.540   21.190   53.708  334.996
  545.790   22.187   53.699  331.115
  546.040   23.184   53.102  331.136
  546.290   22.989   50.147  332.459
  546.540   23.788   48.371  334.437
  546.790   41.090   47.768  336.404
  547.040   50.439   45.992  340.984
  547.290   53.624   43.043  342.307
  547.540   54.820   37.739  340.377
  547.790   55.222   34.196  336.501
  548.040   55.425   31.829  333.921
  548.290   56.024   30.644  330.690
  548.540   56.425   29.453  330.712
  548.790   56.430   30.026  331.378
  549.040   56.431   30.606  331.405
  549.290   56.237   31.185  331.427
  549.540   55.444   33.517  331.448
  549.790   53.459   34.099  330.819
  550.040   47.498   35.263  329.545
  550.290   35.372   37.013  328.266
  550.540   29.212   38.174  326.986
  550.790   26.232   38.753  326.363
  551.040   23.253   38.745  326.379
  551.290   20.871   38.733  327.701
  551.540   19.681   38.715  329.685
  551.790   18.492   39.297  330.346
  552.040   18.295   39.868  330.368
  552.290   17.902   41.032  329.088
  552.540   17.508   42.197  327.809
  552.790   17.113   42.776  327.185
  553.040   16.520   43.352  327.863
  553.290   15.927   43.928  329.180
  553.540   15.335   43.914  330.507
  553.790   14.741   45.078  330.534
  554.040   14.147   49.765  329.900
  554.290   12.362   52.112  329.271
  554.540   10.575   55.625  329.298
  554.790    8.789   55.023  329.964
  555.040    7.401   55.017  330.636
  555.290    7.205   53.826  330.658
  555.540    7.805   53.226  330.679
  555.790    8.803   52.623  331.351
  556.040    9.602   53.200  332.679
  556.290   10.004   53.779  333.351
  556.540    9.411   54.352  335.335
  556.790    8.619   54.929  335.996
  557.040    7.827   54.917  336.017
  557.290    7.631   55.496  336.044
  557.540    7.236   56.655  335.415
  557.790    7.042   58.404  335.442
  558.040    6.846   60.163  335.464
  558.290    6.650   63.091  338.737
  558.540    6.058   66.602  341.355
  558.790    5.861   69.536  346.580
  559.040    5.667   73.050  359.616
  559.290    5.670   77.746  364.191
  559.540    5.673   84.791  370.066
  559.790    5.677   90.660  370.738
  560.040    5.681   90.054  364.255
  560.290    5.685   87.693  357.122
  560.540    5.686   73.565  351.940
  560.790    5.889   71.783  346.113
  561.040    6.091   70.601  343.527
  561.290    5.300   65.882  339.646
  561.540    4.508   62.342  335.770
  561.790    4.313   57.040  331.238
  562.040    4.117   51.736  325.406
  562.290    4.121   46.431  324.126
  562.540    4.123   42.891  325.449
  562.790    4.325   38.757  328.728
  563.040    4.728   37.569  332.007
  563.290    4.930   36.969  333.980
  563.540    4.933   36.369  335.958
  563.790    5.135   36.946  337.275
  564.040    5.140   38.110  338.592
  564.290    5.141   41.039  341.226
  564.540    5.145   45.144  341.887
  564.790    5.149   49.833  342.565
  565.040    5.153   51.001  342.586
  565.290    5.156   53.338  335.453
  565.540    5.358   56.267  315.310
  565.790    5.362   59.198  361.514
  566.040    5.563   63.303  385.607
  566.290    5.569   66.817  399.939
  566.540    5.570   70.337  414.270
  566.790    5.574   82.668  429.908
  567.040    5.577   87.364  437.084
  567.290    5.582   96.762  443.615
  567.540    5.386  100.866  436.477
  567.790    5.389  100.852  416.340
  568.040    5.195  100.837  409.851
  568.290    5.197  100.243  397.514
  568.540    5.004  100.228  381.275
  568.790    5.005  100.220  365.685
  569.040    5.009  100.790  397.584
  569.290    5.012  100.781  409.964
  569.540    5.015   99.590  368.357
  569.790    5.019   98.405  354.714
  570.040    5.022   96.626  365.798
  570.290    4.827   96.618  359.315
  570.540    4.830   97.191  356.084
  570.790    4.833   97.767  367.814
  571.040    4.836   98.932  377.592
  571.290    5.040   99.508  391.279
  571.540    5.042   98.908  401.057
  571.790    5.046   97.129  410.835
  572.040    5.248   94.765  414.765
  572.290    5.451   93.577  412.835
  572.540    5.454   93.566  410.916
  572.790    5.656   95.315  410.276
  573.040    5.660   97.656  409.652
