~VERSION INFORMATION
 VERS.                 2.0:   CWLS LOG ASCII STANDARD -VERSION 2.0
 WRAP.                  NO:   ONE LINE PER DEPTH STEP
~WELL INFORMATION BLOCK
#MNEM.UNIT           DATA                    DESCRIPTION OF MNEMONIC
#---------    -------------------            -------------------------------
# Generated from Intellog Unique Number	CS_77_79/WELL/851
WELL.         BOW VALLEY INDUSTRIES LTD      : Well_name    - WELL
LOC .         00/04-26-077-15W4/0            : Location     - LOCATION
UWI .         00/04-26-077-15W4/0            : Uwi          - UNIQUE WELL ID
ENTR.         SP                             : Entered      - ENTERED BY
SRVC.         SCHLUMBERGER                   : Scn          - SERVICE COMPANY
STRT.M        270                            : top_depth    - START DEPTH
STOP.M        515                            : bot_depth    - STOP DEPTH
STEP.M        0.25                           : increment    - STEP LENGTH
 NULL. -999.2500:NULL Value
~CURVE INFORMATION BLOCK
#MNEM UNIT       ERCB CURVE CODE    CURVE DESCRIPTION
#-----------   ------------------   ----------------------------------
DEPT.M        00 001 00 00         : DEPTH        - DEPTH
ILD .OHMM     00 120 00 00         : RESD         - DEEP RESISTIVITY (DIL)
DPHI.V/V      00 890 00 00         : PHID         - DENSITY POROSITY (LIMESTONE)
NPHI.V/V      00 330 00 00         : PHIN         - NEUTRON POROSITY (LIMESTONE)
GR  .API      00 310 00 00         : GR           - GAMMA RAY
~PARAMETER INFORMATION
#MNEM.UNIT           DATA             DESCRIPTION OF MNEMONIC
#---------         -----------     ------------------------------
GL  .M        662.4                : gl           - GROUND LEVEL ELEVATION
EREF.M        665.7                : kb           - ELEVATION OF DEPTH REFERENCE
DATM.M        662.4                : datum        - DATUM ELEVATION
TDD .M        524.6                : tdd          - TOTAL DEPTH DRILLER
RUN .         ONE                  : Run          - RUN NUMBER
ENG .         BILL                 : Engineer     - RECORDING ENGINEER
WIT .         JIM                  : Witness      - WITNESSED BY
MUD .         GEL                  : Mud_type     - MUD TYPE
MATR.         LIMESTONE            : Logunit      - NEUTRON MATRIX
TMAX.C        26.1                 : BHT          - MAXIMUM RECORDED TEMPERATURE
BHTD.M        524.6                : BHTDEP       - MAXIMUM RECORDED TEMPERATURE
MATR.         1                    : LOGUNIT      - NEUTRON MATRIX
RMT .C        25                   : MDTP         - TEMPERATURE OF MUD
NEUT.         1                    : NEUTRON      - NEUTRON TYPE
RESI.         0                    : RESIST       - RESISTIVITY TYPE
RMC .OHMM     0.25                 : RMC          - RESISTIVITY OF MUD CAKE
RMF .OHMM     0.25                 : RMF          - RESISTIVITY OF MUD FILTRATE
SUFT.C        15                   : SUFT         - SURFACE TEMPERATURE
~A  DEPTH     RESD     PHID     PHIN       GR
# ...
  487.500   11.208    0.164    0.407  104.840
  487.750   12.069    0.171    0.417  105.461
  488.000   14.002    0.227    0.421   93.886
  488.250   15.081    0.263    0.405   85.362
  488.500   15.941    0.268    0.388   81.714
  488.750   16.234    0.272    0.385   78.069
  489.000   16.221    0.297    0.394   75.031
  489.250   16.215    0.298    0.409   73.821
  489.500   16.206    0.298    0.405   74.446
  489.750   15.893    0.315    0.408   72.627
  490.000   15.887    0.325    0.392   70.808
  490.250   15.582    0.330    0.401   70.207
  490.500   15.287    0.335    0.437   72.657
  490.750   14.994    0.329    0.452   75.109
  491.000   14.170    0.310    0.413   75.729
  491.250   13.144    0.287    0.415   78.181
  491.500   11.743    0.262    0.398   80.020
  491.750   11.098    0.253    0.380   83.081
  492.000   10.685    0.236    0.366   86.141
  492.250   10.096    0.225    0.369   90.424
  492.500    9.723    0.225    0.372   92.265
  492.750    9.536    0.222    0.364   92.882
  493.000    9.355    0.208    0.360   94.114
  493.250    9.351    0.208    0.360   93.514
  493.500    9.342    0.217    0.365   94.136
  493.750    9.166    0.207    0.372   95.979
  494.000    9.162    0.198    0.366   97.819
  494.250    8.987    0.197    0.364   98.440
  494.500    8.817    0.207    0.371   94.180
  494.750    8.810    0.222    0.382   88.094
  495.000    8.972    0.219    0.383   84.446
  495.250    9.134    0.210    0.383   85.680
  495.500    9.656    0.199    0.385   86.299
  495.750   10.207    0.205    0.373   82.652
  496.000   10.199    0.203    0.332   75.345
  496.250    9.823    0.181    0.262   68.041
  496.500    8.613    0.129    0.257   61.953
  496.750    7.842    0.183    0.294   57.698
  497.000    7.139    0.242    0.332   57.709
  497.250    6.622    0.277    0.352   64.431
  497.500    6.376    0.299    0.379   69.315
  497.750    6.614    0.287    0.368   80.915
  498.000    7.121    0.262    0.363   83.977
  498.250    7.389    0.270    0.378   83.374
  498.500    7.667    0.276    0.397   88.266
  498.750    7.805    0.268    0.399   93.766
  499.000    7.801    0.254    0.393  101.708
  499.250    7.797    0.222    0.390  108.422
  499.500    7.793    0.190    0.393  120.628
  499.750    7.789    0.184    0.401  123.080
  500.000    7.783    0.182    0.413  120.653
  500.250    7.925    0.174    0.426  121.885
  500.500    8.069    0.126    0.428  122.503
  500.750    8.065    0.109    0.430  120.075
  501.000    8.062    0.119    0.417  115.211
  501.250    8.208    0.149    0.381  115.219
  501.500    8.359    0.178    0.392  120.110
  501.750    8.670    0.168    0.406  126.219
  502.000    8.827    0.179    0.400  120.747
  502.250    8.990    0.190    0.389  118.314
  502.500    9.324    0.193    0.366  115.886
  502.750    9.675    0.195    0.360  119.555
  503.000    9.671    0.186    0.362  125.055
  503.250    9.665    0.170    0.365  129.944
  503.500    9.659    0.184    0.376  133.614
  503.750    9.656    0.174    0.393  131.799
  504.000    9.650    0.168    0.397  129.370
  504.250    9.291    0.169    0.401  126.334
  504.500    8.944    0.168    0.407  122.078
  504.750    8.775    0.159    0.418  117.821
  505.000    8.770    0.078    0.422  115.390
  505.250    8.601    0.048    0.427  114.791
  505.500    8.439    0.000    0.410  118.460
  505.750    8.434    0.090    0.402  123.959
  506.000    8.428    0.133    0.416  127.021
  506.250    8.908    0.158    0.400  128.860
  506.500    9.416    0.171    0.390  129.483
  506.750    9.590    0.168    0.404  127.055
  507.000    9.765    0.169    0.421  122.797
  507.250    9.755    0.176    0.422  116.103
  507.500    9.571    0.182    0.422  112.452
  507.750    9.217    0.174    0.422  111.246
  508.000    8.235    0.170    0.422  113.695
  508.250    7.929    0.188    0.423  107.610
  508.500    7.777    0.200    0.435   93.596
  508.750    7.628    0.213    0.447   82.021
  509.000    7.768    0.222    0.445   72.886
  509.250    8.212    0.214    0.407   62.529
  509.500    9.179    0.224    0.344   58.272
  509.750   10.071    0.224    0.350   57.063
  510.000   10.257    0.217    0.328   58.907
  510.250   10.061    0.213    0.286   65.018
  510.500    9.687    0.186    0.298   69.294
  510.750    9.326    0.097    0.332   78.451
  511.000    9.674    0.058    0.384   94.317
  511.250   10.228    0.037    0.389   91.897
  511.500   11.222    0.011    0.283   88.856
  511.750   13.515    0.004    0.270   85.205
  512.000   14.828    0.006    0.257   80.338
  512.250   16.575    0.017    0.243   72.426
  512.500   17.521    0.018    0.220   68.775
  512.750   19.952    0.014    0.170   61.470
  513.000   21.094    0.018    0.154   53.555
  513.250   23.144    0.011    0.142   49.904
  513.500   25.395    0.001    0.137   45.041
  513.750   27.862    0.003    0.136   48.104
  514.000   30.007    0.004    0.138   51.158
  514.250   29.433    0.005    0.151   60.318
  514.500   25.334    0.018    0.184   71.918
  514.750   21.405    0.030    0.207   76.193
  515.000   18.424    0.036    0.232   84.133
