~VERSION INFORMATION
 VERS.                 2.0:   CWLS LOG ASCII STANDARD -VERSION 2.0
 WRAP.                  NO:   ONE LINE PER DEPTH STEP
~WELL INFORMATION BLOCK
#MNEM.UNIT           DATA                    DESCRIPTION OF MNEMONIC
#---------    -------------------            -------------------------------
# Generated from Intellog Unique Number	CW_82_90/WELL/549
WELL.         MIAMI AMOCO WABASCA 06-34      : Well_name    - WELL
LOC .         00/06-34-084-01W5/0            : Location     - LOCATION
UWI .         00/06-34-084-01W5/0            : Uwi          - UNIQUE WELL ID
ENTR.         JAYE                           : Entered      - ENTERED BY
SRVC.         SCHLUMBERGER                   : Scn          - SERVICE COMPANY
DATE.         29 JAN 75                      : Date         - LOG DATE
STRT.M        274.32                         : top_depth    - START DEPTH
STOP.M        475.57                         : bot_depth    - STOP DEPTH
STEP.M        0.25                           : increment    - STEP LENGTH
 NULL. -999.2500:NULL Value
~CURVE INFORMATION BLOCK
#MNEM UNIT       ERCB CURVE CODE    CURVE DESCRIPTION
#-----------   ------------------   ----------------------------------
DEPT.M        00 001 00 00         : DEPTH        - DEPTH
CALI.MM       00 280 01 00         : CAL          - CALIPER
GR  .API      00 310 00 00         : GR           - GAMMA RAY
NPHI.V/V      00 330 00 00         : PHIN         - NEUTRON POROSITY (SANDSTONE)
DPHI.V/V      00 890 00 00         : PHID         - DENSITY POROSITY (SANDSTONE)
ILD .OHMM     00 120 00 00         : RESD         - DEEP RESISTIVITY (DIL)
~PARAMETER INFORMATION
#MNEM.UNIT           DATA             DESCRIPTION OF MNEMONIC
#---------         -----------     ------------------------------
GL  .M        627.583              : gl           - GROUND LEVEL ELEVATION
EREF.M        630.875              : kb           - ELEVATION OF DEPTH REFERENCE
DATM.M        627.583              : datum        - DATUM ELEVATION
TDD .M        475.488              : tdd          - TOTAL DEPTH DRILLER
RUN .         ONE                  : Run          - RUN NUMBER
ENG .         CROCKFORD            : Engineer     - RECORDING ENGINEER
WIT .         RUDD                 : Witness      - WITNESSED BY
BASE.         EDMONTON             : Branch       - HOME BASE OF LOGGING UNIT
MUD .         DAPP                 : Mud_type     - MUD TYPE
MATR.         SANDSTONE            : Logunit      - NEUTRON MATRIX
TMAX.C        25                   : BHT          - MAXIMUM RECORDED TEMPERATURE
BHTD.M        475.488              : BHTDEP       - MAXIMUM RECORDED TEMPERATURE
RMT .C        17.7778              : MDTP         - TEMPERATURE OF MUD
MUDD.KG/M     9600                 : MWT          - MUD DENSITY
NEUT.         1                    : NEUTRON      - NEUTRON TYPE
RESI.         0                    : RESIST       - RESISTIVITY TYPE
RM  .OHMM     2.8                  : RM           - RESISTIVITY OF MUD
RMC .OHMM     0                    : RMC          - RESISTIVITY OF MUD CAKE
RMF .OHMM     2.34                 : RMF          - RESISTIVITY OF MUD FILTRATE
SUFT.C        -17.7778             : SUFT         - SURFACE TEMPERATURE
~A  DEPTH      CAL       GR     PHIN     PHID     RESD
# ...
  420.320  164.728   95.143    0.425    0.159   10.802
  420.570  165.491   96.267    0.411    0.147   10.286
  420.820  166.669   98.060    0.418    0.170    9.869
  421.070  167.838   99.545    0.435    0.192    9.554
  421.320  167.357   99.204    0.442    0.193    9.334
  421.570  165.530   98.367    0.442    0.179    9.257
  421.820  167.224   99.064    0.420    0.167    9.262
  422.070  169.022   99.081    0.408    0.139    9.320
  422.320  169.472   98.003    0.414    0.140    9.327
  422.570  168.059   99.248    0.435    0.154    9.367
  422.820  167.577  100.125    0.451    0.171    9.358
  423.070  166.076  101.125    0.468    0.174    9.363
  423.320  165.893  102.249    0.455    0.177    9.475
  423.570  164.066  102.025    0.431    0.172    9.516
  423.820  161.206   98.564    0.419    0.158    9.593
  424.070  160.415   95.590    0.424    0.159    9.706
  424.320  160.667   94.876    0.435    0.174    9.857
  424.570  161.107   94.899    0.432    0.164    9.973
  424.820  162.804   96.021    0.424    0.144   10.053
  425.070  163.976   99.466    0.441    0.153   10.267
  425.320  165.569  101.933    0.454    0.174   10.503
  425.570  166.955  100.059    0.461    0.169   10.764
  425.820  167.709   97.023    0.460    0.163   11.092
  426.070  167.951   93.500    0.446    0.149   11.579
  426.320  167.996   91.016    0.396    0.136   11.933
  426.570  168.028   89.389    0.393    0.107   12.008
  426.820  168.998   90.143    0.398    0.126   11.906
  427.070  169.031   92.243    0.408    0.168   11.235
  427.320  166.275   96.667    0.413    0.182   10.427
  427.570  162.273   99.195    0.421    0.177    9.749
  427.820  161.067   99.583    0.429    0.182    9.369
  428.070  161.318   99.052    0.413    0.178    8.955
  428.320  162.177   98.281    0.412    0.170    8.638
  428.570  163.253   95.491    0.403    0.152    8.854
  428.820  164.740   91.418    0.389    0.123    9.345
  429.070  165.600   87.526    0.384    0.103   10.046
  429.320  165.949   87.489    0.387    0.087   10.449
  429.570  164.534   89.893    0.393    0.121   10.748
  429.820  160.227   89.975    0.395    0.151   10.618
  430.070  160.260   89.938    0.387    0.201   10.527
  430.320  161.024   90.262    0.372    0.207   11.571
  430.570  161.268   89.979    0.354    0.181   12.833
  430.820  159.956   86.947    0.324    0.128   17.073
  431.070  159.687   84.093    0.274    0.094   19.572
  431.320  163.446   83.443    0.244    0.046   20.889
  431.570  166.176   87.194    0.251    0.017   20.675
  431.820  167.665   91.433    0.289    0.048   19.187
  432.070  168.524   94.510    0.314    0.098   16.185
  432.320  167.631   95.023    0.370    0.140   13.454
  432.570  165.390   94.314    0.379    0.173   11.688
  432.820  162.739   94.091    0.383    0.188   10.867
  433.070  162.570   91.724    0.391    0.181   10.424
  433.320  161.880   93.030    0.395    0.186   10.056
  433.570  162.642   92.012    0.389    0.180    9.808
  433.820  163.402   92.893    0.389    0.176    9.887
  434.070  163.952   91.139    0.394    0.169   10.727
  434.320  163.575   86.272    0.372    0.156   11.490
  434.570  163.304   84.643    0.352    0.113   11.906
  434.820  163.346   86.441    0.356    0.051   12.026
  435.070  163.486   92.082    0.368    0.046   11.429
  435.320  163.412   98.340    0.400    0.142    9.892
  435.570  163.037  104.780    0.439    0.153    8.819
  435.820  163.281  107.368    0.447    0.167    8.460
  436.070  163.007  108.795    0.443    0.174    8.235
  436.320  163.456  108.389    0.436    0.168    7.988
  436.570  163.494  106.821    0.439    0.169    7.834
  436.820  164.151  105.254    0.446    0.146    7.752
  437.070  165.950  105.458    0.436    0.110    7.772
  437.320  166.811  108.355    0.442    0.079    8.055
  437.570  166.644  108.498    0.427    0.160    8.270
  437.820  164.711   99.105    0.418    0.174    8.793
  438.070  164.748   95.338    0.404    0.169    9.488
  438.320  165.822   91.815    0.376    0.154   10.237
  438.570  164.408   90.123    0.362    0.119   11.293
  438.820  160.408   89.596    0.369    0.094   11.745
  439.070  157.863   91.512    0.390    0.116   11.882
  439.320  158.415   94.104    0.404    0.166   11.871
  439.570  158.656   92.960    0.413    0.183   11.856
  439.820  159.318   88.584    0.409    0.182   11.842
  440.070  160.696   87.628    0.394    0.168   11.875
  440.320  162.598   90.094    0.382    0.118   11.925
  440.570  164.809   97.451    0.376    0.115   11.979
  440.820  166.187  100.404    0.410    0.154   11.987
  441.070  167.370   98.532    0.402    0.141   11.995
  441.320  166.367   91.344    0.382    0.118   12.158
  441.570  165.472   91.362    0.390    0.091   12.326
  441.820  166.339   91.019    0.411    0.133   12.425
  442.070  166.683   86.400    0.385    0.145   12.434
  442.320  166.723   88.252    0.377    0.129   12.193
  442.570  165.826   96.156    0.392    0.110   11.506
  442.820  165.762  100.886    0.429    0.142   11.118
  443.070  166.624   99.562    0.443    0.141   10.785
  443.320  167.593   95.793    0.435    0.128   10.614
  443.570  164.730   94.960    0.445    0.105   10.469
  443.820  165.180   96.080    0.438    0.100   10.379
  444.070  166.358  100.994    0.428    0.122   10.255
  444.320  167.535  103.337    0.421    0.140   10.168
  444.570  168.298  104.644    0.416    0.167   10.081
  444.820  167.916  102.222    0.426    0.154    9.961
  445.070  168.171  103.035    0.433    0.160    9.948
  445.320  168.204  104.832    0.429    0.155    9.775
  445.570  167.927  106.074    0.425    0.139    9.763
  445.820  167.441  106.895    0.418    0.141    9.734
  446.070  167.581  109.053    0.409    0.130    9.741
  446.320  168.556  117.082    0.409    0.121    9.748
  446.570  169.313  119.547    0.408    0.162    9.719
  446.820  168.313  117.981    0.403    0.172    9.780
  447.070  165.245  104.067    0.399    0.156    9.951
  447.320  165.281  101.398    0.396    0.141   10.292
  447.570  167.091  100.322    0.359    0.127   10.883
  447.820  167.746  100.036    0.355    0.123   11.592
  448.070  168.090   96.389    0.375    0.110   12.325
  448.320  167.608   93.602    0.327    0.094   12.913
  448.570  166.915   96.983    0.337    0.074   13.261
  448.820  166.333  100.304    0.361    0.142   13.075
  449.070  165.539   96.782    0.382    0.164   12.498
  449.320  163.406   94.547    0.384    0.153   11.857
  449.570  163.135   92.303    0.392    0.157   11.291
  449.820  163.174   87.253    0.395    0.169   11.896
  450.070  164.238   83.606    0.280    0.164   13.789
  450.320  165.929   73.174    0.237    0.131   16.951
  450.570  163.377   70.630    0.222    0.023   20.992
  450.820  160.526   70.038    0.238    0.000   24.828
  451.070  161.074   77.276    0.292    0.014   26.593
  451.320  162.146   80.663    0.335    0.052   23.189
  451.570  162.287   82.208    0.384    0.150   19.168
  451.820  162.011   84.307    0.383    0.174   14.297
  452.070  161.325   82.434    0.392    0.170   11.146
  452.320  159.599   78.298    0.401    0.175   10.613
  452.570  159.535   76.180    0.378    0.164   13.192
  452.820  161.019   70.212    0.297    0.081   15.630
  453.070  162.517   66.323    0.261    0.031   19.109
  453.320  163.266   64.087    0.239    0.017   30.325
  453.570  163.405   62.150    0.220    0.005   37.483
  453.820  164.066   62.906    0.229   -0.004   38.422
  454.070  164.728   65.188    0.267   -0.004   35.723
  454.320  164.969   72.604    0.295    0.014   30.187
  454.570  164.484   82.041    0.401    0.133   18.498
  454.820  163.496   84.445    0.415    0.148   14.499
  455.070  163.318   85.568    0.417    0.149   11.260
  455.320  163.978   86.016    0.429    0.136   10.112
  455.570  164.735   86.713    0.431    0.131    9.559
  455.820  164.981   87.897    0.431    0.150    9.085
  456.070  163.672   88.038    0.425    0.159    8.604
  456.320  163.503   87.081    0.412    0.150    8.001
  456.570  164.365   91.200    0.422    0.138    7.661
