~VERSION INFORMATION
 VERS.                 2.0:   CWLS LOG ASCII STANDARD -VERSION 2.0
 WRAP.                  NO:   ONE LINE PER DEPTH STEP
~WELL INFORMATION BLOCK
#MNEM.UNIT           DATA                    DESCRIPTION OF MNEMONIC
#---------    -------------------            -------------------------------
# Generated from Intellog Unique Number	CW_79_81/WELL/3692
WELL.         GULF CANADA RESOURCES LTD.     : Well_name    - WELL
LOC .         00/06-14-079-03W5/0            : Location     - LOCATION
UWI .         00/06-14-079-03W5/0            : Uwi          - UNIQUE WELL ID
ENTR.         JOETTE                         : Entered      - ENTERED BY
SRVC.         SCHLUMBERGER                   : Scn          - SERVICE COMPANY
DATE.         08-26-92                       : Date         - LOG DATE
STRT.M        345                            : top_depth    - START DEPTH
STOP.M        535                            : bot_depth    - STOP DEPTH
STEP.M        0.25                           : increment    - STEP LENGTH
 NULL. -999.2500:NULL Value
~CURVE INFORMATION BLOCK
#MNEM UNIT       ERCB CURVE CODE    CURVE DESCRIPTION
#-----------   ------------------   ----------------------------------
DEPT.M        00 001 00 00         : DEPTH        - DEPTH
ILD .OHMM     00 120 00 00         : RESD         - DEEP RESISTIVITY (DIL)
DPHI.V/V      00 890 00 00         : PHID         - DENSITY POROSITY (SANDSTONE)
NPHI.V/V      00 330 00 00         : PHIN         - NEUTRON POROSITY (SANDSTONE)
GR  .API      00 310 00 00         : GR           - GAMMA RAY
~PARAMETER INFORMATION
#MNEM.UNIT           DATA             DESCRIPTION OF MNEMONIC
#---------         -----------     ------------------------------
GL  .M        645.2                : gl           - GROUND LEVEL ELEVATION
EREF.M        648.9                : kb           - ELEVATION OF DEPTH REFERENCE
DATM.M        648.9                : datum        - DATUM ELEVATION
TDD .M        620                  : tdd          - TOTAL DEPTH DRILLER
RUN .         ONE                  : Run          - RUN NUMBER
ENG .         BILL                 : Engineer     - RECORDING ENGINEER
WIT .         JIM                  : Witness      - WITNESSED BY
MUD .         GEL                  : Mud_type     - MUD TYPE
MATR.         SANDSTONE            : Logunit      - NEUTRON MATRIX
TMAX.C        23                   : BHT          - MAXIMUM RECORDED TEMPERATURE
BHTD.M        620                  : BHTDEP       - MAXIMUM RECORDED TEMPERATURE
MATR.         1                    : LOGUNIT      - NEUTRON MATRIX
RMT .C        17                   : MDTP         - TEMPERATURE OF MUD
NEUT.         1                    : NEUTRON      - NEUTRON TYPE
RESI.         0                    : RESIST       - RESISTIVITY TYPE
RMC .OHMM     2.02                 : RMC          - RESISTIVITY OF MUD CAKE
RMF .OHMM     2.02                 : RMF          - RESISTIVITY OF MUD FILTRATE
SUFT.C        5                    : SUFT         - SURFACE TEMPERATURE
~A  DEPTH     RESD     PHID     PHIN       GR
  345.000    2.929    0.398    0.599   88.183
  345.250    2.986    0.404    0.602   87.026
  345.500    2.987    0.408    0.627   88.840
  345.750    2.989    0.402    0.629   88.272
  346.000    2.990    0.392    0.626   91.284
  346.250    2.727    0.400    0.619   93.681
  346.500    2.581    0.406    0.592   96.091
  346.750    2.535    0.397    0.585   89.565
  347.000    3.109    0.393    0.574   81.252
  347.250    6.057    0.360    0.560   70.556
  347.500    9.276    0.345    0.531   62.838
  347.750   15.016    0.349    0.521   53.929
  348.000   22.997    0.373    0.496   40.843
  348.250   29.272    0.391    0.483   33.126
  348.500   31.537    0.401    0.478   32.557
  348.750   33.358    0.407    0.484   37.358
  349.000   33.994    0.420    0.498   41.548
  349.250   34.647    0.433    0.518   46.944
  349.500   35.976    0.448    0.529   44.581
  349.750   36.666    0.443    0.502   43.417
  350.000   37.370    0.422    0.456   45.238
  350.250   38.798    0.411    0.441   44.669
  350.500   38.813    0.398    0.429   41.725
  350.750   39.558    0.385    0.424   40.547
  351.000   38.149    0.381    0.421   37.602
  351.250   36.771    0.376    0.427   37.041
  351.500   34.164    0.359    0.550   38.246
  351.750   31.746    0.382    0.544   42.443
  352.000   30.046    0.448    0.527   49.030
  352.250   29.506    0.497    0.526   48.462
  352.500   27.933    0.502    0.530   46.106
  352.750   27.940    0.501    0.537   44.941
  353.000   28.487    0.502    0.545   44.969
  353.250   29.023    0.508    0.550   44.996
  353.500   29.579    0.514    0.551   48.604
  353.750   29.594    0.521    0.561   48.036
  354.000   30.162    0.525    0.557   44.489
  354.250   30.181    0.521    0.555   45.707
  354.500   30.196    0.514    0.569   46.926
  354.750   29.661    0.508    0.559   46.953
  355.000   29.128    0.501    0.544   46.378
  355.250   28.079    0.500    0.541   44.618
  355.500   27.076    0.504    0.546   42.858
  355.750   26.592    0.500    0.554   39.920
  356.000   28.121    0.456    0.558   39.933
  356.250   42.277    0.424    0.530   39.961
  356.500   46.406    0.409    0.451   38.796
  356.750   48.180    0.391    0.430   36.441
  357.000   47.320    0.381    0.430   34.681
  357.250   43.169    0.390    0.438   37.693
  357.500   40.103    0.404    0.465   41.884
  357.750   37.255    0.418    0.472   43.102
  358.000   33.360    0.415    0.468   46.108
  358.250   30.426    0.421    0.481   49.710
  358.500   31.006    0.441    0.532   45.574
  358.750   33.406    0.463    0.529   43.211
  359.000   35.335    0.450    0.469   42.047
  359.250   35.357    0.418    0.515   43.861
  359.500   34.085    0.407    0.554   52.825
  359.750   33.472    0.434    0.587   56.426
  360.000   31.684    0.476    0.566   54.666
  360.250   31.114    0.473    0.557   52.317
  360.500   30.002    0.468    0.584   52.338
  360.750   30.017    0.464    0.582   54.159
  361.000   30.036    0.463    0.567   57.761
  361.250   30.605    0.456    0.559   58.384
  361.500   31.200    0.458    0.556   55.432
  361.750   31.208    0.466    0.556   53.076
  362.000   31.810    0.467    0.553   53.110
  362.250   31.822    0.465    0.538   52.528
  362.500   32.441    0.465    0.534   50.768
  362.750   32.449    0.464    0.536   48.426
  363.000   32.473    0.460    0.539   49.035
  363.250   32.486    0.456    0.534   50.261
  363.500   32.498    0.462    0.523   49.692
  363.750   32.522    0.463    0.544   49.117
  364.000   32.534    0.460    0.550   49.144
  364.250   31.949    0.456    0.560   49.767
  364.500   31.379    0.452    0.559   52.184
  364.750   30.254    0.453    0.574   52.814
  365.000   28.119    0.462    0.589   52.827
  365.250   27.610    0.467    0.584   51.067
  365.500   27.114    0.469    0.589   48.718
  365.750   26.630    0.470    0.600   47.554
  366.000   26.158    0.472    0.585   46.986
  366.250   25.217    0.474    0.568   48.800
  366.500   24.318    0.471    0.558   51.210
  366.750   24.325    0.469    0.545   53.018
  367.000   24.340    0.464    0.547   52.449
  367.250   24.349    0.456    0.571   51.292
  367.500   25.755    0.452    0.584   51.908
  367.750   27.236    0.447    0.570   51.346
  368.000   28.277    0.437    0.552   48.388
  368.250   30.469    0.423    0.517   43.656
  368.500   30.484    0.300    0.475   42.492
  368.750   30.500    0.200    0.361   46.689
  369.000   30.515    0.297    0.493   50.886
  369.250   29.420    0.356    0.548   50.907
  369.500   28.365    0.434    0.574   51.530
  369.750   26.846    0.447    0.589   51.557
  370.000   25.409    0.451    0.578   51.002
  370.250   24.498    0.452    0.571   51.022
  370.500   23.616    0.450    0.573   51.043
  370.750   22.775    0.450    0.574   51.077
  371.000   22.781    0.452    0.568   51.104
  371.250   22.798    0.455    0.558   51.727
  371.500   22.812    0.458    0.568   55.924
  371.750   22.817    0.448    0.568   58.334
  372.000   22.832    0.440    0.569   59.553
  372.250   22.843    0.435    0.583   59.587
  372.500   22.852    0.435    0.585   59.005
  372.750   22.863    0.437    0.574   58.436
  373.000   22.880    0.432    0.574   57.272
  373.250   22.889    0.429    0.591   57.895
  373.500   22.897    0.431    0.597   59.114
  373.750   21.677    0.433    0.571   61.531
  374.000   20.894    0.434    0.559   62.154
  374.250   18.714    0.434    0.554   61.585
  374.500   18.036    0.432    0.571   61.612
  374.750   16.757    0.425    0.576   58.661
  375.000   14.732    0.416    0.519   55.114
  375.250   14.202    0.424    0.513   52.169
  375.500   13.691    0.459    0.543   50.991
  375.750   13.446    0.476    0.544   48.649
  376.000   13.708    0.487    0.542   46.882
  376.250   13.711    0.490    0.537   45.711
  376.500   13.220    0.488    0.541   43.958
  376.750   12.057    0.469    0.544   43.978
  377.000    9.309    0.440    0.533   46.388
  377.250    7.056    0.412    0.525   54.756
  377.500    5.153    0.407    0.549   76.236
  377.750    4.878    0.402    0.587   73.881
  378.000    6.562    0.409    0.574   64.972
  378.250    7.474    0.417    0.570   59.637
  378.500    8.833    0.413    0.576   54.303
  378.750    9.694    0.418    0.565   50.153
  379.000   10.639    0.452    0.536   46.010
  379.250   11.047    0.474    0.534   42.463
  379.500   11.261    0.479    0.517   40.703
  379.750   11.264    0.471    0.488   39.538
  380.000   11.272    0.475    0.524   37.183
  380.250   11.275    0.476    0.515   35.423
  380.500   11.282    0.470    0.487   47.365
  380.750   11.286    0.468    0.506   53.363
  381.000   11.938    0.481    0.513   51.589
  381.250   12.394    0.495    0.507   46.857
  381.500   12.867    0.489    0.501   43.303
  381.750   13.114    0.460    0.501   41.543
  382.000   13.367    0.455    0.498   39.188
  382.250   13.372    0.452    0.491   38.023
  382.500   13.136    0.452    0.489   37.462
  382.750   13.141    0.450    0.481   38.680
  383.000   12.905    0.450    0.510   38.714
  383.250   12.444    0.450    0.543   38.728
  383.500   12.222    0.452    0.546   36.968
  383.750   11.785    0.462    0.526   37.002
  384.000   11.572    0.475    0.533   38.220
  384.250   11.580    0.480    0.528   39.439
  384.500   11.585    0.479    0.522   40.062
  384.750   11.589    0.476    0.528   38.898
  385.000   11.596    0.475    0.519   38.322
  385.250   11.820    0.478    0.511   38.350
  385.500   11.826    0.481    0.513   38.390
  385.750   11.832    0.480    0.516   38.404
  386.000   11.621    0.476    0.518   38.438
  386.250   11.627    0.470    0.513   38.458
  386.500   11.419    0.470    0.505   37.897
  386.750   11.425    0.472    0.497   37.917
  387.000   11.429    0.466    0.512   37.944
  387.250   12.091    0.471    0.527   40.354
  387.500   12.094    0.479    0.524   40.984
  387.750   12.100    0.483    0.520   40.422
  388.000   11.885    0.483    0.531   39.840
  388.250   11.891    0.483    0.544   41.668
