~VERSION INFORMATION
 VERS.                 2.0:   CWLS LOG ASCII STANDARD -VERSION 2.0
 WRAP.                  NO:   ONE LINE PER DEPTH STEP
~WELL INFORMATION BLOCK
#MNEM.UNIT           DATA                    DESCRIPTION OF MNEMONIC
#---------    -------------------            -------------------------------
# Generated from Intellog Unique Number	CS_77_79/WELL/885
WELL.         PARAMOUNT ET AL PORTAGE        : Well_name    - WELL
LOC .         00/06-28-079-15W4/0            : Location     - LOCATION
UWI .         00/06-28-079-15W4/0            : Uwi          - UNIQUE WELL ID
ENTR.         JHS                            : Entered      - ENTERED BY
SRVC.         SCHLUMBERGER                   : Scn          - SERVICE COMPANY
STRT.M        188.976                        : top_depth    - START DEPTH
STOP.M        447.726                        : bot_depth    - STOP DEPTH
STEP.M        0.25                           : increment    - STEP LENGTH
 NULL. -999.2500:NULL Value
~CURVE INFORMATION BLOCK
#MNEM UNIT       ERCB CURVE CODE    CURVE DESCRIPTION
#-----------   ------------------   ----------------------------------
DEPT.M        00 001 00 00         : DEPTH        - DEPTH
GR  .API      00 310 00 00         : GR           - GAMMA RAY
DPHI.V/V      00 890 00 00         : PHID         - DENSITY POROSITY (SANDSTONE)
NPHI.V/V      00 330 00 00         : PHIN         - NEUTRON POROSITY (SANDSTONE)
ILD .OHMM     00 120 00 00         : RESD         - DEEP RESISTIVITY (DIL)
~PARAMETER INFORMATION
#MNEM.UNIT           DATA             DESCRIPTION OF MNEMONIC
#---------         -----------     ------------------------------
GL  .M        619.354              : gl           - GROUND LEVEL ELEVATION
EREF.M        622.402              : kb           - ELEVATION OF DEPTH REFERENCE
DATM.M        622.402              : datum        - DATUM ELEVATION
TDD .M        449.58               : tdd          - TOTAL DEPTH DRILLER
RUN .         ONE                  : Run          - RUN NUMBER
ENG .         BILL                 : Engineer     - RECORDING ENGINEER
WIT .         JIM                  : Witness      - WITNESSED BY
MUD .         GEL                  : Mud_type     - MUD TYPE
MATR.         SANDSTONE            : Logunit      - NEUTRON MATRIX
TMAX.C        60                   : BHT          - MAXIMUM RECORDED TEMPERATURE
BHTD.M        449.58               : BHTDEP       - MAXIMUM RECORDED TEMPERATURE
MATR.         1                    : LOGUNIT      - NEUTRON MATRIX
RMT .C        25                   : MDTP         - TEMPERATURE OF MUD
NEUT.         1                    : NEUTRON      - NEUTRON TYPE
RESI.         0                    : RESIST       - RESISTIVITY TYPE
RMC .OHMM     0.25                 : RMC          - RESISTIVITY OF MUD CAKE
RMF .OHMM     0.25                 : RMF          - RESISTIVITY OF MUD FILTRATE
SUFT.C        15                   : SUFT         - SURFACE TEMPERATURE
~A  DEPTH       GR     PHID     PHIN     RESD
# ...
  232.476   73.561    0.171    0.376   13.210
  232.726   85.844    0.236    0.404   12.641
  232.976   91.613    0.278    0.417   12.989
  233.226   89.172    0.299    0.416   13.697
  233.476   81.196    0.312    0.421   14.839
  233.726   81.413    0.309    0.422   14.716
  233.976   84.728    0.315    0.417   14.335
  234.226   88.712    0.278    0.414   14.055
  234.476   93.189    0.282    0.417   13.859
  234.726   99.241    0.283    0.416   13.668
  234.976  100.595    0.278    0.413   13.870
  235.226   99.059    0.290    0.417   13.954
  235.476   96.773    0.295    0.417   14.061
  235.726   95.902    0.301    0.414   13.899
  235.976   95.062    0.285    0.419   13.783
  236.226   95.782    0.284    0.413   13.874
  236.476   96.674    0.278    0.418   14.176
  236.726   92.533    0.284    0.426   14.740
  236.976   87.748    0.288    0.435   15.237
  237.226   66.948    0.312    0.429   16.233
  237.476   48.162    0.325    0.392   16.915
  237.726   42.682    0.323    0.387   17.251
  237.976   40.108    0.311    0.386   16.837
  238.226   36.795    0.308    0.409   16.379
  238.476   35.697    0.307    0.414   15.201
  238.726   38.039    0.302    0.409   13.914
  238.976   43.512    0.301    0.385   12.847
  239.226   52.225    0.309    0.383   11.833
  239.476   64.297    0.271    0.392   11.434
  239.726   71.388    0.254    0.402   11.101
  239.976   75.941    0.245    0.429   10.873
  240.226   77.700    0.248    0.429   11.161
  240.476   78.562    0.262    0.414   11.488
  240.726   81.133    0.270    0.413   11.215
  240.976   84.686    0.267    0.422   10.204
  241.226   89.623    0.265    0.419    9.043
  241.476   94.440    0.259    0.425    8.050
  241.726  101.578    0.239    0.445    7.081
  241.976  108.441    0.220    0.466    6.141
  242.226  114.395    0.173    0.509    5.245
  242.476  114.766    0.137    0.529    4.724
  242.726  112.150    0.119    0.510    4.370
  242.976  111.510    0.135    0.494    3.920
  243.226  113.584    0.152    0.482    3.759
  243.476  120.391    0.163    0.490    3.737
  243.726  122.166    0.188    0.534    3.965
  243.976  119.813    0.214    0.543    4.137
  244.226  117.446    0.193    0.532    4.147
  244.476  117.349    0.206    0.515    4.132
  244.726  112.170    0.200    0.514    3.968
  244.976  111.266    0.199    0.525    3.676
  245.226  114.034    0.250    0.541    3.362
  245.476  118.231    0.224    0.559    3.356
  245.726  120.133    0.243    0.546    3.640
  245.976  120.455    0.248    0.499    4.174
  246.226  118.830    0.233    0.473    5.757
  246.476  115.013    0.242    0.440    7.602
  246.726  111.076    0.263    0.425    9.332
  246.976  108.718    0.241    0.427    9.442
  247.226  107.844    0.223    0.425    9.299
  247.476  112.134    0.201    0.435    8.809
  247.726  115.800    0.201    0.451    7.945
  247.976  116.887    0.218    0.466    7.316
  248.226  111.015    0.222    0.447    6.816
  248.476  106.853    0.212    0.459    6.548
  248.726  116.652    0.197    0.468    6.791
  248.976  118.223    0.199    0.482    7.624
  249.226  113.629    0.198    0.455    8.117
  249.476  115.303    0.239    0.440    9.349
  249.726  111.080    0.249    0.429   10.258
  249.976  105.290    0.248    0.436   10.366
  250.226  106.706    0.252    0.453   10.372
  250.476  110.707    0.253    0.452   10.271
  250.726  112.977    0.248    0.437   10.190
  250.976  112.307    0.252    0.429   10.011
  251.226  112.519    0.260    0.420    9.983
  251.476  108.753    0.253    0.432    9.970
  251.726  109.202    0.256    0.433    9.796
  251.976  113.305    0.220    0.427    9.582
  252.226  116.708    0.247    0.434    9.391
  252.476  115.687    0.233    0.428    9.398
  252.726  111.716    0.239    0.427    9.396
  252.976  103.327    0.228    0.440    9.396
  253.226   97.141    0.236    0.439    9.377
  253.476   94.484    0.249    0.419    9.618
  253.726   85.605    0.225    0.419    9.599
  253.976   81.161    0.233    0.424    9.596
  254.226   77.658    0.230    0.431    9.582
  254.476   76.179    0.245    0.427    9.417
  254.726   76.807    0.257    0.418    9.201
  254.976   78.570    0.262    0.421    8.998
  255.226   83.190    0.273    0.425    8.681
  255.476   84.473    0.277    0.425    8.400
  255.726   82.182    0.245    0.421    8.420
  255.976   80.802    0.235    0.436    8.542
  256.226   80.489    0.247    0.449    8.956
  256.476   82.125    0.240    0.438    9.778
  256.726   81.966    0.239    0.445   10.846
  256.976   80.219    0.215    0.454   11.869
  257.226   75.643    0.207    0.428   12.185
  257.476   72.664    0.190    0.406   12.131
  257.726   72.174    0.207    0.407   11.786
  257.976   74.294    0.269    0.430   11.248
  258.226   74.274    0.273    0.430   11.227
  258.476   73.941    0.279    0.440   11.437
  258.726   71.619    0.260    0.451   12.641
  258.976   68.997    0.259    0.447   13.596
  259.226   70.797    0.273    0.437   14.598
  259.476   73.885    0.286    0.431   14.519
  259.726   71.187    0.310    0.447   13.907
  259.976   68.179    0.317    0.443   12.752
  260.226   67.974    0.304    0.434   11.674
  260.476   73.947    0.292    0.429   11.646
  260.726   75.425    0.271    0.455   12.419
  260.976   71.808    0.290    0.469   14.402
  261.226   66.876    0.304    0.462   15.440
  261.476   65.835    0.291    0.452   15.026
  261.726   67.773    0.263    0.453   13.906
  261.976   71.768    0.254    0.458   11.467
  262.226   74.446    0.290    0.439    9.815
  262.476   73.644    0.256    0.431    8.777
  262.726   75.886    0.246    0.425    8.815
  262.976   77.364    0.243    0.419    9.930
  263.226   76.387    0.237    0.440   10.584
  263.476   71.331    0.243    0.461   11.081
  263.726   66.876    0.260    0.476   11.103
  263.976   63.373    0.285    0.458   10.634
  264.226   65.651    0.277    0.454   10.102
  264.476   72.834    0.263    0.437    8.422
  264.726   76.791    0.268    0.420    7.065
  264.976   75.521    0.273    0.406    6.751
  265.226   76.981    0.262    0.405    6.684
  265.476   87.515    0.243    0.442    6.883
  265.726   91.548    0.235    0.495    7.418
  265.976   92.692    0.250    0.506    8.430
  266.226   85.478    0.311    0.474   10.324
  266.476   73.398    0.301    0.441   12.801
  266.726   62.844    0.292    0.427   16.816
  266.976   55.386    0.305    0.418   20.159
  267.226   52.072    0.321    0.427   22.037
  267.476   54.365    0.348    0.439   23.677
  267.726   56.136    0.327    0.442   24.292
  267.976   55.175    0.328    0.444   25.579
  268.226   54.850    0.322    0.447   29.619
  268.476   55.201    0.331    0.449   33.178
  268.726   56.155    0.320    0.445   36.685
  268.976   55.553    0.316    0.439   40.204
  269.226   56.527    0.325    0.437   43.080
  269.476   57.108    0.329    0.447   45.420
  269.726   53.006    0.326    0.444   46.948
  269.976   52.070    0.333    0.440   45.997
  270.226   54.451    0.330    0.440   44.477
  270.476   56.369    0.315    0.436   45.510
  270.726   58.529    0.328    0.438   47.532
  270.976   59.196    0.324    0.453   47.997
  271.226   56.676    0.319    0.460   50.224
  271.476   54.267    0.317    0.450   53.658
  271.726   55.081    0.326    0.446   57.076
  271.976   54.764    0.333    0.453   59.411
  272.226   53.629    0.341    0.447   60.481
  272.476   52.771    0.330    0.438   61.108
  272.726   52.383    0.327    0.427   60.854
  272.976   53.554    0.325    0.425   57.955
  273.226   55.131    0.338    0.449   51.860
  273.476   54.795    0.342    0.452   50.958
  273.726   52.782    0.347    0.445   50.567
  273.976   53.769    0.356    0.450   50.579
  274.226   53.868    0.352    0.452   50.606
  274.476   52.886    0.341    0.450   49.974
  274.726   52.600    0.339    0.453   48.429
  274.976   53.447    0.337    0.463   45.863
  275.226   52.384    0.322    0.464   42.764
  275.476   51.370    0.324    0.458   40.035
  275.726   51.190    0.346    0.473   36.582
