~VERSION INFORMATION
 VERS.                 2.0:   CWLS LOG ASCII STANDARD -VERSION 2.0
 WRAP.                  NO:   ONE LINE PER DEPTH STEP
~WELL INFORMATION BLOCK
#MNEM.UNIT           DATA                    DESCRIPTION OF MNEMONIC
#---------    -------------------            -------------------------------
# Generated from Intellog Unique Number	CS_73_76/WELL/785
WELL.         AMOCO KIRBY                    : Well_name    - WELL
LOC .         00/09-25-073-05W4/0            : Location     - LOCATION
UWI .         00/09-25-073-05W4/0            : Uwi          - UNIQUE WELL ID
ENTR.         SP                             : Entered      - ENTERED BY
SRVC.         SCHLUMBERGER                   : Scn          - SERVICE COMPANY
STRT.M        285                            : top_depth    - START DEPTH
STOP.M        500                            : bot_depth    - STOP DEPTH
STEP.M        0.25                           : increment    - STEP LENGTH
 NULL. -999.2500:NULL Value
~CURVE INFORMATION BLOCK
#MNEM UNIT       ERCB CURVE CODE    CURVE DESCRIPTION
#-----------   ------------------   ----------------------------------
DEPT.M        00 001 00 00         : DEPTH        - DEPTH
ILD .OHMM     00 120 00 00         : RESD         - DEEP RESISTIVITY (DIL)
DPHI.V/V      00 890 00 00         : PHID         - DENSITY POROSITY (LIMESTONE)
NPHI.V/V      00 330 00 00         : PHIN         - NEUTRON POROSITY (LIMESTONE)
GR  .API      00 310 00 00         : GR           - GAMMA RAY
~PARAMETER INFORMATION
#MNEM.UNIT           DATA             DESCRIPTION OF MNEMONIC
#---------         -----------     ------------------------------
GL  .M        682.7                : gl           - GROUND LEVEL ELEVATION
EREF.M        686.9                : kb           - ELEVATION OF DEPTH REFERENCE
DATM.M        682.7                : datum        - DATUM ELEVATION
TDD .M        845.3                : tdd          - TOTAL DEPTH DRILLER
RUN .         ONE                  : Run          - RUN NUMBER
ENG .         BILL                 : Engineer     - RECORDING ENGINEER
WIT .         JIM                  : Witness      - WITNESSED BY
MUD .         GEL                  : Mud_type     - MUD TYPE
MATR.         LIMESTONE            : Logunit      - NEUTRON MATRIX
TMAX.C        18                   : BHT          - MAXIMUM RECORDED TEMPERATURE
BHTD.M        845.3                : BHTDEP       - MAXIMUM RECORDED TEMPERATURE
MATR.         1                    : LOGUNIT      - NEUTRON MATRIX
RMT .C        25                   : MDTP         - TEMPERATURE OF MUD
NEUT.         1                    : NEUTRON      - NEUTRON TYPE
RESI.         0                    : RESIST       - RESISTIVITY TYPE
RMC .OHMM     0.25                 : RMC          - RESISTIVITY OF MUD CAKE
RMF .OHMM     0.25                 : RMF          - RESISTIVITY OF MUD FILTRATE
SUFT.C        15                   : SUFT         - SURFACE TEMPERATURE
~A  DEPTH     RESD     PHID     PHIN       GR
# ...
  459.000    1.580    0.293    0.363   52.502
  459.250    1.671    0.252    0.373   50.691
  459.500    1.800    0.246    0.382   47.675
  459.750    1.939    0.257    0.386   44.056
  460.000    2.088    0.271    0.373   41.643
  460.250    2.560    0.287    0.362   39.831
  460.500    3.442    0.298    0.361   39.225
  460.750    4.298    0.311    0.383   41.028
  461.000    4.804    0.311    0.395   50.661
  461.250    4.382    0.307    0.385   60.898
  461.500    3.144    0.295    0.375   68.724
  461.750    2.298    0.285    0.364   71.130
  462.000    2.257    0.276    0.361   72.932
  462.250    2.300    0.302    0.391   71.723
  462.500    2.344    0.302    0.402   68.707
  462.750    2.479    0.261    0.382   62.077
  463.000    2.480    0.240    0.376   57.254
  463.250    2.527    0.249    0.382   57.249
  463.500    2.576    0.250    0.393   59.053
  463.750    2.625    0.258    0.421   58.447
  464.000    2.725    0.274    0.423   49.405
  464.250    2.882    0.285    0.423   48.197
  464.500    2.937    0.292    0.442   49.398
  464.750    3.049    0.278    0.446   51.201
  465.000    3.107    0.294    0.446   54.811
  465.250    3.167    0.302    0.461   57.217
  465.500    3.168    0.320    0.439   55.403
  465.750    3.111    0.326    0.421   54.798
  466.000    3.056    0.305    0.415   59.613
  466.250    3.172    0.300    0.433   64.428
  466.500    3.481    0.293    0.440   61.411
  466.750    3.614    0.316    0.447   60.204
  467.000    3.683    0.335    0.451   63.211
  467.250    3.617    0.325    0.453   63.207
  467.500    3.424    0.314    0.450   58.383
  467.750    3.362    0.315    0.444   53.560
  468.000    3.556    0.326    0.457   48.134
  468.250    3.624    0.339    0.451   52.949
  468.500    3.559    0.321    0.438   58.969
  468.750    3.432    0.305    0.457   62.579
  469.000    3.497    0.327    0.474   61.972
  469.250    3.699    0.343    0.459   60.162
  469.500    3.770    0.353    0.431   68.591
  469.750    3.702    0.329    0.423   82.441
  470.000    3.504    0.319    0.425   93.280
  470.250    3.256    0.315    0.440  101.709
  470.500    2.970    0.307    0.433  105.320
  470.750    2.709    0.295    0.401  105.917
  471.000    2.517    0.279    0.369  101.696
  471.250    2.473    0.265    0.372   97.475
  471.500    2.474    0.251    0.380  100.483
  471.750    2.475    0.243    0.381  109.515
  472.000    2.477    0.259    0.378  113.126
  472.250    2.477    0.266    0.374  110.711
  472.500    2.479    0.277    0.384  105.888
  472.750    2.434    0.289    0.389   98.053
  473.000    2.481    0.281    0.392   86.603
  473.250    2.673    0.263    0.383   75.757
  473.500    2.774    0.267    0.393   67.921
  473.750    2.725    0.277    0.374   68.519
  474.000    2.486    0.282    0.350   72.731
  474.250    2.353    0.288    0.335   76.342
  474.500    2.311    0.271    0.329   73.326
  474.750    2.312    0.221    0.341   64.888
  475.000    2.313    0.207    0.347   60.065
  475.250    2.314    0.209    0.351   58.254
  475.500    2.231    0.220    0.348   59.454
  475.750    2.112    0.230    0.366   61.257
  476.000    2.036    0.224    0.361   61.252
  476.250    2.000    0.214    0.359   57.635
  476.500    2.001    0.234    0.382   52.811
  476.750    2.002    0.249    0.391   54.012
  477.000    1.966    0.259    0.402   56.417
  477.250    1.967    0.254    0.408   60.629
  477.500    1.968    0.266    0.391   62.432
  477.750    1.933    0.266    0.380   58.814
  478.000    1.934    0.252    0.370   55.798
  478.250    1.971    0.250    0.364   56.396
  478.500    1.972    0.274    0.372   56.992
  478.750    1.973    0.276    0.365   58.194
  479.000    2.011    0.264    0.355   61.201
  479.250    1.975    0.255    0.349   62.404
  479.500    1.976    0.260    0.355   63.604
  479.750    1.976    0.264    0.368   60.587
  480.000    1.905    0.266    0.368   58.174
  480.250    1.837    0.249    0.359   61.783
  480.500    1.872    0.253    0.353   64.190
  480.750    1.944    0.265    0.350   71.412
  481.000    2.133    0.260    0.383   72.615
  481.250    2.256    0.222    0.412   67.791
  481.500    2.385    0.217    0.430   62.967
  481.750    2.431    0.227    0.430   58.746
  482.000    2.387    0.234    0.411   55.731
  482.250    2.260    0.239    0.369   53.318
  482.500    2.024    0.236    0.341   50.903
  482.750    1.915    0.242    0.351   50.899
  483.000    1.882    0.253    0.365   50.895
  483.250    1.848    0.269    0.378   50.889
  483.500    1.883    0.279    0.364   50.284
  483.750    1.955    0.267    0.373   49.076
  484.000    2.067    0.246    0.405   44.854
  484.250    2.186    0.270    0.418   38.224
  484.500    2.355    0.287    0.420   34.003
  484.750    2.400    0.295    0.413   34.600
  485.000    2.633    0.314    0.388   38.211
  485.250    2.837    0.324    0.387   41.219
  485.500    2.945    0.336    0.397   43.623
  485.750    3.001    0.340    0.387   42.416
  486.000    3.002    0.351    0.372   38.797
  486.250    2.790    0.354    0.361   34.576
  486.500    2.690    0.333    0.369   32.162
  486.750    2.844    0.289    0.426   31.555
  487.000    3.064    0.307    0.452   30.949
  487.250    3.489    0.330    0.472   28.534
  487.500    3.973    0.337    0.483   27.327
  487.750    4.200    0.322    0.487   24.310
  488.000    4.695    0.334    0.495   22.498
  488.250    5.058    0.346    0.497   21.289
  488.500    5.448    0.355    0.466   21.285
  488.750    6.678    0.369    0.464   21.281
  489.000    6.806    0.381    0.475   21.880
  489.250    5.455    0.384    0.484   23.080
  489.500    5.070    0.388    0.499   24.883
  489.750    5.263    0.381    0.513   26.686
  490.000    5.883    0.368    0.507   27.284
  490.250    6.220    0.343    0.489   27.280
  490.500    6.577    0.327    0.479   25.469
  490.750    6.955    0.328    0.522   22.453
  491.000    7.088    0.339    0.542   20.641
  491.250    7.359    0.339    0.495   18.828
  491.500    7.641    0.335    0.491   18.824
  491.750    7.644    0.346    0.513   18.821
  492.000    7.790    0.347    0.524   20.021
  492.250    7.938    0.344    0.482   21.223
  492.500    8.092    0.341    0.472   23.024
  492.750    8.097    0.338    0.469   24.828
  493.000    8.251    0.341    0.464   26.630
  493.250    8.254    0.339    0.430   27.830
  493.500    8.257    0.344    0.412   29.033
  493.750    8.109    0.347    0.404   29.631
  494.000    7.819    0.351    0.415   32.035
  494.250    7.680    0.353    0.439   33.237
  494.500    7.682    0.350    0.457   36.847
  494.750    7.831    0.356    0.465   44.071
  495.000    7.979    0.369    0.387   53.103
  495.250    7.694    0.376    0.340   63.340
  495.500    3.958    0.351    0.320   65.745
  495.750    2.153    0.234    0.310   67.548
  496.000    1.824    0.197    0.309   64.531
  496.250    1.859    0.177    0.290   56.094
  496.500    4.192    0.148    0.210   45.247
  496.750    5.045    0.083    0.192   30.786
  497.000    5.639    0.008    0.166   14.518
  497.250    6.914    0.000    0.153   12.104
  497.500    7.446    0.000    0.141   11.496
  497.750    8.478    0.000    0.132   11.492
  498.000    9.477    0.012    0.126   12.091
  498.250    9.839    0.026    0.117   10.881
  498.500   10.026    0.029    0.111    9.672
  498.750   10.217    0.016    0.111    9.668
  499.000   10.608    0.026    0.109   10.267
  499.250   11.216    0.010    0.109   10.263
  499.500   11.644    0.000    0.109   10.860
  499.750   12.092    0.000    0.106   11.457
  500.000   12.323    0.013    0.106   11.454
