~VERSION INFORMATION
 VERS.                 2.0:   CWLS LOG ASCII STANDARD -VERSION 2.0
 WRAP.                  NO:   ONE LINE PER DEPTH STEP
~WELL INFORMATION BLOCK
#MNEM.UNIT           DATA                    DESCRIPTION OF MNEMONIC
#---------    -------------------            -------------------------------
# Generated from Intellog Unique Number	CS_73_76/WELL/2177
WELL.         AMOCO CANADA PETOLEUM          : Well_name    - WELL
LOC .         00/07-27-074-09W4/0            : Location     - LOCATION
UWI .         00/07-27-074-09W4/0            : Uwi          - UNIQUE WELL ID
ENTR.         SP                             : Entered      - ENTERED BY
SRVC.         SCHLUMBERGER                   : Scn          - SERVICE COMPANY
STRT.M        286.512                        : top_depth    - START DEPTH
STOP.M        490.512                        : bot_depth    - STOP DEPTH
STEP.M        0.25                           : increment    - STEP LENGTH
 NULL. -999.2500:NULL Value
~CURVE INFORMATION BLOCK
#MNEM UNIT       ERCB CURVE CODE    CURVE DESCRIPTION
#-----------   ------------------   ----------------------------------
DEPT.M        00 001 00 00         : DEPTH        - DEPTH
GR  .API      00 310 00 00         : GR           - GAMMA RAY
DPHI.V/V      00 890 00 00         : PHID         - DENSITY POROSITY (SANDSTONE)
NPHI.V/V      00 330 00 00         : PHIN         - NEUTRON POROSITY (SANDSTONE)
ILD .OHMM     00 120 00 00         : RESD         - DEEP RESISTIVITY (DIL)
~PARAMETER INFORMATION
#MNEM.UNIT           DATA             DESCRIPTION OF MNEMONIC
#---------         -----------     ------------------------------
GL  .M        661.416              : gl           - GROUND LEVEL ELEVATION
EREF.M        665.074              : kb           - ELEVATION OF DEPTH REFERENCE
DATM.M        661.416              : datum        - DATUM ELEVATION
TDD .M        594.36               : tdd          - TOTAL DEPTH DRILLER
RUN .         ONE                  : Run          - RUN NUMBER
ENG .         BILL                 : Engineer     - RECORDING ENGINEER
WIT .         JIM                  : Witness      - WITNESSED BY
MUD .         GEL                  : Mud_type     - MUD TYPE
MATR.         SANDSTONE            : Logunit      - NEUTRON MATRIX
TMAX.C        24.4444              : BHT          - MAXIMUM RECORDED TEMPERATURE
BHTD.M        594.36               : BHTDEP       - MAXIMUM RECORDED TEMPERATURE
MATR.         1                    : LOGUNIT      - NEUTRON MATRIX
RMT .C        25                   : MDTP         - TEMPERATURE OF MUD
NEUT.         1                    : NEUTRON      - NEUTRON TYPE
RESI.         0                    : RESIST       - RESISTIVITY TYPE
RMC .OHMM     0.25                 : RMC          - RESISTIVITY OF MUD CAKE
RMF .OHMM     0.25                 : RMF          - RESISTIVITY OF MUD FILTRATE
SUFT.C        15                   : SUFT         - SURFACE TEMPERATURE
~A  DEPTH       GR     PHID     PHIN     RESD
# ...
  460.512   57.777    0.169    0.279    8.633
  460.762   55.942    0.173    0.292    8.260
  461.012   59.359    0.190    0.332    7.881
  461.262   70.648    0.206    0.352    7.318
  461.512   76.644    0.199    0.372    7.016
  461.762   81.109    0.193    0.381    6.801
  462.012   87.273    0.192    0.385    6.664
  462.262   94.083    0.182    0.392    6.517
  462.512   95.445    0.176    0.400    6.326
  462.762   93.915    0.178    0.408    6.175
  463.012   89.179    0.189    0.414    6.180
  463.262   89.155    0.198    0.417    6.078
  463.512   91.301    0.207    0.416    5.913
  463.762   93.677    0.204    0.414    5.857
  464.012   96.839    0.200    0.412    5.784
  464.262   97.077    0.203    0.410    5.760
  464.512   94.371    0.209    0.402    5.650
  464.762   94.124    0.205    0.399    5.649
  465.012   92.418    0.192    0.397    5.648
  465.262   92.549    0.185    0.402    5.648
  465.512   92.747    0.189    0.404    5.640
  465.762   94.531    0.192    0.412    5.766
  466.012   95.009    0.198    0.417    5.758
  466.262   94.780    0.201    0.415    5.756
  466.512   94.444    0.204    0.412    5.885
  466.762   93.976    0.207    0.411    6.108
  467.012   93.669    0.199    0.415    6.100
  467.262   93.267    0.197    0.413    6.097
  467.512   92.263    0.200    0.408    6.227
  467.762   91.168    0.204    0.408    6.244
  468.012   89.698    0.207    0.412    6.337
  468.262   90.261    0.209    0.413    6.340
  468.512   92.333    0.202    0.408    6.356
  468.762   91.801    0.197    0.402    6.462
  469.012   89.968    0.198    0.410    6.461
  469.262   89.740    0.208    0.419    6.461
  469.512   90.193    0.213    0.413    6.463
  469.762   91.276    0.219    0.393    6.464
  470.012   91.622    0.213    0.389    6.466
  470.262   92.281    0.207    0.394    6.454
  470.512   92.221    0.202    0.398    6.603
  470.762   92.855    0.206    0.393    6.592
  471.012   92.864    0.209    0.394    6.594
  471.262   92.808    0.204    0.394    6.597
  471.512   91.781    0.204    0.385    6.588
  471.762   90.731    0.208    0.384    6.721
  472.012   90.417    0.211    0.385    6.857
  472.262   88.332    0.206    0.381    6.952
  472.512   86.192    0.203    0.382    7.229
  472.762   83.953    0.198    0.386    7.536
  473.012   87.988    0.192    0.375    7.743
  473.262   85.448    0.183    0.364    8.357
  473.512   80.335    0.171    0.340    8.581
  473.762   68.081    0.162    0.327    9.032
  474.012   64.175    0.198    0.344    9.310
  474.262   70.562    0.221    0.361    9.432
  474.512   79.666    0.218    0.374    9.452
  474.762   89.094    0.212    0.377    9.251
  475.012   94.059    0.206    0.373    9.114
  475.262   94.463    0.201    0.377    9.098
  475.512   92.263    0.200    0.388    9.094
  475.762   88.251    0.210    0.387    9.096
  476.012   82.949    0.217    0.376    9.097
  476.262   79.130    0.221    0.348    9.099
  476.512   74.995    0.233    0.348    9.229
  476.762   71.459    0.242    0.349    9.325
  477.012   66.669    0.250    0.350    9.450
  477.262   64.083    0.262    0.350    9.645
  477.512   61.436    0.268    0.348    9.606
  477.762   61.544    0.274    0.340    9.307
  478.012   65.159    0.277    0.332    9.120
  478.262   67.899    0.271    0.337    8.937
  478.512   66.605    0.269    0.340    8.221
  478.762   68.283    0.264    0.337    8.452
  479.012   68.526    0.266    0.339    8.131
  479.262   71.277    0.270    0.343    7.393
  479.512   69.954    0.278    0.344    6.945
  479.762   67.327    0.272    0.354    6.401
  480.012   73.251    0.264    0.361    5.955
  480.262   75.830    0.255    0.354    5.597
  480.512   79.918    0.278    0.344    5.238
  480.762   80.046    0.299    0.336    4.871
  481.012   70.893    0.319    0.334    4.530
  481.262   61.381    0.323    0.336    4.264
  481.512   54.589    0.328    0.336    4.021
  481.762   54.877    0.332    0.336    3.788
  482.012   57.407    0.334    0.334    3.745
  482.262   58.995    0.336    0.335    3.588
  482.512   61.444    0.341    0.342    3.530
  482.762   63.350    0.341    0.350    3.534
  483.012   64.837    0.333    0.354    3.535
  483.262   66.302    0.328    0.356    3.533
  483.512   66.458    0.325    0.353    3.602
  483.762   62.913    0.327    0.346    3.694
  484.012   61.035    0.329    0.333    3.734
  484.262   58.868    0.332    0.334    3.928
  484.512   63.806    0.335    0.336    4.032
  484.762   69.166    0.340    0.340    4.164
  485.012   73.319    0.332    0.342    4.210
  485.262   79.392    0.323    0.335    4.349
  485.512   76.080    0.328    0.329    4.411
  485.762   69.294    0.331    0.329    4.429
  486.012   63.404    0.335    0.332    4.433
  486.262   56.879    0.325    0.336    4.443
  486.512   57.366    0.318    0.338    4.344
  486.762   59.760    0.311    0.340    4.355
  487.012   62.144    0.313    0.339    4.409
  487.262   61.952    0.293    0.334    4.468
  487.512   58.288    0.285    0.325    4.602
  487.762   56.113    0.263    0.317    4.833
  488.012   51.530    0.101    0.296    5.086
  488.262   46.551    0.031    0.265    5.491
  488.512   42.089    0.009    0.237    6.137
  488.762   39.959    0.020    0.202    7.412
  489.012   43.684    0.029    0.196    9.636
  489.262   45.528    0.039    0.209   12.047
  489.512   48.484    0.040    0.228   14.660
  489.762   51.502    0.046    0.263   16.977
  490.012   56.679    0.055    0.293   17.661
  490.262   62.867    0.044    0.302   17.094
  490.512   65.160    0.047    0.304   16.450
