~VERSION INFORMATION
 VERS.                 2.0:   CWLS LOG ASCII STANDARD -VERSION 2.0
 WRAP.                  NO:   ONE LINE PER DEPTH STEP
~WELL INFORMATION BLOCK
#MNEM.UNIT           DATA                    DESCRIPTION OF MNEMONIC
#---------    -------------------            -------------------------------
# Generated from Intellog Unique Number	CW_70_72/WELL/3007
NULL.         -999.25                        : NULL_VALUE
WELL.         SULPETRO ET AL PARKER 06-17    : Well_name    - WELL              
LOC .         06-17-070-04W5                 : Location     - LOCATION          
UWI .         00/06-17-070-04W5/0            : Uwi          - UNIQUE WELL ID    
ENTR.         J                              : Entered      - ENTERED BY        
SRVC.         WESTERN ATLAS                  : Scn          - SERVICE COMPANY   
DATE.         4 JUNE 83                      : Date         - LOG DATE          
STRT.M        600                            : top_depth    - START DEPTH       
STOP.M        840                            : bot_depth    - STOP DEPTH        
STEP.M        0.25                           : increment    - STEP LENGTH       
~CURVE INFORMATION BLOCK
#MNEM UNIT       ERCB CURVE CODE    CURVE DESCRIPTION
#-----------   ------------------   ----------------------------------
DEPT.M        00 001 00 00         : DEPTH        - DEPTH                       
ILD .OHMM     00 120 00 00         : RESD         - DEEP RESISTIVITY (DIL)      
CALI.MM       00 280 01 00         : CAL          - CALIPER                     
GR  .API      00 310 00 00         : GR           - GAMMA RAY                   
NPHI.V/V      00 330 00 00         : PHIN         - NEUTRON POROSITY (SANDSTONE)
DPHI.V/V      00 890 00 00         : PHID         - DENSITY POROSITY (SANDSTONE)
~PARAMETER INFORMATION       
#MNEM.UNIT           DATA             DESCRIPTION OF MNEMONIC
#---------         -----------     ------------------------------
GL  .M        710.35               : gl           - GROUND LEVEL ELEVATION      
EREF.M        714.05               : kb           - ELEVATION OF DEPTH REFERENCE
DATM.M        710.35               : datum        - DATUM ELEVATION             
TDD .M        905                  : tdd          - TOTAL DEPTH DRILLER         
RUN .         ONE                  : Run          - RUN NUMBER                  
ENG .         ADAMOWSKI            : Engineer     - RECORDING ENGINEER          
WIT .         DAVID                : Witness      - WITNESSED BY                
BASE.         EDM                  : Branch       - HOME BASE OF LOGGING UNIT   
MUD .         GEL CHEM             : Mud_type     - MUD TYPE                    
MATR.         SANDSTONE            : Logunit      - NEUTRON MATRIX              
TMAX.C        33                   : BHT          - MAXIMUM RECORDED TEMPERATURE
BHTD.M        902.5                : BHTDEP       - MAXIMUM RECORDED TEMPERATURE
RMT .C        17                   : MDTP         - TEMPERATURE OF MUD          
MUDD.KG/M     1150                 : MWT          - MUD DENSITY                 
NEUT.         1                    : NEUTRON      - NEUTRON TYPE                
RESI.         0                    : RESIST       - RESISTIVITY TYPE            
RM  .OHMM     2.3                  : RM           - RESISTIVITY OF MUD          
RMC .OHMM     2.5                  : RMC          - RESISTIVITY OF MUD CAKE     
RMF .OHMM     1.9                  : RMF          - RESISTIVITY OF MUD FILTRATE 
SUFT.C        0                    : SUFT         - SURFACE TEMPERATURE         
~A  DEPTH     RESD      CAL       GR     PHIN     PHID
# ...
  636.500    2.216  180.917  111.185    0.457    0.304
  636.750    2.316  175.716  120.283    0.453    0.292
  637.000    2.527  171.561  116.287    0.415    0.262
  637.250    2.831  167.719  107.528    0.386    0.232
  637.500    3.071  163.776  100.460    0.370    0.214
  637.750    3.382  161.185   88.819    0.359    0.215
  638.000    3.780  159.015   80.874    0.338    0.187
  638.250    4.219  157.680   72.116    0.317    0.159
  638.500    4.417  157.493   66.489    0.297    0.139
  638.750    4.490  158.242   70.135    0.296    0.144
  639.000    4.257  159.730   77.041    0.316    0.163
  639.250    3.860  160.898   85.514    0.338    0.171
  639.500    3.366  161.963   89.160    0.350    0.176
  639.750    3.216  162.404   89.988    0.355    0.179
  640.000    3.318  162.739   86.116    0.361    0.182
  640.250    3.404  162.863   89.701    0.357    0.185
  640.500    3.471  162.887   93.473    0.345    0.191
  640.750    3.529  162.495   93.674    0.344    0.186
  641.000    3.573  162.308   92.373    0.351    0.177
  641.250    3.570  162.222   96.834    0.345    0.172
  641.500    3.581  161.823   99.729    0.338    0.177
  641.750    3.585  162.478   97.425    0.348    0.183
  642.000    3.550  162.288   93.113    0.365    0.191
  642.250    3.502  162.416   87.739    0.369    0.197
  642.500    3.440  162.537   84.994    0.348    0.205
  642.750    3.349  162.667   88.204    0.342    0.215
  643.000    3.243  162.797   90.534    0.348    0.220
  643.250    3.174  162.499   88.353    0.356    0.225
  643.500    3.119  162.422   85.109    0.364    0.226
  643.750    3.071  162.438   84.434    0.365    0.225
  644.000    3.034  162.257   86.891    0.364    0.219
  644.250    2.982  162.482   87.843    0.358    0.210
  644.500    2.946  162.514   86.289    0.351    0.205
  644.750    2.934  162.628   84.361    0.343    0.199
  645.000    2.915  162.859   85.877    0.337    0.194
  645.250    2.920  162.886   89.461    0.356    0.187
  645.500    2.906  162.911   92.982    0.369    0.182
  645.750    2.920  162.826   95.442    0.375    0.178
  646.000    2.963  162.950   94.262    0.370    0.175
  646.250    2.983  162.968   93.335    0.367    0.173
  646.500    2.998  163.094   95.980    0.365    0.174
  646.750    3.007  164.165   96.244    0.365    0.179
  647.000    2.977  164.601   98.575    0.373    0.180
  647.250    2.959  164.601  101.157    0.371    0.179
  647.500    2.918  164.032   95.781    0.378    0.177
  647.750    2.867  163.936   89.591    0.391    0.177
  648.000    2.750  162.915   83.903    0.379    0.179
  648.250    2.593  162.306   85.233    0.372    0.183
  648.500    2.396  162.749   86.247    0.371    0.187
  648.750    2.201  163.296   84.130    0.382    0.190
  649.000    2.060  163.940   84.018    0.406    0.195
  649.250    1.965  164.169   89.044    0.424    0.201
  649.500    1.956  164.819   96.827    0.441    0.211
  649.750    1.999  165.573   97.467    0.440    0.224
  650.000    2.066  167.473   90.025    0.416    0.227
  650.250    2.120  167.915   86.777    0.406    0.207
  650.500    2.171  168.250   85.286    0.397    0.196
  650.750    2.173  168.373   81.978    0.407    0.186
  651.000    2.143  167.566   86.379    0.406    0.195
  651.250    2.067  166.432   91.216    0.392    0.213
  651.500    1.990  162.694   91.105    0.389    0.231
  651.750    1.863  162.612   86.732    0.407    0.237
  652.000    1.734  166.184   81.984    0.399    0.243
  652.250    1.650  171.012   78.924    0.388    0.259
  652.500    1.601  176.566   84.452    0.398    0.318
  652.750    1.763  178.261   89.165    0.421    0.368
  653.000    2.008  170.344   92.436    0.455    0.439
  653.250    2.313  164.621   85.805    0.472    0.455
  653.500    2.664  161.615   81.621    0.485    0.381
  653.750    3.173  159.965   86.897    0.481    0.313
  654.000    3.704  159.258   98.627    0.405    0.216
  654.250    3.800  158.025  101.898    0.369    0.206
  654.500    3.584  155.854   91.951    0.343    0.221
  654.750    3.450  155.358   82.438    0.341    0.232
  655.000    3.565  155.272   73.868    0.349    0.209
  655.250    4.137  155.607   71.122    0.301    0.175
  655.500    5.107  156.679   64.807    0.250    0.119
  655.750    6.072  157.112   61.251    0.222    0.093
  656.000    6.789  157.238   63.706    0.207    0.081
  656.250    6.379  157.161   70.550    0.222    0.129
  656.500    5.469  157.284   75.511    0.271    0.163
  656.750    4.679  157.620   82.732    0.314    0.168
  657.000    3.872  157.957   85.125    0.344    0.163
  657.250    3.228  157.973   85.389    0.361    0.172
  657.500    3.049  158.203   86.530    0.363    0.182
  657.750    2.980  158.335   89.174    0.352    0.177
  658.000    3.120  158.561   91.693    0.344    0.163
  658.250    3.367  158.376   91.708    0.345    0.167
  658.500    3.571  158.505   90.780    0.352    0.190
  658.750    3.986  158.109   93.738    0.350    0.222
  659.000    4.381  157.505   93.125    0.368    0.250
  659.250    5.056  156.587   77.660    0.421    0.402
  659.500    5.780  155.663   65.330    0.483    0.514
  659.750    6.473  154.542   51.056    0.531    0.606
  660.000    6.531  153.519   33.900    0.503    0.456
  660.250    6.250  153.015   48.952    0.424    0.275
  660.500    5.369  152.725   60.933    0.355    0.259
  660.750    4.208  152.017   67.587    0.315    0.250
  661.000    2.965  151.307   69.857    0.299    0.247
  661.250    2.481  150.494   67.551    0.309    0.245
  661.500    2.288  150.413   69.820    0.323    0.245
  661.750    2.203  150.742   69.019    0.322    0.246
  662.000    2.156  151.390   68.782    0.317    0.247
  662.250    2.147  152.774   72.804    0.307    0.247
  662.500    2.198  153.003   74.448    0.298    0.246
  662.750    2.246  153.230   73.645    0.289    0.244
  663.000    2.330  152.732   77.231    0.288    0.241
  663.250    2.418  151.499   79.624    0.310    0.236
  663.500    2.495  151.315   79.138    0.317    0.233
  663.750    2.563  151.439   83.473    0.314    0.233
  664.000    2.714  152.295   87.495    0.308    0.232
  664.250    2.945  152.734   93.837    0.300    0.228
  664.500    3.183  153.905  100.053    0.292    0.217
  664.750    3.559  157.167  104.077    0.297    0.202
  665.000    3.810  159.589  102.460    0.334    0.187
  665.250    4.027  160.449   97.587    0.357    0.171
  665.500    4.147  160.887   96.849    0.365    0.172
  665.750    4.098  160.801   96.422    0.358    0.190
  666.000    4.057  160.617   97.063    0.350    0.190
  666.250    4.024  160.746   97.262    0.344    0.164
  666.500    3.955  160.868   93.705    0.341    0.140
  666.750    3.872  161.416   90.145    0.349    0.123
  667.000    3.812  161.436   91.098    0.343    0.140
  667.250    3.781  161.561   96.125    0.350    0.163
  667.500    3.750  161.897  101.589    0.371    0.184
  667.750    3.720  162.132  104.735    0.396    0.202
  668.000    3.711  161.942  106.189    0.404    0.214
  668.250    3.749  161.646  103.821    0.395    0.210
  668.500    3.782  162.194   99.825    0.387    0.198
  668.750    3.844  162.420   97.959    0.398    0.177
  669.000    3.812  162.448   98.097    0.394    0.158
  669.250    3.740  162.368   98.986    0.375    0.134
  669.500    3.640  162.069   98.627    0.350    0.132
  669.750    3.550  162.093   97.824    0.360    0.153
  670.000    3.463  161.802   97.145    0.384    0.177
  670.250    3.359  161.824   95.343    0.411    0.198
  670.500    3.306  161.745   93.225    0.404    0.225
  670.750    3.280  161.449   90.981    0.390    0.239
  671.000    3.217  161.052   89.553    0.376    0.220
  671.250    3.144  160.758   87.436    0.365    0.180
  671.500    3.032  158.909   86.885    0.365    0.213
  671.750    2.870  156.940   88.715    0.378    0.233
  672.000    2.637  153.739   87.727    0.389    0.249
  672.250    2.477  153.327   82.789    0.395    0.266
  672.500    2.336  151.893   77.099    0.381    0.283
  672.750    2.126  151.184   71.350    0.361    0.293
