~VERSION INFORMATION
 VERS.                 2.0:   CWLS LOG ASCII STANDARD -VERSION 2.0
 WRAP.                  NO:   ONE LINE PER DEPTH STEP
~WELL INFORMATION BLOCK
#MNEM.UNIT           DATA                    DESCRIPTION OF MNEMONIC
#---------    -------------------            -------------------------------
# Generated from Intellog Unique Number	CW_70_72/WELL/927
NULL.         -999.25                        : NULL_VALUE
WELL.         LANDBANK ET AL MITSUE 07-29    : Well_name    - WELL              
LOC .         07-29-071-02W5                 : Location     - LOCATION          
UWI .         00/07-29-071-02W5/0            : Uwi          - UNIQUE WELL ID    
ENTR.         JAYE                           : Entered      - ENTERED BY        
SRVC.         SCHLUMBERGER                   : Scn          - SERVICE COMPANY   
DATE.         25 FEB 83                      : Date         - LOG DATE          
STRT.M        400                            : top_depth    - START DEPTH       
STOP.M        630                            : bot_depth    - STOP DEPTH        
STEP.M        0.25                           : increment    - STEP LENGTH       
~CURVE INFORMATION BLOCK
#MNEM UNIT       ERCB CURVE CODE    CURVE DESCRIPTION
#-----------   ------------------   ----------------------------------
DEPT.M        00 001 00 00         : DEPTH        - DEPTH                       
DPHI.V/V      00 890 00 00         : PHID         - DENSITY POROSITY (SANDSTONE)
NPHI.V/V      00 330 00 00         : PHIN         - NEUTRON POROSITY (SANDSTONE)
GR  .API      00 310 00 00         : GR           - GAMMA RAY                   
CALI.MM       00 280 01 00         : CAL          - CALIPER                     
ILD .OHMM     00 120 00 00         : RESD         - DEEP RESISTIVITY (DIL)      
~PARAMETER INFORMATION       
#MNEM.UNIT           DATA             DESCRIPTION OF MNEMONIC
#---------         -----------     ------------------------------
GL  .M        592.56               : gl           - GROUND LEVEL ELEVATION      
EREF.M        596.21               : kb           - ELEVATION OF DEPTH REFERENCE
DATM.M        592.56               : datum        - DATUM ELEVATION             
TDD .M        649                  : tdd          - TOTAL DEPTH DRILLER         
RUN .         ONE                  : Run          - RUN NUMBER                  
ENG .         WRIGHT               : Engineer     - RECORDING ENGINEER          
WIT .         SMITH                : Witness      - WITNESSED BY                
BASE.         EDM                  : Branch       - HOME BASE OF LOGGING UNIT   
MUD .         GEL CHEM             : Mud_type     - MUD TYPE                    
MATR.         SANDSTONE            : Logunit      - NEUTRON MATRIX              
TMAX.C        35.6                 : BHT          - MAXIMUM RECORDED TEMPERATURE
BHTD.M        650                  : BHTDEP       - MAXIMUM RECORDED TEMPERATURE
RMT .C        15.6                 : MDTP         - TEMPERATURE OF MUD          
MUDD.KG/M     1200                 : MWT          - MUD DENSITY                 
NEUT.         1                    : NEUTRON      - NEUTRON TYPE                
RESI.         0                    : RESIST       - RESISTIVITY TYPE            
RM  .OHMM     6.49                 : RM           - RESISTIVITY OF MUD          
RMC .OHMM     0                    : RMC          - RESISTIVITY OF MUD CAKE     
RMF .OHMM     5.45                 : RMF          - RESISTIVITY OF MUD FILTRATE 
SUFT.C        0                    : SUFT         - SURFACE TEMPERATURE         
~A  DEPTH     PHID     PHIN       GR      CAL     RESD
# ...
  436.500    0.203    0.435   86.705  163.716    4.219
  436.750    0.220    0.434   81.834  163.506    4.289
  437.000    0.237    0.427   78.688  162.781    4.389
  437.250    0.234    0.417   82.752  162.263    4.512
  437.500    0.223    0.408   82.071  161.641    4.836
  437.750    0.251    0.438   74.488  161.328    5.462
  438.000    0.268    0.455   66.905  161.632    6.648
  438.250    0.284    0.466   59.630  162.244    8.464
  438.500    0.132    0.372   52.232  163.778   10.898
  438.750    0.083    0.158   49.148  164.391   13.540
  439.000    0.013    0.145   49.515  164.694   16.855
  439.250    0.002    0.160   51.052  164.893   16.921
  439.500    0.027    0.209   54.993  165.403   13.344
  439.750    0.067    0.237   59.242  166.116    9.853
  440.000    0.077    0.271   60.719  166.420    7.374
  440.250    0.101    0.292   62.010  166.209    5.384
  440.500    0.144    0.309   64.595  166.102    4.036
  440.750    0.217    0.337   67.550  165.994    3.475
  441.000    0.284    0.388   70.444  165.271    3.049
  441.250    0.276    0.394   75.679  164.854    2.839
  441.500    0.256    0.400   81.223  164.849    2.656
  441.750    0.262    0.451   76.782  165.255    2.588
  442.000    0.258    0.431   69.939  166.072    2.577
  442.250    0.234    0.418   72.031  168.532    2.568
  442.500    0.212    0.431   77.883  173.560    2.563
  442.750    0.220    0.449   88.418  181.977    2.573
  443.000    0.236    0.476   89.956  182.897    2.616
  443.250    0.265    0.481   77.936  171.696    2.696
  443.500    0.232    0.438   75.529  163.063    2.836
  443.750    0.205    0.413   79.409  165.524    3.086
  444.000    0.186    0.430   79.220  167.060    3.395
  444.250    0.219    0.429   76.629  164.897    3.785
  444.500    0.248    0.412   79.893  164.379    3.921
  444.750    0.238    0.409   85.251  165.504    3.863
  445.000    0.225    0.419   83.338  165.602    3.519
  445.250    0.240    0.437   77.788  163.542    3.247
  445.500    0.254    0.432   72.978  161.792    3.047
  445.750    0.275    0.429   68.970  160.245    2.875
  446.000    0.290    0.429   65.577  159.727    2.659
  446.250    0.293    0.426   64.527  159.517    2.546
  446.500    0.288    0.419   59.347  159.512    2.499
  446.750    0.301    0.413   61.132  159.814    2.468
  447.000    0.309    0.396   63.039  160.015    2.481
  447.250    0.315    0.398   63.467  160.318    2.571
  447.500    0.312    0.402   63.279  160.930    2.709
  447.750    0.301    0.408   64.817  161.439    2.914
  448.000    0.286    0.415   69.806  162.358    3.268
  448.250    0.258    0.429   77.444  163.174    3.643
  448.500    0.225    0.442   81.509  164.402    3.824
  448.750    0.198    0.434   69.612  165.321    3.831
  449.000    0.207    0.423   62.830  166.036    3.671
  449.250    0.233    0.413   64.923  167.674    3.413
  449.500    0.232    0.446   71.883  169.415    3.263
  449.750    0.239    0.477   73.790  170.130    3.172
  450.000    0.267    0.491   68.549  165.811    3.120
  450.250    0.278    0.419   66.081  162.724    3.126
  450.500    0.291    0.406   65.339  162.513    3.155
  450.750    0.297    0.398   67.185  163.433    3.193
  451.000    0.294    0.392   69.524  164.045    3.216
  451.250    0.285    0.393   70.691  164.244    3.246
  451.500    0.278    0.407   68.100  164.548    3.282
  451.750    0.288    0.430   61.811  164.646    3.295
  452.000    0.298    0.423   58.111  165.052    3.301
  452.250    0.287    0.417   61.436  165.252    3.333
  452.500    0.272    0.413   69.814  165.453    3.435
  452.750    0.252    0.419   77.453  166.475    3.525
  453.000    0.232    0.439   84.537  168.010    3.654
  453.250    0.215    0.449   90.265  169.033    3.752
  453.500    0.203    0.450   93.159  169.747    3.809
  453.750    0.197    0.441   92.539  170.151    3.858
  454.000    0.204    0.430   92.105  170.148    3.909
  454.250    0.205    0.466   93.457  170.450    3.925
  454.500    0.205    0.451   93.085  170.138    3.895
  454.750    0.214    0.437   91.541  169.106    3.831
  455.000    0.226    0.446   87.594  165.814    3.732
  455.250    0.237    0.456   81.429  162.419    3.628
  455.500    0.238    0.460   78.467  161.593    3.528
  455.750    0.236    0.453   79.204  162.718    3.469
  456.000    0.230    0.440   80.002  164.972    3.438
  456.250    0.223    0.431   81.109  165.789    3.457
  456.500    0.214    0.436   79.996  165.784    3.431
  456.750    0.201    0.452   74.385  165.266    3.361
  457.000    0.238    0.458   66.309  163.720    3.306
  457.250    0.260    0.448   59.280  161.455    3.257
  457.500    0.284    0.414   56.320  161.142    3.227
  457.750    0.285    0.401   54.345  161.446    3.325
  458.000    0.278    0.400   61.121  161.748    3.524
  458.250    0.269    0.403   67.773  162.463    3.748
  458.500    0.262    0.410   75.350  163.279    4.139
  458.750    0.264    0.430   76.765  163.788    5.231
  459.000    0.306    0.446   58.767  164.297    6.953
  459.250    0.475    0.478   40.707  165.216    8.835
  459.500    0.605    0.540   21.230  166.649   10.835
  459.750    0.808    0.717   19.995  168.904   10.898
  460.000    0.797    0.722   34.967  171.981    9.506
  460.250    0.734    0.796   56.718  174.235    7.943
  460.500    0.421    0.810   72.307  172.792    6.788
  460.750    0.229    0.433   60.841  168.987    5.910
  461.000    0.226    0.384   56.463  164.463    5.224
  461.250    0.222    0.361   55.104  162.301    4.540
  461.500    0.220    0.353   53.868  161.782    4.036
  461.750    0.220    0.351   51.770  161.879    3.824
  462.000    0.238    0.356   54.972  162.182    3.717
  462.250    0.254    0.374   58.173  162.486    3.622
  462.500    0.260    0.377   57.184  162.275    3.588
  462.750    0.263    0.370   54.285  162.271    3.589
  463.000    0.267    0.360   56.316  162.368    3.602
  463.250    0.255    0.349   57.915  162.567    3.649
  463.500    0.244    0.343   55.817  162.871    3.698
  463.750    0.239    0.343   56.184  162.969    3.726
  464.000    0.243    0.346   56.920  163.169    3.733
  464.250    0.256    0.370   57.102  163.473    3.726
  464.500    0.273    0.388   57.407  163.674    3.687
  464.750    0.262    0.387   58.329  163.770    3.645
  465.000    0.250    0.380   59.989  163.560    3.611
  465.250    0.260    0.377   63.007  163.557    3.570
  465.500    0.271    0.376   62.880  163.756    3.497
  465.750    0.281    0.370   64.356  163.750    3.414
  466.000    0.279    0.374   67.989  163.541    3.308
  466.250    0.280    0.381   64.782  163.331    3.227
  466.500    0.276    0.376   62.806  163.224    3.134
  466.750    0.280    0.366   64.406  163.320    3.059
  467.000    0.286    0.372   65.944  163.419    3.013
  467.250    0.295    0.387   66.495  163.414    2.946
  467.500    0.303    0.401   66.739  163.408    2.854
  467.750    0.295    0.409   66.736  163.404    2.771
  468.000    0.284    0.406   66.117  163.501    2.708
  468.250    0.293    0.403   62.354  163.804    2.654
  468.500    0.304    0.399   63.214  163.799    2.609
  468.750    0.312    0.398   63.396  163.898    2.566
  469.000    0.318    0.397   59.449  164.200    2.491
  469.250    0.319    0.399   55.871  164.298    2.423
  469.500    0.318    0.399   55.745  164.397    2.382
  469.750    0.305    0.391   57.776  164.596    2.341
  470.000    0.310    0.386   58.451  164.692    2.329
  470.250    0.316    0.394   60.543  164.688    2.320
  470.500    0.321    0.397   60.725  164.890    2.309
  470.750    0.330    0.397   57.579  164.885    2.312
  471.000    0.323    0.398   56.282  164.982    2.316
  471.250    0.309    0.404   55.354  164.977    2.321
  471.500    0.312    0.414   54.242  165.178    2.331
  471.750    0.322    0.421   52.637  165.481    2.331
  472.000    0.326    0.416   52.819  165.681    2.327
  472.250    0.324    0.403   55.343  165.780    2.322
  472.500    0.323    0.396   57.990  165.775    2.326
  472.750    0.323    0.392   59.404  165.564    2.331
