~VERSION INFORMATION
 VERS.                 2.0:   CWLS LOG ASCII STANDARD -VERSION 2.0
 WRAP.                  NO:   ONE LINE PER DEPTH STEP
~WELL INFORMATION BLOCK
#MNEM.UNIT           DATA                    DESCRIPTION OF MNEMONIC
#---------    -------------------            -------------------------------
# Generated from Intellog Unique Number	CC_80_83/WELL/1179
NULL.         -999.25                        : NULL_VALUE
WELL.         CHEVRON ALGAR                  : Well_name    - WELL
LOC .         07-08-081-17W4                 : Location     - LOCATION          
UWI .         00/07-08-081-17W400            : Uwi          - UNIQUE WELL ID    
ENTR.         DW                             : Entered      - ENTERED BY        
SRVC.         SCHLUMBERGER                   : Scn          - SERVICE COMPANY   
DATE.         24 FEB 74                      : Date         - LOG DATE
STRT.M        88.392                         : top_depth    - START DEPTH       
STOP.M        256.03                         : bot_depth    - STOP DEPTH        
STEP.M        0.3048                         : increment    - STEP LENGTH       
~CURVE INFORMATION BLOCK
#MNEM UNIT       ERCB CURVE CODE    CURVE DESCRIPTION
#-----------   ------------------   ----------------------------------
DEPT.M        00 001 00 00         : DEPTH        - DEPTH                       
DPHI.V/V      00 890 00 00         : PHID         - DENSITY POROSITY (LIMESTONE)
NPHI.V/V      00 330 00 00         : PHIN         - NEUTRON POROSITY (LIMESTONE)
GR  .API      00 310 00 00         : GR           - GAMMA RAY                   
ILD .OHMM     00 120 00 00         : RESD         - DEEP RESISTIVITY (DIL)      
~PARAMETER INFORMATION       
#MNEM.UNIT           DATA             DESCRIPTION OF MNEMONIC
#---------         -----------     ------------------------------
GL  .M        482.498              : gl           - GROUND LEVEL ELEVATION      
EREF.M        485.851              : kb           - ELEVATION OF DEPTH REFERENCE
DATM.M        485.851              : datum        - DATUM ELEVATION             
TDD .M        257.251              : tdd          - TOTAL DEPTH DRILLER         
RUN .         ONE                  : Run          - RUN NUMBER                  
ENG .         BILL                 : Engineer     - RECORDING ENGINEER          
WIT .         JIM                  : Witness      - WITNESSED BY                
MUD .         GEL                  : Mud_type     - MUD TYPE                    
MATR.         LIMESTONE            : Logunit      - NEUTRON MATRIX              
TMAX.C        22.7778              : BHT          - MAXIMUM RECORDED TEMPERATURE
BHTD.M        257.251              : BHTDEP       - MAXIMUM RECORDED TEMPERATURE
MATR.         1                    : LOGUNIT      - NEUTRON MATRIX              
RMT .C        25                   : MDTP         - TEMPERATURE OF MUD          
NEUT.         1                    : NEUTRON      - NEUTRON TYPE                
RESI.         0                    : RESIST       - RESISTIVITY TYPE            
RMC .OHMM     0.25                 : RMC          - RESISTIVITY OF MUD CAKE     
RMF .OHMM     0.25                 : RMF          - RESISTIVITY OF MUD FILTRATE 
SUFT.C        15                   : SUFT         - SURFACE TEMPERATURE         
~A  DEPTH     PHID     PHIN       GR     RESD
# ...
  141.427    0.355    0.502   47.169   13.351
  141.732    0.355    0.514   42.244   13.595
  142.037    0.362    0.488   41.626   13.583
  142.342    0.371    0.477   44.695   13.572
  142.646    0.345    0.512   45.919   13.560
  142.951    0.347    0.532   45.917   13.548
  143.256    0.344    0.548   44.683   13.534
  143.561    0.345    0.494   42.218   13.524
  143.866    0.348    0.496   42.215   13.258
  144.170    0.338    0.492   42.824   12.761
  144.475    0.350    0.468   44.664   12.505
  144.780    0.353    0.479   44.659   12.495
  145.085    0.354    0.509   44.041   12.716
  145.390    0.355    0.491   44.037   12.705
  145.694    0.353    0.502   46.492   12.698
  145.999    0.345    0.528   48.331   12.931
  146.304    0.328    0.525   48.326   13.406
  146.609    0.339    0.519   47.707   13.908
  146.913    0.344    0.519   44.014   15.257
  147.218    0.350    0.510   42.165   16.740
  147.523    0.328    0.480   42.161   19.069
  147.828    0.288    0.413   45.230   27.186
  148.133    0.227    0.256   48.299   57.424
  148.437    0.080    0.140   44.607   74.548
  148.742    0.005    0.148   43.373   81.769
  149.047    0.002    0.149   42.138   83.261
  149.352    0.000    0.145   42.135   86.326
  149.657    0.000    0.142   40.285   89.570
  149.961    0.000    0.143   38.436   96.426
  150.266    0.000    0.150   40.276   98.148
  150.571    0.010    0.172   44.575   89.319
  150.876    0.041    0.204   45.185   53.845
  151.181    0.089    0.258   43.952   22.740
  151.485    0.182    0.303   50.709   18.840
  151.790    0.263    0.464   55.625   17.146
  152.095    0.319    0.507   59.308   13.680
  152.400    0.327    0.514   59.918   12.923
  152.705    0.332    0.502   59.297   12.438
  153.009    0.335    0.486   59.294   12.197
  153.314    0.340    0.494   59.289   11.953
  153.619    0.336    0.511   58.671   11.945
  153.924    0.307    0.513   57.437   11.936
  154.229    0.302    0.500   53.743   12.382
  154.533    0.327    0.477   51.279   12.372
  154.838    0.330    0.489   50.660   13.070
  155.143    0.309    0.474   51.885   13.553
  155.448    0.292    0.467   53.724   14.058
  155.753    0.295    0.468   54.951   14.314
  156.057    0.309    0.486   56.176   14.565
  156.362    0.317    0.505   55.556   14.557
  156.667    0.319    0.507   56.167   14.269
  156.972    0.320    0.496   58.007   14.259
  157.277    0.329    0.496   59.233   13.725
  157.581    0.325    0.500   62.916   13.460
  157.886    0.324    0.489   64.757   12.954
  158.191    0.326    0.485   61.063   12.695
  158.496    0.319    0.491   57.985   12.682
  158.800    0.335    0.507   57.365   12.672
  159.105    0.335    0.517   57.360   13.145
  159.410    0.328    0.497   56.742   13.136
  159.715    0.331    0.497   58.582   13.373
  160.020    0.345    0.523   60.422   13.364
  160.324    0.339    0.544   60.417   13.348
  160.629    0.326    0.565   59.183   13.092
  160.934    0.320    0.546   59.179   12.828
  161.239    0.320    0.544   61.632   12.820
  161.544    0.313    0.543   61.629   12.812
  161.848    0.311    0.538   63.469   13.043
  162.153    0.295    0.533   67.151   12.315
  162.458    0.272    0.531   67.764   11.857
  162.763    0.313    0.586   70.833   10.788
  163.068    0.300    0.559   75.133    8.936
  163.372    0.274    0.538   78.817    8.131
  163.677    0.283    0.526   81.272    7.827
  163.982    0.274    0.506   84.341    7.674
  164.287    0.273    0.500   86.181    7.525
  164.592    0.266    0.501   83.718    7.660
  164.896    0.266    0.529   84.941    7.942
  165.201    0.255    0.505   84.938    8.089
  165.506    0.266    0.471   80.630    8.707
  165.811    0.267    0.461   75.706    9.199
  166.116    0.274    0.479   75.702    9.193
  166.420    0.286    0.500   75.697    9.186
  166.725    0.289    0.506   74.463    9.177
  167.030    0.286    0.509   79.378    8.665
  167.335    0.244    0.510   77.529    8.342
  167.640    0.266    0.512   74.450    8.029
  167.944    0.278    0.515   79.364    7.724
  168.249    0.289    0.519   81.204    7.719
  168.554    0.297    0.522   79.970    7.858
  168.859    0.269    0.511   81.196    7.703
  169.163    0.278    0.521   84.265    7.557
  169.468    0.271    0.503   85.489    6.874
  169.773    0.290    0.537   84.871    6.254
  170.078    0.301    0.588   83.635    5.908
  170.383    0.295    0.581   83.633    5.683
  170.687    0.289    0.548   86.702    5.678
  170.992    0.294    0.543   87.927    5.890
  171.297    0.293    0.548   87.308    6.342
  171.602    0.271    0.564   83.000    6.458
  171.907    0.268    0.565   79.920    6.572
  172.211    0.261    0.541   81.761    6.568
  172.516    0.252    0.541   82.987    6.087
  172.821    0.272    0.542   79.908    5.858
  173.126    0.279    0.540   78.674    5.745
  173.431    0.282    0.531   82.358    5.957
  173.735    0.267    0.518   83.583    6.416
  174.040    0.259    0.508   84.809    6.907
  174.345    0.248    0.513   89.722    6.903
  174.650    0.241    0.563   90.331    6.768
  174.955    0.257    0.575   89.713    6.512
  175.259    0.270    0.537   87.249    6.387
  175.564    0.277    0.505   83.555    6.748
  175.869    0.277    0.535   81.093    7.134
  176.174    0.274    0.541   78.628    8.277
  176.479    0.255    0.512   74.321    8.747
  176.783    0.234    0.502   71.242    8.574
  177.088    0.222    0.516   75.542    8.411
  177.393    0.231    0.551   79.840    7.794
  177.698    0.261    0.552   84.754    7.503
  178.003    0.264    0.526   87.823    7.089
  178.307    0.257    0.512   91.507    6.567
  178.612    0.256    0.526   93.963    6.564
  178.917    0.262    0.535   94.574    6.681
  179.222    0.268    0.525   94.569    6.677
  179.526    0.251    0.510   92.719    7.053
  179.831    0.244    0.508   88.411    7.317
  180.136    0.264    0.504   84.719    7.733
  180.441    0.276    0.534   81.026    8.328
  180.746    0.261    0.536   74.872    9.663
  181.050    0.267    0.496   65.646   11.426
  181.355    0.288    0.467   61.338   11.632
  181.660    0.256    0.456   61.948   11.194
  181.965    0.262    0.453   65.632    8.136
  182.270    0.249    0.465   70.547    7.265
  182.574    0.247    0.503   93.290    6.862
  182.879    0.248    0.541   91.441    7.250
  183.184    0.236    0.547   87.747    7.663
  183.489    0.236    0.517   85.899    8.565
  183.794    0.243    0.511   84.050    9.051
  184.098    0.216    0.514   83.430    9.041
  184.403    0.238    0.520   84.040    8.701
  184.708    0.210    0.551   83.422    8.377
  185.013    0.208    0.561   84.033    7.481
  185.318    0.223    0.549   96.324    6.932
  185.622    0.252    0.520   97.549    6.928
  185.927    0.257    0.509   91.396    7.598
  186.232    0.263    0.525   89.547    8.032
  186.537    0.269    0.508   92.618    8.810
  186.842    0.277    0.487   95.072    9.136
  187.146    0.268    0.502   93.838    9.302
  187.451    0.246    0.520   91.989    9.294
  187.756    0.247    0.501   90.138    9.115
  188.061    0.249    0.500   90.135    8.773
  188.366    0.249    0.518   89.517    8.281
  188.670    0.255    0.530   87.667    8.273
  188.975    0.261    0.538   85.818    8.113
  189.280    0.269    0.516   85.200    8.258
  189.585    0.262    0.512   86.423    8.405
  189.889    0.244    0.517   87.034    8.718
  190.194    0.237    0.514   87.645    8.876
  190.499    0.238    0.517   87.641    8.871
  190.804    0.244    0.511   87.635    8.701
  191.109    0.247    0.527   87.016    8.218
  191.413    0.242    0.532   88.242    7.478
  191.718    0.243    0.535   93.155    6.802
  192.023    0.256    0.539   94.382    6.544
  192.328    0.245    0.545   96.222    6.539
  192.633    0.241    0.538   91.913    6.535
  192.937    0.231    0.546   87.605    6.777
  193.242    0.227    0.517   88.829    7.028
  193.547    0.254    0.504   89.440    7.291
  193.852    0.245    0.497   90.051    7.850
  194.157    0.226    0.485   92.506    8.773
