~VERSION INFORMATION
 VERS.                 2.0:   CWLS LOG ASCII STANDARD -VERSION 2.0
 WRAP.                  NO:   ONE LINE PER DEPTH STEP
~WELL INFORMATION BLOCK
#MNEM.UNIT           DATA                    DESCRIPTION OF MNEMONIC
#---------    -------------------            -------------------------------
# Generated from Intellog Unique Number	CW_82_90/WELL/3066
WELL.         UNOCAL SALESKI                 : Well_name    - WELL
LOC .         00/07-24-086-19W4/0            : Location     - LOCATION
UWI .         00/07-24-086-19W4/0            : Uwi          - UNIQUE WELL ID
ENTR.         MAX                            : Entered      - ENTERED BY
SRVC.         WESTERN ATLAS                  : Scn          - SERVICE COMPANY
STRT.M        100                            : top_depth    - START DEPTH
STOP.M        246                            : bot_depth    - STOP DEPTH
STEP.M        0.25                           : increment    - STEP LENGTH
 NULL. -999.2500:NULL Value
~CURVE INFORMATION BLOCK
#MNEM UNIT       ERCB CURVE CODE    CURVE DESCRIPTION
#-----------   ------------------   ----------------------------------
DEPT.M        00 001 00 00         : DEPTH        - DEPTH
ILD .OHMM     00 120 00 00         : RESD         - DEEP RESISTIVITY (DIL)
NPHI.V/V      00 330 00 00         : PHIN         - NEUTRON POROSITY (SANDSTONE)
DPHI.V/V      00 890 00 00         : PHID         - DENSITY POROSITY (SANDSTONE)
CALI.MM       00 280 01 00         : CAL          - CALIPER
GR  .API      00 310 00 00         : GR           - GAMMA RAY
~PARAMETER INFORMATION
#MNEM.UNIT           DATA             DESCRIPTION OF MNEMONIC
#---------         -----------     ------------------------------
GL  .M        527.7                : gl           - GROUND LEVEL ELEVATION
EREF.M        532                  : kb           - ELEVATION OF DEPTH REFERENCE
DATM.M        527.7                : datum        - DATUM ELEVATION
TDD .M        246.3                : tdd          - TOTAL DEPTH DRILLER
RUN .         ONE                  : Run          - RUN NUMBER
ENG .         BILL                 : Engineer     - RECORDING ENGINEER
WIT .         JIM                  : Witness      - WITNESSED BY
MUD .         GEL                  : Mud_type     - MUD TYPE
MATR.         SANDSTONE            : Logunit      - NEUTRON MATRIX
TMAX.C        24                   : BHT          - MAXIMUM RECORDED TEMPERATURE
BHTD.M        23246.3              : BHTDEP       - MAXIMUM RECORDED TEMPERATURE
MATR.         1                    : LOGUNIT      - NEUTRON MATRIX
RMT .C        28                   : MDTP         - TEMPERATURE OF MUD
NEUT.         1                    : NEUTRON      - NEUTRON TYPE
RESI.         0                    : RESIST       - RESISTIVITY TYPE
RMC .OHMM     3.5                  : RMC          - RESISTIVITY OF MUD CAKE
RMF .OHMM     4.2                  : RMF          - RESISTIVITY OF MUD FILTRATE
SUFT.C        -15                  : SUFT         - SURFACE TEMPERATURE
~A  DEPTH     RESD     PHIN     PHID      CAL       GR
# ...
  173.000   15.132    0.380    0.283  161.026   72.069
  173.250   13.697    0.373    0.244  160.962   75.545
  173.500   12.287    0.351    0.218  160.899   81.365
  173.750   10.922    0.335    0.204  160.340   85.130
  174.000    9.622    0.327    0.254  160.284   80.987
  174.250    9.448    0.326    0.264  159.733   83.296
  174.500    9.447    0.343    0.247  159.661   87.359
  174.750    9.360    0.364    0.239  159.590   90.249
  175.000    9.359    0.365    0.239  159.526   87.278
  175.250    9.190    0.367    0.239  159.463   88.114
  175.500    9.024    0.368    0.239  159.400   89.842
  175.750    8.941    0.367    0.241  159.328   90.971
  176.000    8.940    0.362    0.241  159.761   89.752
  176.250    9.020    0.348    0.240  161.154   90.602
  176.500    9.183    0.336    0.239  160.603   92.614
  176.750    9.350    0.333    0.243  160.531   87.300
  177.000    9.433    0.339    0.243  159.980   87.555
  177.250    9.779    0.342    0.245  160.412   87.224
  177.500   10.417    0.328    0.262  160.349   80.444
  177.750   11.299    0.317    0.246  160.286   79.821
  178.000   11.713    0.310    0.199  159.702   76.561
  178.250   11.818    0.304    0.285  159.175   70.368
  178.500   12.032    0.316    0.294  158.127   66.229
  178.750   12.030    0.315    0.309  156.607   64.429
  179.000   12.029    0.313    0.307  156.032   63.215
  179.250   12.027    0.320    0.287  155.984   63.177
  179.500   12.134    0.331    0.255  155.913   63.139
  179.750   12.579    0.350    0.289  155.849   61.929
  180.000   12.924    0.336    0.283  156.754   61.891
  180.250   13.277    0.309    0.252  157.187   61.853
  180.500   14.015    0.291    0.174  157.124   61.224
  180.750   14.530    0.295    0.269  158.517   59.722
  181.000   14.397    0.327    0.289  158.949   62.027
  181.250   14.010    0.351    0.296  158.878   65.206
  181.500   12.796    0.358    0.301  159.303   67.218
  181.750   12.010    0.359    0.295  159.216   70.114
  182.000   11.687    0.361    0.280  159.176   75.055
  182.250   10.675    0.359    0.275  158.601   77.652
  182.500    9.928    0.352    0.266  158.057   74.681
  182.750    9.488    0.350    0.235  157.505   71.997
  183.000    9.316    0.354    0.271  157.442   71.090
  183.250    9.571    0.363    0.285  157.379   67.533
  183.500   10.012    0.368    0.294  156.827   67.495
  183.750   10.287    0.364    0.291  156.756   67.457
  184.000   11.157    0.356    0.280  156.204   65.364
  184.250   12.102    0.348    0.251  155.661   66.199
  184.500   12.775    0.346    0.231  155.101   68.212
  184.750   12.658    0.359    0.259  154.542   70.517
  185.000   11.773    0.383    0.266  154.958   75.751
  185.250    9.735    0.388    0.274  155.391   79.525
  185.500    8.499    0.359    0.275  156.792   77.725
  185.750    7.624    0.355    0.267  158.681   74.763
  186.000    7.352    0.365    0.253  159.586   77.648
  186.250    7.417    0.367    0.244  160.019   83.175
  186.500    8.045    0.312    0.196  159.956   78.158
  186.750    9.466    0.214    0.107  159.388   68.743
  187.000   11.239    0.259    0.109  158.837   61.090
  187.250   13.224    0.299    0.166  157.301   61.047
  187.500   13.342    0.340    0.267  156.277   75.072
  187.750   12.867    0.385    0.268  155.718   84.114
  188.000   11.032    0.408    0.264  155.158   84.662
  188.250    6.127    0.421    0.265  155.103   86.381
  188.500    4.629    0.434    0.278  155.519   91.322
  188.750    4.005    0.423    0.277  157.897   99.484
  189.000    3.862    0.388    0.261  160.266  102.375
  189.250    4.189    0.367    0.250  161.675   93.839
  189.500    5.018    0.353    0.246  162.092   88.529
  189.750    6.234    0.335    0.242  161.044   87.314
  190.000    7.537    0.328    0.239  160.989   88.448
  190.250    9.195    0.349    0.235  160.925   89.582
  190.500   10.155    0.365    0.231  161.350   88.953
  190.750   10.432    0.364    0.224  161.775   83.941
  191.000   10.526    0.361    0.227  165.617   86.534
  191.250   10.524    0.360    0.233  168.970   88.541
  191.500   10.241    0.354    0.223  168.907   88.791
  191.750    9.699    0.347    0.206  168.835   88.465
  192.000    9.353    0.351    0.200  168.268   87.255
  192.250    9.020    0.353    0.216  168.205   88.682
  192.500    8.777    0.359    0.228  168.157   92.451
  192.750    8.618    0.363    0.228  167.598   95.928
  193.000    8.539    0.353    0.229  166.558   99.107
  193.250    8.773    0.338    0.215  164.526   98.190
  193.500    9.516    0.339    0.131  163.502   97.859
  193.750   10.701    0.332    0.130  162.455   86.399
  194.000   11.296    0.320    0.168  160.927   87.235
  194.250   11.605    0.318    0.219  159.391   91.009
  194.500   11.499    0.320    0.232  157.375   95.359
  194.750   11.291    0.322    0.230  155.359   97.962
  195.000   11.188    0.328    0.241  153.335   94.986
  195.250   12.026    0.328    0.252  152.303   93.776
  195.500   12.467    0.318    0.264  152.232   94.328
  195.750   13.042    0.304    0.277  151.681   86.671
  196.000   13.892    0.308    0.287  152.586   83.113
  196.250   14.933    0.293    0.250  153.498   88.640
  196.500   16.197    0.279    0.210  154.907   80.694
  196.750   18.051    0.264    0.142  156.781   70.107
  197.000   20.484    0.246    0.129  157.701   70.362
  197.250   22.829    0.239    0.110  157.638   66.810
  197.500   27.106    0.280    0.129  157.567   64.126
  197.750   28.100    0.316    0.168  157.511   66.729
  198.000   21.420    0.337    0.221  156.944   73.134
  198.250   15.326    0.343    0.221  156.880   79.837
  198.500   13.624    0.331    0.224  156.329   90.050
  198.750   13.138    0.313    0.232  156.265   95.572
  199.000   12.901    0.312    0.234  156.202   96.413
  199.250   12.783    0.317    0.217  158.579   98.425
  199.500   12.781    0.332    0.191  159.980   91.358
  199.750   13.131    0.337    0.160  161.373   82.528
  200.000   13.248    0.329    0.160  161.318   80.728
  200.250   13.367    0.325    0.166  161.735   82.159
  200.500   14.763    0.309    0.172  161.663   79.192
  200.750   16.602    0.278    0.104  161.608   70.656
  201.000   19.712    0.244    0.019  161.545   59.191
  201.250   24.048    0.193    0.040  160.977   49.478
  201.500   25.848    0.276    0.084  160.922   53.252
  201.750   22.978    0.313    0.126  160.858   63.177
  202.000   16.893    0.328    0.162  160.779   78.662
  202.250   13.843    0.339    0.206  160.732   90.344
  202.500   13.717    0.342    0.226  160.660   87.665
  202.750   13.591    0.339    0.223  160.597   90.258
  203.000   13.226    0.334    0.213  160.525   91.397
  203.250   12.754    0.331    0.198  160.462   92.818
  203.500   11.970    0.338    0.208  160.399   94.537
  203.750   11.234    0.370    0.224  160.808   95.964
  204.000   11.131    0.363    0.226  160.744   90.654
  204.250   10.930    0.353    0.223  160.697   88.566
  204.500   11.538    0.348    0.208  161.113   90.285
  204.750   12.628    0.345    0.196  160.554   90.237
  205.000   13.210    0.335    0.105  160.010   84.932
  205.250   13.328    0.318    0.095  159.459   81.951
  205.500   13.207    0.307    0.164  158.899   84.847
  205.750   12.968    0.345    0.202  158.836   88.035
  206.000   12.506    0.352    0.199  158.772   90.047
  206.250   11.527    0.354    0.216  158.709   93.817
  206.500   10.154    0.350    0.220  158.630   94.067
  206.750   10.338    0.343    0.215  158.566   93.155
  207.000   10.815    0.334    0.186  158.503   93.405
  207.250   11.211    0.331    0.163  157.951   88.095
  207.500   11.210    0.338    0.197  156.904   88.052
  207.750   11.107    0.338    0.221  155.872   91.826
  208.000   11.106    0.342    0.198  156.297   97.348
  208.250   11.513    0.335    0.105  156.722   92.331
  208.500   12.044    0.337    0.132  157.634   87.305
  208.750   12.262    0.335    0.210  158.059   90.498
  209.000   12.372    0.334    0.231  158.964   92.212
  209.250   12.596    0.340    0.224  159.381   92.467
