~VERSION INFORMATION
 VERS.                 2.0:   CWLS LOG ASCII STANDARD -VERSION 2.0
 WRAP.                  NO:   ONE LINE PER DEPTH STEP
~WELL INFORMATION BLOCK
#MNEM.UNIT           DATA                    DESCRIPTION OF MNEMONIC
#---------    -------------------            -------------------------------
# Generated from Intellog Unique Number	CW_70_72/WELL/185
NULL.         -999.25                        : NULL_VALUE
WELL.         GLOBAL ET AL CALLS 02-22       : Well_name    - WELL              
LOC .         02-22-071-22W4                 : Location     - LOCATION          
UWI .         00/02-22-071-22W4/0            : Uwi          - UNIQUE WELL ID    
ENTR.         JAYE                           : Entered      - ENTERED BY        
SRVC.         SCHLUMBERGER                   : Scn          - SERVICE COMPANY   
DATE.         22 FEB 81                      : Date         - LOG DATE          
STRT.M        410                            : top_depth    - START DEPTH       
STOP.M        605                            : bot_depth    - STOP DEPTH        
STEP.M        0.25                           : increment    - STEP LENGTH       
~CURVE INFORMATION BLOCK
#MNEM UNIT       ERCB CURVE CODE    CURVE DESCRIPTION
#-----------   ------------------   ----------------------------------
DEPT.M        00 001 00 00         : DEPTH        - DEPTH                       
DPHI.V/V      00 890 00 00         : PHID         - DENSITY POROSITY (SANDSTONE)
NPHI.V/V      00 330 00 00         : PHIN         - NEUTRON POROSITY (SANDSTONE)
GR  .API      00 310 00 00         : GR           - GAMMA RAY                   
CALI.MM       00 280 01 00         : CAL          - CALIPER                     
ILD .OHMM     00 120 00 00         : RESD         - DEEP RESISTIVITY (DIL)      
~PARAMETER INFORMATION       
#MNEM.UNIT           DATA             DESCRIPTION OF MNEMONIC
#---------         -----------     ------------------------------
GL  .M        652.55               : gl           - GROUND LEVEL ELEVATION      
EREF.M        656.1                : kb           - ELEVATION OF DEPTH REFERENCE
DATM.M        652.55               : datum        - DATUM ELEVATION             
TDD .M        660                  : tdd          - TOTAL DEPTH DRILLER         
RUN .         ONE                  : Run          - RUN NUMBER                  
ENG .         DOWNIE               : Engineer     - RECORDING ENGINEER          
WIT .         SAUNDERS             : Witness      - WITNESSED BY                
BASE.         EDSON                : Branch       - HOME BASE OF LOGGING UNIT   
MUD .         GEL CHEM             : Mud_type     - MUD TYPE                    
MATR.         SANDSTONE            : Logunit      - NEUTRON MATRIX              
TMAX.C        31.7                 : BHT          - MAXIMUM RECORDED TEMPERATURE
BHTD.M        660                  : BHTDEP       - MAXIMUM RECORDED TEMPERATURE
RMT .C        22.2                 : MDTP         - TEMPERATURE OF MUD          
MUDD.KG/M     1060                 : MWT          - MUD DENSITY                 
NEUT.         1                    : NEUTRON      - NEUTRON TYPE                
RESI.         0                    : RESIST       - RESISTIVITY TYPE            
RM  .OHMM     5.69                 : RM           - RESISTIVITY OF MUD          
RMC .OHMM     0                    : RMC          - RESISTIVITY OF MUD CAKE     
RMF .OHMM     2.56                 : RMF          - RESISTIVITY OF MUD FILTRATE 
SUFT.C        0                    : SUFT         - SURFACE TEMPERATURE         
~A  DEPTH     PHID     PHIN       GR      CAL     RESD
  410.000    0.233    0.514  102.230  173.327    2.986
  410.250    0.244    0.531  105.142  174.875    3.047
  410.500    0.246    0.522  105.885  175.598    3.097
  410.750    0.233    0.509  103.654  174.254    3.102
  411.000    0.218    0.497  100.122  173.944    3.088
  411.250    0.210    0.495  103.653  175.286    3.093
  411.500    0.224    0.496  105.760  176.937    3.109
  411.750    0.235    0.503  101.608  179.002    3.155
  412.000    0.240    0.522   99.439  180.447    3.219
  412.250    0.236    0.524  103.652  179.620    3.315
  412.500    0.238    0.504  103.218  175.282    3.447
  412.750    0.275    0.524   94.853  167.950    3.631
  413.000    0.288    0.486   83.948  158.243    3.899
  413.250    0.287    0.446   68.334  150.704    4.163
  413.500    0.285    0.444   61.581  147.709    4.288
  413.750    0.282    0.441   67.342  147.088    4.174
  414.000    0.273    0.428   74.839  147.088    3.973
  414.250    0.261    0.394   84.256  147.397    3.874
  414.500    0.233    0.416   99.559  148.532    3.814
  414.750    0.194    0.449  112.198  150.287    3.834
  415.000    0.205    0.459  108.790  155.966    3.987
  415.250    0.206    0.440  108.728  160.302    4.225
  415.500    0.207    0.425  105.815  160.301    4.459
  415.750    0.224    0.409   99.681  156.377    4.681
  416.000    0.243    0.391   88.342  152.865    4.793
  416.250    0.262    0.379   74.154  151.315    4.809
  416.500    0.260    0.396   76.693  153.896    4.673
  416.750    0.254    0.419   84.376  156.890    4.440
  417.000    0.259    0.476   97.015  160.194    4.306
  417.250    0.269    0.490  109.158  165.770    4.271
  417.500    0.266    0.465  109.220  170.209    4.449
  417.750    0.254    0.492   94.783  171.035    4.759
  418.000    0.238    0.502   81.710  159.159    5.119
  418.250    0.221    0.429   73.035  151.930    5.423
  418.500    0.194    0.411   65.104  149.451    5.523
  418.750    0.182    0.389   64.732  149.450    5.073
  419.000    0.191    0.394   73.468  149.862    4.720
  419.250    0.220    0.430   79.291  150.481    4.442
  419.500    0.240    0.456   87.717  152.752    4.243
  419.750    0.227    0.450   90.133  154.301    4.138
  420.000    0.211    0.459   86.601  156.365    4.121
  420.250    0.205    0.455   84.184  158.430    4.157
  420.500    0.211    0.438   83.317  160.185    4.203
  420.750    0.212    0.414   83.750  160.804    4.264
  421.000    0.214    0.422   85.298  160.803    4.319
  421.250    0.205    0.418   88.458  160.906    4.365
  421.500    0.203    0.425   94.467  162.557    4.413
  421.750    0.237    0.440   97.689  164.209    4.461
  422.000    0.253    0.439   90.377  164.311    4.500
  422.250    0.265    0.416   88.580  163.278    4.566
  422.500    0.266    0.429   91.616  161.935    4.686
  422.750    0.238    0.400   95.766  163.587    4.808
  423.000    0.208    0.379  103.077  167.097    4.934
  423.250    0.236    0.397  100.598  171.640    5.053
  423.500    0.237    0.407   96.261  167.612    5.157
  423.750    0.235    0.396   90.127  156.872    5.233
  424.000    0.230    0.383   86.533  152.431    5.250
  424.250    0.222    0.385   87.152  151.707    5.227
  424.500    0.225    0.399   89.940  152.946    5.156
  424.750    0.212    0.413   94.648  153.874    5.057
  425.000    0.213    0.385   93.161  155.320    4.786
  425.250    0.287    0.366   88.266  156.558    4.313
  425.500    0.324    0.386   92.974  157.693    4.036
  425.750    0.368    0.508   99.417  161.307    3.834
  426.000    0.304    0.580   99.045  171.942    3.957
  426.250    0.238    0.448   97.248  170.083    4.060
  426.500    0.209    0.404  103.381  168.946    4.143
  426.750    0.208    0.419  110.940  176.277    4.203
  427.000    0.201    0.426  112.117  182.163    4.298
  427.250    0.200    0.436  112.116  185.983    4.360
  427.500    0.208    0.451  115.709  183.091    4.466
  427.750    0.211    0.447  118.497  178.546    4.697
  428.000    0.220    0.450  116.762  173.279    4.837
  428.250    0.238    0.480  113.726  166.773    5.031
  428.500    0.223    0.394   99.599  162.332    5.143
  428.750    0.199    0.376   87.455  160.163    5.257
  429.000    0.181    0.388   92.101  163.570    5.344
  429.250    0.206    0.403   97.987  166.564    5.361
  429.500    0.202    0.427  103.315  169.868    5.361
  429.750    0.187    0.430  102.447  173.791    5.387
  430.000    0.185    0.407   98.729  175.443    5.467
  430.250    0.197    0.397  101.083  175.029    5.566
  430.500    0.191    0.423  101.268  174.099    5.712
  430.750    0.165    0.430   98.976  175.750    5.851
  431.000    0.171    0.386   92.408  175.647    5.960
  431.250    0.188    0.337   91.912  171.206    6.047
  431.500    0.197    0.387   97.054  169.140    6.170
  431.750    0.204    0.431   96.991  173.063    6.331
  432.000    0.201    0.394   92.840  177.090    6.696
  432.250    0.184    0.371   87.883  172.545    7.175
  432.500    0.171    0.359   88.440  167.485    7.998
  432.750    0.192    0.379   75.800  164.180    9.506
  433.000    0.233    0.353   68.427  161.701   11.044
  433.250    0.294    0.313   61.797  157.776   13.152
  433.500    0.306    0.315   55.849  152.096   14.884
  433.750    0.288    0.334   53.246  152.818   14.354
  434.000    0.280    0.321   56.839  154.676   11.212
  434.250    0.256    0.328   65.823  157.980    9.108
  434.500    0.221    0.348   73.877  159.425    6.711
  434.750    0.222    0.368   82.303  159.631    5.556
  435.000    0.237    0.386   87.259  160.043    4.850
  435.250    0.252    0.401   95.685  161.591    4.555
  435.500    0.330    0.459   92.834  167.167    4.527
  435.750    0.339    0.548   88.125  170.058    4.568
  436.000    0.299    0.460   80.132  164.068    4.600
  436.250    0.285    0.396   73.936  156.426    4.651
  436.500    0.272    0.412   75.051  156.115    4.709
  436.750    0.261    0.423   73.316  156.941    4.778
  437.000    0.241    0.386   76.661  157.559    4.849
  437.250    0.217    0.397   79.944  158.075    4.874
  437.500    0.198    0.424   76.474  158.074    4.863
  437.750    0.236    0.454   74.367  157.764    4.841
  438.000    0.249    0.427   79.571  157.660    4.810
  438.250    0.246    0.420   85.271  157.763    4.718
  438.500    0.230    0.431   89.050  157.452    4.568
  438.750    0.219    0.436   85.952  157.245    4.431
  439.000    0.215    0.436   84.650  157.761    4.353
  439.250    0.206    0.442   85.703  158.689    4.262
  439.500    0.191    0.436   91.217  159.721    4.141
  439.750    0.253    0.432   99.023  161.889    4.061
  440.000    0.297    0.462   94.934  169.633    3.968
  440.250    0.266    0.473   89.729  167.155    3.900
  440.500    0.249    0.409   89.357  161.784    3.883
  440.750    0.234    0.384   92.764  161.474    3.910
  441.000    0.220    0.401   96.915  163.642    4.020
  441.250    0.248    0.425   99.641  167.152    4.181
  441.500    0.248    0.442  102.738  167.667    4.258
  441.750    0.229    0.422  105.464  167.254    4.296
  442.000    0.218    0.408  107.322  164.568    4.294
  442.250    0.216    0.401  108.871  163.122    4.252
  442.500    0.212    0.396  113.827  163.638    4.186
  442.750    0.217    0.408  121.633  166.322    4.160
  443.000    0.240    0.402  112.897  170.658    4.166
  443.250    0.294    0.437  104.718  172.929    4.188
  443.500    0.273    0.456   90.529  168.592    4.217
  443.750    0.254    0.436   76.836  156.819    4.254
  444.000    0.260    0.425   74.419  151.552    4.316
  444.250    0.298    0.420   77.331  150.725    4.396
  444.500    0.300    0.423   77.392  150.621    4.512
  444.750    0.288    0.423   75.100  151.240    4.709
  445.000    0.276    0.413   73.984  152.272    4.999
  445.250    0.265    0.423   73.178  152.375    5.397
  445.500    0.253    0.450   72.930  151.651    5.794
  445.750    0.286    0.453   73.115  151.341    6.185
  446.000    0.301    0.434   73.425  151.030    6.728
  446.250    0.304    0.417   72.309  150.513    7.774
