~VERSION INFORMATION
 VERS.                 2.0:   CWLS LOG ASCII STANDARD -VERSION 2.0
 WRAP.                  NO:   ONE LINE PER DEPTH STEP
~WELL INFORMATION BLOCK
#MNEM.UNIT           DATA                    DESCRIPTION OF MNEMONIC
#---------    -------------------            -------------------------------
# Generated from Intellog Unique Number	CS_73_76/WELL/1044
WELL.         CANADIAN SUPERIOR OIL LTD.     : Well_name    - WELL
LOC .         00/06-20-076-14W4/0            : Location     - LOCATION
UWI .         00/06-20-076-14W4/0            : Uwi          - UNIQUE WELL ID
ENTR.         SP                             : Entered      - ENTERED BY
SRVC.         SCHLUMBERGER                   : Scn          - SERVICE COMPANY
STRT.M        315                            : top_depth    - START DEPTH
STOP.M        530                            : bot_depth    - STOP DEPTH
STEP.M        0.25                           : increment    - STEP LENGTH
 NULL. -999.2500:NULL Value
~CURVE INFORMATION BLOCK
#MNEM UNIT       ERCB CURVE CODE    CURVE DESCRIPTION
#-----------   ------------------   ----------------------------------
DEPT.M        00 001 00 00         : DEPTH        - DEPTH
DPHI.V/V      00 890 00 00         : PHID         - DENSITY POROSITY (LIMESTONE)
NPHI.V/V      00 330 00 00         : PHIN         - NEUTRON POROSITY (LIMESTONE)
GR  .API      00 310 00 00         : GR           - GAMMA RAY
ILD .OHMM     00 120 00 00         : RESD         - DEEP RESISTIVITY (DIL)
~PARAMETER INFORMATION
#MNEM.UNIT           DATA             DESCRIPTION OF MNEMONIC
#---------         -----------     ------------------------------
GL  .M        694.7                : gl           - GROUND LEVEL ELEVATION
EREF.M        698.7                : kb           - ELEVATION OF DEPTH REFERENCE
DATM.M        694.7                : datum        - DATUM ELEVATION
TDD .M        539                  : tdd          - TOTAL DEPTH DRILLER
RUN .         ONE                  : Run          - RUN NUMBER
ENG .         BILL                 : Engineer     - RECORDING ENGINEER
WIT .         JIM                  : Witness      - WITNESSED BY
MUD .         GEL                  : Mud_type     - MUD TYPE
MATR.         LIMESTONE            : Logunit      - NEUTRON MATRIX
TMAX.C        21                   : BHT          - MAXIMUM RECORDED TEMPERATURE
BHTD.M        539                  : BHTDEP       - MAXIMUM RECORDED TEMPERATURE
MATR.         1                    : LOGUNIT      - NEUTRON MATRIX
RMT .C        25                   : MDTP         - TEMPERATURE OF MUD
NEUT.         1                    : NEUTRON      - NEUTRON TYPE
RESI.         0                    : RESIST       - RESISTIVITY TYPE
RMC .OHMM     0.25                 : RMC          - RESISTIVITY OF MUD CAKE
RMF .OHMM     0.25                 : RMF          - RESISTIVITY OF MUD FILTRATE
SUFT.C        15                   : SUFT         - SURFACE TEMPERATURE
~A  DEPTH     PHID     PHIN       GR     RESD
  315.000    1.152    0.492   88.314    3.589
  315.250    0.256    0.482   92.561    3.526
  315.500    0.244    0.477   93.177    3.337
  315.750    0.260    0.469   90.769    2.932
  316.000    0.257    0.459   88.967    2.989
  316.250    0.240    0.448   85.954    3.162
  316.500    0.241    0.475   84.757    3.344
  316.750    0.246    0.503   87.188    3.472
  317.000    0.234    0.511   93.247    3.539
  317.250    0.241    0.497   95.074    3.475
  317.500    0.249    0.481   92.666    3.478
  317.750    0.252    0.472   89.051    3.415
  318.000    0.246    0.482   89.668    3.417
  318.250    0.271    0.472   94.518    3.356
  318.500    0.264    0.483   98.159    3.177
  318.750    0.253    0.495   93.334    3.063
  319.000    0.250    0.495   90.321    3.180
  319.250    0.265    0.479   87.312    3.427
  319.500    0.259    0.476   86.112    3.624
  319.750    0.269    0.481   82.491    3.763
  320.000    0.254    0.482   75.849    3.765
  320.250    0.289    0.497   78.885    3.698
  320.500    0.311    0.512   79.504    3.565
  320.750    0.308    0.510   75.283    3.502
  321.000    0.285    0.451   72.873    4.139
  321.250    0.205    0.380   68.651    4.893
  321.500    0.310    0.366   67.452    6.228
  321.750    0.328    0.401   70.489    8.860
  322.000    0.308    0.413   68.082    9.724
  322.250    0.294    0.409   70.513   10.673
  322.500    0.279    0.379   75.365   10.291
  322.750    0.269    0.378   80.215    9.740
  323.000    0.275    0.406   82.646    9.049
  323.250    0.263    0.424   80.239    8.408
  323.500    0.272    0.445   77.831    8.106
  323.750    0.288    0.438   75.425    8.262
  324.000    0.301    0.411   73.622    8.739
  324.250    0.313    0.418   71.215    9.243
  324.500    0.330    0.405   69.411    9.959
  324.750    0.336    0.396   67.003   10.731
  325.000    0.329    0.394   63.991   11.350
  325.250    0.324    0.378   61.583   12.006
  325.500    0.322    0.373   60.990   12.011
  325.750    0.308    0.389   62.816   10.363
  326.000    0.278    0.418   71.901    9.107
  326.250    0.251    0.434   85.826    7.713
  326.500    0.230    0.429   94.910    7.035
  326.750    0.246    0.448   92.505    6.783
  327.000    0.271    0.430   88.885    7.174
  327.250    0.324    0.438   79.220    8.172
  327.500    0.333    0.420   70.159    9.660
  327.750    0.326    0.417   66.541   10.602
  328.000    0.321    0.409   70.182   11.008
  328.250    0.313    0.430   75.638   11.643
  328.500    0.302    0.424   77.465   11.867
  328.750    0.311    0.408   78.082   11.656
  329.000    0.309    0.404   79.908   11.448
  329.250    0.295    0.420   81.736   11.245
  329.500    0.287    0.410   83.562   11.043
  329.750    0.299    0.399   86.597   10.847
  330.000    0.288    0.408   86.004   11.056
  330.250    0.309    0.388   80.573   11.269
  330.500    0.309    0.396   83.612   11.486
  330.750    0.316    0.409   86.646   11.491
  331.000    0.315    0.407   84.843   11.498
  331.250    0.295    0.391   80.621   11.292
  331.500    0.284    0.391   83.660   10.688
  331.750    0.293    0.400   80.644   10.305
  332.000    0.277    0.374   74.608   10.699
  332.250    0.291    0.361   68.572   11.743
  332.500    0.308    0.355   63.743   11.971
  332.750    0.284    0.370   60.126   11.756
  333.000    0.293    0.382   61.347   11.548
  333.250    0.306    0.388   59.545   11.341
  333.500    0.301    0.397   55.323   11.348
  333.750    0.308    0.390   58.361   10.940
  334.000    0.290    0.405   62.002   10.355
  334.250    0.274    0.412   67.456    9.620
  334.500    0.218    0.393   74.726    8.455
  334.750    0.220    0.395   78.372    7.431
  335.000    0.232    0.400   75.356    6.293
  335.250    0.238    0.389   73.554    6.908
  335.500    0.231    0.409   77.799    7.582
  335.750    0.201    0.426   83.860    7.045
  336.000    0.152    0.452   92.341    6.307
  336.250    0.192    0.483   99.005    4.960
  336.500    0.223    0.498  102.042    4.524
  336.750    0.223    0.504  102.660    4.362
  337.000    0.232    0.487  100.856    4.206
  337.250    0.212    0.476   99.660    4.286
  337.500    0.143    0.456   99.673    4.534
  337.750    0.104    0.461  100.287    4.976
  338.000    0.193    0.479  103.928    4.889
  338.250    0.224    0.510  108.779    4.626
  338.500    0.208    0.525  110.001    3.918
  338.750    0.246    0.531  111.223    3.508
  339.000    0.269    0.514  113.050    3.259
  339.250    0.249    0.498  114.272    3.322
  339.500    0.264    0.474  115.493    3.714
  339.750    0.282    0.458  111.270    4.390
  340.000    0.288    0.447  103.419    5.485
  340.250    0.294    0.437   96.173    6.854
  340.500    0.310    0.432   91.950    8.408
  340.750    0.339    0.457   88.333    8.893
  341.000    0.369    0.469   90.162    8.735
  341.250    0.453    0.453   85.941    8.903
  341.500    0.409    0.441   82.925    9.243
  341.750    0.316    0.430   82.937    9.597
  342.000    0.299    0.432   81.741    9.603
  342.250    0.293    0.427   81.145    9.970
  342.500    0.300    0.419   86.601    9.792
  342.750    0.293    0.425   92.058    8.931
  343.000    0.299    0.435   99.327    7.425
  343.250    0.350    0.447  101.155    7.429
  343.500    0.384    0.443   97.537    8.308
  343.750    0.333    0.428   96.945    8.786
  344.000    0.304    0.410   93.327    9.293
  344.250    0.271    0.398   92.129   10.201
  344.500    0.278    0.423   94.562   10.593
  344.750    0.289    0.434   95.783    9.659
  345.000    0.314    0.425   93.980    8.810
  345.250    0.288    0.417   89.757    8.035
  345.500    0.289    0.443   86.140    7.466
  345.750    0.305    0.460   86.151    7.066
  346.000    0.323    0.476   91.003    7.071
  346.250    0.338    0.482   95.854    7.205
  346.500    0.286    0.466   99.494    7.910
  346.750    0.277    0.446   94.668    8.522
  347.000    0.297    0.460   85.002    9.013
  347.250    0.326    0.475   75.940    9.713
  347.500    0.357    0.495   69.903   10.272
  347.750    0.338    0.462   64.471   11.068
  348.000    0.278    0.434   65.692   12.150
  348.250    0.330    0.429   66.915   13.091
  348.500    0.339    0.416   60.877   13.341
  348.750    0.353    0.404   56.657   13.852
  349.000    0.353    0.396   55.461   14.120
  349.250    0.343    0.388   54.260   13.868
  349.500    0.338    0.399   55.482   13.876
  349.750    0.345    0.408   56.705   13.882
  350.000    0.336    0.424   54.296   13.890
  350.250    0.344    0.429   55.520   13.898
  350.500    0.351    0.439   57.347   13.906
  350.750    0.357    0.442   57.961   13.914
  351.000    0.343    0.444   57.368   13.919
  351.250    0.338    0.422   56.170   13.926
  351.500    0.337    0.401   54.971   13.682
  351.750    0.332    0.409   54.380   13.434
  352.000    0.340    0.426   55.600   12.716
  352.250    0.327    0.419   58.034   11.385
  352.500    0.338    0.428   60.464    9.465
  352.750    0.328    0.438   67.131    8.166
  353.000    0.295    0.447   71.375    6.421
  353.250    0.312    0.479   79.251    5.644
  353.500    0.334    0.499   91.966    5.244
  353.750    0.304    0.464   94.398    5.056
  354.000    0.289    0.459   93.803    5.250
  354.250    0.265    0.470   89.581    5.450
  354.500    0.296    0.459   87.176    5.659
  354.750    0.287    0.444   84.769    5.987
  355.000    0.281    0.455   81.149    6.101
  355.250    0.308    0.471   84.186    6.335
  355.500    0.328    0.483   81.175    6.578
  355.750    0.320    0.442   78.162    6.830
  356.000    0.340    0.408   78.172    7.224
  356.250    0.293    0.410   81.212    7.500
  356.500    0.301    0.415   78.201    8.081
  356.750    0.284    0.416   76.999    8.708
  357.000    0.292    0.425   73.382    8.874
  357.250    0.305    0.434   65.529    9.045
  357.500    0.281    0.438   63.125    9.218
  357.750    0.269    0.446   67.368    9.224
  358.000    0.247    0.454   78.269    9.401
  358.250    0.241    0.450   77.071    9.235
