~VERSION INFORMATION
 VERS.                 2.0:   CWLS LOG ASCII STANDARD -VERSION 2.0
 WRAP.                  NO:   ONE LINE PER DEPTH STEP
~WELL INFORMATION BLOCK
#MNEM.UNIT           DATA                    DESCRIPTION OF MNEMONIC
#---------    -------------------            -------------------------------
# Generated from Intellog Unique Number	CW_82_90/WELL/3062
WELL.         CHEVRON WABASCA NORTH          : Well_name    - WELL
LOC .         00/07-04-087-25W4/0            : Location     - LOCATION
UWI .         00/07-04-087-25W4/0            : Uwi          - UNIQUE WELL ID
ENTR.         MAX                            : Entered      - ENTERED BY
SRVC.         SCHLUMBERGER                   : Scn          - SERVICE COMPANY
STRT.M        228.6                          : top_depth    - START DEPTH
STOP.M        441.85                         : bot_depth    - STOP DEPTH
STEP.M        0.25                           : increment    - STEP LENGTH
 NULL. -999.2500:NULL Value
~CURVE INFORMATION BLOCK
#MNEM UNIT       ERCB CURVE CODE    CURVE DESCRIPTION
#-----------   ------------------   ----------------------------------
DEPT.M        00 001 00 00         : DEPTH        - DEPTH
ILD .OHMM     00 120 00 00         : RESD         - DEEP RESISTIVITY (DIL)
NPHI.V/V      00 330 00 00         : PHIN         - NEUTRON POROSITY (SANDSTONE)
DPHI.V/V      00 890 00 00         : PHID         - DENSITY POROSITY (SANDSTONE)
CALI.MM       00 280 01 00         : CAL          - CALIPER
GR  .API      00 310 00 00         : GR           - GAMMA RAY
~PARAMETER INFORMATION
#MNEM.UNIT           DATA             DESCRIPTION OF MNEMONIC
#---------         -----------     ------------------------------
GL  .M        629.412              : gl           - GROUND LEVEL ELEVATION
EREF.M        632.46               : kb           - ELEVATION OF DEPTH REFERENCE
DATM.M        629.412              : datum        - DATUM ELEVATION
TDD .M        445.313              : tdd          - TOTAL DEPTH DRILLER
RUN .         ONE                  : Run          - RUN NUMBER
ENG .         BILL                 : Engineer     - RECORDING ENGINEER
WIT .         JIM                  : Witness      - WITNESSED BY
MUD .         GEL                  : Mud_type     - MUD TYPE
MATR.         SANDSTONE            : Logunit      - NEUTRON MATRIX
TMAX.C        26.1111              : BHT          - MAXIMUM RECORDED TEMPERATURE
BHTD.M        445.313              : BHTDEP       - MAXIMUM RECORDED TEMPERATURE
MATR.         1                    : LOGUNIT      - NEUTRON MATRIX
RMT .C        10                   : MDTP         - TEMPERATURE OF MUD
NEUT.         1                    : NEUTRON      - NEUTRON TYPE
RESI.         0                    : RESIST       - RESISTIVITY TYPE
RMC .OHMM     5.34                 : RMC          - RESISTIVITY OF MUD CAKE
RMF .OHMM     7.18                 : RMF          - RESISTIVITY OF MUD FILTRATE
SUFT.C        -20.5556             : SUFT         - SURFACE TEMPERATURE
~A  DEPTH     RESD     PHIN     PHID      CAL       GR
# ...
  265.100    5.246    0.494    0.235  121.328   94.884
  265.350    5.959    0.475    0.228  110.867   92.827
  265.600    6.526    0.445    0.221  110.879   89.887
  265.850    7.213    0.429    0.201  107.149   86.357
  266.100    7.416    0.434    0.211  107.910   83.417
  266.350    7.419    0.430    0.225  109.417   83.128
  266.600    7.356    0.422    0.230  112.419   84.015
  266.850    7.360    0.434    0.247  113.928   86.375
  267.100    7.364    0.446    0.263  113.193   91.680
  267.350    7.367    0.442    0.259  112.453   89.623
  267.600    7.174    0.435    0.258  110.968   84.621
  267.850    6.859    0.429    0.251  107.990   80.503
  268.100    6.499    0.423    0.243  106.505   77.563
  268.350    6.215    0.417    0.246  107.264   74.918
  268.600    6.506    0.434    0.246  108.024   72.271
  268.850    7.062    0.447    0.239  108.035   68.742
  269.100    7.736    0.429    0.224  108.046   64.329
  269.350    8.321    0.392    0.215  108.057   60.505
  269.600    8.869    0.385    0.225  108.816   64.632
  269.850    9.540    0.413    0.206  109.576   71.115
  270.100    9.459    0.434    0.193  110.335   76.715
  270.350    9.294    0.451    0.189  111.094   77.897
  270.600    9.132    0.456    0.199  112.601   76.724
  270.850    8.972    0.452    0.209  112.613   77.317
  271.100    8.502    0.444    0.206  113.372   77.322
  271.350    7.912    0.452    0.199  113.383   74.676
  271.600    7.037    0.467    0.196  114.891   72.030
  271.850    6.549    0.477    0.197  116.398   71.151
  272.100    6.434    0.483    0.213  121.643   72.038
  272.350    6.797    0.489    0.242  124.646   70.277
  272.600    7.446    0.476    0.254  111.944   68.514
  272.850    7.793    0.466    0.241  111.207   68.519
  273.100    8.085    0.456    0.241  110.470   70.878
  273.350    8.162    0.447    0.248  108.237   73.239
  273.600    8.169    0.465    0.247  102.264   72.065
  273.850    8.170    0.479    0.242  100.780   68.830
  274.100    8.028    0.488    0.234  109.018   67.951
  274.350    7.817    0.481    0.252  114.267   68.840
  274.600    7.750    0.471    0.253  114.277   69.433
  274.850    7.755    0.471    0.254  114.289   69.732
  275.100    7.758    0.470    0.254  115.048   70.031
  275.350    7.832    0.469    0.245  114.311   70.036
  275.600    7.908    0.469    0.204  114.323   70.334
  275.850    7.912    0.469    0.194  112.838   71.811
  276.100    7.916    0.468    0.229  112.100   72.993
  276.350    7.920    0.474    0.238  111.364   74.471
  276.600    7.924    0.470    0.247  111.376   74.769
  276.850    7.927    0.462    0.243  111.386   71.534
  277.100    7.931    0.459    0.235  110.652   68.889
  277.350    7.935    0.464    0.235  109.167   68.893
  277.600    7.940    0.476    0.243  108.428   70.370
  277.850    7.943    0.477    0.254  108.441   72.141
  278.100    7.876    0.473    0.259  109.199   72.440
  278.350    7.879    0.467    0.263  109.212   70.677
  278.600    7.813    0.469    0.245  107.727   70.093
  278.850    7.816    0.470    0.245  107.736   69.804
  279.100    7.821    0.464    0.251  109.247   68.631
  279.350    7.967    0.455    0.245  110.005   68.928
  279.600    8.191    0.466    0.242  110.762   70.112
  279.850    7.832    0.463    0.235  111.523   71.293
  280.100    7.223    0.460    0.239  112.286   73.360
  280.350    5.360    0.467    0.240  113.041   74.836
  280.600    4.199    0.498    0.237  116.043   78.079
  280.850    3.412    0.523    0.205  128.023   83.090
  281.100    2.822    0.562    0.212  141.498   87.217
  281.350    2.556    0.581    0.206  154.226   89.578
  281.600    2.489    0.568    0.211  156.481   90.171
  281.850    2.446    0.560    0.193  154.996   87.820
  282.100    2.447    0.552    0.198  156.503   89.886
  282.350    2.448    0.535    0.218  158.010   91.952
  282.600    2.471    0.549    0.224  155.779   92.250
  282.850    2.496    0.596    0.202  154.293   87.543
  283.100    2.519    0.585    0.223  148.321   86.664
  283.350    2.685    0.557    0.207  136.363   88.141
  283.600    2.863    0.548    0.187  130.392   90.501
  283.850    3.135    0.548    0.177  133.395   90.506
  284.100    3.497    0.561    0.169  138.641   88.743
  284.350    4.007    0.572    0.209  139.402   86.687
  284.600    4.893    0.556    0.210  137.169   85.514
  284.850    6.029    0.527    0.227  127.456   84.928
  285.100    6.909    0.483    0.198  119.987   80.516
  285.350    6.851    0.466    0.176  119.251   79.343
  285.600    6.375    0.476    0.162  125.995   79.935
  285.850    4.995    0.506    0.235  133.485   79.940
  286.100    4.208    0.536    0.294  127.512   78.178
  286.350    3.609    0.575    0.307  124.532   77.004
  286.600    3.124    0.591    0.356  137.261   78.186
  286.850    2.908    0.575    0.351  135.026   83.491
  287.100    2.909    0.559    0.266  130.550   84.674
  287.350    2.937    0.552    0.140  120.839   87.329
  287.600    3.046    0.593    0.132  129.825   89.983
  287.850    3.218    0.568    0.212  129.836   89.694
  288.100    3.369    0.543    0.226  129.099   87.931
  288.350    3.527    0.528    0.223  126.118   88.525
  288.600    3.593    0.516    0.201  126.880   90.296
  288.850    3.627    0.516    0.223  123.896   91.772
  289.100    3.729    0.511    0.204  128.396   90.894
  289.350    4.012    0.513    0.206  141.871   89.425
  289.600    4.276    0.521    0.217  139.638   87.369
  289.850    4.726    0.537    0.215  131.422   85.312
  290.100    5.224    0.530    0.215  128.443   83.549
  290.350    5.468    0.519    0.219  127.706   83.554
  290.600    5.373    0.516    0.210  125.471   85.030
  290.850    4.910    0.510    0.218  126.978   87.096
  291.100    4.327    0.496    0.227  123.249   90.046
  291.350    3.991    0.521    0.217  124.011   95.940
  291.600    3.886    0.546    0.175  126.265  100.067
  291.850    3.853    0.557    0.187  127.773   98.894
  292.100    3.820    0.552    0.205  130.776   96.248
  292.350    3.857    0.544    0.213  127.047   94.191
  292.600    4.075    0.526    0.218  123.320   94.195
  292.850    4.227    0.530    0.192  121.835   93.022
  293.100    4.505    0.546    0.192  120.350   83.308
  293.350    4.716    0.537    0.208  119.612   77.423
  293.600    4.937    0.518    0.225  118.875   69.182
  293.850    5.169    0.499    0.257  115.147   62.707
  294.100    5.313    0.483    0.266  115.909   65.363
  294.350    5.364    0.484    0.254  116.665   68.312
  294.600    5.465    0.484    0.251  115.929   68.316
  294.850    5.468    0.475    0.259  115.192   68.910
  295.100    5.471    0.468    0.269  115.206   70.975
  295.350    5.424    0.471    0.239  116.710   75.397
  295.600    5.094    0.480    0.199  115.973   80.113
  295.850    4.613    0.468    0.231  113.741   82.474
  296.100    3.886    0.462    0.212  113.752   84.834
  296.350    3.584    0.494    0.210  113.017   88.667
  296.600    3.396    0.522    0.209  113.028   93.088
  296.850    3.276    0.537    0.192  119.024   95.154
  297.100    3.191    0.549    0.194  128.757   95.158
  297.350    3.192    0.556    0.192  134.752   93.102
  297.600    3.194    0.560    0.194  136.259   91.928
  297.850    3.254    0.557    0.209  133.279   92.227
  298.100    3.375    0.544    0.202  123.566   92.526
  298.350    3.533    0.535    0.217  122.083   88.407
  298.600    3.835    0.528    0.224  125.834   82.228
  298.850    4.125    0.529    0.212  132.576   79.288
  299.100    4.643    0.530    0.237  147.547   76.642
  299.350    5.369    0.528    0.223  146.810   75.469
  299.600    5.934    0.514    0.193  140.838   75.473
  299.850    6.326    0.483    0.147  139.353   77.539
  300.100    6.445    0.462    0.194  149.088   79.310
  300.350    6.448    0.481    0.206  129.651   79.314
  300.600    6.570    0.486    0.198  128.169   77.552
  300.850    6.633    0.482    0.210  128.927   76.378
  301.100    6.696    0.474    0.240  125.198   75.500
  301.350    6.760    0.459    0.232  118.478   74.327
