~VERSION INFORMATION
 VERS.                 2.0:   CWLS LOG ASCII STANDARD -VERSION 2.0
 WRAP.                  NO:   ONE LINE PER DEPTH STEP
~WELL INFORMATION BLOCK
#MNEM.UNIT           DATA                    DESCRIPTION OF MNEMONIC
#---------    -------------------            -------------------------------
# Generated from Intellog Unique Number	CS_71_72/WELL/619
WELL.         MAYNARD ENERGY INC.            : Well_name    - WELL
LOC .         00/02-26-072-13W4/0            : Location     - LOCATION
UWI .         00/02-26-072-13W4/0            : Uwi          - UNIQUE WELL ID
ENTR.         SP                             : Entered      - ENTERED BY
SRVC.         SCHLUMBERGER                   : Scn          - SERVICE COMPANY
STRT.M        300                            : top_depth    - START DEPTH
STOP.M        530                            : bot_depth    - STOP DEPTH
STEP.M        0.25                           : increment    - STEP LENGTH
 NULL. -999.2500:NULL Value
~CURVE INFORMATION BLOCK
#MNEM UNIT       ERCB CURVE CODE    CURVE DESCRIPTION
#-----------   ------------------   ----------------------------------
DEPT.M        00 001 00 00         : DEPTH        - DEPTH
ILD .OHMM     00 120 00 00         : RESD         - DEEP RESISTIVITY (DIL)
DPHI.V/V      00 890 00 00         : PHID         - DENSITY POROSITY (LIMESTONE)
NPHI.V/V      00 330 00 00         : PHIN         - NEUTRON POROSITY (LIMESTONE)
GR  .API      00 310 00 00         : GR           - GAMMA RAY
~PARAMETER INFORMATION
#MNEM.UNIT           DATA             DESCRIPTION OF MNEMONIC
#---------         -----------     ------------------------------
GL  .M        653.8                : gl           - GROUND LEVEL ELEVATION
EREF.M        657.5                : kb           - ELEVATION OF DEPTH REFERENCE
DATM.M        653.8                : datum        - DATUM ELEVATION
TDD .M        542                  : tdd          - TOTAL DEPTH DRILLER
RUN .         ONE                  : Run          - RUN NUMBER
ENG .         BILL                 : Engineer     - RECORDING ENGINEER
WIT .         JIM                  : Witness      - WITNESSED BY
MUD .         GEL                  : Mud_type     - MUD TYPE
MATR.         LIMESTONE            : Logunit      - NEUTRON MATRIX
TMAX.C        22                   : BHT          - MAXIMUM RECORDED TEMPERATURE
BHTD.M        542                  : BHTDEP       - MAXIMUM RECORDED TEMPERATURE
MATR.         1                    : LOGUNIT      - NEUTRON MATRIX
RMT .C        144                  : MDTP         - TEMPERATURE OF MUD
NEUT.         1                    : NEUTRON      - NEUTRON TYPE
RESI.         0                    : RESIST       - RESISTIVITY TYPE
RMC .OHMM     0.25                 : RMC          - RESISTIVITY OF MUD CAKE
RMF .OHMM     0.25                 : RMF          - RESISTIVITY OF MUD FILTRATE
SUFT.C        15                   : SUFT         - SURFACE TEMPERATURE
~A  DEPTH     RESD     PHID     PHIN       GR
# ...
  343.500    7.829    0.211    0.402  114.762
  343.750    7.430    0.221    0.412  119.001
  344.000    7.271    0.221    0.418  122.636
  344.250    7.193    0.237    0.428  126.273
  344.500    7.438    0.230    0.433  124.463
  344.750    7.844    0.223    0.440  112.373
  345.000    8.088    0.245    0.446  102.096
  345.250    8.495    0.257    0.452   97.263
  345.500    8.658    0.266    0.435   97.874
  345.750    8.984    0.262    0.425   97.275
  346.000    9.068    0.244    0.424   93.655
  346.250    9.232    0.227    0.436   93.054
  346.500    9.235    0.216    0.448   93.062
  346.750    9.077    0.220    0.445   93.065
  347.000    8.836    0.234    0.434   91.261
  347.250    8.437    0.260    0.430   91.871
  347.500    7.956    0.277    0.428   93.692
  347.750    7.636    0.285    0.426   95.512
  348.000    7.074    0.273    0.429   97.938
  348.250    6.674    0.271    0.431   99.757
  348.500    6.273    0.275    0.438  101.578
  348.750    6.114    0.271    0.437  104.002
  349.000    6.601    0.267    0.417  106.427
  349.250    7.008    0.260    0.407  107.643
  349.500    7.252    0.261    0.404  110.071
  349.750    7.577    0.263    0.410  111.286
  350.000    7.741    0.260    0.414  111.895
  350.250    7.825    0.249    0.416  113.111
  350.500    7.747    0.243    0.421  110.094
  350.750    7.671    0.237    0.422  105.262
  351.000    7.673    0.235    0.421  102.848
  351.250    7.675    0.237    0.419  100.436
  351.500    7.759    0.245    0.412   99.230
  351.750    7.842    0.249    0.406   98.630
  352.000    7.925    0.267    0.405   96.821
  352.250    7.928    0.280    0.413   96.223
  352.500    7.932    0.291    0.424   97.439
  352.750    7.934    0.275    0.427  100.472
  353.000    7.776    0.270    0.432  102.290
  353.250    7.697    0.259    0.438  104.109
  353.500    7.619    0.251    0.448  106.538
  353.750    7.622    0.245    0.456  105.331
  354.000    7.786    0.241    0.460   96.871
  354.250    8.033    0.241    0.467   96.271
  354.500    8.116    0.252    0.472   99.907
  354.750    8.279    0.263    0.414  102.335
  355.000    8.444    0.272    0.400  102.338
  355.250    8.527    0.277    0.408   96.298
  355.500    8.449    0.283    0.419   93.882
  355.750    8.290    0.289    0.432   90.864
  356.000    8.052    0.294    0.447   88.450
  356.250    7.893    0.300    0.458   85.433
  356.500    7.734    0.301    0.463   84.834
  356.750    7.899    0.289    0.472   90.889
  357.000    7.981    0.275    0.462   95.129
  357.250    8.389    0.276    0.427   97.554
  357.500    8.795    0.298    0.409   90.301
  357.750    9.120    0.302    0.397   84.864
  358.000    9.445    0.290    0.387   83.055
  358.250    9.770    0.283    0.394   85.484
  358.500    9.853    0.271    0.399   86.699
  358.750    9.775    0.263    0.401   87.913
  359.000    9.699    0.263    0.404   88.523
  359.250    9.701    0.269    0.409   88.532
  359.500    9.703    0.272    0.410   87.932
  359.750    9.788    0.277    0.410   86.730
  360.000    9.789    0.279    0.398   86.734
  360.250    9.954    0.284    0.394   89.162
  360.500   10.038    0.277    0.389   90.981
  360.750   10.122    0.262    0.390   94.011
  361.000   10.125    0.253    0.398   97.041
  361.250   10.128    0.239    0.401   97.650
  361.500   10.131    0.232    0.405   94.028
  361.750   10.134    0.236    0.407   90.406
  362.000   10.136    0.253    0.412   89.202
  362.250   10.139    0.274    0.410   87.391
  362.500   10.141    0.280    0.400   81.350
  362.750   10.224    0.284    0.395   76.517
  363.000   10.227    0.292    0.393   72.894
  363.250   10.311    0.307    0.387   73.504
  363.500   10.315    0.318    0.383   81.377
  363.750   10.236    0.302    0.380   85.011
  364.000    9.997    0.283    0.383   88.040
  364.250    9.757    0.268    0.391   91.070
  364.500    9.357    0.262    0.396   94.706
  364.750    9.117    0.277    0.406   92.896
  365.000    8.718    0.285    0.417   88.063
  365.250    8.478    0.303    0.424   80.812
  365.500    8.159    0.315    0.441   75.979
  365.750    8.000    0.328    0.446   79.011
  366.000    8.004    0.337    0.447   83.250
  366.250    8.249    0.289    0.447   86.883
  366.500    8.492    0.286    0.447   91.124
  366.750    8.898    0.308    0.447   82.057
  367.000    9.304    0.326    0.433   75.411
  367.250    9.629    0.343    0.418   69.976
  367.500    9.793    0.358    0.412   68.166
  367.750    9.877    0.358    0.404   66.961
  368.000    9.800    0.358    0.414   66.966
  368.250    9.802    0.349    0.415   69.391
  368.500    9.322    0.350    0.414   72.423
  368.750    9.244    0.357    0.415   74.245
  369.000    9.005    0.356    0.415   74.853
  369.250    8.767    0.356    0.420   74.863
  369.500    8.688    0.345    0.424   75.473
  369.750    8.448    0.335    0.421   76.687
  370.000    8.209    0.333    0.419   78.506
  370.250    8.050    0.328    0.419   80.932
  370.500    7.811    0.323    0.425   87.596
  370.750    7.573    0.311    0.429   91.230
  371.000    7.576    0.293    0.432   93.653
  371.250    7.659    0.280    0.428   97.288
  371.500    7.986    0.268    0.416   99.109
  371.750    8.230    0.263    0.402   99.718
  372.000    8.554    0.262    0.400   94.283
  372.250    8.880    0.260    0.415   92.474
  372.500    9.043    0.262    0.422   88.850
  372.750    9.532    0.276    0.429   79.178
  373.000    9.695    0.299    0.420   65.272
  373.250   10.101    0.319    0.411   54.392
  373.500   10.346    0.336    0.397   48.955
  373.750   10.591    0.354    0.392   47.146
  374.000   10.673    0.357    0.387   48.363
  374.250   10.759    0.354    0.382   50.182
  374.500   10.761    0.341    0.382   52.609
  374.750   10.763    0.331    0.389   53.824
  375.000   10.766    0.336    0.394   55.039
  375.250   10.687    0.340    0.398   55.047
  375.500   10.610    0.343    0.401   54.447
  375.750   10.614    0.347    0.398   53.242
  376.000   10.535    0.354    0.390   53.855
  376.250   10.457    0.345    0.389   54.466
  376.500   10.379    0.335    0.394   55.076
  376.750   10.303    0.329    0.405   55.686
  377.000   10.224    0.322    0.407   55.692
  377.250   10.226    0.325    0.407   56.303
  377.500   10.149    0.334    0.401   55.706
  377.750   10.070    0.340    0.396   55.710
  378.000    9.995    0.338    0.394   55.717
  378.250    9.997    0.336    0.389   56.330
  378.500   10.000    0.336    0.384   55.728
  378.750    9.921    0.341    0.384   52.712
  379.000    9.923    0.348    0.388   52.715
  379.250    9.927    0.355    0.391   55.142
  379.500    9.929    0.350    0.389   57.569
  379.750    9.852    0.349    0.387   58.783
  380.000    9.694    0.347    0.388   59.398
  380.250    9.535    0.347    0.390   58.796
  380.500    9.377    0.344    0.396   58.195
  380.750    9.218    0.342    0.399   56.994
  381.000    9.059    0.341    0.405   55.791
  381.250    8.981    0.344    0.419   55.190
  381.500    8.742    0.343    0.413   55.803
  381.750    8.422    0.336    0.397   56.411
  382.000    8.183    0.341    0.394   57.022
  382.250    7.864    0.333    0.405   56.425
  382.500    7.705    0.330    0.411   55.221
  382.750    7.466    0.339    0.414   57.042
  383.000    7.388    0.339    0.406   60.073
  383.250    7.069    0.337    0.402   60.682
  383.500    6.991    0.336    0.410   61.899
  383.750    6.832    0.332    0.415   61.904
  384.000    6.756    0.328    0.418   61.304
  384.250    6.677    0.322    0.419   61.917
  384.500    6.600    0.327    0.422   62.527
  384.750    6.521    0.334    0.435   64.349
  385.000    6.443    0.333    0.444   66.775
  385.250    6.285    0.337    0.438   68.595
  385.500    6.287    0.334    0.434   70.414
  385.750    6.129    0.331    0.448   71.630
  386.000    5.972    0.319    0.465   72.844
  386.250    5.893    0.312    0.512   73.456
  386.500    5.895    0.321    0.501   74.066
  386.750    5.979    0.320    0.478   74.073
