~VERSION INFORMATION
 VERS.                 2.0:   CWLS LOG ASCII STANDARD -VERSION 2.0
 WRAP.                  NO:   ONE LINE PER DEPTH STEP
~WELL INFORMATION BLOCK
#MNEM.UNIT           DATA                    DESCRIPTION OF MNEMONIC
#---------    -------------------            -------------------------------
# Generated from Intellog Unique Number	CS_77_79/WELL/849
WELL.         ICGR LOCHIEL GRAHAM            : Well_name    - WELL
LOC .         00/03-34-078-05W4/0            : Location     - LOCATION
UWI .         00/03-34-078-05W4/0            : Uwi          - UNIQUE WELL ID
ENTR.         JHS                            : Entered      - ENTERED BY
SRVC.         SCHLUMBERGER                   : Scn          - SERVICE COMPANY
STRT.M        100                            : top_depth    - START DEPTH
STOP.M        360                            : bot_depth    - STOP DEPTH
STEP.M        0.25                           : increment    - STEP LENGTH
 NULL. -999.2500:NULL Value
~CURVE INFORMATION BLOCK
#MNEM UNIT       ERCB CURVE CODE    CURVE DESCRIPTION
#-----------   ------------------   ----------------------------------
DEPT.M        00 001 00 00         : DEPTH        - DEPTH
DPHI.V/V      00 890 00 00         : PHID         - DENSITY POROSITY (LIMESTONE)
NPHI.V/V      00 330 00 00         : PHIN         - NEUTRON POROSITY (LIMESTONE)
GR  .API      00 310 00 00         : GR           - GAMMA RAY
ILD .OHMM     00 120 00 00         : RESD         - DEEP RESISTIVITY (DIL)
RHOB.KG/M3    00 350 00 00         : DENS         - BULK DENSITY
~PARAMETER INFORMATION
#MNEM.UNIT           DATA             DESCRIPTION OF MNEMONIC
#---------         -----------     ------------------------------
GL  .M        528.9                : gl           - GROUND LEVEL ELEVATION
EREF.M        532.4                : kb           - ELEVATION OF DEPTH REFERENCE
DATM.M        532.4                : datum        - DATUM ELEVATION
TDD .M        367                  : tdd          - TOTAL DEPTH DRILLER
RUN .         ONE                  : Run          - RUN NUMBER
ENG .         BILL                 : Engineer     - RECORDING ENGINEER
WIT .         JIM                  : Witness      - WITNESSED BY
MUD .         GEL                  : Mud_type     - MUD TYPE
MATR.         LIMESTONE            : Logunit      - NEUTRON MATRIX
TMAX.C        17.2                 : BHT          - MAXIMUM RECORDED TEMPERATURE
BHTD.M        367                  : BHTDEP       - MAXIMUM RECORDED TEMPERATURE
MATR.         1                    : LOGUNIT      - NEUTRON MATRIX
RMT .C        25                   : MDTP         - TEMPERATURE OF MUD
NEUT.         1                    : NEUTRON      - NEUTRON TYPE
RESI.         0                    : RESIST       - RESISTIVITY TYPE
RMC .OHMM     0.25                 : RMC          - RESISTIVITY OF MUD CAKE
RMF .OHMM     0.25                 : RMF          - RESISTIVITY OF MUD FILTRATE
SUFT.C        15                   : SUFT         - SURFACE TEMPERATURE
~A  DEPTH     PHID     PHIN       GR     RESD     DENS
  100.000    0.265    0.507  105.480    3.780    0.000
  100.250    0.273    0.547  107.331    3.716    0.000
  100.500    0.275    0.558  106.141    3.722    0.000
  100.750    0.276    0.550  104.945    3.659    0.000
  101.000    0.278    0.542  107.411    3.533    0.000
  101.250    0.277    0.531  110.486    3.473    0.000
  101.500    0.262    0.527  111.123    3.352    0.000
  101.750    0.257    0.553  109.330    3.295    0.000
  102.000    0.267    0.601  109.956    3.181    0.000
  102.250    0.279    0.606  114.869    3.071    0.000
  102.500    0.286    0.581  114.889    2.964    0.000
  102.750    0.295    0.592  113.692    2.968    0.000
  103.000    0.299    0.605  111.285    2.973    0.000
  103.250    0.286    0.578  108.260    2.977    0.000
  103.500    0.273    0.553  105.857    2.980    0.000
  103.750    0.262    0.544  110.147    3.041    0.000
  104.000    0.267    0.576  114.435    3.046    0.000
  104.250    0.271    0.567  116.294    3.107    0.000
  104.500    0.268    0.553  113.271    3.168    0.000
  104.750    0.263    0.568  110.859    3.173    0.000
  105.000    0.268    0.552  110.888    3.236    0.000
  105.250    0.274    0.535  111.522    3.241    0.000
  105.500    0.280    0.532  112.767    3.247    0.000
  105.750    0.284    0.549  111.576    3.251    0.000
  106.000    0.279    0.564  110.379    3.197    0.000
  106.250    0.273    0.573  109.801    3.202    0.000
  106.500    0.273    0.607  113.495    3.207    0.000
  106.750    0.280    0.615  113.504    3.273    0.000
  107.000    0.288    0.570  111.707    3.275    0.000
  107.250    0.296    0.539  106.852    3.280    0.000
  107.500    0.301    0.547  105.659    3.226    0.000
  107.750    0.308    0.580  102.642    3.171    0.000
  108.000    0.313    0.603   98.397    3.117    0.000
  108.250    0.313    0.609   98.424    3.009    0.000
  108.500    0.310    0.580  100.277    2.958    0.000
  108.750    0.296    0.562  100.918    2.910    0.000
  109.000    0.286    0.550  100.330    2.913    0.000
  109.250    0.291    0.546   98.530    2.863    0.000
  109.500    0.298    0.588   96.119    2.817    0.000
  109.750    0.304    0.611   95.537    2.768    0.000
  110.000    0.312    0.580   98.609    2.722    0.000
  110.250    0.315    0.558  102.905    2.726    0.000
  110.500    0.311    0.578  104.756    2.729    0.000
  110.750    0.302    0.590  102.958    2.733    0.000
  111.000    0.305    0.584   98.716    2.687    0.000
  111.250    0.311    0.579   94.470    2.691    0.000
  111.500    0.316    0.579   92.059    2.696    0.000
  111.750    0.315    0.597   94.524    2.699    0.000
  112.000    0.174    0.578   90.892    2.805    0.000
  112.250    0.112    0.525   82.996    2.809    0.000
  112.500    0.107    0.512   79.970    2.813    0.000
  112.750    0.180    0.550   94.631    2.766    0.000
  113.000    0.295    0.590  100.758    2.770    0.000
  113.250    0.309    0.617  100.169    2.724    0.000
  113.500    0.304    0.619   99.585    2.728    0.000
  113.750    0.287    0.614  103.277    2.732    0.000
  114.000    0.276    0.599  107.565    2.787    0.000
  114.250    0.278    0.574  107.593    2.844    0.000
  114.500    0.296    0.557   99.085    2.849    0.000
  114.750    0.292    0.562   93.623    2.851    0.000
  115.000    0.274    0.574   97.925    2.910    0.000
  115.250    0.273    0.570   98.556    2.913    0.000
  115.500    0.297    0.574   96.141    2.916    0.000
  115.750    0.300    0.576   93.128    2.977    0.000
  116.000    0.296    0.567   93.143    3.036    0.000
  116.250    0.286    0.567  100.490    3.043    0.000
  116.500    0.282    0.591  101.133    3.045    0.000
  116.750    0.273    0.619  100.538    3.050    0.000
  117.000    0.270    0.591   99.956    3.111    0.000
  117.250    0.274    0.572   97.549    3.116    0.000
  117.500    0.273    0.576   96.965    3.180    0.000
  117.750    0.271    0.557   97.595    3.242    0.000
  118.000    0.263    0.534   99.457    3.308    0.000
  118.250    0.267    0.520  101.919    3.312    0.000
  118.500    0.261    0.539  104.995    3.380    0.000
  118.750    0.250    0.545  106.236    3.447    0.000
  119.000    0.242    0.558  102.609    3.517    0.000
  119.250    0.241    0.573   97.144    3.654    0.000
  119.500    0.233    0.561  102.052    3.727    0.000
  119.750    0.227    0.539  102.077    3.803    0.000
  120.000    0.226    0.515   99.669    3.738    0.000
  120.250    0.239    0.494  102.133    3.609    0.000
  120.500    0.252    0.535  104.596    3.548    0.000
  120.750    0.250    0.572  104.623    3.552    0.000
  121.000    0.241    0.612  105.868    3.692    0.000
  121.250    0.234    0.543  106.506    3.837    0.000
  121.500    0.230    0.516  104.093    4.136    0.000
  121.750    0.236    0.537   98.636    4.714    0.000
  122.000    0.253    0.564   89.510    6.002    0.000
  122.250    0.249    0.409   49.906    7.783    0.000
  122.500    0.142    0.324   34.081   10.868    0.000
  122.750    0.111    0.273   30.451   13.840    0.000
  123.000    0.168    0.357   39.626   15.200    0.000
  123.250    0.270    0.383   54.891   14.403    0.000
  123.500    0.250    0.404   68.939    9.970    0.000
  123.750    0.245    0.425   79.942    6.292    0.000
  124.000    0.238    0.448   87.281    4.956    0.000
  124.250    0.228    0.475   94.014    4.698    0.000
  124.500    0.244    0.503   98.919    5.066    0.000
  124.750    0.252    0.522   97.730    5.881    0.000
  125.000    0.276    0.484   89.218    7.081    0.000
  125.250    0.274    0.440   86.196    9.357    0.000
  125.500    0.255    0.452   79.515   10.862    0.000
  125.750    0.300    0.480   71.621   11.289    0.000
  126.000    0.311    0.463   75.305   11.095    0.000
  126.250    0.189    0.470   89.958   10.514    0.000
  126.500    0.127    0.468   97.917    9.964    0.000
  126.750    0.180    0.447   96.723    9.441    0.000
  127.000    0.198    0.437   93.705    9.283    0.000
  127.250    0.202    0.452   96.171    9.128    0.000
  127.500    0.200    0.448   99.846    8.974    0.000
  127.750    0.188    0.434  101.101    8.825    0.000
  128.000    0.193    0.453  101.117    8.676    0.000
  128.250    0.205    0.465  106.633    8.524    0.000
  128.500    0.204    0.445  106.665    8.388    0.000
  128.750    0.198    0.435  103.027    8.550    0.000
  129.000    0.194    0.444  100.008    8.722    0.000
  129.250    0.186    0.475   99.422    9.409    0.000
  129.500    0.184    0.477   93.350    9.959    0.000
  129.750    0.180    0.446   90.943   10.351    0.000
  130.000    0.181    0.428   89.746   10.554    0.000
  130.250    0.204    0.425   84.285   11.177    0.000
  130.500    0.227    0.446   80.652   11.185    0.000
  130.750    0.211    0.435   89.824   11.002    0.000
  131.000    0.192    0.434   91.681   11.019    0.000
  131.250    0.209    0.459   91.708   10.637    0.000
  131.500    0.212    0.431   93.562   10.451    0.000
  131.750    0.197    0.429   92.978   10.277    0.000
  132.000    0.188    0.468   88.738   10.486    0.000
  132.250    0.219    0.481   82.672   10.503    0.000
  132.500    0.230    0.448   83.919   10.519    0.000
  132.750    0.242    0.430   88.212   10.532    0.000
  133.000    0.232    0.454   92.500   10.353    0.000
  133.250    0.212    0.472   90.092   10.367    0.000
  133.500    0.224    0.460   87.679   10.384    0.000
  133.750    0.220    0.454   90.759   10.399    0.000
  134.000    0.223    0.465   95.052   10.413    0.000
  134.250    0.226    0.471   98.126   10.242    0.000
  134.500    0.210    0.454   98.756   10.254    0.000
  134.750    0.199    0.440   95.733   10.462    0.000
  135.000    0.223    0.434   93.329   10.670    0.000
  135.250    0.244    0.445   97.006   11.093    0.000
  135.500    0.220    0.456   92.766   11.310    0.000
  135.750    0.191    0.467   87.305   11.542    0.000
  136.000    0.203    0.461   81.846   11.777    0.000
  136.250    0.217    0.451   78.210   11.366    0.000
