~VERSION INFORMATION
 VERS.                 2.0:   CWLS LOG ASCII STANDARD -VERSION 2.0
 WRAP.                  NO:   ONE LINE PER DEPTH STEP
~WELL INFORMATION BLOCK
#MNEM.UNIT           DATA                    DESCRIPTION OF MNEMONIC
#---------    -------------------            -------------------------------
# Generated from Intellog Unique Number	CS_69_70/WELL/637
WELL.         CANADA-CITIES SERVICES         : Well_name    - WELL
LOC .         00/05-15-069-11W4/0            : Location     - LOCATION
UWI .         00/05-15-069-11W4/0            : Uwi          - UNIQUE WELL ID
ENTR.         SP                             : Entered      - ENTERED BY
SRVC.         SCHLUMBERGER                   : Scn          - SERVICE COMPANY
STRT.M        300                            : top_depth    - START DEPTH
STOP.M        490                            : bot_depth    - STOP DEPTH
STEP.M        0.25                           : increment    - STEP LENGTH
 NULL. -999.2500:NULL Value
~CURVE INFORMATION BLOCK
#MNEM UNIT       ERCB CURVE CODE    CURVE DESCRIPTION
#-----------   ------------------   ----------------------------------
DEPT.M        00 001 00 00         : DEPTH        - DEPTH
ILD .OHMM     00 120 00 00         : RESD         - DEEP RESISTIVITY (DIL)
DPHI.V/V      00 890 00 00         : PHID         - DENSITY POROSITY (LIMESTONE)
NPHI.V/V      00 330 00 00         : PHIN         - NEUTRON POROSITY (LIMESTONE)
GR  .API      00 310 00 00         : GR           - GAMMA RAY
~PARAMETER INFORMATION
#MNEM.UNIT           DATA             DESCRIPTION OF MNEMONIC
#---------         -----------     ------------------------------
GL  .M        623.6                : gl           - GROUND LEVEL ELEVATION
EREF.M        627.05               : kb           - ELEVATION OF DEPTH REFERENCE
DATM.M        623.6                : datum        - DATUM ELEVATION
TDD .M        604.7                : tdd          - TOTAL DEPTH DRILLER
RUN .         ONE                  : Run          - RUN NUMBER
ENG .         BILL                 : Engineer     - RECORDING ENGINEER
WIT .         JIM                  : Witness      - WITNESSED BY
MUD .         GEL                  : Mud_type     - MUD TYPE
MATR.         LIMESTONE            : Logunit      - NEUTRON MATRIX
TMAX.C        21                   : BHT          - MAXIMUM RECORDED TEMPERATURE
BHTD.M        604.7                : BHTDEP       - MAXIMUM RECORDED TEMPERATURE
MATR.         1                    : LOGUNIT      - NEUTRON MATRIX
RMT .C        25                   : MDTP         - TEMPERATURE OF MUD
NEUT.         1                    : NEUTRON      - NEUTRON TYPE
RESI.         0                    : RESIST       - RESISTIVITY TYPE
RMC .OHMM     0.25                 : RMC          - RESISTIVITY OF MUD CAKE
RMF .OHMM     0.25                 : RMF          - RESISTIVITY OF MUD FILTRATE
SUFT.C        15                   : SUFT         - SURFACE TEMPERATURE
~A  DEPTH     RESD     PHID     PHIN       GR
  300.000    2.700    0.198    0.486  114.767
  300.250    2.707    0.199    0.495  115.584
  300.500    2.740    0.200    0.498  116.821
  300.750    2.778    0.197    0.496  121.246
  301.000    2.832    0.191    0.496  114.521
  301.250    2.982    0.181    0.455  113.374
  301.500    3.087    0.170    0.429  110.816
  301.750    3.220    0.170    0.422  102.008
  302.000    3.264    0.203    0.428   98.715
  302.250    3.163    0.218    0.446  106.700
  302.500    3.071    0.211    0.463  110.699
  302.750    3.022    0.203    0.466  113.100
  303.000    3.006    0.208    0.438  115.690
  303.250    2.997    0.204    0.424  117.359
  303.500    2.960    0.194    0.418  120.132
  303.750    2.950    0.187    0.417  123.090
  304.000    2.952    0.187    0.438  124.269
  304.250    3.016    0.197    0.461  120.918
  304.500    3.110    0.204    0.408  119.766
  304.750    3.220    0.205    0.389  118.190
  305.000    3.358    0.190    0.380  116.428
  305.250    3.496    0.180    0.404  117.608
  305.500    3.612    0.180    0.428  120.075
  305.750    3.690    0.186    0.444  122.359
  306.000    3.637    0.193    0.452  123.291
  306.250    3.544    0.199    0.448  123.430
  306.500    3.409    0.203    0.445  121.793
  306.750    3.291    0.205    0.460  120.765
  307.000    3.220    0.192    0.454  121.455
  307.250    3.173    0.183    0.444  123.068
  307.500    3.145    0.177    0.440  124.366
  307.750    3.183    0.180    0.442  124.995
  308.000    3.339    0.198    0.436  122.988
  308.250    3.522    0.221    0.433  113.262
  308.500    3.592    0.236    0.440  109.847
  308.750    3.566    0.246    0.425  116.725
  309.000    3.373    0.242    0.411  117.231
  309.250    3.269    0.198    0.392  106.155
  309.500    3.234    0.174    0.380   97.532
  309.750    3.242    0.165    0.365   88.172
  310.000    3.639    0.195    0.346   93.766
  310.250    4.024    0.208    0.353   99.603
  310.500    4.441    0.216    0.353  104.214
  310.750    4.810    0.208    0.347  106.985
  311.000    5.131    0.205    0.349  107.799
  311.250    5.434    0.209    0.354  109.467
  311.500    5.656    0.211    0.358  114.143
  311.750    5.910    0.196    0.361  119.118
  312.000    6.176    0.193    0.366  123.239
  312.250    6.346    0.188    0.370  126.013
  312.500    6.385    0.211    0.363  128.788
  312.750    6.377    0.222    0.356  130.456
  313.000    6.309    0.225    0.348  132.004
  313.250    6.278    0.227    0.355  130.303
  313.500    6.200    0.235    0.362  129.890
  313.750    6.191    0.235    0.356  131.805
  314.000    6.160    0.240    0.349  128.512
  314.250    6.212    0.278    0.334  119.521
  314.500    6.357    0.317    0.314  108.936
  314.750    6.756    0.316    0.276   92.409
  315.000    7.787    0.320    0.255   79.250
  315.250    8.891    0.333    0.205   73.567
  315.500    9.942    0.347    0.167   67.702
  315.750   11.481    0.348    0.150   59.568
  316.000   13.084    0.345    0.133   52.291
  316.250   15.928    0.335    0.125   46.734
  316.500   18.741    0.322    0.123   43.071
  316.750   22.557    0.311    0.145   38.859
  317.000   27.562    0.302    0.185   34.096
  317.250   31.233    0.292    0.242   32.395
  317.500   21.117    0.286    0.303   33.452
  317.750   12.871    0.284    0.318   34.448
  318.000    8.654    0.284    0.331   36.977
  318.250    6.393    0.285    0.330   38.218
  318.500    4.988    0.288    0.327   39.031
  318.750    4.095    0.287    0.327   38.556
  319.000    3.584    0.286    0.328   38.391
  319.250    3.428    0.285    0.330   39.077
  319.500    3.360    0.285    0.329   40.261
  319.750    3.299    0.287    0.325   41.069
  320.000    3.258    0.289    0.321   42.004
  320.250    3.272    0.289    0.320   42.391
  320.500    3.287    0.287    0.324   42.405
  320.750    3.326    0.282    0.323   42.724
  321.000    3.353    0.279    0.321   43.109
  321.250    3.368    0.276    0.321   44.165
  321.500    3.377    0.274    0.322   46.325
  321.750    3.347    0.275    0.340   55.532
  322.000    3.293    0.279    0.372   70.744
  322.250    3.215    0.282    0.458   85.772
  322.500    3.229    0.282    0.444  105.579
  322.750    3.280    0.270    0.420  120.238
  323.000    3.326    0.227    0.396  115.109
  323.250    3.450    0.209    0.376  103.913
  323.500    3.611    0.201    0.368   96.082
  323.750    4.480    0.213    0.378   84.456
  324.000    5.222    0.218    0.388   90.478
  324.250    5.688    0.224    0.399   94.108
  324.500    5.832    0.227    0.407   93.879
  324.750    5.727    0.226    0.399   96.957
  325.000    5.602    0.225    0.380  101.079
  325.250    5.543    0.227    0.385  102.322
  325.500    5.495    0.226    0.404  108.034
  325.750    5.436    0.213    0.421  116.813
  326.000    5.398    0.202    0.408  121.545
  326.250    5.371    0.193    0.399  121.561
  326.500    5.345    0.186    0.401  118.943
  326.750    5.278    0.183    0.407  122.759
  327.000    5.182    0.189    0.411  128.046
  327.250    4.956    0.189    0.416  131.244
  327.500    4.740    0.187    0.434  127.277
  327.750    4.533    0.189    0.430  121.535
  328.000    4.377    0.200    0.413  122.038
  328.250    4.217    0.219    0.426  131.247
  328.500    4.110    0.232    0.442  137.695
  328.750    4.044    0.243    0.443  143.411
  329.000    4.131    0.254    0.413  146.489
  329.250    4.333    0.266    0.397  148.649
  329.500    4.502    0.283    0.386  150.013
  329.750    4.767    0.301    0.356  129.012
  330.000    4.944    0.321    0.345  102.618
  330.250    4.873    0.329    0.354   89.951
  330.500    4.599    0.315    0.360   82.369
  330.750    4.333    0.311    0.362   86.797
  331.000    4.175    0.296    0.361   93.736
  331.250    4.085    0.286    0.360  101.840
  331.500    4.126    0.281    0.368  109.458
  331.750    4.360    0.278    0.370  112.777
  332.000    4.830    0.277    0.365  115.734
  332.250    5.057    0.277    0.367  114.217
  332.500    5.176    0.275    0.381  113.743
  332.750    5.083    0.272    0.393  120.873
  333.000    5.000    0.268    0.399  123.276
  333.250    4.956    0.261    0.406  117.222
  333.500    4.950    0.254    0.411  114.174
  333.750    4.972    0.246    0.414  109.655
  334.000    5.050    0.236    0.414  103.727
  334.250    5.287    0.229    0.419  103.437
  334.500    5.494    0.227    0.429  105.536
  334.750    5.592    0.234    0.410  106.963
  335.000    5.628    0.240    0.397  109.182
  335.250    5.609    0.248    0.389  112.570
  335.500    5.591    0.258    0.382  115.097
  335.750    5.543    0.267    0.395  115.358
  336.000    5.443    0.262    0.401  111.390
  336.250    5.284    0.250    0.408  105.401
  336.500    5.101    0.241    0.428  100.393
  336.750    4.944    0.236    0.439  103.593
  337.000    4.827    0.233    0.449  109.186
  337.250    4.794    0.234    0.432  112.755
  337.500    4.824    0.236    0.427  108.730
  337.750    4.855    0.237    0.414  107.211
  338.000    4.876    0.237    0.407  107.780
  338.250    4.879    0.236    0.417  109.938
  338.500    4.854    0.234    0.417  110.750
  338.750    4.812    0.230    0.413  109.847
  339.000    4.770    0.226    0.399  108.088
  339.250    4.754    0.227    0.388  109.021
  339.500    4.758    0.228    0.383  111.610
  339.750    4.779    0.218    0.393  111.932
  340.000    4.818    0.188    0.392  110.170
  340.250    5.015    0.165    0.347  113.499
  340.500    5.310    0.145    0.324  115.229
  340.750    5.529    0.133    0.312  114.690
  341.000    5.766    0.198    0.348  106.189
  341.250    5.857    0.237    0.382  105.410
  341.500    5.385    0.259    0.392  107.875
  341.750    4.969    0.272    0.391   99.313
  342.000    4.778    0.283    0.387   90.628
  342.250    4.719    0.289    0.383   82.861
  342.500    4.784    0.278    0.379   76.995
  342.750    5.095    0.271    0.371   85.655
  343.000    5.304    0.265    0.370   91.675
  343.250    5.480    0.266    0.377   95.363
