~VERSION INFORMATION
 VERS.                 2.0:   CWLS LOG ASCII STANDARD -VERSION 2.0
 WRAP.                  NO:   ONE LINE PER DEPTH STEP
~WELL INFORMATION BLOCK
#MNEM.UNIT           DATA                    DESCRIPTION OF MNEMONIC
#---------    -------------------            -------------------------------
# Generated from Intellog Unique Number	CW_76_78/WELL/2572
WELL.         BAYSEL WILLOW R                : Well_name    - WELL
LOC .         00/07-10-078-03W5/0            : Location     - LOCATION
UWI .         00/07-10-078-03W5/0            : Uwi          - UNIQUE WELL ID
ENTR.         MAX                            : Entered      - ENTERED BY
SRVC.         SCHLUMBERGER                   : Scn          - SERVICE COMPANY
STRT.M        365.76                         : top_depth    - START DEPTH
STOP.M        640.01                         : bot_depth    - STOP DEPTH
STEP.M        0.25                           : increment    - STEP LENGTH
 NULL. -999.2500:NULL Value
~CURVE INFORMATION BLOCK
#MNEM UNIT       ERCB CURVE CODE    CURVE DESCRIPTION
#-----------   ------------------   ----------------------------------
DEPT.M        00 001 00 00         : DEPTH        - DEPTH
ILD .OHMM     00 120 00 00         : RESD         - DEEP RESISTIVITY (DIL)
NPHI.V/V      00 330 00 00         : PHIN         - NEUTRON POROSITY (SANDSTONE)
DPHI.V/V      00 890 00 00         : PHID         - DENSITY POROSITY (SANDSTONE)
CALI.MM       00 280 01 00         : CAL          - CALIPER
GR  .API      00 310 00 00         : GR           - GAMMA RAY
~PARAMETER INFORMATION
#MNEM.UNIT           DATA             DESCRIPTION OF MNEMONIC
#---------         -----------     ------------------------------
GL  .M        660.197              : gl           - GROUND LEVEL ELEVATION
EREF.M        664.403              : kb           - ELEVATION OF DEPTH REFERENCE
DATM.M        660.197              : datum        - DATUM ELEVATION
TDD .M        658.063              : tdd          - TOTAL DEPTH DRILLER
RUN .         ONE                  : Run          - RUN NUMBER
ENG .         BILL                 : Engineer     - RECORDING ENGINEER
WIT .         JIM                  : Witness      - WITNESSED BY
MUD .         GEL                  : Mud_type     - MUD TYPE
MATR.         SANDSTONE            : Logunit      - NEUTRON MATRIX
TMAX.C        26.6667              : BHT          - MAXIMUM RECORDED TEMPERATURE
BHTD.M        658.063              : BHTDEP       - MAXIMUM RECORDED TEMPERATURE
RMT .C        15                   : MDTP         - TEMPERATURE OF MUD
MUDD.KG/M     9300                 : MWT          - MUD DENSITY
NEUT.         1                    : NEUTRON      - NEUTRON TYPE
RESI.         0                    : RESIST       - RESISTIVITY TYPE
RM  .OHMM     0.25                 : RM           - RESISTIVITY OF MUD
RMC .OHMM     0.25                 : RMC          - RESISTIVITY OF MUD CAKE
RMF .OHMM     3.74                 : RMF          - RESISTIVITY OF MUD FILTRATE
SUFT.C        -15                  : SUFT         - SURFACE TEMPERATURE
~A  DEPTH     RESD     PHIN     PHID      CAL       GR
# ...
  438.760    9.692    0.477    0.305  171.376   62.764
  439.010    9.003    0.490    0.313  170.788   66.129
  439.260    8.519    0.465    0.315  170.732   67.339
  439.510    7.773    0.442    0.322  170.145   69.470
  439.760    7.027    0.426    0.283  170.095   72.529
  440.010    6.649    0.402    0.247  173.172   76.836
  440.260    6.291    0.385    0.217  175.220   79.272
  440.510    6.060    0.386    0.203  176.730   80.788
  440.760    5.946    0.388    0.206  176.674   85.086
  441.010    5.832    0.421    0.192  176.073   90.008
  441.260    5.827    0.477    0.185  176.023   95.244
  441.510    5.767    0.500    0.205  176.492   98.919
  441.760    5.709    0.501    0.261  175.380   93.931
  442.010    5.653    0.509    0.264  174.275   94.199
  442.260    5.595    0.515    0.252  174.218   93.551
  442.510    5.595    0.499    0.250  175.204   90.103
  442.760    5.479    0.481    0.253  175.148   89.450
  443.010    5.428    0.483    0.225  176.134   93.137
  443.260    5.373    0.467    0.226  177.112   96.197
  443.510    5.368    0.464    0.223  175.476   96.469
  443.760    5.361    0.465    0.220  174.371  100.149
  444.010    5.355    0.461    0.206  174.846  101.354
  444.260    5.350    0.457    0.211  175.832   98.529
  444.510    5.297    0.459    0.220  175.775   96.952
  444.760    5.297    0.457    0.242  175.712   99.388
  445.010    5.283    0.452    0.228  177.208  102.762
  445.260    5.138    0.456    0.209  178.208  107.064
  445.510    4.950    0.479    0.209  179.208  106.717
  445.760    4.813    0.486    0.203  180.718  105.441
  446.010    4.764    0.489    0.194  181.710  104.793
  446.260    4.716    0.494    0.194  182.165  103.822
  446.510    4.753    0.483    0.197  182.640  103.170
  446.760    4.836    0.477    0.196  183.094  102.207
  447.010    5.009    0.481    0.181  183.045  104.338
  447.260    5.380    0.481    0.189  183.492  106.782
  447.510    5.830    0.476    0.195  183.960  110.466
  447.760    6.375    0.476    0.193  183.904  115.698
  448.010    6.848    0.479    0.196  183.841  119.377
  448.260    7.422    0.493    0.207  183.778  119.034
  448.510    8.188    0.495    0.216  183.729  113.731
  448.760    8.408    0.493    0.220  183.658  105.638
  449.010    8.099    0.515    0.219  182.546  102.817
  449.260    7.664    0.524    0.227  180.931   96.590
  449.510    7.316    0.510    0.242  174.568   90.049
  449.760    7.243    0.494    0.257  170.316   85.985
  450.010    7.433    0.487    0.269  168.686   83.776
  450.260    7.910    0.482    0.272  168.092   83.127
  450.510    8.420    0.473    0.265  168.560   81.851
  450.760    8.882    0.463    0.266  168.504   80.579
  451.010    9.713    0.462    0.250  167.909   81.772
  451.260   10.154    0.461    0.255  167.853   83.292
  451.510   10.328    0.466    0.248  169.370   86.352
  451.760   10.223    0.470    0.258  169.307   89.420
  452.010    9.760    0.476    0.270  168.726   91.236
  452.260    8.986    0.475    0.265  168.670   90.274
  452.510    8.125    0.463    0.256  169.131   88.994
  452.760    7.414    0.422    0.251  170.110   88.341
  453.010    6.952    0.353    0.207  171.627   87.375
  453.260    6.952    0.322    0.188  174.710   86.731
  453.510    6.566    0.322    0.137  177.283   87.932
  453.760    6.271    0.464    0.130  176.703   89.753
  454.010    6.204    0.467    0.222  173.493   90.645
  454.260    6.034    0.456    0.245  172.388   91.850
  454.510    6.034    0.473    0.254  173.374   94.291
  454.760    5.807    0.494    0.221  173.842   95.806
  455.010    5.597    0.482    0.220  173.772   96.083
  455.260    5.391    0.473    0.228  173.716   98.217
  455.510    5.435    0.471    0.238  174.184  100.038
  455.760    5.680    0.473    0.217  174.652  101.244
  456.010    5.990    0.467    0.216  177.204  103.684
  456.260    6.148    0.460    0.212  178.721  103.643
  456.510    6.032    0.471    0.210  179.182  103.605
  456.760    5.864    0.467    0.203  179.126  105.125
  457.010    5.754    0.478    0.202  178.007  102.920
  457.260    5.645    0.479    0.200  175.322   99.170
  457.510    5.690    0.469    0.202  174.231   93.872
  457.760    5.684    0.463    0.225  172.587   92.905
  458.010    5.626    0.464    0.213  172.531   94.726
  458.260    5.470    0.468    0.198  175.090   98.410
  458.510    5.415    0.468    0.180  177.663  101.469
  458.760    5.359    0.458    0.185  179.697  103.604
  459.010    5.353    0.447    0.184  181.201  104.496
  459.260    5.348    0.451    0.186  181.669  106.631
  459.510    5.344    0.441    0.166  181.613  111.858
  459.760    5.385    0.446    0.163  181.556  112.758
  460.010    5.479    0.462    0.168  182.542  109.005
  460.260    5.673    0.461    0.154  183.003  104.941
  460.510    5.720    0.469    0.181  182.409  103.351
  460.760    5.720    0.473    0.202  181.311  103.632
  461.010    5.758    0.472    0.177  180.737  103.908
  461.260    5.701    0.458    0.173  181.191  103.252
  461.510    5.643    0.447    0.187  183.226  102.591
  461.760    5.537    0.462    0.188  185.792  102.248
  462.010    5.432    0.469    0.182  186.785  102.524
  462.260    5.377    0.466    0.199  186.728  103.416
  462.510    5.372    0.464    0.194  180.372  104.613
  462.760    5.464    0.455    0.182  177.694  106.129
  463.010    5.608    0.447    0.193  180.253  109.511
  463.260    5.810    0.461    0.183  181.238  114.738
  463.510    6.240    0.460    0.187  181.692  119.652
  463.760    6.948    0.471    0.175  182.175  117.765
  464.010    7.669    0.485    0.166  183.153  114.015
  464.260    8.696    0.492    0.179  183.104  111.191
  464.510    9.951    0.502    0.194  181.992  108.366
  464.760   11.285    0.512    0.213  179.300  102.758
  465.010   10.873    0.512    0.227  171.908   96.836
  465.260    9.481    0.520    0.238  166.594   93.392
  465.510    8.418    0.520    0.227  166.538   91.183
  465.760    7.610    0.515    0.249  167.530   91.150
  466.010    7.334    0.499    0.224  166.936   92.041
  466.260    7.334    0.520    0.231  166.880   91.698
  466.510    6.989    0.527    0.229  166.299   89.493
  466.760    6.438    0.514    0.233  166.243   88.837
  467.010    6.037    0.489    0.234  166.173   89.733
  467.260    5.764    0.489    0.230  166.123   89.080
  467.510    5.453    0.496    0.233  166.585   85.326
  467.760    5.159    0.490    0.232  168.626   84.674
  468.010    4.925    0.482    0.243  170.122   87.118
  468.260    4.788    0.483    0.228  169.549   92.659
  468.510    4.779    0.493    0.198  170.541  100.365
  468.760    4.822    0.482    0.189  176.771  103.730
  469.010    5.131    0.510    0.186  176.708  104.630
  469.260    5.511    0.513    0.168  176.652  106.765
  469.510    5.813    0.508    0.164  178.679  100.843
  469.760    6.299    0.482    0.191  180.204   96.474
  470.010    6.705    0.469    0.191  180.140   92.406
  470.260    7.007    0.465    0.212  179.567   91.750
  470.510    7.130    0.411    0.212  176.881   91.097
  470.760    6.931    0.343    0.187  174.713   88.277
  471.010    6.381    0.307    0.101  174.650   81.426
  471.260    5.928    0.407   -0.016  176.699   77.362
  471.510    5.659    0.447    0.013  177.678   86.001
  471.760    5.502    0.463    0.155  177.097   92.162
  472.010    5.398    0.463    0.212  175.999   97.699
  472.260    5.389    0.457    0.203  174.362  100.144
  472.510    5.387    0.461    0.189  173.257  100.412
  472.760    5.430    0.461    0.177  175.809  100.073
  473.010    5.473    0.456    0.184  177.858  101.279
  473.260    5.467    0.454    0.188  176.207  102.472
  473.510    5.611    0.460    0.189  175.620  101.196
  473.760    5.607    0.465    0.187  178.710   99.932
  474.010    5.601    0.475    0.195  180.241   96.790
  474.260    5.591    0.483    0.203  174.395   92.429
  474.510    5.539    0.483    0.221  169.095   88.051
  474.760    5.432    0.471    0.234  169.046   92.049
  475.010    5.329    0.461    0.202  169.500   96.347
