~VERSION INFORMATION
 VERS.                 2.0:   CWLS LOG ASCII STANDARD -VERSION 2.0
 WRAP.                  NO:   ONE LINE PER DEPTH STEP
~WELL INFORMATION BLOCK
#MNEM.UNIT           DATA                    DESCRIPTION OF MNEMONIC
#---------    -------------------            -------------------------------
# Generated from Intellog Unique Number	CW_70_72/WELL/3298
NULL.         -999.25                        : NULL_VALUE
WELL.         CALSTAN SOBC HONDO             : Well_name    - WELL              
LOC .         02-03-071-04W5                 : Location     - LOCATION          
UWI .         00/02-03-071-04W5/0            : Uwi          - UNIQUE WELL ID    
ENTR.         CAMPBELL                       : Entered      - ENTERED BY        
SRVC.         SCHLUMBERGER                   : Scn          - SERVICE COMPANY   
DATE.         10 OCT 1964                    : Date         - LOG DATE          
STRT.M        676.656                        : top_depth    - START DEPTH       
STOP.M        819.906                        : bot_depth    - STOP DEPTH        
STEP.M        0.25                           : increment    - STEP LENGTH       
~CURVE INFORMATION BLOCK
#MNEM UNIT       ERCB CURVE CODE    CURVE DESCRIPTION
#-----------   ------------------   ----------------------------------
DEPT.M        00 001 00 00         : DEPTH        - DEPTH                       
GR  .API      00 310 00 00         : GR           - GAMMA RAY                   
ILD .OHMM     00 120 00 00         : RESD         - DEEP RESISTIVITY (DIL)      
DELT.US/F     00 520 00 00         : DELT         - SONIC TRAVEL TIME           
~PARAMETER INFORMATION       
#MNEM.UNIT           DATA             DESCRIPTION OF MNEMONIC
#---------         -----------     ------------------------------
GL  .M        742.334              : gl           - GROUND LEVEL ELEVATION      
EREF.M        746.15               : kb           - ELEVATION OF DEPTH REFERENCE
DATM.M        746.15               : datum        - DATUM ELEVATION             
TDD .M        1853.18              : tdd          - TOTAL DEPTH DRILLER         
RUN .         ONE                  : Run          - RUN NUMBER                  
ENG .         KAWOLSKI             : Engineer     - RECORDING ENGINEER          
WIT .         BROWN                : Witness      - WITNESSED BY                
MUD .         GEL                  : Mud_type     - MUD TYPE                    
MATR.         SANDSTONE            : Logunit      - NEUTRON MATRIX              
TMAX.C        124                  : BHT          - MAXIMUM RECORDED TEMPERATURE
BHTD.M        1853.18              : BHTDEP       - MAXIMUM RECORDED TEMPERATURE
RMT .C        23.8889              : MDTP         - TEMPERATURE OF MUD          
MUDD.KG/M     10500                : MWT          - MUD DENSITY                 
NEUT.         1                    : NEUTRON      - NEUTRON TYPE                
RESI.         0                    : RESIST       - RESISTIVITY TYPE            
RM  .OHMM     0.97                 : RM           - RESISTIVITY OF MUD          
RMC .OHMM     1.29                 : RMC          - RESISTIVITY OF MUD CAKE     
RMF .OHMM     0.76                 : RMF          - RESISTIVITY OF MUD FILTRATE 
SUFT.C        10                   : SUFT         - SURFACE TEMPERATURE         
~A  DEPTH       GR     RESD     DELT
# ...
  785.156   74.833    3.133  466.407
  785.406   73.195    3.637  502.161
  785.656   70.141    4.041  460.569
  785.906   68.503    4.346  290.063
  786.156   68.048    4.652  284.245
  786.406   67.825    4.958  368.985
  786.656   67.604    5.168  379.924
  786.906   67.619    5.278  321.574
  787.156   68.815    5.292  360.872
  787.406   69.304    5.306  335.715
  787.656   70.737    5.315  358.258
  787.906   70.990    5.327  314.085
  788.156   69.822    5.440  298.599
  788.406   69.371    5.451  310.182
  788.656   69.620    5.464  261.820
  788.906   69.399    5.478  336.572
  789.156   68.706    5.490  309.160
  789.406   69.195    5.502  352.325
  789.656   70.626    5.614  314.278
  789.906   72.530    5.724  342.299
  790.156   74.909    5.930  240.116
  790.406   76.342    6.434  263.946
  790.656   75.414    6.641  305.825
  790.906   71.652    6.164  302.262
  791.156   69.778    5.297  324.803
  791.406   68.610    4.918  233.577
  791.656   68.627    4.734  231.625
  791.906   69.823    4.648  321.202
  792.156   71.493    4.761  334.717
  792.406   73.398    5.070  334.379
  792.656   75.303    5.373  354.341
  792.906   75.790    5.678  318.872
  793.156   74.863    5.788  323.686
  793.406   71.805    5.507  265.336
  793.656   69.697    5.131  261.451
  793.906   67.588    4.849  228.237
  794.156   69.727    4.959  330.702
  794.406   74.468    5.363  359.045
  794.656   76.849    5.768  335.822
  794.906   77.809    6.171  328.070
  795.156   78.529    6.576  278.741
  795.406   79.018    6.880  253.584
  795.656   79.742    6.993  263.234
  795.906   80.468    6.808  266.761
  796.156   80.721    6.431  296.069
  796.406   80.498    6.247  331.181
  796.656   80.277    5.773  330.840
  796.906   79.820    5.490  320.828
  797.156   79.366    5.403  293.095
  797.406   78.671    5.320  308.224
  797.656   78.214    5.333  334.951
  797.906   78.465    5.245  321.401
  798.156   78.720    5.257  308.168
  798.406   79.914    5.664  337.800
  798.656   81.349    6.459  360.341
  798.906   83.017    7.449  311.014
  799.156   82.326    9.027  322.920
  799.406   78.324   12.464  323.867
  799.656   61.334   15.022  217.495
  799.906   54.262   16.306  255.184
  800.156   44.593   17.201  300.930
  800.406   44.374   17.701  302.523
  800.656   46.751   18.499  307.982
  800.906   47.238   18.707  306.675
  801.156   45.836   18.424  300.534
  801.406   45.381   17.950  293.101
  801.656   47.284   17.471  290.505
  801.906   51.080   16.897  286.296
  802.156   54.166   15.932  279.510
  802.406   57.019   15.161  273.045
  802.656   57.507   14.489  277.216
  802.906   56.813   14.110  288.475
  803.156   57.066   13.926  292.969
  803.406   57.790   13.745  293.596
  803.656   58.512   13.268  290.358
  803.906   59.000   12.594  275.835
  804.156   59.963   12.019  278.718
  804.406   60.923   11.249  281.923
  804.656   61.647   10.579  269.979
  804.906   61.662   10.101  274.473
  805.156   60.734    9.624  285.412
  805.406   60.277    8.953  287.650
  805.656   60.292    8.870  288.596
  805.906   60.544    9.270  292.121
  806.156   60.325   12.317  290.492
  806.406   58.686   14.776  358.799
  806.656   54.212   16.941  262.419
  806.906   48.324   15.192  197.299
  807.156   45.977   13.639  219.195
  807.406   50.952   12.674  249.148
  807.656   56.164   11.219  267.501
  807.906   60.669   11.818  286.819
  808.156   65.408   13.397  297.434
  808.406   70.856   15.953  300.316
  808.656   74.652   18.999  316.734
  808.906   65.691   22.241  315.427
  809.156   59.565   26.168  275.124
  809.406   38.321   25.985  275.106
  809.656   32.431   24.138  228.999
  809.906   31.976   23.075  233.815
  810.156   38.368   22.598  256.678
  810.406   43.582   22.219  274.387
  810.656   48.557   21.840  266.310
  810.906   53.536   21.462  251.466
  811.156   54.730   21.183  271.108
  811.406   49.551   20.508  285.915
  811.656   47.675   19.249  288.473
  811.906   47.692   16.913  275.242
  812.156   52.431   14.675  270.066
  812.406   56.463   12.730  289.706
  812.656   58.368    9.515  281.631
  812.906   60.273    8.451  284.836
  813.156   63.831    8.168  280.304
  813.406   68.100    7.789  285.442
  813.656   73.784    7.412  347.619
  813.906   78.761    6.838  337.616
  814.156   80.195    6.753  382.717
  814.406   76.665    6.078  305.996
  814.656   66.051    6.191  343.038
  814.906   58.508    6.496  341.409
  815.156   47.658    7.487  375.874
  815.406   45.786    8.478  413.241
  815.656   43.439   10.155  401.297
  815.906   41.328   10.852  346.169
  816.156   37.328   16.833  369.999
  816.406   32.855   18.512  165.009
  816.656   28.857   20.774  125.350
  816.906   26.509   22.744  155.948
  817.156   27.705   23.539  187.514
  817.406   29.139   23.750  203.287
  817.656   31.046   23.760  205.200
  817.906   31.533   23.676  207.114
  818.156   30.840   23.688  213.866
  818.406   29.203   23.601  209.981
  818.656   29.453   23.517  215.761
  818.906   29.942   23.433  217.999
  819.156   29.957   23.347  218.303
  819.406   29.264   23.261  214.741
  819.656   28.336   23.275  213.756
  819.906   28.349   23.287  215.023
