~VERSION INFORMATION
 VERS.                 2.0:   CWLS LOG ASCII STANDARD -VERSION 2.0
 WRAP.                  NO:   ONE LINE PER DEPTH STEP
~WELL INFORMATION BLOCK
#MNEM.UNIT           DATA                    DESCRIPTION OF MNEMONIC
#---------    -------------------            -------------------------------
# Generated from Intellog Unique Number	CS_73_76/WELL/737
WELL.         MAYNARD EXPLORATION            : Well_name    - WELL
LOC .         00/07-10-073-12W4/0            : Location     - LOCATION
UWI .         00/07-10-073-12W4/0            : Uwi          - UNIQUE WELL ID
ENTR.         SP                             : Entered      - ENTERED BY
SRVC.         SCHLUMBERGER                   : Scn          - SERVICE COMPANY
STRT.M        285                            : top_depth    - START DEPTH
STOP.M        520                            : bot_depth    - STOP DEPTH
STEP.M        0.25                           : increment    - STEP LENGTH
 NULL. -999.2500:NULL Value
~CURVE INFORMATION BLOCK
#MNEM UNIT       ERCB CURVE CODE    CURVE DESCRIPTION
#-----------   ------------------   ----------------------------------
DEPT.M        00 001 00 00         : DEPTH        - DEPTH
ILD .OHMM     00 120 00 00         : RESD         - DEEP RESISTIVITY (DIL)
DPHI.V/V      00 890 00 00         : PHID         - DENSITY POROSITY (LIMESTONE)
NPHI.V/V      00 330 00 00         : PHIN         - NEUTRON POROSITY (LIMESTONE)
GR  .API      00 310 00 00         : GR           - GAMMA RAY
~PARAMETER INFORMATION
#MNEM.UNIT           DATA             DESCRIPTION OF MNEMONIC
#---------         -----------     ------------------------------
GL  .M        638.29               : gl           - GROUND LEVEL ELEVATION
EREF.M        641.49               : kb           - ELEVATION OF DEPTH REFERENCE
DATM.M        638.29               : datum        - DATUM ELEVATION
TDD .M        535                  : tdd          - TOTAL DEPTH DRILLER
RUN .         ONE                  : Run          - RUN NUMBER
ENG .         BILL                 : Engineer     - RECORDING ENGINEER
WIT .         JIM                  : Witness      - WITNESSED BY
MUD .         GEL                  : Mud_type     - MUD TYPE
MATR.         LIMESTONE            : Logunit      - NEUTRON MATRIX
TMAX.C        23                   : BHT          - MAXIMUM RECORDED TEMPERATURE
BHTD.M        535                  : BHTDEP       - MAXIMUM RECORDED TEMPERATURE
MATR.         1                    : LOGUNIT      - NEUTRON MATRIX
RMT .C        25                   : MDTP         - TEMPERATURE OF MUD
NEUT.         1                    : NEUTRON      - NEUTRON TYPE
RESI.         0                    : RESIST       - RESISTIVITY TYPE
RMC .OHMM     0.25                 : RMC          - RESISTIVITY OF MUD CAKE
RMF .OHMM     0.25                 : RMF          - RESISTIVITY OF MUD FILTRATE
SUFT.C        15                   : SUFT         - SURFACE TEMPERATURE
~A  DEPTH     RESD     PHID     PHIN       GR
# ...
  328.500    7.881    0.207    0.435   96.117
  328.750    7.393    0.207    0.424   98.565
  329.000    7.231    0.216    0.416  101.013
  329.250    7.150    0.228    0.423  102.241
  329.500    7.232    0.244    0.436  102.249
  329.750    7.314    0.258    0.431  102.867
  330.000    7.558    0.269    0.433  104.095
  330.250    7.721    0.264    0.424  104.715
  330.500    7.884    0.251    0.417   99.236
  330.750    7.966    0.239    0.400   98.636
  331.000    7.722    0.243    0.398  103.526
  331.250    7.641    0.266    0.403  106.583
  331.500    7.560    0.277    0.408  107.199
  331.750    7.643    0.279    0.418  103.552
  332.000    7.724    0.277    0.420   99.903
  332.250    7.724    0.289    0.433   97.472
  332.500    7.725    0.278    0.442   94.433
  332.750    7.725    0.265    0.428   96.273
  333.000    7.644    0.247    0.417  100.550
  333.250    7.726    0.267    0.438  104.216
  333.500    7.727    0.279    0.451   98.738
  333.750    7.890    0.269    0.443   96.917
  334.000    7.971    0.299    0.435   97.541
  334.250    8.053    0.312    0.427   98.157
  334.500    8.053    0.318    0.444   95.727
  334.750    8.054    0.326    0.454   93.905
  335.000    7.892    0.282    0.450   94.525
  335.250    7.730    0.271    0.449   96.975
  335.500    7.486    0.263    0.440   99.422
  335.750    7.487    0.258    0.444   97.603
  336.000    7.487    0.273    0.454   94.564
  336.250    7.650    0.284    0.434   95.790
  336.500    8.057    0.294    0.438   98.849
  336.750    8.301    0.307    0.439  100.685
  337.000    8.546    0.289    0.428   96.427
  337.250    9.034    0.277    0.416   93.391
  337.500    9.360    0.274    0.412   92.177
  337.750    9.848    0.268    0.423   90.357
  338.000   10.173    0.276    0.411   90.975
  338.250   10.580    0.294    0.404   87.936
  338.500   10.825    0.300    0.390   85.506
  338.750   10.906    0.303    0.396   87.954
  339.000   11.069    0.306    0.404   91.625
  339.250   10.907    0.296    0.410   91.631
  339.500   10.664    0.289    0.401   89.207
  339.750   10.583    0.289    0.395   88.604
  340.000   10.584    0.293    0.391   88.002
  340.250   10.584    0.287    0.400   88.012
  340.500   10.503    0.280    0.412   88.019
  340.750   10.585    0.274    0.418   85.592
  341.000   10.667    0.264    0.428   83.162
  341.250   10.748    0.282    0.409   81.951
  341.500   10.911    0.303    0.396   81.349
  341.750   11.156    0.310    0.401   81.971
  342.000   11.156    0.304    0.412   84.421
  342.250   11.075    0.287    0.412   85.647
  342.500   10.750    0.270    0.396   87.485
  342.750   10.507    0.259    0.390   89.933
  343.000   10.426    0.246    0.394   91.160
  343.250   10.589    0.220    0.388   89.341
  343.500   10.833    0.211    0.393   89.962
  343.750   11.078    0.220    0.401   91.803
  344.000   11.403    0.223    0.412   91.806
  344.250   11.810    0.236    0.411   89.986
  344.500   12.136    0.253    0.400   83.901
  344.750   12.380    0.272    0.406   80.860
  345.000   12.462    0.287    0.409   78.429
  345.250   12.462    0.299    0.404   75.392
  345.500   12.219    0.308    0.396   77.839
  345.750   11.894    0.302    0.387   79.066
  346.000   11.569    0.300    0.381   73.591
  346.250   10.920    0.287    0.373   76.650
  346.500   10.676    0.282    0.383   79.095
  346.750   10.514    0.272    0.392   85.206
  347.000   10.677    0.262    0.407   87.041
  347.250   11.165    0.289    0.421   84.609
  347.500   11.816    0.304    0.403   77.301
  347.750   12.467    0.315    0.407   74.264
  348.000   12.793    0.321    0.418   74.271
  348.250   13.118    0.330    0.422   73.673
  348.500   13.200    0.339    0.422   73.680
  348.750   13.038    0.341    0.421   72.474
  349.000   12.794    0.338    0.421   71.263
  349.250   12.713    0.337    0.420   70.049
  349.500   12.714    0.336    0.416   68.231
  349.750   12.714    0.334    0.412   68.239
  350.000   12.715    0.334    0.408   71.300
  350.250   12.715    0.328    0.416   72.526
  350.500   12.634    0.327    0.422   74.977
  350.750   12.472    0.339    0.433   76.207
  351.000   12.310    0.342    0.423   77.435
  351.250   12.066    0.329    0.416   78.051
  351.500   11.661    0.320    0.425   77.452
  351.750   11.498    0.318    0.422   74.410
  352.000   11.336    0.320    0.416   70.152
  352.250   11.011    0.322    0.406   69.551
  352.500   10.687    0.319    0.398   70.782
  352.750   10.524    0.312    0.398   72.617
  353.000   10.118    0.310    0.413   76.897
  353.250    9.956    0.306    0.413   80.562
  353.500    9.794    0.292    0.417   84.840
  353.750    9.713    0.275    0.424   86.679
  354.000    9.713    0.267    0.411   87.300
  354.250    9.795    0.254    0.406   89.136
  354.500   10.040    0.251    0.414   93.416
  354.750   10.284    0.250    0.409   95.863
  355.000   10.935    0.250    0.406   98.312
  355.250   11.423    0.249    0.413   95.271
  355.500   11.911    0.243    0.406   89.181
  355.750   12.562    0.241    0.394   81.266
  356.000   13.132    0.254    0.389   75.785
  356.250   13.376    0.285    0.386   67.869
  356.500   13.620    0.306    0.385   63.610
  356.750   13.702    0.323    0.383   61.789
  357.000   13.703    0.333    0.394   64.237
  357.250   13.621    0.323    0.385   62.417
  357.500   13.459    0.317    0.371   59.989
  357.750   13.297    0.319    0.367   59.998
  358.000   13.054    0.322    0.381   63.059
  358.250   12.973    0.329    0.387   64.287
  358.500   12.729    0.330    0.391   65.515
  358.750   12.567    0.325    0.391   65.522
  359.000   12.486    0.307    0.389   66.750
  359.250   12.405    0.293    0.385   68.589
  359.500   12.406    0.303    0.372   67.379
  359.750   12.488    0.312    0.383   65.559
  360.000   12.569    0.319    0.385   64.347
  360.250   12.732    0.324    0.377   63.749
  360.500   12.896    0.327    0.372   64.370
  360.750   13.059    0.320    0.369   64.987
  361.000   13.140    0.312    0.368   64.995
  361.250   13.141    0.298    0.380   64.396
  361.500   12.979    0.293    0.372   63.185
  361.750   12.979    0.289    0.377   61.974
  362.000   12.898    0.300    0.369   60.156
  362.250   12.980    0.302    0.363   59.552
  362.500   12.980    0.302    0.350   63.224
  362.750   13.062    0.309    0.355   65.058
  363.000   13.144    0.315    0.363   66.287
  363.250   13.225    0.325    0.374   65.079
  363.500   13.389    0.327    0.383   63.259
  363.750   13.389    0.332    0.388   61.439
  364.000   13.308    0.322    0.393   62.669
  364.250   13.227    0.316    0.380   63.285
  364.500   13.065    0.311    0.368   63.907
  364.750   13.065    0.326    0.359   64.525
  365.000   13.147    0.333    0.364   65.145
  365.250   13.229    0.343    0.371   65.762
  365.500   13.229    0.337    0.386   66.383
  365.750   13.148    0.323    0.390   67.001
  366.000   12.986    0.316    0.387   67.619
  366.250   12.824    0.312    0.384   68.855
  366.500   12.743    0.315    0.377   68.863
  366.750   12.256    0.316    0.385   68.258
  367.000   12.094    0.315    0.398   67.046
  367.250   11.688    0.307    0.407   70.105
  367.500   11.444    0.299    0.415   74.991
  367.750   10.957    0.280    0.425   79.876
  368.000   10.469    0.263    0.431   79.885
  368.250    9.819    0.257    0.425   84.776
  368.500    9.332    0.266    0.414   87.222
  368.750    9.089    0.269    0.418   89.060
  369.000    8.845    0.277    0.428   87.853
  369.250    8.764    0.283    0.419   86.641
  369.500    8.602    0.290    0.413   84.825
  369.750    8.521    0.294    0.422   84.831
  370.000    8.440    0.305    0.424   85.451
  370.250    8.441    0.308    0.423   84.849
  370.500    8.441    0.313    0.420   84.247
  370.750    8.442    0.308    0.415   79.379
  371.000    8.523    0.307    0.413   76.949
  371.250    8.687    0.302    0.414   73.300
  371.500    8.850    0.308    0.413   69.040
  371.750    8.931    0.313    0.400   62.343
