~VERSION INFORMATION
 VERS.                 2.0:   CWLS LOG ASCII STANDARD -VERSION 2.0
 WRAP.                  NO:   ONE LINE PER DEPTH STEP
~WELL INFORMATION BLOCK
#MNEM.UNIT           DATA                    DESCRIPTION OF MNEMONIC
#---------    -------------------            -------------------------------
# Generated from Intellog Unique Number	CS_73_76/WELL/770
WELL.         ALLIED ROXANA MINERALS LTD     : Well_name    - WELL
LOC .         00/07-20-073-14W4/0            : Location     - LOCATION
UWI .         00/07-20-073-14W4/0            : Uwi          - UNIQUE WELL ID
ENTR.         SP                             : Entered      - ENTERED BY
SRVC.         SCHLUMBERGER                   : Scn          - SERVICE COMPANY
STRT.M        329.184                        : top_depth    - START DEPTH
STOP.M        548.434                        : bot_depth    - STOP DEPTH
STEP.M        0.25                           : increment    - STEP LENGTH
 NULL. -999.2500:NULL Value
~CURVE INFORMATION BLOCK
#MNEM UNIT       ERCB CURVE CODE    CURVE DESCRIPTION
#-----------   ------------------   ----------------------------------
DEPT.M        00 001 00 00         : DEPTH        - DEPTH
GR  .API      00 310 00 00         : GR           - GAMMA RAY
DPHI.V/V      00 890 00 00         : PHID         - DENSITY POROSITY (SANDSTONE)
NPHI.V/V      00 330 00 00         : PHIN         - NEUTRON POROSITY (SANDSTONE)
ILD .OHMM     00 120 00 00         : RESD         - DEEP RESISTIVITY (DIL)
~PARAMETER INFORMATION
#MNEM.UNIT           DATA             DESCRIPTION OF MNEMONIC
#---------         -----------     ------------------------------
GL  .M        670.255              : gl           - GROUND LEVEL ELEVATION
EREF.M        673.303              : kb           - ELEVATION OF DEPTH REFERENCE
DATM.M        670.255              : datum        - DATUM ELEVATION
TDD .M        573.024              : tdd          - TOTAL DEPTH DRILLER
RUN .         ONE                  : Run          - RUN NUMBER
ENG .         BILL                 : Engineer     - RECORDING ENGINEER
WIT .         JIM                  : Witness      - WITNESSED BY
MUD .         GEL                  : Mud_type     - MUD TYPE
MATR.         SANDSTONE            : Logunit      - NEUTRON MATRIX
TMAX.C        18.8889              : BHT          - MAXIMUM RECORDED TEMPERATURE
BHTD.M        573.024              : BHTDEP       - MAXIMUM RECORDED TEMPERATURE
MATR.         1                    : LOGUNIT      - NEUTRON MATRIX
RMT .C        25                   : MDTP         - TEMPERATURE OF MUD
NEUT.         1                    : NEUTRON      - NEUTRON TYPE
RESI.         0                    : RESIST       - RESISTIVITY TYPE
RMC .OHMM     0.25                 : RMC          - RESISTIVITY OF MUD CAKE
RMF .OHMM     0.25                 : RMF          - RESISTIVITY OF MUD FILTRATE
SUFT.C        15                   : SUFT         - SURFACE TEMPERATURE
~A  DEPTH       GR     PHID     PHIN     RESD
# ...
  459.684   66.171    0.230    0.484    4.939
  459.934   66.073    0.216    0.456    4.944
  460.184   63.818    0.201    0.439    4.989
  460.434   60.930    0.197    0.428    5.023
  460.684   58.356    0.218    0.441    5.026
  460.934   58.785    0.230    0.454    5.020
  461.184   60.791    0.245    0.463    5.113
  461.434   62.161    0.238    0.471    5.109
  461.684   63.953    0.229    0.495    5.111
  461.934   64.881    0.222    0.503    5.112
  462.184   64.424    0.218    0.476    5.122
  462.434   64.170    0.232    0.500    5.027
  462.684   62.540    0.240    0.523    5.040
  462.934   63.337    0.246    0.553    4.954
  463.184   68.932    0.238    0.562    4.962
  463.434   72.331    0.236    0.538    4.958
  463.684   76.266    0.212    0.493    5.053
  463.934   79.297    0.181    0.501    5.055
  464.184   83.240    0.175    0.514    5.131
  464.434   84.631    0.163    0.500    5.161
  464.684   80.773    0.152    0.500    5.206
  464.934   78.254    0.141    0.529    5.218
  465.184   75.350    0.148    0.545    5.128
  465.434   77.915    0.156    0.540    5.054
  465.684   79.817    0.170    0.526    4.977
  465.934   81.806    0.184    0.552    4.867
  466.184   83.782    0.168    0.559    4.891
  466.434   84.697    0.172    0.531    4.977
  466.684   85.309    0.182    0.512    5.065
  466.934   82.618    0.168    0.504    5.126
  467.184   83.592    0.166    0.512    5.266
  467.434   83.829    0.178    0.521    5.302
  467.684   83.888    0.171    0.563    5.305
  467.934   84.632    0.167    0.580    5.312
  468.184   88.067    0.155    0.588    5.226
  468.434   89.181    0.169    0.547    5.183
  468.684   89.858    0.163    0.545    5.072
  468.934   89.760    0.163    0.525    4.996
  469.184   90.554    0.167    0.516    4.997
  469.434   93.753    0.156    0.520    4.986
  469.684   95.604    0.141    0.520    4.844
  469.934   96.800    0.150    0.522    4.764
  470.184   99.469    0.158    0.526    4.584
  470.434  100.263    0.156    0.535    4.389
  470.684   99.679    0.134    0.549    4.172
  470.934   91.824    0.122    0.526    4.055
  471.184   85.364    0.103    0.517    4.366
  471.434   76.530    0.098    0.513    4.772
  471.684   71.268    0.116    0.521    5.334
  471.934   67.914    0.116    0.429    6.568
  472.184   69.945    0.067    0.397    7.486
  472.434   71.357    0.077    0.426    8.070
  472.684   69.283    0.101    0.278    8.957
  472.934   71.359    0.055    0.290   10.096
  473.184   73.261    0.007    0.389   10.451
  473.434   78.676    0.070    0.432   10.244
  473.684   82.241    0.128    0.462    9.803
  473.934   85.169    0.137    0.468    8.351
  474.184   87.246    0.140    0.467    7.045
  474.434   88.536    0.146    0.487    6.104
  474.684   89.277    0.151    0.501    5.525
  474.934   86.627    0.159    0.491    5.367
  475.184   84.371    0.151    0.487    5.269
  475.434   82.014    0.135    0.501    5.192
  475.684   81.806    0.156    0.508    5.108
  475.934   81.365    0.178    0.507    5.046
  476.184   80.684    0.203    0.494    4.958
  476.434   80.743    0.197    0.492    4.861
  476.684   80.693    0.185    0.503    4.808
  476.934   81.440    0.175    0.491    4.751
  477.184   80.674    0.162    0.474    4.803
  477.434   79.590    0.152    0.467    4.858
  477.684   77.245    0.162    0.453    5.148
  477.934   69.339    0.129    0.425    5.766
  478.184   63.855    0.033    0.311    6.708
  478.434   58.673    0.003    0.261    7.530
  478.684   70.329   -0.000    0.313    8.339
  478.934   77.462    0.018    0.380    8.884
  479.184   84.197    0.034    0.433    8.769
  479.434   87.579    0.060    0.464    7.907
  479.684   88.521    0.091    0.485    6.792
  479.934   87.005    0.119    0.486    6.281
  480.184   89.632    0.115    0.457    5.886
  480.434   96.331    0.110    0.466    5.565
  480.684   97.989    0.085    0.512    5.452
  480.934   97.916    0.103    0.547    5.317
  481.184   97.830    0.095    0.540    5.298
  481.434   96.162    0.099    0.501    5.383
  481.684   96.956    0.102    0.450    5.435
  481.934   97.441    0.111    0.465    5.472
  482.184   97.937    0.110    0.482    5.692
  482.434   97.974    0.112    0.485    5.869
  482.684  101.863    0.126    0.444    6.036
  482.934  103.643    0.121    0.428    6.163
  483.184  105.406    0.118    0.428    6.393
  483.434  101.836    0.116    0.436    6.422
  483.684  100.117    0.124    0.455    6.382
  483.934   95.042    0.103    0.474    6.045
  484.184   90.104    0.102    0.494    5.710
  484.434   86.233    0.100    0.509    5.391
  484.684   81.638    0.065    0.494    5.218
  484.934   81.665    0.043    0.455    5.167
  485.184   86.518    0.085    0.454    5.073
  485.434   89.919    0.093    0.493    5.180
  485.684   91.831    0.105    0.500    5.042
  485.934   92.127    0.131    0.503    4.468
  486.184   93.087    0.146    0.534    3.690
  486.434   91.996    0.147    0.592    2.961
  486.684   92.092    0.153    0.610    2.641
  486.934   93.793    0.144    0.620    2.243
  487.184   95.275    0.151    0.625    2.061
  487.434   96.973    0.149    0.628    1.907
  487.684   97.258    0.129    0.629    1.862
  487.934   95.812    0.130    0.629    1.776
  488.184   95.349    0.138    0.628    1.777
  488.434   94.853    0.132    0.624    1.931
  488.684   94.731    0.123    0.606    2.016
  488.934   91.439    0.124    0.565    2.221
  489.184   89.454    0.105    0.500    2.466
  489.434   91.041    0.103    0.468    2.971
  489.684   91.083    0.117    0.449    3.590
  489.934   87.932    0.098    0.459    4.245
  490.184   86.242    0.085    0.460    5.028
  490.434   84.661    0.071    0.436    5.763
  490.684   83.661    0.062    0.413    6.008
  490.934   87.030    0.048    0.430    5.891
  491.184   88.273    0.067    0.451    5.682
  491.434   84.579    0.089    0.451    5.585
  491.684   79.783    0.052    0.348    5.823
  491.934   75.155    0.015    0.329    6.419
  492.184   79.117   -0.001    0.312    7.428
  492.434   83.924   -0.001    0.310    8.641
  492.684   87.659    0.028    0.457    8.939
  492.934   92.508    0.090    0.465    8.039
  493.184   94.898    0.109    0.484    6.727
  493.434   95.846    0.091    0.501    5.788
  493.684   95.917    0.084    0.506    5.180
  493.934   96.576    0.102    0.497    4.585
  494.184   97.257    0.095    0.484    4.177
  494.434   99.270    0.085    0.486    4.100
  494.684  101.258    0.069    0.510    4.034
  494.934  100.381    0.073    0.541    3.990
  495.184   98.193    0.060    0.540    3.952
  495.434   97.659    0.044    0.529    3.809
  495.684   99.401    0.048    0.517    3.774
  495.934   98.894    0.080    0.536    3.639
  496.184   98.850    0.099    0.559    3.504
  496.434  100.671    0.105    0.554    3.497
  496.684  101.925    0.101    0.543    3.497
  496.934  101.967    0.091    0.532    3.581
  497.184   93.811    0.083    0.548    3.577
  497.434   96.491    0.097    0.568    3.578
  497.684   99.454    0.108    0.573    3.532
  497.934  101.450    0.119    0.556    3.368
  498.184   99.680    0.119    0.570    3.117
  498.434   99.189    0.107    0.588    2.888
  498.684   99.410    0.097    0.565    2.972
  498.934   98.410    0.091    0.551    3.024
  499.184   97.517    0.082    0.569    3.260
  499.434   95.137    0.072    0.512    3.607
  499.684   89.786    0.055    0.493    3.917
  499.934   85.035    0.042    0.446    4.322
  500.184   77.989    0.061    0.395    5.022
  500.434   70.435    0.076    0.371    5.807
  500.684   62.709    0.061    0.353    6.853
  500.934   61.919    0.119    0.348    8.567
  501.184   62.297    0.164    0.361   10.868
  501.434   62.647    0.182    0.390   15.804
  501.684   63.105    0.170    0.417   18.950
  501.934   65.288    0.154    0.440   19.948
  502.184   66.794    0.143    0.438   20.297
  502.434   69.378    0.132    0.427   20.425
  502.684   69.398    0.120    0.433   20.532
  502.934   69.089    0.110    0.439   20.526
