~VERSION INFORMATION
 VERS.                 2.0:   CWLS LOG ASCII STANDARD -VERSION 2.0
 WRAP.                  NO:   ONE LINE PER DEPTH STEP
~WELL INFORMATION BLOCK
#MNEM.UNIT           DATA                    DESCRIPTION OF MNEMONIC
#---------    -------------------            -------------------------------
# Generated from Intellog Unique Number	CW_70_72/WELL/1028
NULL.         -999.25                        : NULL_VALUE
WELL.         MANNVILLE ET AL PETER 09-34    : Well_name    - WELL              
LOC .         09-34-072-01W5                 : Location     - LOCATION          
UWI .         00/09-34-072-01W5/0            : Uwi          - UNIQUE WELL ID    
ENTR.         JAYE                           : Entered      - ENTERED BY        
SRVC.         WESTERN ATLAS                  : Scn          - SERVICE COMPANY   
DATE.         7 SEPT 80                      : Date         - LOG DATE          
STRT.M        440                            : top_depth    - START DEPTH       
STOP.M        695                            : bot_depth    - STOP DEPTH        
STEP.M        0.25                           : increment    - STEP LENGTH       
~CURVE INFORMATION BLOCK
#MNEM UNIT       ERCB CURVE CODE    CURVE DESCRIPTION
#-----------   ------------------   ----------------------------------
DEPT.M        00 001 00 00         : DEPTH        - DEPTH                       
DPHI.V/V      00 890 00 00         : PHID         - DENSITY POROSITY (SANDSTONE)
NPHI.V/V      00 330 00 00         : PHIN         - NEUTRON POROSITY (SANDSTONE)
GR  .API      00 310 00 00         : GR           - GAMMA RAY                   
CALI.MM       00 280 01 00         : CAL          - CALIPER                     
ILD .OHMM     00 120 00 00         : RESD         - DEEP RESISTIVITY (DIL)      
~PARAMETER INFORMATION       
#MNEM.UNIT           DATA             DESCRIPTION OF MNEMONIC
#---------         -----------     ------------------------------
GL  .M        651.1                : gl           - GROUND LEVEL ELEVATION      
EREF.M        654                  : kb           - ELEVATION OF DEPTH REFERENCE
DATM.M        651.1                : datum        - DATUM ELEVATION             
TDD .M        696                  : tdd          - TOTAL DEPTH DRILLER         
RUN .         ONE                  : Run          - RUN NUMBER                  
ENG .         IRELAND              : Engineer     - RECORDING ENGINEER          
WIT .         KELLY                : Witness      - WITNESSED BY                
BASE.         EDM                  : Branch       - HOME BASE OF LOGGING UNIT   
MUD .         GEL-CHEM             : Mud_type     - MUD TYPE                    
MATR.         SANDSTONE            : Logunit      - NEUTRON MATRIX              
TMAX.C        27.1                 : BHT          - MAXIMUM RECORDED TEMPERATURE
BHTD.M        697                  : BHTDEP       - MAXIMUM RECORDED TEMPERATURE
RMT .C        21.6                 : MDTP         - TEMPERATURE OF MUD          
MUDD.KG/M     1210                 : MWT          - MUD DENSITY                 
NEUT.         1                    : NEUTRON      - NEUTRON TYPE                
RESI.         0                    : RESIST       - RESISTIVITY TYPE            
RM  .OHMM     1.84                 : RM           - RESISTIVITY OF MUD          
RMC .OHMM     0                    : RMC          - RESISTIVITY OF MUD CAKE     
RMF .OHMM     1.47                 : RMF          - RESISTIVITY OF MUD FILTRATE 
SUFT.C        32                   : SUFT         - SURFACE TEMPERATURE         
~A  DEPTH     PHID     PHIN       GR      CAL     RESD
# ...
  659.000    0.066    0.212   30.892  158.038   10.751
  659.250    0.094    0.268   34.183  157.615    8.955
  659.500    0.130    0.279   36.044  157.399    9.369
  659.750    0.108    0.244   37.904  157.907   10.137
  660.000    0.074    0.206   41.009  159.041   11.157
  660.250    0.049    0.227   45.792  160.898   12.047
  660.500    0.078    0.268   52.442  161.511   12.985
  660.750    0.098    0.289   50.758  161.192   14.026
  661.000    0.071    0.235   34.708  160.873   14.978
  661.250    0.049    0.182   41.605  161.175   16.022
  661.500    0.046    0.164   54.224  161.789   16.479
  661.750    0.060    0.225   69.954  162.401   14.146
  662.000    0.083    0.273   80.831  162.704   11.739
  662.250    0.110    0.305   75.602  162.593   10.307
  662.500    0.124    0.325   69.938  162.584    9.797
  662.750    0.153    0.316   73.104  162.575   10.209
  663.000    0.153    0.345   65.077  162.670   10.597
  663.250    0.106    0.330   55.184  162.662   11.022
  663.500    0.057    0.259   60.590  162.757   11.185
  663.750    0.077    0.268   84.651  162.852   10.976
  664.000    0.105    0.297   92.482  162.843   10.235
  664.250    0.132    0.339   88.000  162.836    8.903
  664.500    0.150    0.351   84.636  163.034    8.073
  664.750    0.169    0.337   82.828  163.026    7.641
  665.000    0.152    0.321   87.362  163.329    7.358
  665.250    0.133    0.305   94.820  163.423    7.358
  665.500    0.129    0.324  101.842  163.726    7.594
  665.750    0.147    0.361   85.482  164.028    8.420
  666.000    0.161    0.386   67.877  164.227   10.009
  666.250    0.148    0.185   49.651  164.323   13.753
  666.500    0.113    0.135   32.606  164.416   19.550
  666.750    0.012    0.109   25.201  164.409   25.391
  667.000   -0.005    0.088   25.506  164.401   30.070
  667.250    0.007    0.090   33.337  164.392   33.531
  667.500    0.026    0.108   40.110  164.487   37.959
  667.750    0.002    0.130   46.449  164.685   49.865
  668.000   -0.003    0.172   52.911  165.093   55.700
  668.250    0.016    0.193   60.680  166.224   45.448
  668.500    0.029    0.220   68.759  167.045   32.565
  668.750   -0.002    0.238   77.150  167.969   22.560
  669.000   -0.001    0.255   87.841  168.791   16.473
  669.250    0.044    0.277  124.340  169.715   10.805
  669.500    0.127    0.321  129.746  170.432    7.993
  669.750    0.171    0.379  136.146  171.045    5.476
  670.000    0.161    0.401  132.658  171.451    3.368
  670.250    0.141    0.406  126.186  171.858    0.779
  670.500    0.126    0.418  117.288  171.953    0.464
  670.750    0.112    0.401  119.335  171.115    0.467
  671.000    0.114    0.371  126.855  166.546    0.575
  671.250    0.142    0.381  120.506  161.251    0.888
  671.500    0.150    0.419  108.810  162.072    4.285
  671.750    0.142    0.281   91.144  164.447    5.314
  672.000    0.126    0.247   96.362  166.823    6.142
  672.250    0.138    0.278  102.700  163.187    6.072
  672.500    0.140    0.299  109.349  161.210    6.116
  672.750    0.143    0.316  118.299  163.688    6.000
  673.000    0.139    0.311  112.573  165.959    5.210
  673.250    0.137    0.305  106.473  166.678    4.822
  673.500    0.142    0.324   97.451  164.595    4.514
  673.750    0.154    0.325   93.217  162.308    4.282
  674.000    0.168    0.319   89.978  160.951    4.225
  674.250    0.174    0.310   88.107  160.734    4.272
  674.500    0.138    0.304   85.802  161.141    4.469
  674.750    0.118    0.287   82.563  161.547    4.728
  675.000    0.104    0.274   81.749  161.954    5.049
  675.250    0.094    0.259   85.164  162.257    5.421
  675.500    0.112    0.267   94.737  163.387    5.670
  675.750    0.145    0.290  105.428  164.727    5.636
  676.000    0.163    0.326  114.067  167.828    5.458
  676.250    0.096    0.345  124.510  172.277    4.958
  676.500    0.038    0.377  114.554  172.165    4.402
  676.750   -0.003    0.442  108.642  169.254    4.207
  677.000    0.035    0.403  113.176  168.105    4.368
  677.250    0.081    0.369  117.027  168.511    4.630
  677.500    0.106    0.335  122.867  169.435    4.915
  677.750    0.095    0.340  127.838  170.360    5.339
  678.000    0.093    0.357  125.344  171.180    5.319
  678.250    0.078    0.376  111.596  166.612    4.894
  678.500    0.058    0.406   99.091  163.287    4.257
  678.750    0.035    0.346  102.880  165.454    4.280
  679.000    0.069    0.300  114.068  167.002    4.512
  679.250    0.109    0.308  120.655  167.614    4.835
  679.500    0.110    0.331  121.272  167.710    5.292
  679.750    0.105    0.349  118.655  168.013    5.780
  680.000    0.093    0.370  119.334  168.211    6.254
  680.250    0.065    0.327  125.983  168.203    4.566
  680.500    0.036    0.364  128.714  168.090    3.404
  680.750    0.008    0.437  122.926  168.081    3.259
  681.000    0.071    0.404  124.040  168.073    2.509
  681.250    0.108    0.369  128.637  168.687    2.348
  681.500    0.098    0.368  128.508  169.715    1.787
  681.750    0.057    0.412  119.734  169.603    1.288
  682.000    0.024    0.459  126.072  168.765    1.112
  682.250    0.030    0.478  137.510  167.824    1.054
  682.500    0.082    0.477  144.345  166.572    1.120
  682.750    0.106    0.486  117.288  164.594    1.542
  683.000    0.133    0.493   84.945  160.958    2.114
  683.250    0.172    0.373   42.217  160.327    3.690
  683.500    0.224    0.346   27.099  160.837    4.084
  683.750    0.228    0.306   38.972  161.140    3.421
  684.000    0.198    0.288   46.119  161.234    3.263
  684.250    0.182    0.276   50.094  161.227    3.478
  684.500    0.168    0.275   54.007  160.906    3.981
  684.750    0.154    0.277   58.788  160.588    4.349
  685.000    0.139    0.275   64.071  160.267    4.734
  685.250    0.145    0.270   71.031  160.052    4.813
  685.500    0.161    0.327   67.482  160.044    4.249
  685.750    0.162    0.375   52.551  160.036    3.034
  686.000    0.200    0.360   36.999  159.716    2.457
  686.250    0.280    0.347   32.330  159.397    2.012
  686.500    0.252    0.293   42.400  159.180    2.030
  686.750    0.192    0.277   49.048  159.069    2.269
  687.000    0.161    0.269   55.199  159.268    2.682
  687.250    0.142    0.261   54.075  159.674    3.348
  687.500    0.146    0.246   50.712  159.977    4.040
  687.750    0.163    0.233   54.998  161.109    4.714
  688.000    0.145    0.224   95.603  163.588    5.158
  688.250    0.111    0.250  113.383  172.700    5.582
  688.500    0.068    0.282   97.831  171.446    5.870
  688.750    0.087    0.304   72.640  166.672    5.312
  689.000    0.134    0.328   59.139  159.718    4.368
  689.250    0.185    0.363   38.301  158.984    3.583
  689.500    0.253    0.405   31.514  158.975    2.985
  689.750    0.287    0.378   31.761  159.277    2.820
  690.000    0.277    0.325   32.502  159.580    3.740
  690.250    0.193    0.288   34.549  159.780    5.561
  690.500    0.083    0.291   36.348  159.875   11.960
  690.750    0.049    0.212   29.813  160.177   16.037
  691.000    0.026    0.132   26.326  160.479   17.882
  691.250   -0.016    0.143   24.330  160.679   17.813
  691.500    0.044    0.202   23.144  160.981   15.672
  691.750    0.077    0.257   21.957  161.076   11.443
  692.000    0.097    0.293   20.584  160.964   10.066
  692.250    0.104    0.291   18.712  161.682    9.857
  692.500    0.106    0.286   17.465  162.606   10.195
  692.750    0.088    0.283   15.655  163.115   11.411
  693.000    0.067    0.283   14.718  163.315   13.116
  693.250    0.065    0.283   13.593  163.098   14.031
  693.500    0.083    0.284   12.655  162.986   15.181
  693.750    0.100    0.284   11.718  162.875   16.395
  694.000    0.096    0.284   11.028  162.763   15.205
  694.250    0.104    0.284   10.774  162.443   13.603
  694.500    0.129    0.284   10.645  161.812   12.638
  694.750    0.113    0.285   10.578  161.287   12.101
  695.000    0.100    0.285   10.448  160.449   11.764
