~VERSION INFORMATION
 VERS.                 2.0:   CWLS LOG ASCII STANDARD -VERSION 2.0
 WRAP.                  NO:   ONE LINE PER DEPTH STEP
~WELL INFORMATION BLOCK
#MNEM.UNIT           DATA                    DESCRIPTION OF MNEMONIC
#---------    -------------------            -------------------------------
# Generated from Intellog Unique Number	CW_79_81/WELL/2453
WELL.         06-24-081-23W4                 : Well_name    - WELL
LOC .         00/06-24-081-23W4/0            : Location     - LOCATION
UWI .         00/06-24-081-23W4/0            : Uwi          - UNIQUE WELL ID
ENTR.         MAX                            : Entered      - ENTERED BY
SRVC.         WESTERN ATLAS                  : Scn          - SERVICE COMPANY
STRT.M        200                            : top_depth    - START DEPTH
STOP.M        452                            : bot_depth    - STOP DEPTH
STEP.M        0.25                           : increment    - STEP LENGTH
 NULL. -999.2500:NULL Value
~CURVE INFORMATION BLOCK
#MNEM UNIT       ERCB CURVE CODE    CURVE DESCRIPTION
#-----------   ------------------   ----------------------------------
DEPT.M        00 001 00 00         : DEPTH        - DEPTH
ILD .OHMM     00 120 00 00         : RESD         - DEEP RESISTIVITY (DIL)
NPHI.V/V      00 330 00 00         : PHIN         - NEUTRON POROSITY (SANDSTONE)
DPHI.V/V      00 890 00 00         : PHID         - DENSITY POROSITY (SANDSTONE)
GR  .API      00 310 00 00         : GR           - GAMMA RAY
CALI.MM       00 280 01 00         : CAL          - CALIPER
~PARAMETER INFORMATION
#MNEM.UNIT           DATA             DESCRIPTION OF MNEMONIC
#---------         -----------     ------------------------------
GL  .M        610                  : gl           - GROUND LEVEL ELEVATION
EREF.M        614.3                : kb           - ELEVATION OF DEPTH REFERENCE
DATM.M        610                  : datum        - DATUM ELEVATION
TDD .M        458.5                : tdd          - TOTAL DEPTH DRILLER
RUN .         ONE                  : Run          - RUN NUMBER
ENG .         BILL                 : Engineer     - RECORDING ENGINEER
WIT .         JIM                  : Witness      - WITNESSED BY
MUD .         GEL                  : Mud_type     - MUD TYPE
MATR.         SANDSTONE            : Logunit      - NEUTRON MATRIX
TMAX.C        28                   : BHT          - MAXIMUM RECORDED TEMPERATURE
BHTD.M        458.5                : BHTDEP       - MAXIMUM RECORDED TEMPERATURE
MATR.         1                    : LOGUNIT      - NEUTRON MATRIX
RMT .C        15                   : MDTP         - TEMPERATURE OF MUD
NEUT.         1                    : NEUTRON      - NEUTRON TYPE
RESI.         0                    : RESIST       - RESISTIVITY TYPE
RMC .OHMM     5.6                  : RMC          - RESISTIVITY OF MUD CAKE
RMF .OHMM     5                    : RMF          - RESISTIVITY OF MUD FILTRATE
SUFT.C        -20                  : SUFT         - SURFACE TEMPERATURE
~A  DEPTH     RESD     PHIN     PHID       GR      CAL
# ...
  309.500   10.414    0.345    0.309   76.219  199.629
  309.750   11.300    0.353    0.285   67.396  200.102
  310.000   12.204    0.363    0.259   62.886  200.270
  310.250   12.927    0.364    0.229   61.737  200.339
  310.500   13.409    0.351    0.195   62.624  200.409
  310.750   13.920    0.325    0.150   64.713  200.483
  311.000   14.376    0.294    0.126   68.997  200.559
  311.250   15.599    0.264    0.119   73.596  200.632
  311.500   18.296    0.240    0.118   71.003  200.706
  311.750   21.560    0.232    0.127   64.814  200.775
  312.000   24.087    0.244    0.143   58.627  200.745
  312.250   24.456    0.264    0.165   56.195  200.357
  312.500   20.594    0.270    0.184   56.994  200.010
  312.750   17.887    0.278    0.212   57.269  199.292
  313.000   15.738    0.286    0.250   57.737  198.569
  313.250   14.130    0.312    0.280   58.981  197.840
  313.500   13.019    0.352    0.293   61.535  197.207
  313.750   12.314    0.379    0.289   66.894  196.889
  314.000   11.962    0.372    0.285   71.931  196.965
  314.250   11.716    0.366    0.287   71.496  197.438
  314.500   11.541    0.364    0.294   71.779  198.210
  314.750   11.430    0.364    0.301   72.664  198.479
  315.000   11.340    0.361    0.308   74.030  198.150
  315.250   11.179    0.357    0.316   75.863  197.845
  315.500   11.109    0.354    0.323   76.403  197.913
  315.750   11.046    0.360    0.328   76.438  197.979
  316.000   10.981    0.359    0.331   75.941  198.056
  316.250   10.915    0.355    0.333   74.428  198.130
  316.500   10.830    0.354    0.331   71.237  198.197
  316.750   10.642    0.363    0.326   65.687  198.284
  317.000   10.417    0.363    0.321   66.486  198.353
  317.250   10.202    0.355    0.315   68.921  198.434
  317.500    9.994    0.355    0.311   72.264  198.215
  317.750    9.790    0.359    0.307   75.423  198.891
  318.000    9.572    0.367    0.306   78.335  200.156
  318.250    9.270    0.384    0.305   82.081  200.224
  318.500    9.075    0.394    0.307   82.626  200.308
  318.750    8.955    0.404    0.312   82.909  200.374
  319.000    8.835    0.413    0.318   82.295  200.446
  319.250    8.652    0.409    0.323   81.260  200.124
  319.500    8.446    0.391    0.324   79.985  199.700
  319.750    8.312    0.367    0.321   77.305  200.256
  320.000    8.199    0.366    0.316   72.115  200.748
  320.250    8.151    0.368    0.312   75.029  200.437
  320.500    8.284    0.370    0.310   77.950  200.409
  320.750    8.574    0.370    0.308   80.150  200.674
  321.000    8.990    0.364    0.305   81.748  200.740
  321.250    9.559    0.344    0.300   84.116  199.292
  321.500    9.947    0.340    0.296   86.153  197.713
  321.750   10.260    0.347    0.285   85.008  196.980
  322.000   10.297    0.356    0.269   83.132  196.547
  322.250   10.236    0.362    0.258   80.895  196.820
  322.500   10.079    0.363    0.252   78.603  197.897
  322.750    9.493    0.363    0.247   76.397  199.750
  323.000    8.745    0.368    0.242   75.948  200.666
  323.250    8.070    0.386    0.230   78.148  201.930
  323.500    7.450    0.408    0.220   80.341  202.894
  323.750    6.960    0.417    0.212   84.456  203.762
  324.000    6.584    0.411    0.208   91.030  204.536
  324.250    6.218    0.400    0.209   99.727  205.028
  324.500    5.996    0.389    0.215  102.268  205.089
  324.750    5.917    0.378    0.223  102.073  204.357
  325.000    5.915    0.364    0.231  103.155  201.974
  325.250    5.814    0.364    0.238  103.177  199.893
  325.500    5.664    0.378    0.246  101.773  198.663
  325.750    5.765    0.391    0.258  100.295  197.508
  326.000    6.087    0.378    0.261   99.019  197.904
  326.250    6.599    0.378    0.257   91.031  198.681
  326.500    7.235    0.367    0.236   87.936  199.160
  326.750    8.242    0.344    0.186   84.658  199.739
  327.000    9.947    0.314    0.124   77.697  200.317
  327.250   13.413    0.288    0.114   64.860  200.116
  327.500   17.573    0.279    0.178   63.585  199.256
  327.750   19.756    0.292    0.261   62.601  198.424
  328.000   19.368    0.322    0.275   64.702  199.403
  328.250   17.678    0.345    0.251   70.850  200.987
  328.500   15.615    0.351    0.214   80.017  202.574
  328.750   12.757    0.339    0.177   89.888  204.494
  329.000   10.313    0.324    0.164   93.396  206.142
  329.250    8.722    0.328    0.163   92.897  206.927
  329.500    8.024    0.343    0.165   94.754  207.100
  329.750    7.733    0.356    0.172   97.277  206.874
  330.000    7.659    0.361    0.185   98.290  205.646
  330.250    7.772    0.358    0.217   95.129  201.738
  330.500    8.078    0.367    0.246   95.109  200.450
  330.750    8.258    0.377    0.256   97.511  202.035
  331.000    8.302    0.381    0.261   99.372  203.018
  331.250    8.300    0.387    0.261  101.532  203.997
  331.500    8.297    0.392    0.257  103.328  205.077
  331.750    8.293    0.372    0.252  101.730  205.942
  332.000    8.292    0.350    0.248   97.436  206.332
  332.250    8.227    0.354    0.245   93.797  206.309
  332.500    8.209    0.363    0.243   93.417  205.982
  332.750    8.237    0.368    0.240   93.159  205.151
  333.000    8.312    0.369    0.237   92.298  204.018
  333.250    8.473    0.384    0.240   92.875  203.100
  333.500    8.670    0.403    0.243   94.621  202.653
  333.750    8.863    0.380    0.242   91.225  202.630
  334.000    9.010    0.366    0.238   89.456  202.603
  334.250    9.109    0.356    0.234   88.715  202.376
  334.500    9.157    0.349    0.230   88.458  202.151
  334.750    9.110    0.344    0.230   88.500  202.693
  335.000    8.899    0.352    0.235   89.997  203.505
  335.250    8.441    0.352    0.238   93.606  205.088
  335.500    8.054    0.348    0.238   98.123  206.072
  335.750    7.699    0.348    0.237  102.337  206.653
  336.000    7.403    0.351    0.238  105.100  206.829
  336.250    7.249    0.350    0.248  104.466  205.807
  336.500    7.303    0.350    0.260  100.172  202.844
  336.750    7.746    0.341    0.268   94.601  201.210
  337.000    8.307    0.323    0.269   85.584  200.780
  337.250    8.979    0.315    0.266   76.505  200.754
  337.500    9.679    0.325    0.264   70.628  200.729
  337.750   10.244    0.353    0.269   70.542  200.693
  338.000   10.482    0.356    0.274   67.757  200.672
  338.250   10.558    0.350    0.275   67.500  200.646
  338.500   10.397    0.351    0.278   66.519  200.922
  338.750   10.241    0.350    0.282   66.746  201.500
  339.000   10.124    0.341    0.282   70.053  202.181
  339.250    9.850    0.325    0.273   79.106  202.641
  339.500    9.621    0.324    0.261   83.371  203.031
  339.750    9.475    0.337    0.248   86.014  203.005
  340.000    9.596    0.349    0.243   83.763  202.677
  340.250    9.918    0.357    0.239   80.002  202.450
  340.500   10.295    0.362    0.235   76.665  202.425
  340.750   10.413    0.373    0.235   74.935  202.399
  341.000   10.249    0.372    0.228   78.443  202.369
  341.250    9.795    0.369    0.216   84.710  202.748
  341.500    9.363    0.358    0.205   89.710  203.126
  341.750    8.986    0.349    0.204   94.407  203.504
  342.000    8.672    0.350    0.210   97.290  203.782
  342.250    8.361    0.359    0.213   93.869  203.751
  342.500    8.104    0.367    0.207   91.337  203.724
  342.750    7.863    0.371    0.216   89.872  203.701
  343.000    7.371    0.364    0.232   91.669  205.486
  343.250    6.840    0.363    0.247   95.642  208.681
  343.500    6.336    0.370    0.255   99.312  212.180
  343.750    5.756    0.375    0.253   98.356  214.165
  344.000    5.368    0.370    0.247   96.073  214.138
  344.250    5.407    0.366    0.241   93.883  214.518
  344.500    5.721    0.355    0.233   90.607  214.593
  344.750    6.183    0.344    0.222   86.123  214.566
  345.000    6.677    0.342    0.210   83.329  214.338
  345.250    7.142    0.355    0.201   88.749  213.000
  345.500    7.423    0.362    0.206   91.753  210.453
  345.750    7.874    0.366    0.209   89.080  207.613
