~VERSION INFORMATION
 VERS.                 2.0:   CWLS LOG ASCII STANDARD -VERSION 2.0
 WRAP.                  NO:   ONE LINE PER DEPTH STEP
~WELL INFORMATION BLOCK
#MNEM.UNIT           DATA                    DESCRIPTION OF MNEMONIC
#---------    -------------------            -------------------------------
# Generated from Intellog Unique Number	CS_77_79/WELL/856
WELL.         CANADIAN WORLDWIDE ENERGY      : Well_name    - WELL
LOC .         00/05-19-077-04W4/0            : Location     - LOCATION
UWI .         00/05-19-077-04W4/0            : Uwi          - UNIQUE WELL ID
ENTR.         SP                             : Entered      - ENTERED BY
SRVC.         SCHLUMBERGER                   : Scn          - SERVICE COMPANY
STRT.M        150                            : top_depth    - START DEPTH
STOP.M        405                            : bot_depth    - STOP DEPTH
STEP.M        0.25                           : increment    - STEP LENGTH
 NULL. -999.2500:NULL Value
~CURVE INFORMATION BLOCK
#MNEM UNIT       ERCB CURVE CODE    CURVE DESCRIPTION
#-----------   ------------------   ----------------------------------
DEPT.M        00 001 00 00         : DEPTH        - DEPTH
ILD .OHMM     00 120 00 00         : RESD         - DEEP RESISTIVITY (DIL)
DPHI.V/V      00 890 00 00         : PHID         - DENSITY POROSITY (LIMESTONE)
NPHI.V/V      00 330 00 00         : PHIN         - NEUTRON POROSITY (LIMESTONE)
GR  .API      00 310 00 00         : GR           - GAMMA RAY
~PARAMETER INFORMATION
#MNEM.UNIT           DATA             DESCRIPTION OF MNEMONIC
#---------         -----------     ------------------------------
GL  .M        563.2                : gl           - GROUND LEVEL ELEVATION
EREF.M        566.2                : kb           - ELEVATION OF DEPTH REFERENCE
DATM.M        563.2                : datum        - DATUM ELEVATION
TDD .M        405.5                : tdd          - TOTAL DEPTH DRILLER
RUN .         ONE                  : Run          - RUN NUMBER
ENG .         BILL                 : Engineer     - RECORDING ENGINEER
WIT .         JIM                  : Witness      - WITNESSED BY
MUD .         GEL                  : Mud_type     - MUD TYPE
MATR.         LIMESTONE            : Logunit      - NEUTRON MATRIX
TMAX.C        24                   : BHT          - MAXIMUM RECORDED TEMPERATURE
BHTD.M        405.5                : BHTDEP       - MAXIMUM RECORDED TEMPERATURE
MATR.         1                    : LOGUNIT      - NEUTRON MATRIX
RMT .C        25                   : MDTP         - TEMPERATURE OF MUD
NEUT.         1                    : NEUTRON      - NEUTRON TYPE
RESI.         0                    : RESIST       - RESISTIVITY TYPE
RMC .OHMM     0.25                 : RMC          - RESISTIVITY OF MUD CAKE
RMF .OHMM     0.25                 : RMF          - RESISTIVITY OF MUD FILTRATE
SUFT.C        15                   : SUFT         - SURFACE TEMPERATURE
~A  DEPTH     RESD     PHID     PHIN       GR
# ...
  280.500   10.952    0.237    0.380   70.443
  280.750   11.828    0.196    0.353   66.150
  281.000   12.530    0.184    0.339   64.326
  281.250   13.280    0.228    0.350   67.444
  281.500   13.541    0.268    0.357   71.176
  281.750   13.307    0.284    0.398   73.062
  282.000   13.067    0.292    0.410   73.714
  282.250   12.587    0.287    0.420   74.346
  282.500   11.898    0.280    0.424   76.851
  282.750   11.040    0.255    0.429   76.877
  283.000   10.637    0.256    0.439   76.282
  283.250   10.448    0.270    0.453   75.080
  283.500   10.259    0.279    0.436   75.733
  283.750   10.078    0.277    0.426   76.367
  284.000    9.897    0.280    0.431   78.254
  284.250    9.720    0.282    0.432   79.515
  284.500    9.367    0.275    0.431   79.539
  284.750    9.198    0.270    0.427   80.185
  285.000    8.863    0.265    0.426   83.309
  285.250    8.538    0.257    0.432   85.196
  285.500    8.383    0.237    0.443   85.831
  285.750    7.926    0.221    0.452   87.718
  286.000    7.784    0.216    0.445   88.978
  286.250    7.648    0.221    0.445   90.236
  286.500    7.799    0.226    0.450   92.129
  286.750    7.806    0.227    0.453   92.766
  287.000    7.961    0.233    0.445   92.787
  287.250    8.437    0.240    0.430   90.348
  287.500    8.604    0.242    0.425   88.526
  287.750    8.947    0.249    0.421   86.707
  288.000    9.125    0.255    0.420   85.509
  288.250    9.309    0.264    0.437   84.916
  288.500    9.494    0.270    0.455   84.320
  288.750    8.977    0.276    0.453   83.114
  289.000    8.023    0.264    0.458   84.373
  289.250    7.729    0.259    0.458   87.493
  289.500    7.305    0.270    0.445   88.142
  289.750    6.907    0.268    0.438   85.086
  290.000    6.655    0.267    0.431   84.491
  290.250    6.412    0.244    0.423   85.757
  290.500    6.064    0.209    0.460   88.257
  290.750    5.843    0.199    0.459   90.132
  291.000    5.524    0.205    0.459   92.013
  291.250    5.426    0.209    0.479   89.578
  291.500    5.328    0.212    0.480   89.602
  291.750    5.133    0.220    0.475   90.247
  292.000    4.947    0.223    0.471   92.123
  292.250    4.860    0.232    0.472   93.386
  292.500    4.681    0.238    0.484   94.043
  292.750    4.427    0.242    0.488   94.066
  293.000    4.108    0.248    0.492   95.942
  293.250    3.958    0.255    0.493   98.443
  293.500    3.814    0.259    0.486  100.936
  293.750    3.816    0.263    0.454   96.029
  294.000    4.044    0.261    0.436   92.976
  294.250    4.367    0.264    0.452   91.157
  294.500    4.626    0.270    0.462   89.940
  294.750    5.190    0.272    0.469   88.744
  295.000    5.711    0.272    0.469   87.530
  295.250    6.165    0.257    0.462   82.007
  295.500    6.916    0.225    0.392   76.478
  295.750    7.758    0.132    0.351   71.565
  296.000    8.374    0.102    0.371   61.716
  296.250    9.574    0.154    0.402   54.956
  296.500    9.580    0.248    0.432   72.890
  296.750    9.232    0.284    0.459   77.851
  297.000    8.248    0.283    0.471   76.040
  297.250    7.651    0.261    0.486   80.999
  297.500    7.233    0.228    0.495   88.430
  297.750    7.103    0.211    0.479   87.847
  298.000    7.111    0.212    0.459   89.104
  298.250    7.254    0.220    0.453   91.611
  298.500    7.259    0.223    0.446   86.695
  298.750    7.407    0.223    0.441   86.117
  299.000    7.412    0.222    0.439   87.369
  299.250    7.279    0.225    0.440   88.640
  299.500    7.284    0.232    0.442   90.520
  299.750    7.022    0.227    0.460   92.394
  300.000    7.026    0.223    0.463   93.653
  300.250    6.899    0.223    0.463   88.126
  300.500    6.778    0.224    0.463   85.687
  300.750    6.782    0.228    0.462   84.481
  301.000    6.917    0.221    0.454   88.227
  301.250    6.925    0.219    0.432   88.861
  301.500    6.929    0.231    0.408   91.361
  301.750    6.805    0.247    0.402   90.157
  302.000    6.682    0.275    0.420   85.246
  302.250    6.321    0.267    0.436   84.045
  302.500    5.975    0.256    0.443   87.779
  302.750    4.854    0.228    0.444   89.653
  303.000    4.253    0.222    0.458   90.299
  303.250    3.657    0.223    0.465   89.093
  303.500    3.205    0.249    0.477   87.269
  303.750    2.756    0.272    0.486   86.066
  304.000    2.461    0.294    0.490   84.858
  304.250    2.199    0.299    0.498   84.261
  304.500    2.079    0.283    0.511   85.531
  304.750    2.080    0.283    0.509   86.807
  305.000    2.083    0.292    0.499   87.445
  305.250    2.124    0.307    0.498   86.854
  305.500    2.126    0.305    0.502   85.638
  305.750    2.253    0.289    0.506   88.150
  306.000    2.298    0.286    0.507   89.402
  306.250    2.434    0.275    0.503   91.910
  306.500    2.679    0.265    0.498   93.172
  306.750    3.006    0.259    0.495   92.577
  307.000    3.184    0.249    0.485   90.751
  307.250    3.640    0.232    0.480   85.842
  307.500    4.082    0.225    0.467   85.873
  307.750    4.580    0.226    0.449   89.604
  308.000    4.759    0.225    0.418   92.714
  308.250    5.042    0.210    0.391   91.513
  308.500    5.343    0.196    0.406   86.602
  308.750    5.554    0.190    0.407   82.927
  309.000    5.559    0.216    0.408   82.959
  309.250    5.256    0.238    0.406   84.844
  309.500    4.969    0.241    0.425   86.098
  309.750    4.698    0.238    0.445   89.841
  310.000    4.361    0.237    0.436   92.942
  310.250    4.281    0.235    0.425   97.910
  310.500    4.125    0.234    0.435   93.009
  310.750    4.051    0.232    0.444   94.271
  311.000    3.903    0.228    0.452   97.387
  311.250    3.763    0.222    0.446   99.263
  311.500    3.765    0.223    0.436   98.671
  311.750    3.696    0.228    0.451   98.081
  312.000    3.563    0.228    0.464  100.580
  312.250    3.499    0.228    0.468  103.705
  312.500    3.436    0.226    0.471  103.721
  312.750    3.374    0.228    0.461  100.056
  313.000    3.575    0.231    0.453  100.075
  313.250    3.934    0.231    0.449  100.106
  313.500    4.762    0.229    0.444   95.198
  313.750    5.044    0.227    0.446   90.903
  314.000    5.658    0.225    0.429   89.086
  314.250    6.109    0.216    0.407   90.340
  314.500    6.724    0.210    0.396   90.373
  314.750    7.123    0.200    0.392   86.085
  315.000    7.992    0.173    0.388   78.708
  315.250    8.306    0.109    0.370   70.704
  315.500    9.142    0.110    0.334   66.411
  315.750    9.872    0.222    0.329   68.912
  316.000   10.259    0.285    0.319   73.874
  316.250   10.869    0.301    0.312   72.669
  316.500   12.197    0.305    0.302   70.858
  316.750   12.675    0.302    0.296   70.873
  317.000   13.431    0.308    0.292   77.076
  317.250   13.962    0.318    0.281   78.341
  317.500   14.792    0.319    0.275   75.897
  317.750   15.672    0.303    0.269   75.308
  318.000   15.391    0.295    0.278   77.818
  318.250   12.989    0.286    0.298   78.456
  318.500   11.823    0.278    0.321   78.485
  318.750   10.360    0.287    0.335   76.050
  319.000    8.909    0.281    0.349   72.381
  319.250    7.516    0.279    0.369   71.159
  319.500    6.340    0.279    0.406   72.429
  319.750    5.054    0.257    0.433   81.100
  320.000    5.058    0.248    0.454   90.396
  320.250    5.359    0.253    0.469   92.879
  320.500    6.013    0.242    0.447   91.679
  320.750    6.615    0.233    0.394   88.618
  321.000    8.162    0.229    0.361   81.242
  321.250    8.978    0.226    0.322   77.565
  321.500   10.068    0.232    0.288   75.746
  321.750   11.955    0.233    0.286   74.532
  322.000   12.910    0.234    0.288   73.338
  322.250   13.944    0.249    0.284   72.125
  322.500   14.771    0.246    0.277   69.680
  322.750   15.355    0.241    0.269   66.625
  323.000   16.585    0.236    0.255   68.504
  323.250   17.234    0.249    0.234   68.533
  323.500   18.966    0.277    0.218   64.238
  323.750   21.685    0.286    0.209   66.123
