~VERSION INFORMATION
 VERS.                 2.0:   CWLS LOG ASCII STANDARD -VERSION 2.0
 WRAP.                  NO:   ONE LINE PER DEPTH STEP
~WELL INFORMATION BLOCK
#MNEM.UNIT           DATA                    DESCRIPTION OF MNEMONIC
#---------    -------------------            -------------------------------
# Generated from Intellog Unique Number	CS_77_79/WELL/919
WELL.         NOVALTA WINEFRED               : Well_name    - WELL
LOC .         00/08-17-078-03W4/0            : Location     - LOCATION
UWI .         00/08-17-078-03W4/0            : Uwi          - UNIQUE WELL ID
ENTR.         JHS                            : Entered      - ENTERED BY
SRVC.         SCHLUMBERGER                   : Scn          - SERVICE COMPANY
STRT.M        150                            : top_depth    - START DEPTH
STOP.M        430                            : bot_depth    - STOP DEPTH
STEP.M        0.25                           : increment    - STEP LENGTH
 NULL. -999.2500:NULL Value
~CURVE INFORMATION BLOCK
#MNEM UNIT       ERCB CURVE CODE    CURVE DESCRIPTION
#-----------   ------------------   ----------------------------------
DEPT.M        00 001 00 00         : DEPTH        - DEPTH
DPHI.V/V      00 890 00 00         : PHID         - DENSITY POROSITY (LIMESTONE)
NPHI.V/V      00 330 00 00         : PHIN         - NEUTRON POROSITY (LIMESTONE)
GR  .API      00 310 00 00         : GR           - GAMMA RAY
ILD .OHMM     00 120 00 00         : RESD         - DEEP RESISTIVITY (DIL)
RHOB.KG/M3    00 350 00 00         : DENS         - BULK DENSITY
~PARAMETER INFORMATION
#MNEM.UNIT           DATA             DESCRIPTION OF MNEMONIC
#---------         -----------     ------------------------------
GL  .M        567                  : gl           - GROUND LEVEL ELEVATION
EREF.M        570                  : kb           - ELEVATION OF DEPTH REFERENCE
DATM.M        570                  : datum        - DATUM ELEVATION
TDD .M        428                  : tdd          - TOTAL DEPTH DRILLER
RUN .         ONE                  : Run          - RUN NUMBER
ENG .         BILL                 : Engineer     - RECORDING ENGINEER
WIT .         JIM                  : Witness      - WITNESSED BY
MUD .         GEL                  : Mud_type     - MUD TYPE
MATR.         LIMESTONE            : Logunit      - NEUTRON MATRIX
TMAX.C        25                   : BHT          - MAXIMUM RECORDED TEMPERATURE
BHTD.M        428                  : BHTDEP       - MAXIMUM RECORDED TEMPERATURE
MATR.         1                    : LOGUNIT      - NEUTRON MATRIX
RMT .C        25                   : MDTP         - TEMPERATURE OF MUD
NEUT.         1                    : NEUTRON      - NEUTRON TYPE
RESI.         0                    : RESIST       - RESISTIVITY TYPE
RMC .OHMM     0.25                 : RMC          - RESISTIVITY OF MUD CAKE
RMF .OHMM     0.25                 : RMF          - RESISTIVITY OF MUD FILTRATE
SUFT.C        15                   : SUFT         - SURFACE TEMPERATURE
~A  DEPTH     PHID     PHIN       GR     RESD     DENS
# ...
  405.500    0.158    0.352  101.886    5.716 2439.810
  405.750    0.153    0.333   86.887    5.611 2448.070
  406.000    0.157    0.318   74.288    5.308 2441.860
  406.250    0.180    0.301   52.089    4.839 2402.550
  406.500    0.225    0.296   38.891    4.252 2326.000
  406.750    0.233    0.300   39.492    3.535 2311.520
  407.000    0.235    0.298   41.293    3.164 2307.370
  407.250    0.238    0.295   41.294    2.884 2303.230
  407.500    0.249    0.303   37.695    2.729 2284.600
  407.750    0.257    0.308   34.096    2.679 2270.110
  408.000    0.243    0.303   38.298    2.779 2294.930
  408.250    0.226    0.302   42.499    2.884 2323.880
  408.500    0.214    0.306   44.900    2.992 2344.560
  408.750    0.213    0.302   44.301    3.104 2346.620
  409.000    0.219    0.302   41.302    3.047 2336.270
  409.250    0.240    0.310   38.903    2.883 2299.030
  409.500    0.252    0.315   35.905    2.727 2278.330
  409.750    0.245    0.321   37.705    2.628 2290.740
  410.000    0.243    0.324   43.107    2.580 2294.870
  410.250    0.246    0.309   44.308    2.628 2288.650
  410.500    0.245    0.298   41.909    2.628 2290.710
  410.750    0.245    0.295   39.510    2.486 2290.700
  411.000    0.269    0.318   34.711    2.309 2249.330
  411.250    0.300    0.342   29.913    2.144 2197.610
  411.500    0.313    0.344   26.314    1.955 2174.840
  411.750    0.318    0.343   23.915    1.782 2166.560
  412.000    0.320    0.344   22.116    1.686 2162.420
  412.250    0.323    0.347   20.917    1.595 2158.270
  412.500    0.321    0.353   18.518    1.537 2160.330
  412.750    0.324    0.347   19.120    1.537 2156.190
  413.000    0.336    0.341   19.121    1.509 2135.490
  413.250    0.344    0.347   18.521    1.481 2121.010
  413.500    0.344    0.344   17.323    1.427 2121.000
  413.750    0.344    0.338   17.924    1.375 2120.990
  414.000    0.352    0.353   18.526    1.350 2108.570
  414.250    0.359    0.394   17.326    1.350 2096.150
  414.500    0.355    0.376   14.928    1.325 2102.350
  414.750    0.346    0.365   15.528    1.375 2118.890
  415.000    0.337    0.361   17.330    1.480 2133.360
  415.250    0.324    0.324   19.731    1.594 2156.110
  415.500    0.301    0.324   29.932    1.780 2195.400
  415.750    0.286    0.338   50.333    1.952 2220.210
  416.000    0.279    0.392   68.934    2.181 2232.620
  416.250    0.267    0.453   79.136    2.482 2253.300
  416.500    0.225    0.451   66.537    3.155 2325.690
  416.750    0.126    0.365   56.938    3.866 2495.300
  417.000    0.101    0.337   83.339    4.915 2536.660
  417.250    0.104    0.340   92.940    5.593 2532.520
  417.500    0.136    0.348   82.741    5.911 2476.660
  417.750    0.202    0.347   65.942    5.802 2364.950
  418.000    0.227    0.336   53.343    5.591 2321.500
  418.250    0.224    0.325   43.745    5.290 2327.700
  418.500    0.215    0.318   40.746    4.913 2342.170
  418.750    0.210    0.313   39.547    4.479 2350.440
  419.000    0.219    0.326   36.548    4.160 2335.950
  419.250    0.256    0.325   32.349    3.522 2271.820
  419.500    0.260    0.318   36.550    3.153 2265.600
  419.750    0.261    0.334   38.352    2.928 2263.530
  420.000    0.245    0.342   34.753    3.038 2290.410
  420.250    0.135    0.326   37.154    3.270 2478.640
  420.500    0.111    0.317   44.955    3.521 2520.000
  420.750    0.145    0.320   61.756    4.081 2462.080
  421.000    0.268    0.397   83.957    4.476 2251.080
  421.250    0.239    0.423   98.959    5.000    0.000
  421.500    0.104    0.376  105.560    5.383    0.000
  421.750    0.086    0.392  108.561    5.689    0.000
  422.000    0.111    0.438  113.362    5.689    0.000
  422.250    0.109    0.391  113.964    5.382    0.000
  422.500    0.072    0.187  113.964    5.092    0.000
  422.750    0.030    0.174  113.965    5.091    0.000
  423.000    0.005    0.162  114.567    5.687    0.000
  423.250    0.000    0.151  110.968    6.354    0.000
  423.500    0.000    0.144  108.569    8.228    0.000
  423.750    0.005    0.140  109.170   10.655    0.000
  424.000    0.023    0.140  108.571   15.133    0.000
  424.250    0.028    0.147  109.773   19.238    0.000
  424.500    0.028    0.151  112.174   21.892    0.000
  424.750    0.028    0.152  113.375   23.138    0.000
  425.000    0.023    0.149  113.376   23.136    0.000
  425.250    0.018    0.144  110.377   22.296    0.000
  425.500    0.022    0.144  109.778   21.092    0.000
  425.750    0.030    0.146  110.379   20.704    0.000
  426.000    0.035    0.148  113.381   19.952    0.000
  426.250    0.034    0.149  115.182   19.951    0.000
  426.500    0.024    0.149  112.183   19.584    0.000
  426.750    0.024    0.148  112.184   19.583    0.000
  427.000    0.036    0.146  113.985   19.947    0.000
  427.250    0.045    0.148  114.587   19.945    0.000
  427.500    0.051    0.150  110.987   19.944    0.000
  427.750    0.053    0.152   93.588   20.314    0.000
  428.000    0.059    0.152   54.590   20.313    0.000
  428.250    0.064    0.154   34.791   21.076    0.000
  428.500    0.065    0.154   15.592   21.467    0.000
  428.750    0.059    0.154   12.593   23.543    0.000
  429.000    0.053    0.156   11.394   26.790    0.000
  429.250    0.053    0.158   11.395   28.314    0.000
  429.500    0.058    0.156   11.397   29.925    0.000
  429.750    0.062    0.152   11.998   30.481    0.000
  430.000    0.060    0.149   11.999   31.626    0.000
