~VERSION INFORMATION
 VERS.                 2.0:   CWLS LOG ASCII STANDARD -VERSION 2.0
 WRAP.                  NO:   ONE LINE PER DEPTH STEP
~WELL INFORMATION BLOCK
#MNEM.UNIT           DATA                    DESCRIPTION OF MNEMONIC
#---------    -------------------            -------------------------------
# Generated from Intellog Unique Number	CS_69_70/WELL/781
NULL.         -999.25                        : NULL_VALUE
WELL.         SULPETRO LIMITED               : Well_name    - WELL              
LOC .         00/06-28-070-10W4/0            : Location     - LOCATION          
UWI .         00/06-28-070-10W4/0            : Uwi          - UNIQUE WELL ID    
ENTR.         SP                             : Entered      - ENTERED BY        
SRVC.         SCHLUMBERGER                   : Scn          - SERVICE COMPANY   
STRT.M        290                            : top_depth    - START DEPTH       
STOP.M        510                            : bot_depth    - STOP DEPTH        
STEP.M        0.25                           : increment    - STEP LENGTH       
~CURVE INFORMATION BLOCK
#MNEM UNIT       ERCB CURVE CODE    CURVE DESCRIPTION
#-----------   ------------------   ----------------------------------
DEPT.M        00 001 00 00         : DEPTH        - DEPTH                       
DPHI.V/V      00 890 00 00         : PHID         - DENSITY POROSITY (LIMESTONE)
NPHI.V/V      00 330 00 00         : PHIN         - NEUTRON POROSITY (LIMESTONE)
GR  .API      00 310 00 00         : GR           - GAMMA RAY                   
ILD .OHMM     00 120 00 00         : RESD         - DEEP RESISTIVITY (DIL)      
~PARAMETER INFORMATION       
#MNEM.UNIT           DATA             DESCRIPTION OF MNEMONIC
#---------         -----------     ------------------------------
GL  .M        633.84               : gl           - GROUND LEVEL ELEVATION      
EREF.M        630.84               : kb           - ELEVATION OF DEPTH REFERENCE
DATM.M        633.84               : datum        - DATUM ELEVATION             
TDD .M        518                  : tdd          - TOTAL DEPTH DRILLER         
RUN .         ONE                  : Run          - RUN NUMBER                  
ENG .         BILL                 : Engineer     - RECORDING ENGINEER          
WIT .         JIM                  : Witness      - WITNESSED BY                
MUD .         GEL                  : Mud_type     - MUD TYPE                    
MATR.         LIMESTONE            : Logunit      - NEUTRON MATRIX              
TMAX.C        27                   : BHT          - MAXIMUM RECORDED TEMPERATURE
BHTD.M        518                  : BHTDEP       - MAXIMUM RECORDED TEMPERATURE
MATR.         1                    : LOGUNIT      - NEUTRON MATRIX              
RMT .C        25                   : MDTP         - TEMPERATURE OF MUD          
NEUT.         1                    : NEUTRON      - NEUTRON TYPE                
RESI.         0                    : RESIST       - RESISTIVITY TYPE            
RMC .OHMM     0.25                 : RMC          - RESISTIVITY OF MUD CAKE     
RMF .OHMM     0.25                 : RMF          - RESISTIVITY OF MUD FILTRATE 
SUFT.C        15                   : SUFT         - SURFACE TEMPERATURE         
~A  DEPTH     PHID     PHIN       GR     RESD
# ...
  464.000    0.260    0.369   68.279   10.966
  464.250    0.249    0.375   70.181    9.961
  464.500    0.247    0.376   72.022    8.835
  464.750    0.245    0.345   72.638    8.223
  465.000    0.240    0.330   72.890    7.653
  465.250    0.229    0.318   75.708    7.418
  465.500    0.227    0.321   78.466    6.881
  465.750    0.233    0.325   80.978    6.806
  466.000    0.237    0.350   82.942    6.601
  466.250    0.235    0.368   84.109    6.472
  466.500    0.230    0.375   82.771    6.380
  466.750    0.228    0.359   83.205    6.349
  467.000    0.232    0.342   86.635    6.353
  467.250    0.217    0.339   91.837    6.380
  467.500    0.191    0.376   98.507    6.409
  467.750    0.186    0.435  109.699    6.582
  468.000    0.178    0.433   95.463    6.835
  468.250    0.186    0.370   69.063    7.808
  468.500    0.198    0.336   56.417    8.122
  468.750    0.214    0.319   48.172    8.740
  469.000    0.241    0.330   47.261    8.890
  469.250    0.268    0.324   53.870    9.063
  469.500    0.279    0.314   60.723    8.642
  469.750    0.264    0.305   66.598    7.909
  470.000    0.246    0.297   71.066    7.499
  470.250    0.227    0.291   75.290    7.217
  470.500    0.206    0.333   77.559    7.129
  470.750    0.198    0.341   75.242    7.226
  471.000    0.207    0.310   63.390    7.339
  471.250    0.187    0.283   65.781    7.510
  471.500    0.169    0.270   76.546    7.729
  471.750    0.157    0.282   85.660    8.073
  472.000    0.160    0.293   92.940    8.289
  472.250    0.165    0.325   98.203    8.803
  472.500    0.174    0.367   84.823    9.349
  472.750    0.192    0.384   71.566    9.800
  473.000    0.227    0.370   60.081   10.330
  473.250    0.257    0.328   59.354   10.669
  473.500    0.264    0.345   58.691   10.460
  473.750    0.269    0.360   58.084    9.310
  474.000    0.274    0.371   54.851    8.318
  474.250    0.272    0.348   52.290    7.323
  474.500    0.258    0.323   55.414    6.878
  474.750    0.227    0.305   59.947    6.437
  475.000    0.218    0.305   61.663    6.194
  475.250    0.204    0.304   64.665    6.051
  475.500    0.195    0.303   68.340    6.021
  475.750    0.184    0.291   70.117    6.208
  476.000    0.184    0.287   71.163    6.377
  476.250    0.184    0.302   72.331    6.426
  476.500    0.189    0.321   74.782    6.491
  476.750    0.190    0.325   74.911    6.484
  477.000    0.184    0.309   79.930    6.428
  477.250    0.177    0.296   87.700    6.325
  477.500    0.170    0.297   93.942    6.201
  477.750    0.161    0.311   98.471    6.004
  478.000    0.151    0.311  102.267    5.995
  478.250    0.143    0.303   98.667    5.922
  478.500    0.142    0.301   99.040    5.829
  478.750    0.143    0.316  102.226    5.790
  479.000    0.145    0.340  103.393    5.740
  479.250    0.143    0.350  103.828    5.701
  479.500    0.138    0.356  103.284    5.682
  479.750    0.136    0.344  100.602    5.654
  480.000    0.138    0.337   97.369    5.628
  480.250    0.136    0.336   99.882    5.621
  480.500    0.133    0.345   99.949    5.626
  480.750    0.128    0.355   98.550    5.639
  481.000    0.125    0.355   98.435    5.642
  481.250    0.125    0.330   97.829    5.667
  481.500    0.126    0.316   95.575    5.672
  481.750    0.138    0.350   95.764    5.717
  482.000    0.152    0.369   95.404    5.775
  482.250    0.152    0.382   94.738    5.810
  482.500    0.148    0.381   92.850    5.902
  482.750    0.146    0.350   89.801    5.937
  483.000    0.146    0.328   89.929    5.965
  483.250    0.155    0.318   90.914    5.967
  483.500    0.159    0.313   91.410    5.983
  483.750    0.158    0.332   94.778    6.009
  484.000    0.155    0.351   96.985    6.092
  484.250    0.156    0.369   97.848    6.234
  484.500    0.157    0.386   96.203    6.390
  484.750    0.165    0.400   87.715    6.575
  485.000    0.146    0.340   83.503    6.665
  485.250    0.132    0.290   84.487    6.658
  485.500    0.124    0.290   91.279    6.589
  485.750    0.126    0.297   97.765    6.580
  486.000    0.128    0.308   98.077    6.683
  486.250    0.121    0.298   95.272    6.826
  486.500    0.116    0.297   93.689    6.920
  486.750    0.111    0.307   94.919    7.003
  487.000    0.124    0.317   95.291    7.036
  487.250    0.139    0.338   91.814    7.003
  487.500    0.147    0.372   88.521    6.992
  487.750    0.154    0.369   85.959    6.958
  488.000    0.162    0.345   78.814    6.922
  488.250    0.171    0.327   77.721    6.927
  488.500    0.177    0.333   81.762    6.944
  488.750    0.174    0.341   83.541    7.001
  489.000    0.168    0.336   82.938    7.006
  489.250    0.161    0.329   83.004    6.972
  489.500    0.152    0.348   83.928    6.914
  489.750    0.151    0.363   85.524    6.865
  490.000    0.160    0.356   86.324    6.583
  490.250    0.170    0.347   87.493    6.311
  490.500    0.175    0.344   87.437    5.842
  490.750    0.181    0.335   84.021    5.579
  491.000    0.186    0.321   81.950    4.904
  491.250    0.183    0.313   83.301    4.700
  491.500    0.177    0.323   77.622    4.016
  491.750    0.202    0.344   69.561    3.758
  492.000    0.221    0.369   55.692    3.439
  492.250    0.259    0.350   45.858    3.249
  492.500    0.289    0.321   42.808    3.138
  492.750    0.272    0.340   43.181    3.027
  493.000    0.267    0.373   41.966    3.001
  493.250    0.276    0.391   36.409    2.991
  493.500    0.284    0.383   31.464    2.966
  493.750    0.296    0.376   30.921    2.934
  494.000    0.302    0.376   32.395    2.872
  494.250    0.298    0.379   33.196    2.805
  494.500    0.295    0.355   33.325    2.631
  494.750    0.301    0.360   26.791    2.578
  495.000    0.318    0.363   22.396    2.509
  495.250    0.324    0.350   21.303    2.465
  495.500    0.323    0.355   23.754    2.443
  495.750    0.320    0.371   22.722    2.437
  496.000    0.317    0.359   22.056    2.461
  496.250    0.310    0.347   25.242    2.476
  496.500    0.303    0.351   26.470    2.506
  496.750    0.299    0.367   23.543    2.513
  497.000    0.311    0.386   20.982    2.513
  497.250    0.328    0.362   23.984    2.520
  497.500    0.331    0.345   24.418    2.517
  497.750    0.315    0.348   16.540    2.496
  498.000    0.311    0.376   14.223    2.483
  498.250    0.319    0.392   14.537    2.452
  498.500    0.329    0.373   15.827    2.419
  498.750    0.334    0.359   16.811    2.406
  499.000    0.335    0.361   16.634    2.412
  499.250    0.311    0.363   15.479    2.423
  499.500    0.315    0.349   14.446    2.415
  499.750    0.326    0.336   14.454    2.399
  500.000    0.326    0.353   15.012    2.397
  500.250    0.323    0.365   15.628    2.393
  500.500    0.327    0.387   16.797    2.387
  500.750    0.333    0.378   18.944    2.383
  501.000    0.334    0.354   19.865    2.394
  501.250    0.327    0.329   20.666    2.413
  501.500    0.322    0.327   20.490    2.474
  501.750    0.327    0.336   20.313    2.691
  502.000    0.297    0.346   21.419    3.305
  502.250    0.257    0.354   24.910    4.042
  502.500    0.194    0.355   30.296    5.218
  502.750    0.134    0.228   34.948    6.811
  503.000    0.021    0.219   35.749    8.519
  503.250   -0.003    0.225   38.017    9.531
  503.500    0.057    0.311   45.542   10.505
  503.750    0.041    0.329   54.840   11.752
  504.000    0.030    0.157   46.106   13.570
  504.250    0.037    0.141   38.716   16.142
  504.500    0.045    0.135   30.777   19.930
  504.750    0.037    0.131   26.076   23.182
  505.000    0.028    0.130   21.132   25.839
  505.250    0.023    0.134   17.044   25.333
  505.500    0.032    0.137   14.116   24.516
  505.750    0.039    0.140   11.067   23.946
  506.000    0.044    0.142    9.789   23.307
  506.250    0.042    0.140   12.852   22.984
  506.500    0.037    0.135   16.342   22.991
  506.750    0.036    0.131   21.179   22.583
  507.000    0.044    0.143   26.258   20.902
  507.250    0.056    0.190   32.316   19.526
