~VERSION INFORMATION
 VERS.                 2.0:   CWLS LOG ASCII STANDARD -VERSION 2.0
 WRAP.                  NO:   ONE LINE PER DEPTH STEP
~WELL INFORMATION BLOCK
#MNEM.UNIT           DATA                    DESCRIPTION OF MNEMONIC
#---------    -------------------            -------------------------------
# Generated from Intellog Unique Number	CS_77_79/WELL/845
WELL.         CANADIAN OCCIDENTAL            : Well_name    - WELL
LOC .         00/03-28-077-02W4/0            : Location     - LOCATION
UWI .         00/03-28-077-02W4/0            : Uwi          - UNIQUE WELL ID
ENTR.         SP                             : Entered      - ENTERED BY
SRVC.         SCHLUMBERGER                   : Scn          - SERVICE COMPANY
STRT.M        204.12                         : top_depth    - START DEPTH
STOP.M        463.12                         : bot_depth    - STOP DEPTH
STEP.M        0.25                           : increment    - STEP LENGTH
 NULL. -999.2500:NULL Value
~CURVE INFORMATION BLOCK
#MNEM UNIT       ERCB CURVE CODE    CURVE DESCRIPTION
#-----------   ------------------   ----------------------------------
DEPT.M        00 001 00 00         : DEPTH        - DEPTH
GR  .API      00 310 00 00         : GR           - GAMMA RAY
DPHI.V/V      00 890 00 00         : PHID         - DENSITY POROSITY (SANDSTONE)
NPHI.V/V      00 330 00 00         : PHIN         - NEUTRON POROSITY (SANDSTONE)
ILD .OHMM     00 120 00 00         : RESD         - DEEP RESISTIVITY (DIL)
~PARAMETER INFORMATION
#MNEM.UNIT           DATA             DESCRIPTION OF MNEMONIC
#---------         -----------     ------------------------------
GL  .M        592.531              : gl           - GROUND LEVEL ELEVATION
EREF.M        595.884              : kb           - ELEVATION OF DEPTH REFERENCE
DATM.M        592.531              : datum        - DATUM ELEVATION
TDD .M        472.44               : tdd          - TOTAL DEPTH DRILLER
RUN .         ONE                  : Run          - RUN NUMBER
ENG .         BILL                 : Engineer     - RECORDING ENGINEER
WIT .         JIM                  : Witness      - WITNESSED BY
MUD .         GEL                  : Mud_type     - MUD TYPE
MATR.         SANDSTONE            : Logunit      - NEUTRON MATRIX
TMAX.C        23.8889              : BHT          - MAXIMUM RECORDED TEMPERATURE
BHTD.M        472.44               : BHTDEP       - MAXIMUM RECORDED TEMPERATURE
MATR.         1                    : LOGUNIT      - NEUTRON MATRIX
RMT .C        25                   : MDTP         - TEMPERATURE OF MUD
NEUT.         1                    : NEUTRON      - NEUTRON TYPE
RESI.         0                    : RESIST       - RESISTIVITY TYPE
RMC .OHMM     0.25                 : RMC          - RESISTIVITY OF MUD CAKE
RMF .OHMM     0.25                 : RMF          - RESISTIVITY OF MUD FILTRATE
SUFT.C        15                   : SUFT         - SURFACE TEMPERATURE
~A  DEPTH       GR     PHID     PHIN     RESD
  204.120   92.934    0.286    0.577    1.152
  204.370   92.056    0.265    0.559    2.575
  204.620   91.299    0.253    0.552    2.677
  204.870   90.115    0.228    0.552    2.740
  205.120   91.877    0.194    0.541    2.818
  205.370   95.237    0.187    0.543    2.958
  205.620   97.674    0.260    0.570    3.110
  205.870   98.159    0.251    0.563    3.203
  206.120   96.401    0.246    0.550    3.231
  206.370   95.420    0.226    0.530    3.335
  206.620   96.246    0.204    0.513    3.389
  206.870   99.478    0.229    0.514    3.390
  207.120  102.071    0.246    0.532    3.319
  207.370   99.775    0.237    0.541    3.221
  207.620   98.848    0.244    0.534    3.137
  207.870   98.460    0.246    0.530    3.143
  208.120   99.032    0.232    0.520    3.079
  208.370   99.687    0.242    0.525    3.081
  208.620  100.127    0.249    0.546    3.085
  208.870  102.015    0.237    0.557    3.025
  209.120  103.738    0.242    0.569    2.963
  209.370  101.673    0.236    0.575    2.970
  209.620   97.859    0.223    0.550    3.002
  209.870   93.157    0.223    0.536    3.345
  210.120   85.005    0.223    0.519    3.968
  210.370   68.516    0.220    0.496    5.111
  210.620   50.797    0.217    0.410    6.192
  210.870   43.355    0.218    0.395    7.900
  211.120   40.357    0.236    0.404   10.393
  211.370   37.768    0.252    0.394   11.780
  211.620   42.521    0.242    0.373   10.438
  211.870   46.526    0.232    0.385    9.210
  212.120   53.408    0.213    0.395    8.332
  212.370   56.684    0.160    0.408    7.363
  212.620   61.441    0.052    0.412    6.980
  212.870   67.119    0.195    0.414    6.892
  213.120   76.547    0.225    0.439    8.463
  213.370   80.135    0.257    0.459    9.983
  213.620   76.541    0.289    0.465   11.378
  213.870   75.324    0.286    0.448   13.251
  214.120   75.348    0.307    0.458   15.384
  214.370   73.087    0.304    0.463   16.680
  214.620   69.431    0.304    0.468   13.435
  214.870   66.308    0.302    0.445   11.313
  215.120   72.064    0.302    0.421    9.536
  215.370   77.823    0.286    0.438    8.468
  215.620   82.360    0.261    0.454    7.841
  215.870   84.539    0.255    0.464    7.435
  216.120   86.054    0.237    0.450    7.228
  216.370   88.030    0.230    0.448    7.329
  216.620   89.588    0.240    0.459    7.546
  216.870   92.003    0.261    0.457    7.932
  217.120   91.952    0.279    0.474    7.985
  217.370   91.868    0.262    0.481    7.726
  217.620   93.647    0.259    0.467    7.631
  217.870   94.790    0.243    0.467    7.629
  218.120   92.078    0.223    0.466    7.632
  218.370   89.241    0.212    0.440    7.509
  218.620   88.938    0.225    0.439    7.340
  218.870   94.114    0.229    0.458    7.355
  219.120   96.937    0.234    0.478    7.675
  219.370   94.372    0.243    0.484    8.221
  219.620   91.094    0.237    0.473    9.378
  219.870   87.657    0.259    0.493   10.185
  220.120   85.342    0.286    0.486   11.680
  220.370   88.776    0.318    0.466   13.682
  220.620   93.695    0.318    0.450   14.727
  220.870   95.870    0.292    0.443   14.105
  221.120   97.296    0.268    0.451   13.453
  221.370   94.167    0.260    0.437   13.292
  221.620   90.201    0.255    0.453   13.145
  221.870   86.843    0.269    0.469   12.904
  222.120   84.502    0.299    0.464   13.184
  222.370   86.952    0.299    0.442   13.144
  222.620   85.817    0.275    0.429   12.760
  222.870   85.039    0.285    0.425   12.124
  223.120   85.085    0.275    0.446   11.544
  223.370   86.850    0.280    0.453   10.847
  223.620   85.196    0.264    0.472   10.427
  223.870   83.828    0.245    0.488    9.984
  224.120   83.831    0.249    0.491    9.600
  224.370   83.917    0.252    0.469    9.412
  224.620   84.384    0.233    0.474    9.432
  224.870   84.257    0.219    0.486    9.470
  225.120   85.682    0.240    0.487    8.846
  225.370   87.087    0.269    0.484    8.363
  225.620   89.293    0.279    0.476    7.768
  225.870   91.570    0.269    0.499    7.250
  226.120   92.751    0.266    0.514    6.832
  226.370   96.850    0.259    0.522    6.421
  226.620   99.272    0.250    0.506    6.164
  226.870   99.906    0.245    0.485    5.780
  227.120   98.931    0.251    0.475    5.728
  227.370   97.424    0.266    0.482    5.803
  227.620   98.058    0.262    0.472    6.788
  227.870   96.842    0.251    0.450    8.109
  228.120   91.289    0.215    0.425    9.590
  228.370   84.259    0.213    0.409   11.481
  228.620   76.321    0.231    0.395   13.749
  228.870   67.677    0.255    0.416   16.341
  229.120   61.913    0.268    0.412   17.718
  229.370   55.185    0.261    0.397   17.830
  229.620   50.514    0.262    0.397   17.380
  229.870   49.437    0.274    0.390   16.698
  230.120   50.466    0.287    0.390   15.675
  230.370   53.085    0.286    0.380   14.377
  230.620   57.204    0.273    0.379   13.526
  230.870   61.496    0.241    0.394   11.957
  231.120   67.744    0.245    0.408   10.383
  231.370   72.499    0.189    0.419    9.208
  231.620   79.055    0.184    0.434    8.022
  231.870   93.341    0.206    0.454    7.046
  232.120  101.726    0.197    0.470    6.307
  232.370  108.764    0.172    0.483    5.471
  232.620  112.752    0.173    0.503    4.991
  232.870  113.341    0.200    0.510    4.555
  233.120  113.876    0.196    0.527    4.372
  233.370  115.504    0.209    0.539    4.088
  233.620  117.374    0.220    0.543    3.863
  233.870  120.699    0.225    0.560    3.602
  234.120  121.620    0.223    0.585    3.375
  234.370  120.554    0.226    0.570    3.274
  234.620  118.130    0.241    0.559    3.292
  234.870  110.287    0.253    0.550    3.482
  235.120  105.510    0.245    0.540    4.118
  235.370  100.512    0.238    0.530    4.927
  235.620  100.665    0.240    0.505    5.897
  235.870  103.442    0.235    0.480    6.435
  236.120  103.980    0.227    0.492    7.254
  236.370   97.744    0.253    0.503    7.860
  236.620   83.854    0.284    0.512    9.125
  236.870   76.334    0.304    0.500   10.499
  237.120   72.536    0.311    0.488   12.280
  237.370   70.984    0.322    0.493   13.953
  237.620   71.792    0.331    0.503   14.752
  237.870   72.834    0.327    0.496   14.951
  238.120   71.894    0.317    0.475   14.959
  238.370   72.398    0.306    0.455   14.629
  238.620   74.940    0.298    0.463   14.400
  238.870   76.703    0.290    0.461   14.003
  239.120   77.620    0.301    0.454   13.865
  239.370   78.604    0.315    0.462   13.676
  239.620   79.721    0.307    0.468   13.536
  239.870   81.136    0.318    0.474   13.355
  240.120   79.857    0.314    0.476   13.105
  240.370   77.581    0.322    0.475   12.836
  240.620   81.375    0.330    0.471   12.858
  240.870   83.445    0.332    0.479   12.852
  241.120   85.362    0.316    0.483   12.848
  241.370   82.734    0.316    0.472   12.838
  241.620   80.000    0.324    0.449   12.743
  241.870   74.893    0.311    0.434   12.603
  242.120   70.906    0.286    0.445   12.729
  242.370   69.112    0.306    0.449   13.478
  242.620   70.213    0.322    0.448   14.312
  242.870   71.522    0.328    0.436   14.736
  243.120   73.537    0.314    0.435   15.136
  243.370   78.240    0.297    0.417   15.125
  243.620   82.843    0.267    0.398   13.848
  243.870   86.498    0.240    0.407   12.754
  244.120   86.100    0.256    0.414   12.540
  244.370   76.862    0.274    0.425   13.508
  244.620   63.297    0.298    0.434   16.058
  244.870   52.529    0.306    0.421   17.169
  245.120   42.687    0.320    0.399   19.122
  245.370   39.482    0.321    0.382   20.245
  245.620   39.840    0.310    0.373   20.700
  245.870   41.422    0.288    0.364   19.103
  246.120   44.068    0.282    0.361   17.817
  246.370   50.072    0.270    0.373   15.892
  246.620   58.725    0.249    0.381   14.776
  246.870   69.468    0.255    0.398   13.264
  247.120   70.786    0.262    0.415   12.276
  247.370   74.463    0.269    0.418   11.364
