~VERSION INFORMATION
 VERS.                 2.0:   CWLS LOG ASCII STANDARD -VERSION 2.0
 WRAP.                  NO:   ONE LINE PER DEPTH STEP
~WELL INFORMATION BLOCK
#MNEM.UNIT           DATA                    DESCRIPTION OF MNEMONIC
#---------    -------------------            -------------------------------
# Generated from Intellog Unique Number	CW_82_90/WELL/3066
WELL.         UNOCAL SALESKI                 : Well_name    - WELL
LOC .         00/07-24-086-19W4/0            : Location     - LOCATION
UWI .         00/07-24-086-19W4/0            : Uwi          - UNIQUE WELL ID
ENTR.         MAX                            : Entered      - ENTERED BY
SRVC.         WESTERN ATLAS                  : Scn          - SERVICE COMPANY
STRT.M        100                            : top_depth    - START DEPTH
STOP.M        246                            : bot_depth    - STOP DEPTH
STEP.M        0.25                           : increment    - STEP LENGTH
 NULL. -999.2500:NULL Value
~CURVE INFORMATION BLOCK
#MNEM UNIT       ERCB CURVE CODE    CURVE DESCRIPTION
#-----------   ------------------   ----------------------------------
DEPT.M        00 001 00 00         : DEPTH        - DEPTH
ILD .OHMM     00 120 00 00         : RESD         - DEEP RESISTIVITY (DIL)
NPHI.V/V      00 330 00 00         : PHIN         - NEUTRON POROSITY (SANDSTONE)
DPHI.V/V      00 890 00 00         : PHID         - DENSITY POROSITY (SANDSTONE)
CALI.MM       00 280 01 00         : CAL          - CALIPER
GR  .API      00 310 00 00         : GR           - GAMMA RAY
~PARAMETER INFORMATION
#MNEM.UNIT           DATA             DESCRIPTION OF MNEMONIC
#---------         -----------     ------------------------------
GL  .M        527.7                : gl           - GROUND LEVEL ELEVATION
EREF.M        532                  : kb           - ELEVATION OF DEPTH REFERENCE
DATM.M        527.7                : datum        - DATUM ELEVATION
TDD .M        246.3                : tdd          - TOTAL DEPTH DRILLER
RUN .         ONE                  : Run          - RUN NUMBER
ENG .         BILL                 : Engineer     - RECORDING ENGINEER
WIT .         JIM                  : Witness      - WITNESSED BY
MUD .         GEL                  : Mud_type     - MUD TYPE
MATR.         SANDSTONE            : Logunit      - NEUTRON MATRIX
TMAX.C        24                   : BHT          - MAXIMUM RECORDED TEMPERATURE
BHTD.M        23246.3              : BHTDEP       - MAXIMUM RECORDED TEMPERATURE
MATR.         1                    : LOGUNIT      - NEUTRON MATRIX
RMT .C        28                   : MDTP         - TEMPERATURE OF MUD
NEUT.         1                    : NEUTRON      - NEUTRON TYPE
RESI.         0                    : RESIST       - RESISTIVITY TYPE
RMC .OHMM     3.5                  : RMC          - RESISTIVITY OF MUD CAKE
RMF .OHMM     4.2                  : RMF          - RESISTIVITY OF MUD FILTRATE
SUFT.C        -15                  : SUFT         - SURFACE TEMPERATURE
~A  DEPTH     RESD     PHIN     PHID      CAL       GR
# ...
  136.500    9.061    0.388    0.326  165.167   57.859
  136.750    8.128    0.402    0.327  165.111   66.310
  137.000    7.291    0.405    0.320  164.552   66.570
  137.250    7.031    0.428    0.318  164.008   72.975
  137.500    7.490    0.412    0.329  162.961   74.397
  137.750    8.272    0.395    0.335  161.433   69.087
  138.000    9.472    0.370    0.328  161.370   59.969
  138.250   10.749    0.369    0.315  161.306   56.705
  138.500   11.979    0.371    0.302  161.731   54.031
  138.750   12.086    0.377    0.313  162.148   56.336
  139.000   11.868    0.383    0.331  162.076   61.858
  139.250   10.743    0.377    0.329  161.533   63.874
  139.500    9.724    0.385    0.330  160.973   66.175
  139.750    8.802    0.391    0.330  160.422   67.308
  140.000    8.801    0.379    0.326  160.846   68.735
  140.250    8.879    0.365    0.322  161.271   71.621
  140.500    8.878    0.377    0.321  161.208   72.466
  140.750    8.639    0.365    0.318  161.144   71.252
  141.000    8.407    0.371    0.313  160.585   70.335
  141.250    8.482    0.369    0.303  160.521   69.418
  141.500    8.636    0.374    0.303  160.458   66.451
  141.750    8.713    0.383    0.313  160.387   65.237
  142.000    8.633    0.395    0.320  160.331   66.956
  142.250    8.250    0.390    0.319  160.268   66.333
  142.500    8.175    0.386    0.322  159.220   64.244
  142.750    9.029    0.378    0.328  158.173   54.829
  143.000   11.216    0.363    0.342  157.621   48.641
  143.250   12.500    0.358    0.371  158.054   38.933
  143.500   14.444    0.352    0.374  157.982   38.304
  143.750   15.385    0.358    0.374  157.911   37.973
  144.000   15.950    0.360    0.377  157.848   38.521
  144.250   16.093    0.359    0.379  157.792   39.654
  144.500   16.090    0.360    0.376  156.745   41.374
  144.750   15.943    0.372    0.374  156.193   41.336
  145.000   15.655    0.380    0.375  156.130   39.238
  145.250   15.512    0.387    0.372  156.058   40.957
  145.500   15.510    0.385    0.374  155.987   41.510
  145.750   15.368    0.381    0.375  156.420   42.350
  146.000   15.227    0.371    0.378  156.844   44.362
  146.250   15.226    0.364    0.380  156.781   42.562
  146.500   15.223    0.373    0.380  156.710   42.812
  146.750   15.221    0.379    0.380  157.134   43.365
  147.000   15.357    0.376    0.376  158.047   42.155
  147.250   15.495    0.372    0.373  158.960   42.986
  147.500   15.633    0.369    0.369  159.865   42.070
  147.750   15.631    0.365    0.366  160.778   41.158
  148.000   15.629    0.361    0.363  160.707   41.120
  148.250   15.346    0.351    0.363  161.131   43.718
  148.500   14.933    0.354    0.349  161.068   46.604
  148.750   12.688    0.361    0.320  160.509   52.135
  149.000   10.119    0.384    0.300  160.445   62.631
  149.250    8.368    0.387    0.319  160.374   61.427
  149.500    7.046    0.397    0.311  160.318   64.908
  149.750    5.619    0.406    0.302  159.775   71.899
  150.000    4.905    0.398    0.302  159.711   80.350
  150.250    4.774    0.401    0.305  159.624   74.454
  150.500    5.039    0.391    0.308  159.073   68.851
  150.750    5.616    0.376    0.318  159.025   60.901
  151.000    6.373    0.358    0.326  158.962   55.005
  151.250    7.635    0.359    0.325  158.394   57.598
  151.500    8.744    0.357    0.317  157.347   60.201
  151.750    9.745    0.367    0.306  157.291   62.789
  152.000   10.011    0.368    0.302  157.236   61.291
  152.250    9.830    0.365    0.310  157.652   57.441
  152.500    9.918    0.368    0.317  158.565   59.165
  152.750    9.917    0.381    0.317  158.982   62.925
  153.000   10.005    0.378    0.311  158.919   62.599
  153.250    9.914    0.375    0.309  159.351   61.092
  153.500    9.912    0.371    0.308  160.737   60.766
  153.750   10.001    0.366    0.309  160.177   60.435
  154.000   10.000    0.365    0.311  160.130   59.220
  154.250    9.998    0.365    0.314  160.058   58.889
  154.500   10.179    0.363    0.316  158.522   60.023
  154.750   10.364    0.359    0.312  158.467   59.399
  155.000   10.551    0.355    0.303  157.900   61.987
  155.250   10.742    0.349    0.295  158.332   61.071
  155.500   10.937    0.310    0.285  160.710   56.059
  155.750   11.441    0.271    0.272  161.134   47.815
  156.000   12.298    0.237    0.165  161.055   46.020
  156.250   13.460    0.220    0.211  161.007   50.375
  156.500   13.828    0.333    0.281  160.944   59.123
  156.750   14.078    0.319    0.284  159.889   62.893
  157.000   14.727    0.294    0.261  159.345   57.285
  157.250   15.830    0.199    0.213  158.305   47.875
  157.500   17.803    0.125    0.051  158.226   41.096
  157.750   21.330    0.124    0.154  158.667   42.522
  158.000   34.755    0.187    0.115  161.028   50.685
  158.250   36.687    0.185    0.087  161.949   64.119
  158.500   27.218    0.191    0.120  162.366   58.809
  158.750   21.707    0.201    0.116  162.310   56.721
  159.000   21.122    0.185    0.103  162.247   49.942
  159.250   21.119    0.184    0.084  161.679   50.197
  159.500   21.309    0.204    0.197  161.616   55.426
  159.750   19.463    0.233    0.243  160.576   58.614
  160.000   17.146    0.279    0.288  160.033   62.677
  160.250   15.380    0.351    0.294  159.961   62.634
  160.500   14.435    0.352    0.286  159.890   62.005
  160.750   12.948    0.349    0.285  159.835   63.725
  161.000   12.043    0.351    0.285  159.763   65.151
  161.250   11.405    0.359    0.287  160.676   66.582
  161.500   10.608    0.357    0.286  164.998   67.711
  161.750    9.689    0.357    0.269  166.407   68.849
  162.000    8.613    0.372    0.243  166.336   71.735
  162.250    8.157    0.388    0.237  168.713   78.731
  162.500    7.519    0.383    0.251  169.626   87.187
  162.750    6.805    0.388    0.252  172.491   85.972
  163.000    6.503    0.395    0.258  172.428   90.332
  163.250    6.386    0.406    0.261  171.868   91.168
  163.500    6.328    0.403    0.255  170.829   89.666
  163.750    6.501    0.406    0.241  169.293   90.214
  164.000    6.739    0.397    0.246  167.285   91.054
  164.250    6.987    0.369    0.254  162.820   86.916
  164.500    7.243    0.348    0.260  160.812   81.015
  164.750    7.048    0.342    0.251  159.276   74.236
  165.000    6.209    0.365    0.237  159.213   71.269
  165.250    3.512    0.417    0.246  158.662   69.469
  165.500    3.640    0.399    0.257  158.598   78.222
  165.750    4.021    0.364    0.257  157.054   85.506
  166.000    4.905    0.343    0.250  156.503   79.025
  166.250    5.668    0.329    0.219  156.439   73.124
  166.500    6.669    0.353    0.213  156.368   69.865
  166.750    7.169    0.380    0.262  156.801   80.663
  167.000    7.167    0.398    0.256  157.706   97.617
  167.250    7.988    0.396    0.194  159.099   97.282
  167.500    8.743    0.370    0.133  159.051   89.629
  167.750    9.744    0.358    0.175  158.980   93.984
  168.000   13.250    0.350    0.257  158.428   98.925
  168.250   14.371    0.351    0.278  158.365   94.782
  168.500   14.500    0.351    0.287  158.302   88.007
  168.750   14.367    0.349    0.293  158.238   79.173
  169.000   14.236    0.347    0.282  157.191   77.085
  169.250   14.234    0.347    0.271  156.631   74.109
  169.500   14.231    0.346    0.273  156.568   72.611
  169.750   14.230    0.348    0.285  156.512   70.234
  170.000   14.228    0.354    0.303  156.441   69.601
  170.250   14.226    0.354    0.300  156.866   69.270
  170.500   14.224    0.356    0.287  157.771   67.768
  170.750   14.222    0.347    0.278  159.180   68.023
  171.000   14.349    0.340    0.279  160.085   67.985
  171.250   14.477    0.334    0.287  160.501   70.582
  171.500   14.606    0.377    0.289  160.446   70.252
  171.750   14.737    0.376    0.284  160.375   71.673
  172.000   14.869    0.370    0.278  160.799   71.640
  172.250   15.276    0.366    0.272  160.744   69.840
  172.500   15.836    0.365    0.266  161.161   70.095
  172.750   16.123    0.369    0.275  161.089   70.052
