~VERSION INFORMATION
 VERS.                 2.0:   CWLS LOG ASCII STANDARD -VERSION 2.0
 WRAP.                  NO:   ONE LINE PER DEPTH STEP
~WELL INFORMATION BLOCK
#MNEM.UNIT           DATA                    DESCRIPTION OF MNEMONIC
#---------    -------------------            -------------------------------
# Generated from Intellog Unique Number	CS_67_68/WELL/776
WELL.         FISHER CREEK                   : Well_name    - WELL
LOC .         00/07-27-068-06W4/0            : Location     - LOCATION
UWI .         00/07-27-068-06W4/0            : Uwi          - UNIQUE WELL ID
ENTR.         SP                             : Entered      - ENTERED BY
SRVC.         SCHLUMBERGER                   : Scn          - SERVICE COMPANY
STRT.M        360                            : top_depth    - START DEPTH
STOP.M        580                            : bot_depth    - STOP DEPTH
STEP.M        0.25                           : increment    - STEP LENGTH
 NULL. -999.2500:NULL Value
~CURVE INFORMATION BLOCK
#MNEM UNIT       ERCB CURVE CODE    CURVE DESCRIPTION
#-----------   ------------------   ----------------------------------
DEPT.M        00 001 00 00         : DEPTH        - DEPTH
ILD .OHMM     00 120 00 00         : RESD         - DEEP RESISTIVITY (DIL)
DPHI.V/V      00 890 00 00         : PHID         - DENSITY POROSITY (LIMESTONE)
NPHI.V/V      00 330 00 00         : PHIN         - NEUTRON POROSITY (LIMESTONE)
GR  .API      00 310 00 00         : GR           - GAMMA RAY
~PARAMETER INFORMATION
#MNEM.UNIT           DATA             DESCRIPTION OF MNEMONIC
#---------         -----------     ------------------------------
GL  .M        704.1                : gl           - GROUND LEVEL ELEVATION
EREF.M        707.7                : kb           - ELEVATION OF DEPTH REFERENCE
DATM.M        704.1                : datum        - DATUM ELEVATION
TDD .M        582                  : tdd          - TOTAL DEPTH DRILLER
RUN .         ONE                  : Run          - RUN NUMBER
ENG .         BILL                 : Engineer     - RECORDING ENGINEER
WIT .         JIM                  : Witness      - WITNESSED BY
MUD .         GEL                  : Mud_type     - MUD TYPE
MATR.         LIMESTONE            : Logunit      - NEUTRON MATRIX
TMAX.C        18                   : BHT          - MAXIMUM RECORDED TEMPERATURE
BHTD.M        582                  : BHTDEP       - MAXIMUM RECORDED TEMPERATURE
MATR.         1                    : LOGUNIT      - NEUTRON MATRIX
RMT .C        25                   : MDTP         - TEMPERATURE OF MUD
NEUT.         1                    : NEUTRON      - NEUTRON TYPE
RESI.         0                    : RESIST       - RESISTIVITY TYPE
RMC .OHMM     0.25                 : RMC          - RESISTIVITY OF MUD CAKE
RMF .OHMM     0.25                 : RMF          - RESISTIVITY OF MUD FILTRATE
SUFT.C        15                   : SUFT         - SURFACE TEMPERATURE
~A  DEPTH     RESD     PHID     PHIN       GR
# ...
  403.500    5.808    0.309    0.490   92.315
  403.750    5.955    0.291    0.475   91.035
  404.000    6.152    0.280    0.461   85.264
  404.250    6.345    0.283    0.442   80.169
  404.500    6.481    0.292    0.430   86.459
  404.750    6.535    0.299    0.428   91.028
  405.000    6.515    0.299    0.445   93.749
  405.250    6.446    0.292    0.442   94.803
  405.500    6.450    0.285    0.437   94.817
  405.750    6.456    0.282    0.426   94.891
  406.000    6.483    0.283    0.409   94.781
  406.250    6.537    0.276    0.410   94.547
  406.500    6.566    0.267    0.423   92.468
  406.750    6.582    0.257    0.412   87.866
  407.000    6.575    0.253    0.416   85.049
  407.250    6.555    0.265    0.441   85.494
  407.500    6.547    0.271    0.464   85.135
  407.750    6.514    0.281    0.485   79.611
  408.000    6.482    0.296    0.466   80.239
  408.250    6.413    0.303    0.477   86.222
  408.500    6.358    0.291    0.488   89.804
  408.750    6.315    0.280    0.499   91.291
  409.000    6.261    0.284    0.512   90.013
  409.250    6.264    0.294    0.525   88.242
  409.500    6.268    0.294    0.508   85.854
  409.750    6.308    0.289    0.488   80.392
  410.000    6.313    0.290    0.479   73.205
  410.250    6.281    0.293    0.469   66.450
  410.500    6.250    0.319    0.456   61.294
  410.750    6.127    0.338    0.442   57.063
  411.000    5.983    0.334    0.433   55.228
  411.250    5.788    0.341    0.433   56.534
  411.500    5.600    0.350    0.433   61.344
  411.750    5.519    0.343    0.435   67.143
  412.000    5.522    0.317    0.442   69.924
  412.250    5.770    0.291    0.449   70.121
  412.500    6.029    0.279    0.453   76.963
  412.750    6.206    0.272    0.473   81.591
  413.000    6.304    0.266    0.493   85.049
  413.250    6.369    0.253    0.510   81.494
  413.500    6.396    0.258    0.512   80.153
  413.750    6.424    0.265    0.503   79.981
  414.000    6.418    0.271    0.484   79.932
  414.250    6.433    0.271    0.478   80.562
  414.500    6.487    0.264    0.480   81.497
  414.750    6.490    0.259    0.472   81.572
  415.000    6.495    0.256    0.471   80.169
  415.250    6.499    0.260    0.478   79.320
  415.500    6.479    0.275    0.480   78.659
  415.750    6.472    0.292    0.473   78.669
  416.000    6.464    0.301    0.467   79.360
  416.250    6.468    0.302    0.475   81.278
  416.500    6.461    0.280    0.476   83.014
  416.750    6.464    0.266    0.470   82.781
  417.000    6.493    0.277    0.467   76.149
  417.250    6.535    0.295    0.456   77.207
  417.500    6.563    0.299    0.442   81.404
  417.750    6.555    0.280    0.429   84.308
  418.000    6.499    0.265    0.444   85.921
  418.250    6.286    0.256    0.474   84.950
  418.500    6.082    0.281    0.489   82.686
  418.750    7.153    0.299    0.468   81.714
  419.000    8.588    0.322    0.467   80.127
  419.250   10.566    0.295    0.484   69.866
  419.500   13.702    0.238    0.475   60.156
  419.750   19.777    0.179    0.190   51.062
  420.000   24.014   -0.022    0.164   46.768
  420.250   27.459   -0.025    0.151   43.767
  420.500   26.315   -0.022    0.141   42.179
  420.750   16.098   -0.018    0.159   46.192
  421.000   10.264   -0.011    0.198   57.896
  421.250    8.152    0.014    0.231   64.984
  421.500    6.875    0.057    0.268   73.857
  421.750    6.430    0.163    0.311   82.422
  422.000    5.970    0.220    0.438   79.914
  422.250    5.732    0.266    0.465   85.709
  422.500    5.576    0.264    0.465   93.045
  422.750    5.538    0.262    0.469   87.399
  423.000    5.542    0.252    0.478   84.148
  423.250    5.608    0.237    0.482   80.408
  423.500    5.718    0.251    0.483   78.451
  423.750    5.919    0.271    0.484   77.480
  424.000    6.104    0.287    0.483   78.354
  424.250    6.224    0.292    0.478   80.461
  424.500    6.263    0.288    0.473   81.887
  424.750    6.245    0.284    0.482   78.454
  425.000    6.237    0.310    0.490   72.560
  425.250    6.217    0.327    0.474   72.942
  425.500    6.175    0.321    0.454   80.956
  425.750    6.144    0.319    0.442   85.335
  426.000    6.102    0.309    0.448   87.008
  426.250    6.106    0.284    0.453   83.146
  426.500    6.133    0.264    0.449   80.454
  426.750    6.172    0.265    0.451   79.049
  427.000    6.165    0.268    0.470   76.908
  427.250    6.044    0.270    0.483   79.017
  427.500    5.912    0.274    0.481   80.072
  427.750    5.698    0.267    0.486   80.331
  428.000    5.843    0.260    0.494   79.113
  428.250    6.025    0.255    0.482   76.480
  428.500    6.167    0.292    0.475   72.556
  428.750    6.383    0.303    0.481   68.939
  429.000    6.595    0.300    0.488   66.366
  429.250    6.550    0.292    0.457   63.794
  429.500    6.529    0.285    0.431   63.007
  429.750    6.498    0.289    0.419   63.267
  430.000    6.538    0.281    0.411   63.777
  430.250    6.617    0.270    0.404   64.281
  430.500    6.634    0.264    0.402   65.215
  430.750    6.626    0.265    0.404   67.194
  431.000    6.594    0.279    0.405   66.962
  431.250    6.598    0.290    0.422   61.497
  431.500    6.516    0.298    0.436   60.157
  431.750    6.351    0.308    0.446   61.217
  432.000    6.155    0.315    0.450   61.660
  432.250    5.977    0.326    0.427   62.658
  432.500    5.815    0.321    0.410   64.455
  432.750    5.974    0.309    0.412   66.189
  433.000    6.207    0.295    0.413   66.818
  433.250    6.426    0.285    0.409   64.862
  433.500    6.466    0.286    0.416   63.523
  433.750    6.470    0.288    0.427   62.918
  434.000    6.414    0.295    0.439   61.825
  434.250    6.334    0.300    0.436   60.299
  434.500    6.198    0.302    0.428   57.669
  434.750    6.132    0.308    0.426   55.773
  435.000    6.033    0.307    0.423   54.922
  435.250    5.914    0.299    0.421   55.550
  435.500    5.797    0.297    0.419   54.456
  435.750    5.692    0.314    0.422   51.022
  436.000    5.508    0.334    0.428   52.574
  436.250    5.338    0.347    0.434   51.171
  436.500    5.154    0.346    0.442   48.231
  436.750    5.053    0.337    0.448   45.292
  437.000    4.999    0.347    0.446   43.828
  437.250    4.974    0.360    0.436   49.193
  437.500    5.063    0.351    0.417   55.174
  437.750    5.240    0.340    0.398   57.709
  438.000    5.363    0.330    0.406   53.292
  438.250    5.469    0.332    0.418   50.598
  438.500    5.514    0.334    0.426   48.335
  438.750    5.507    0.342    0.428   47.977
  439.000    5.480    0.348    0.424   50.884
  439.250    5.473    0.346    0.420   53.481
  439.500    5.476    0.335    0.428   55.276
  439.750    5.522    0.321    0.434   55.782
  440.000    5.630    0.311    0.437   58.194
  440.250    5.740    0.311    0.423   57.594
  440.500    5.810    0.315    0.407   54.100
  440.750    5.792    0.325    0.421   51.833
  441.000    5.709    0.338    0.418   51.847
  441.250    5.576    0.337    0.430   53.583
  441.500    5.548    0.332    0.449   54.764
  441.750    5.572    0.338    0.463   55.395
  442.000    5.629    0.326    0.467   56.021
  442.250    5.728    0.313    0.458   56.403
  442.500    5.898    0.299    0.462   56.602
  442.750    6.013    0.306    0.464   56.920
  443.000    6.143    0.313    0.458   57.241
  443.250    6.215    0.315    0.453   57.746
  443.500    6.339    0.310    0.448   60.589
  443.750    6.366    0.306    0.438   64.293
  444.000    6.358    0.300    0.425   61.661
  444.250    6.267    0.289    0.422   58.721
  444.500    6.041    0.280    0.414   59.410
  444.750    5.910    0.295    0.408   62.685
  445.000    5.601    0.308    0.406   64.113
  445.250    5.277    0.297    0.406   63.940
  445.500    4.683    0.293    0.411   68.199
  445.750    3.920    0.291    0.441   76.702
  446.000    3.427    0.286    0.467   88.037
  446.250    3.104    0.284    0.488   94.756
  446.500    2.806    0.285    0.503   99.260
  446.750    2.644    0.277    0.515  102.966
