~VERSION INFORMATION
 VERS.                 2.0:   CWLS LOG ASCII STANDARD -VERSION 2.0
 WRAP.                  NO:   ONE LINE PER DEPTH STEP
~WELL INFORMATION BLOCK
#MNEM.UNIT           DATA                    DESCRIPTION OF MNEMONIC
#---------    -------------------            -------------------------------
# Generated from Intellog Unique Number	CW_76_78/WELL/2574
WELL.         NOVALTA BOVINE                 : Well_name    - WELL
LOC .         00/08-28-078-20W4/0            : Location     - LOCATION
UWI .         00/08-28-078-20W4/0            : Uwi          - UNIQUE WELL ID
ENTR.         MAX                            : Entered      - ENTERED BY
SRVC.         WESTERN ATLAS                  : Scn          - SERVICE COMPANY
STRT.M        200                            : top_depth    - START DEPTH
STOP.M        390                            : bot_depth    - STOP DEPTH
STEP.M        0.25                           : increment    - STEP LENGTH
 NULL. -999.2500:NULL Value
~CURVE INFORMATION BLOCK
#MNEM UNIT       ERCB CURVE CODE    CURVE DESCRIPTION
#-----------   ------------------   ----------------------------------
DEPT.M        00 001 00 00         : DEPTH        - DEPTH
ILD .OHMM     00 120 00 00         : RESD         - DEEP RESISTIVITY (DIL)
NPHI.V/V      00 330 00 00         : PHIN         - NEUTRON POROSITY (SANDSTONE)
DPHI.V/V      00 890 00 00         : PHID         - DENSITY POROSITY (SANDSTONE)
CALI.MM       00 280 01 00         : CAL          - CALIPER
GR  .API      00 310 00 00         : GR           - GAMMA RAY
~PARAMETER INFORMATION
#MNEM.UNIT           DATA             DESCRIPTION OF MNEMONIC
#---------         -----------     ------------------------------
GL  .M        568                  : gl           - GROUND LEVEL ELEVATION
EREF.M        572                  : kb           - ELEVATION OF DEPTH REFERENCE
DATM.M        568                  : datum        - DATUM ELEVATION
TDD .M        389.6                : tdd          - TOTAL DEPTH DRILLER
RUN .         ONE                  : Run          - RUN NUMBER
ENG .         BILL                 : Engineer     - RECORDING ENGINEER
WIT .         JIM                  : Witness      - WITNESSED BY
MUD .         GEL                  : Mud_type     - MUD TYPE
MATR.         SANDSTONE            : Logunit      - NEUTRON MATRIX
TMAX.C        17                   : BHT          - MAXIMUM RECORDED TEMPERATURE
BHTD.M        389.6                : BHTDEP       - MAXIMUM RECORDED TEMPERATURE
RMT .C        21                   : MDTP         - TEMPERATURE OF MUD
MUDD.KG/M     1170                 : MWT          - MUD DENSITY
NEUT.         1                    : NEUTRON      - NEUTRON TYPE
RESI.         0                    : RESIST       - RESISTIVITY TYPE
RM  .OHMM     3.5                  : RM           - RESISTIVITY OF MUD
RMC .OHMM     3.5                  : RMC          - RESISTIVITY OF MUD CAKE
RMF .OHMM     3.8                  : RMF          - RESISTIVITY OF MUD FILTRATE
SUFT.C        -20                  : SUFT         - SURFACE TEMPERATURE
~A  DEPTH     RESD     PHIN     PHID      CAL       GR
# ...
  236.500    4.857    0.450    0.239  164.606  146.664
  236.750    5.375    0.414    0.241  167.091  134.731
  237.000    6.522    0.377    0.226  168.581  123.991
  237.250    7.086    0.365    0.219  169.077  122.499
  237.500    7.219    0.362    0.211  168.082  123.990
  237.750    7.155    0.372    0.205  166.589  130.552
  238.000    7.091    0.375    0.205  165.593  132.341
  238.250    7.159    0.373    0.207  165.095  135.323
  238.500    7.497    0.382    0.212  162.608  137.411
  238.750    8.930    0.386    0.224  157.635  137.708
  239.000    9.614    0.381    0.237  157.137  127.566
  239.250   10.446    0.354    0.251  157.136  110.263
  239.500   11.775    0.374    0.256  158.626  106.981
  239.750   12.560    0.383    0.278  159.122  103.699
  240.000   13.034    0.367    0.306  159.121   97.434
  240.250   13.159    0.356    0.329  159.120   90.573
  240.500   12.803    0.364    0.327  159.616   91.467
  240.750   12.458    0.367    0.321  160.112  103.398
  241.000   12.235    0.366    0.314  160.608  103.099
  241.250   12.237    0.367    0.315  161.104   98.922
  241.500   12.353    0.366    0.320  161.103   97.132
  241.750   12.702    0.366    0.328  160.604   98.623
  242.000   12.822    0.367    0.335  160.604  101.307
  242.250   12.944    0.370    0.333  159.608   93.550
  242.500   13.066    0.366    0.322  158.115   90.865
  242.750   14.068    0.365    0.322  158.115   93.251
  243.000   14.732    0.366    0.325  157.616  101.901
  243.250   16.304    0.371    0.327  156.620   95.337
  243.500   18.044    0.380    0.326  157.116   87.879
  243.750   19.248    0.386    0.325  157.115   81.017
  244.000   20.533    0.406    0.325  157.611   73.559
  244.250   22.105    0.409    0.325  157.610   67.593
  244.500   24.019    0.404    0.322  157.609   68.189
  244.750   25.621    0.384    0.317  157.608   68.486
  245.000   27.080    0.370    0.308  157.607   64.608
  245.250   28.887    0.355    0.286  157.606   59.536
  245.500   32.864    0.342    0.283  158.102   63.413
  245.750   41.366    0.319    0.282  159.095   65.202
  246.000  127.020    0.290    0.286  159.591   63.113
  246.250  192.162    0.255    0.267  160.087   64.902
  246.500  244.110    0.216    0.181  161.080   67.586
  246.750  401.145    0.138    0.098  161.576   66.094
  247.000  424.023    0.107   -0.002  161.078   63.111
  247.250  229.061    0.089    0.022  161.077   58.934
  247.500   46.698    0.092    0.035  160.578   54.458
  247.750   27.913    0.140    0.068  159.583   51.475
  248.000   23.445    0.279    0.251  158.587   52.071
  248.250   21.391    0.302    0.287  158.586   57.141
  248.500   22.609    0.319    0.323  158.585   64.001
  248.750   22.203    0.305    0.298  158.087   64.001
  249.000   21.017    0.278    0.277  156.097   59.824
  249.250   19.894    0.292    0.302  155.599   57.138
  249.500   19.180    0.314    0.322  157.586   58.331
  249.750   18.493    0.329    0.336  158.579   59.523
  250.000   18.161    0.345    0.342  159.075   61.611
  250.250   17.998    0.348    0.337  158.577   62.803
  250.500   17.838    0.345    0.333  158.576   61.311
  250.750   17.517    0.344    0.331  158.575   59.520
  251.000   16.888    0.344    0.331  158.574   58.028
  251.250   15.839    0.343    0.342  158.572   57.729
  251.500   15.271    0.347    0.341  159.069   59.817
  251.750   14.860    0.359    0.335  159.067   63.097
  252.000   14.863    0.384    0.324  159.066   69.958
  252.250   14.731    0.391    0.319  158.568   70.554
  252.500   14.870    0.384    0.328  158.567   67.570
  252.750   15.012    0.370    0.346  158.566   63.990
  253.000   15.154    0.351    0.348  158.564   62.497
  253.250   15.439    0.354    0.344  158.563   62.497
  253.500   15.875    0.359    0.336  158.562   61.900
  253.750   16.473    0.347    0.326  158.561   60.705
  254.000   17.736    0.347    0.324  159.057   60.705
  254.250   18.745    0.360    0.335  159.056   62.494
  254.500   20.367    0.372    0.340  159.552   63.686
  254.750   24.485    0.356    0.327  159.551   60.703
  255.000   28.372    0.325    0.292  159.550   56.824
  255.250   30.268    0.173    0.118  159.548   54.139
  255.500   29.181    0.162    0.124  159.547   53.243
  255.750   25.662    0.185    0.167  159.546   54.137
  256.000   17.934    0.260    0.254  159.545   56.523
  256.250   15.484    0.308    0.333  160.041   60.400
  256.500   14.390    0.341    0.341  160.041   67.261
  256.750   14.262    0.363    0.353  160.038   67.558
  257.000   14.398    0.371    0.350  159.540   65.171
  257.250   14.668    0.371    0.352  159.042   60.696
  257.500   14.944    0.352    0.359  158.544   58.906
  257.750   14.811    0.342    0.348  158.045   59.501
  258.000   14.544    0.350    0.355  157.050   60.694
  258.250   13.895    0.367    0.355  156.552   61.588
  258.500   13.152    0.379    0.342  156.053   65.167
  258.750   12.915    0.388    0.329  156.052   62.481
  259.000   12.800    0.388    0.312  155.554   61.586
  259.250   13.041    0.378    0.317  155.553   63.972
  259.500   14.301    0.371    0.343  155.552   63.971
  259.750   14.569    0.372    0.362  155.550   60.987
  260.000   14.440    0.379    0.362  155.549   60.986
  260.250   14.180    0.389    0.362  155.548   63.671
  260.500   13.798    0.386    0.362  155.547   68.443
  260.750   13.549    0.376    0.358  156.043   68.442
  261.000   13.306    0.360    0.349  156.042   63.967
  261.250   12.947    0.350    0.343  156.041   61.878
  261.500   12.951    0.357    0.343  156.537   63.369
  261.750   13.439    0.363    0.349  157.530   65.158
  262.000   14.075    0.367    0.360  158.523   65.754
  262.250   14.472    0.372    0.364  159.019   66.648
  262.500   14.475    0.372    0.361  159.018   67.841
  262.750   14.215    0.367    0.359  159.514   68.138
  263.000   13.959    0.363    0.361  159.513   68.734
  263.250   13.093    0.360    0.362  159.512   69.032
  263.500   12.167    0.363    0.359  159.511   69.329
  263.750   10.899    0.370    0.357  159.509   71.118
  264.000    8.987    0.396    0.360  159.508   74.101
  264.250    7.689    0.439    0.361  159.507   77.978
  264.500    6.887    0.426    0.346  160.003   79.171
  264.750    7.017    0.422    0.340  160.996   76.485
  265.000    7.349    0.417    0.350  161.493   73.800
  265.250    8.208    0.399    0.357  161.491   72.009
  265.500   11.644    0.359    0.354  161.490   66.043
  265.750   12.768    0.353    0.334  161.489   62.761
  266.000   14.130    0.358    0.328  161.488   63.655
  266.250   14.396    0.347    0.320  160.990   65.146
  266.500   14.137    0.343    0.314  160.988   66.338
  266.750   13.882    0.348    0.314  160.490   68.426
  267.000   13.384    0.369    0.317  160.489   73.198
  267.250   12.905    0.386    0.321  160.488   72.004
  267.500   12.790    0.393    0.318  160.984   66.335
  267.750   13.030    0.385    0.310  160.983   65.440
  268.000   13.275    0.381    0.304  160.981   67.826
  268.250   13.156    0.380    0.299  160.980   66.632
  268.500   13.160    0.380    0.298  160.979   64.245
  268.750   13.408    0.377    0.303  160.978   61.559
  269.000   14.435    0.373    0.320  160.978   59.172
  269.250   15.117    0.370    0.330  160.975   58.575
  269.500   14.983    0.366    0.352  160.975   60.066
  269.750   14.713    0.369    0.354  160.974   63.645
  270.000   14.583    0.377    0.347  160.972   67.522
  270.250   14.856    0.383    0.349  160.971   66.924
  270.500   15.275    0.382    0.354  161.467   64.537
  270.750   15.999    0.367    0.360  161.466   60.957
  271.000   16.002    0.359    0.360  161.962   61.255
  271.250   15.715    0.354    0.354  162.458   64.834
  271.500   15.432    0.349    0.349  162.457   65.728
  271.750   15.294    0.345    0.343  162.953   62.744
  272.000   15.158    0.332    0.339  162.952   60.357
  272.250   15.023    0.322    0.331  162.951   60.655
  272.500   15.027    0.315    0.321  162.949   60.057
  272.750   15.031    0.318    0.319  162.451   59.162
