~VERSION INFORMATION
 VERS.                 2.0:   CWLS LOG ASCII STANDARD -VERSION 2.0
 WRAP.                  NO:   ONE LINE PER DEPTH STEP
~WELL INFORMATION BLOCK
#MNEM.UNIT           DATA                    DESCRIPTION OF MNEMONIC
#---------    -------------------            -------------------------------
# Generated from Intellog Unique Number	CW_70_72/WELL/702
NULL.         -999.25                        : NULL_VALUE
WELL.         LANDBANK ET AL VICTOR 06-26    : Well_name    - WELL              
LOC .         06-26-071-01W5                 : Location     - LOCATION          
UWI .         00/06-26-071-01W5/0            : Uwi          - UNIQUE WELL ID    
ENTR.         JAYE                           : Entered      - ENTERED BY        
SRVC.         SCHLUMBERGER                   : Scn          - SERVICE COMPANY   
DATE.         20 NOV 79                      : Date         - LOG DATE          
STRT.M        410                            : top_depth    - START DEPTH       
STOP.M        665                            : bot_depth    - STOP DEPTH        
STEP.M        0.25                           : increment    - STEP LENGTH       
~CURVE INFORMATION BLOCK
#MNEM UNIT       ERCB CURVE CODE    CURVE DESCRIPTION
#-----------   ------------------   ----------------------------------
DEPT.M        00 001 00 00         : DEPTH        - DEPTH                       
DPHI.V/V      00 890 00 00         : PHID         - DENSITY POROSITY (SANDSTONE)
NPHI.V/V      00 330 00 00         : PHIN         - NEUTRON POROSITY (SANDSTONE)
GR  .API      00 310 00 00         : GR           - GAMMA RAY                   
CALI.MM       00 280 01 00         : CAL          - CALIPER                     
ILD .OHMM     00 120 00 00         : RESD         - DEEP RESISTIVITY (DIL)      
~PARAMETER INFORMATION       
#MNEM.UNIT           DATA             DESCRIPTION OF MNEMONIC
#---------         -----------     ------------------------------
GL  .M        603.9                : gl           - GROUND LEVEL ELEVATION      
EREF.M        607.7                : kb           - ELEVATION OF DEPTH REFERENCE
DATM.M        603.9                : datum        - DATUM ELEVATION             
TDD .M        679                  : tdd          - TOTAL DEPTH DRILLER         
RUN .         ONE                  : Run          - RUN NUMBER                  
ENG .         WALTERHOUSE          : Engineer     - RECORDING ENGINEER          
WIT .         LOWTHER              : Witness      - WITNESSED BY                
BASE.         EDM                  : Branch       - HOME BASE OF LOGGING UNIT   
MUD .         GEL CHEM             : Mud_type     - MUD TYPE                    
MATR.         SANDSTONE            : Logunit      - NEUTRON MATRIX              
TMAX.C        41.7                 : BHT          - MAXIMUM RECORDED TEMPERATURE
BHTD.M        680                  : BHTDEP       - MAXIMUM RECORDED TEMPERATURE
RMT .C        20                   : MDTP         - TEMPERATURE OF MUD          
MUDD.KG/M     1090                 : MWT          - MUD DENSITY                 
NEUT.         1                    : NEUTRON      - NEUTRON TYPE                
RESI.         0                    : RESIST       - RESISTIVITY TYPE            
RM  .OHMM     2.97                 : RM           - RESISTIVITY OF MUD          
RMC .OHMM     0                    : RMC          - RESISTIVITY OF MUD CAKE     
RMF .OHMM     3.58                 : RMF          - RESISTIVITY OF MUD FILTRATE 
SUFT.C        0                    : SUFT         - SURFACE TEMPERATURE         
~A  DEPTH     PHID     PHIN       GR      CAL     RESD
  410.000    0.206    0.552  115.131  167.030    2.228
  410.250    0.192    0.547  116.936  169.728    2.254
  410.500    0.192    0.532  117.932  170.350    2.277
  410.750    0.194    0.526  118.181  171.698    2.283
  411.000    0.195    0.522  120.609  176.368    2.292
  411.250    0.184    0.512  121.231  171.905    2.285
  411.500    0.196    0.505  117.931  168.895    2.269
  411.750    0.209    0.504  115.751  166.300    2.253
  412.000    0.222    0.513  112.825  166.507    2.241
  412.250    0.219    0.528  110.707  166.922    2.259
  412.500    0.201    0.559  109.399  167.440    2.214
  412.750    0.209    0.512  105.725  168.270    2.161
  413.000    0.227    0.509  102.238  169.100    2.150
  413.250    0.226    0.510  100.806  169.099    2.238
  413.500    0.228    0.509   99.934  168.165    2.388
  413.750    0.225    0.503   98.439  168.891    2.495
  414.000    0.208    0.488   97.442  171.796    2.587
  414.250    0.216    0.449   95.263  167.126    2.723
  414.500    0.205    0.454   92.834  160.380    2.776
  414.750    0.202    0.464   90.592  155.190    2.731
  415.000    0.199    0.473   92.024  157.888    2.616
  415.250    0.203    0.487   94.141  161.105    2.488
  415.500    0.230    0.521   91.152  167.538    2.480
  415.750    0.222    0.553   83.680  172.727    2.505
  416.000    0.233    0.454   75.087  177.085    2.563
  416.250    0.243    0.427   68.548  162.763    2.653
  416.500    0.241    0.425   65.435  154.253    2.751
  416.750    0.240    0.435   71.972  150.205    2.810
  417.000    0.239    0.449   81.125  152.488    2.903
  417.250    0.226    0.459   80.565  156.120    2.976
  417.500    0.230    0.454   73.840  160.478    3.110
  417.750    0.252    0.437   69.792  156.637    3.194
  418.000    0.243    0.434   66.554  152.590    3.196
  418.250    0.248    0.441   63.876  150.617    3.103
  418.500    0.257    0.437   60.825  149.994    2.945
  418.750    0.266    0.411   58.272  149.267    2.774
  419.000    0.279    0.414   56.279  149.267    2.618
  419.250    0.279    0.423   55.220  149.785    2.498
  419.500    0.285    0.428   55.033  149.992    2.416
  419.750    0.282    0.425   55.655  150.303    2.363
  420.000    0.290    0.425   57.149  150.510    2.325
  420.250    0.292    0.426   57.585  150.821    2.317
  420.500    0.284    0.429   57.896  151.443    2.327
  420.750    0.290    0.432   57.584  151.650    2.346
  421.000    0.301    0.436   58.144  151.858    2.387
  421.250    0.290    0.434   59.452  151.857    2.438
  421.500    0.273    0.421   59.576  151.857    2.621
  421.750    0.248    0.437   58.144  151.649    2.936
  422.000    0.219    0.417   54.968  151.856    3.308
  422.250    0.169    0.392   52.477  152.789    3.664
  422.500    0.131    0.376   53.473  153.204    4.043
  422.750    0.178    0.403   64.867  153.307    4.045
  423.000    0.202    0.401   73.584  153.203    3.846
  423.250    0.228    0.404   82.737  152.476    3.469
  423.500    0.254    0.442   93.758  151.853    3.207
  423.750    0.260    0.460  101.043  151.022    2.981
  424.000    0.252    0.465  106.771  150.814    2.840
  424.250    0.207    0.477  110.258  152.370    2.788
  424.500    0.187    0.462  109.822  154.653    2.758
  424.750    0.181    0.466  110.133  160.256    2.760
  425.000    0.188    0.471  108.389  167.417    2.782
  425.250    0.208    0.478  106.272  174.058    2.858
  425.500    0.225    0.494  105.586  164.199    2.936
  425.750    0.264    0.526   99.297  162.226    2.998
  426.000    0.315    0.582   94.316  163.160    3.040
  426.250    0.336    0.604   98.238  163.263    3.019
  426.500    0.281    0.612   95.249  167.414    2.981
  426.750    0.245    0.574   95.685  169.385    2.932
  427.000    0.237    0.559   96.867  162.535    2.868
  427.250    0.231    0.559   97.926  165.441    2.789
  427.500    0.220    0.548   96.555  169.176    2.754
  427.750    0.241    0.544   94.812  170.213    2.740
  428.000    0.247    0.548   92.010  167.515    2.741
  428.250    0.239    0.556   93.815  163.156    2.712
  428.500    0.229    0.565   96.803  163.985    2.723
  428.750    0.204    0.577  101.411  168.032    2.709
  429.000    0.242    0.589  101.660  172.183    2.711
  429.250    0.245    0.556  102.095  170.937    2.717
  429.500    0.240    0.572  103.901  172.389    2.734
  429.750    0.246    0.601  105.582  177.785    2.772
  430.000    0.263    0.596  107.449  174.775    2.820
  430.250    0.257    0.581  107.760  171.454    2.843
  430.500    0.255    0.560  105.581  176.227    2.845
  430.750    0.262    0.544  100.786  175.604    2.830
  431.000    0.272    0.569   97.486  164.396    2.742
  431.250    0.265    0.546   93.313  172.490    2.677
  431.500    0.268    0.491   93.811  165.018    2.614
  431.750    0.286    0.497   98.668  154.743    2.561
  432.000    0.240    0.546  100.037  158.582    2.543
  432.250    0.249    0.557   98.107  164.290    2.535
  432.500    0.243    0.548   96.114  168.129    2.551
  432.750    0.230    0.522   94.183  166.572    2.586
  433.000    0.197    0.498   90.572  164.288    2.646
  433.250    0.212    0.500   91.443  162.524    2.678
  433.500    0.207    0.524   96.362  161.797    2.694
  433.750    0.219    0.546   95.241  161.070    2.716
  434.000    0.233    0.557   97.669  160.654    2.738
  434.250    0.235    0.562   94.057  160.342    2.791
  434.500    0.242    0.577   90.072  160.653    2.851
  434.750    0.228    0.546   85.775  161.483    2.957
  435.000    0.230    0.536   83.222  163.143    3.072
  435.250    0.238    0.517   80.793  162.935    3.144
  435.500    0.240    0.514   81.540  161.066    3.181
  435.750    0.235    0.524   83.906  153.698    3.194
  436.000    0.250    0.507   87.330  154.424    3.184
  436.250    0.240    0.521   92.561  168.122    3.138
  436.500    0.228    0.537   95.798  168.225    3.063
  436.750    0.243    0.557   96.981  165.527    2.979
  437.000    0.251    0.581   96.420  166.252    2.838
  437.250    0.265    0.587   95.735  165.526    2.699
  437.500    0.268    0.584   97.478  170.506    2.561
  437.750    0.253    0.587   99.221  176.629    2.381
  438.000    0.256    0.587   96.668  178.600    2.294
  438.250    0.246    0.583   94.800  169.571    2.334
  438.500    0.235    0.563   93.928  162.306    2.509
  438.750    0.189    0.527   95.111  161.372    2.697
  439.000    0.171    0.530   97.912  162.409    2.834
  439.250    0.219    0.545  104.512  160.333    2.922
  439.500    0.245    0.561  107.065  161.163    2.962
  439.750    0.225    0.571  106.317  163.653    2.969
  440.000    0.209    0.568  106.255  165.936    2.954
  440.250    0.209    0.559  103.079  169.256    2.922
  440.500    0.235    0.544   99.530  170.708    2.902
  440.750    0.228    0.529  100.775  170.812    2.881
  441.000    0.220    0.529  105.444  170.707    2.872
  441.250    0.225    0.537  103.327  170.396    2.862
  441.500    0.237    0.557  102.455  170.291    2.842
  441.750    0.242    0.572  102.891  169.979    2.817
  442.000    0.235    0.559  103.887  169.564    2.803
  442.250    0.239    0.550  106.190  169.356    2.820
  442.500    0.233    0.550  104.011  168.733    2.837
  442.750    0.225    0.544  100.772  167.695    2.855
  443.000    0.212    0.542   99.527  166.241    2.862
  443.250    0.227    0.538   98.343  164.995    2.847
  443.500    0.235    0.528   97.658  163.438    2.838
  443.750    0.231    0.519   97.845  162.504    2.828
  444.000    0.226    0.543   99.028  162.607    2.814
  444.250    0.233    0.538  101.207  164.786    2.789
  444.500    0.224    0.527  104.506  169.559    2.754
  444.750    0.218    0.522  108.304  170.285    2.724
  445.000    0.217    0.534  105.689  169.558    2.685
  445.250    0.227    0.545  102.451  172.775    2.636
  445.500    0.241    0.549  101.081  175.888    2.598
  445.750    0.232    0.543   99.212  175.991    2.560
  446.000    0.235    0.533   91.989  175.783    2.528
  446.250    0.246    0.532   86.011  174.745    2.487
