~VERSION INFORMATION
 VERS.                 2.0:   CWLS LOG ASCII STANDARD -VERSION 2.0
 WRAP.                  NO:   ONE LINE PER DEPTH STEP
~WELL INFORMATION BLOCK
#MNEM.UNIT           DATA                    DESCRIPTION OF MNEMONIC
#---------    -------------------            -------------------------------
# Generated from Intellog Unique Number	CS_73_76/WELL/637
WELL.         AMOCO AEC IPIATIK              : Well_name    - WELL
LOC .         00/06-13-073-06W4/0            : Location     - LOCATION
UWI .         00/06-13-073-06W4/0            : Uwi          - UNIQUE WELL ID
ENTR.         SP                             : Entered      - ENTERED BY
SRVC.         SCHLUMBERGER                   : Scn          - SERVICE COMPANY
STRT.M        305                            : top_depth    - START DEPTH
STOP.M        550                            : bot_depth    - STOP DEPTH
STEP.M        0.25                           : increment    - STEP LENGTH
 NULL. -999.2500:NULL Value
~CURVE INFORMATION BLOCK
#MNEM UNIT       ERCB CURVE CODE    CURVE DESCRIPTION
#-----------   ------------------   ----------------------------------
DEPT.M        00 001 00 00         : DEPTH        - DEPTH
ILD .OHMM     00 120 00 00         : RESD         - DEEP RESISTIVITY (DIL)
DPHI.V/V      00 890 00 00         : PHID         - DENSITY POROSITY (LIMESTONE)
NPHI.V/V      00 330 00 00         : PHIN         - NEUTRON POROSITY (LIMESTONE)
GR  .API      00 310 00 00         : GR           - GAMMA RAY
~PARAMETER INFORMATION
#MNEM.UNIT           DATA             DESCRIPTION OF MNEMONIC
#---------         -----------     ------------------------------
GL  .M        693.7                : gl           - GROUND LEVEL ELEVATION
EREF.M        697.9                : kb           - ELEVATION OF DEPTH REFERENCE
DATM.M        693.7                : datum        - DATUM ELEVATION
TDD .M        570                  : tdd          - TOTAL DEPTH DRILLER
RUN .         ONE                  : Run          - RUN NUMBER
ENG .         BILL                 : Engineer     - RECORDING ENGINEER
WIT .         JIM                  : Witness      - WITNESSED BY
MUD .         GEL                  : Mud_type     - MUD TYPE
MATR.         LIMESTONE            : Logunit      - NEUTRON MATRIX
TMAX.C        20                   : BHT          - MAXIMUM RECORDED TEMPERATURE
BHTD.M        570                  : BHTDEP       - MAXIMUM RECORDED TEMPERATURE
MATR.         1                    : LOGUNIT      - NEUTRON MATRIX
RMT .C        25                   : MDTP         - TEMPERATURE OF MUD
NEUT.         1                    : NEUTRON      - NEUTRON TYPE
RESI.         0                    : RESIST       - RESISTIVITY TYPE
RMC .OHMM     0.25                 : RMC          - RESISTIVITY OF MUD CAKE
RMF .OHMM     0.25                 : RMF          - RESISTIVITY OF MUD FILTRATE
SUFT.C        15                   : SUFT         - SURFACE TEMPERATURE
~A  DEPTH     RESD     PHID     PHIN       GR
# ...
  479.000    8.256    0.330    0.464   51.489
  479.250    8.101    0.324    0.461   52.102
  479.500    8.409    0.313    0.459   53.317
  479.750    8.893    0.299    0.471   53.930
  480.000    9.405    0.297    0.443   53.328
  480.250    9.763    0.312    0.415   53.335
  480.500    9.945    0.316    0.403   53.342
  480.750    9.759    0.306    0.399   53.952
  481.000    9.576    0.285    0.401   56.983
  481.250    9.576    0.272    0.415   58.803
  481.500    9.755    0.266    0.399   60.625
  481.750   10.912    0.277    0.388   60.630
  482.000   11.541    0.280    0.381   59.428
  482.250   12.437    0.283    0.392   53.989
  482.500   13.152    0.290    0.395   47.948
  482.750   13.399    0.295    0.384   46.138
  483.000   13.397    0.276    0.368   59.452
  483.250   12.902    0.256    0.357   70.346
  483.500   11.529    0.256    0.357   75.794
  483.750   10.498    0.258    0.365   83.059
  484.000    8.704    0.202    0.373   87.903
  484.250    7.778    0.178    0.393   90.934
  484.500    6.695    0.165    0.405   93.965
  484.750    6.211    0.181    0.401   92.158
  485.000    6.095    0.189    0.385   88.535
  485.250    6.446    0.175    0.383   84.911
  485.500    7.077    0.164    0.388   81.892
  485.750    8.066    0.213    0.396   81.899
  486.000    9.909    0.263    0.404   79.485
  486.250   12.637    0.269    0.390   70.418
  486.500   15.237    0.268    0.382   60.747
  486.750   17.695    0.267    0.368   64.990
  487.000   16.726    0.264    0.378   69.229
  487.250   12.867    0.240    0.380   74.678
  487.500   11.499    0.214    0.371   79.523
  487.750    9.013    0.196    0.360   82.553
  488.000    8.362    0.177    0.354   85.584
  488.250    8.053    0.175    0.345   87.405
  488.500    8.358    0.182    0.352   89.830
  488.750    8.840    0.198    0.358   94.675
  489.000    9.705    0.223    0.361  103.149
  489.250   10.459    0.233    0.368  111.017
  489.500   11.061    0.232    0.386  125.540
  489.750   12.144    0.243    0.401  140.668
  490.000   13.586    0.260    0.402  143.093
  490.250   17.325    0.274    0.406  123.744
  490.500   20.122    0.288    0.412   98.347
  490.750   25.186    0.299    0.398   73.555
  491.000   32.120    0.318    0.372   63.278
  491.250   40.204    0.311    0.389   59.656
  491.500   41.730    0.303    0.407   62.686
  491.750   32.710    0.293    0.413   64.506
  492.000   28.689    0.287    0.420   63.305
  492.250   26.121    0.287    0.436   59.681
  492.500   25.631    0.305    0.431   56.663
  492.750   26.111    0.315    0.423   56.669
  493.000   28.137    0.309    0.449   61.513
  493.250   29.758    0.291    0.458   65.754
  493.500   29.201    0.259    0.465   69.389
  493.750   23.763    0.249    0.447   72.419
  494.000   17.942    0.254    0.425   76.056
  494.250   13.547    0.259    0.398   79.086
  494.500   10.820    0.244    0.374   83.931
  494.750    8.324    0.232    0.382   88.776
  495.000    7.438    0.222    0.392   94.226
  495.250    6.647    0.216    0.396   99.070
  495.500    6.282    0.208    0.404  102.704
  495.750    6.282    0.197    0.414  103.920
  496.000    6.400    0.192    0.415  103.322
  496.250    6.519    0.209    0.398  100.909
  496.500    6.641    0.210    0.390  102.730
  496.750    7.291    0.188    0.392  105.157
  497.000    7.711    0.181    0.397  101.533
  497.250    8.155    0.190    0.405   86.418
  497.500    8.788    0.205    0.386   74.933
  497.750    9.649    0.201    0.352   69.494
  498.000   10.205    0.168    0.323   64.057
  498.250   11.415    0.145    0.297   61.644
  498.500   11.630    0.145    0.303   65.279
  498.750   11.412    0.174    0.332   66.494
  499.000   10.787    0.206    0.358   59.847
  499.250   10.389    0.229    0.344   59.248
  499.500    9.819    0.252    0.338   62.280
  499.750   10.192    0.231    0.338   64.100
  500.000   11.390    0.265    0.375   64.970
  500.250   12.255    0.269    0.387   63.137
  500.500   12.477    0.256    0.383   60.087
  500.750   12.459    0.261    0.396   57.029
  501.000   11.989    0.270    0.412   63.087
  501.250   11.322    0.258    0.421   70.964
  501.500   10.099    0.236    0.381   74.597
  501.750    9.719    0.212    0.371   80.048
  502.000    9.179    0.200    0.386   81.248
  502.250    9.001    0.238    0.397   72.732
  502.500    9.158    0.264    0.385   65.428
  502.750    9.859    0.290    0.364   62.378
  503.000   10.034    0.272    0.350   62.970
  503.250    9.830    0.263    0.355   61.742
  503.500    9.462    0.248    0.344   64.156
  503.750    8.769    0.216    0.319   65.354
  504.000    8.280    0.190    0.305   73.234
  504.250    7.817    0.197    0.320   81.717
  504.500    7.666    0.178    0.327   87.165
  504.750    7.515    0.177    0.328   88.977
  505.000    7.500    0.191    0.332   90.782
  505.250    7.489    0.204    0.345   87.729
  505.500    7.772    0.217    0.376   85.893
  505.750    7.761    0.235    0.378   85.875
  506.000    7.902    0.230    0.372   85.864
  506.250    8.041    0.227    0.370   84.633
  506.500    8.654    0.241    0.381   83.407
  506.750    9.137    0.244    0.392   84.605
  507.000    9.298    0.241    0.377   90.056
  507.250    9.465    0.242    0.377  104.004
  507.500    9.457    0.234    0.376  113.099
  507.750    9.448    0.240    0.372  119.159
  508.000    9.259    0.228    0.353  119.752
  508.250    9.079    0.206    0.352  113.054
  508.500    8.733    0.183    0.341  112.434
  508.750    8.243    0.198    0.342  117.885
  509.000    8.083    0.224    0.366  122.121
  509.250    7.778    0.234    0.375  114.815
  509.500    7.627    0.244    0.375  108.120
  509.750    7.201    0.252    0.373  102.036
  510.000    6.928    0.239    0.370   92.910
  510.250    6.418    0.233    0.362   89.861
  510.500    6.292    0.223    0.353   89.847
  510.750    6.285    0.223    0.345   89.829
  511.000    6.278    0.247    0.353   87.992
  511.250    6.388    0.260    0.362   81.294
  511.500    6.381    0.271    0.353   77.029
  511.750    6.491    0.268    0.350   70.336
  512.000    6.485    0.276    0.367   64.251
  512.250    6.240    0.285    0.372   59.986
  512.500    5.673    0.287    0.362   61.185
  512.750    5.258    0.287    0.368   56.919
  513.000    5.061    0.295    0.383   52.047
  513.250    4.871    0.303    0.390   47.782
  513.500    4.513    0.304    0.382   44.728
  513.750    4.262    0.284    0.376   48.353
  514.000    4.022    0.282    0.384   50.766
  514.250    4.020    0.289    0.393   51.967
  514.500    3.941    0.297    0.398   52.562
  514.750    3.863    0.312    0.394   50.727
  515.000    3.784    0.293    0.383   54.356
  515.250    3.710    0.276    0.382   57.377
  515.500    3.638    0.283    0.390   54.932
  515.750    3.567    0.285    0.371   49.452
  516.000    3.432    0.287    0.382   43.361
  516.250    3.364    0.301    0.392   38.491
  516.500    3.175    0.308    0.388   34.225
  516.750    3.114    0.318    0.385   33.602
  517.000    2.995    0.329    0.388   34.800
  517.250    2.937    0.337    0.399   36.003
  517.500    2.878    0.338    0.411   39.628
  517.750    2.822    0.338    0.429   40.220
  518.000    2.819    0.340    0.404   36.563
  518.250    2.764    0.335    0.387   31.686
  518.500    2.758    0.326    0.391   34.101
  518.750    2.705    0.316    0.391   38.945
  519.000    2.751    0.312    0.382   41.967
  519.250    2.749    0.316    0.390   41.955
  519.500    2.747    0.323    0.395   41.330
  519.750    2.794    0.325    0.389   44.349
  520.000    2.898    0.329    0.398   50.410
  520.250    3.005    0.293    0.401   59.504
  520.500    3.176    0.259    0.405   71.634
  520.750    3.682    0.232    0.403   89.837
  521.000    3.820    0.226    0.435   94.072
  521.250    4.035    0.220    0.450   88.589
  521.500    4.184    0.247    0.427   83.112
  521.750    4.024    0.256    0.408   75.807
  522.000    3.799    0.233    0.408   69.720
  522.250    3.658    0.289    0.411   53.918
