~VERSION INFORMATION
 VERS.                 2.0:   CWLS LOG ASCII STANDARD -VERSION 2.0
 WRAP.                  NO:   ONE LINE PER DEPTH STEP
~WELL INFORMATION BLOCK
#MNEM.UNIT           DATA                    DESCRIPTION OF MNEMONIC
#---------    -------------------            -------------------------------
# Generated from Intellog Unique Number	CS_73_76/WELL/4759
WELL.         AMOCO KIRBY                    : Well_name    - WELL
LOC .         00/07-35-073-05W4/0            : Location     - LOCATION
UWI .         00/07-35-073-05W4/0            : Uwi          - UNIQUE WELL ID
ENTR.         T                              : Entered      - ENTERED BY
SRVC.         SCHLUMBERGER                   : Scn          - SERVICE COMPANY
STRT.M        265                            : top_depth    - START DEPTH
STOP.M        495                            : bot_depth    - STOP DEPTH
STEP.M        0.25                           : increment    - STEP LENGTH
 NULL. -999.2500:NULL Value
~CURVE INFORMATION BLOCK
#MNEM UNIT       ERCB CURVE CODE    CURVE DESCRIPTION
#-----------   ------------------   ----------------------------------
DEPT.M        00 001 00 00         : DEPTH        - DEPTH
GR  .API      00 310 00 00         : GR           - GAMMA RAY
NPHI.V/V      00 330 00 00         : PHIN         - NEUTRON POROSITY (SANDSTONE)
DPHI.V/V      00 890 00 00         : PHID         - DENSITY POROSITY (SANDSTONE)
ILD .OHMM     00 120 00 00         : RESD         - DEEP RESISTIVITY (DIL)
~PARAMETER INFORMATION
#MNEM.UNIT           DATA             DESCRIPTION OF MNEMONIC
#---------         -----------     ------------------------------
GL  .M        660.7                : gl           - GROUND LEVEL ELEVATION
EREF.M        664.4                : kb           - ELEVATION OF DEPTH REFERENCE
DATM.M        664.4                : datum        - DATUM ELEVATION
TDD .M        500                  : tdd          - TOTAL DEPTH DRILLER
RUN .         ONE                  : Run          - RUN NUMBER
ENG .         BILL                 : Engineer     - RECORDING ENGINEER
WIT .         JIM                  : Witness      - WITNESSED BY
MUD .         GEL                  : Mud_type     - MUD TYPE
MATR.         SANDSTONE            : Logunit      - NEUTRON MATRIX
TMAX.C        24                   : BHT          - MAXIMUM RECORDED TEMPERATURE
BHTD.M        500                  : BHTDEP       - MAXIMUM RECORDED TEMPERATURE
MATR.         1                    : LOGUNIT      - NEUTRON MATRIX
RMT .C        23                   : MDTP         - TEMPERATURE OF MUD
NEUT.         1                    : NEUTRON      - NEUTRON TYPE
RESI.         0                    : RESIST       - RESISTIVITY TYPE
RMC .OHMM     0.38                 : RMC          - RESISTIVITY OF MUD CAKE
RMF .OHMM     0.45                 : RMF          - RESISTIVITY OF MUD FILTRATE
SUFT.C        15                   : SUFT         - SURFACE TEMPERATURE
~A  DEPTH       GR     PHIN     PHID     RESD
# ...
  352.000  115.850    0.544    0.247    1.546
  352.250  114.572    0.540    0.247    1.575
  352.500  112.696    0.528    0.246    1.634
  352.750  110.198    0.506    0.245    1.728
  353.000  109.565    0.493    0.244    1.793
  353.250  111.350    0.481    0.244    1.826
  353.500  113.745    0.467    0.244    1.895
  353.750  113.090    0.477    0.244    2.004
  354.000  109.383    0.491    0.243    2.004
  354.250  105.664    0.497    0.236    2.041
  354.500  102.568    0.486    0.235    2.040
  354.750  100.691    0.472    0.235    2.040
  355.000  106.126    0.457    0.240    2.002
  355.250  109.753    0.461    0.245    2.002
  355.500  113.380    0.488    0.249    2.001
  355.750  115.775    0.502    0.246    2.039
  356.000  116.329    0.517    0.243    2.116
  356.250  115.673    0.514    0.238    2.196
  356.500  115.627    0.512    0.238    2.237
  356.750  118.011    0.525    0.241    2.278
  357.000  119.208    0.530    0.242    2.278
  357.250  121.604    0.537    0.243    2.277
  357.500  122.168    0.542    0.245    2.235
  357.750  120.902    0.539    0.251    2.235
  358.000  119.636    0.535    0.251    2.234
  358.250  117.149    0.529    0.249    2.276
  358.500  111.601    0.521    0.243    2.318
  358.750  107.871    0.506    0.239    2.361
  359.000  106.628    0.482    0.233    2.405
  359.250  106.582    0.473    0.226    2.405
  359.500  108.367    0.458    0.221    2.450
  359.750  111.971    0.448    0.217    2.495
  360.000  114.366    0.461    0.218    2.495
  360.250  114.919    0.469    0.219    2.495
  360.500  114.897    0.465    0.221    2.541
  360.750  111.777    0.458    0.221    2.588
  361.000  111.133    0.454    0.220    2.736
  361.250  109.867    0.462    0.218    2.840
  361.500  111.652    0.477    0.216    2.947
  361.750  114.657    0.484    0.216    3.002
  362.000  117.052    0.496    0.216    3.001
  362.250  118.849    0.501    0.220    3.001
  362.500  121.842    0.509    0.225    3.000
  362.750  122.396    0.521    0.228    3.000
  363.000  121.763    0.492    0.234    3.056
  363.250  121.107    0.494    0.235    3.055
  363.500  121.660    0.498    0.229    3.055
  363.750  122.835    0.496    0.221    3.054
  364.000  123.388    0.495    0.219    2.998
  364.250  123.365    0.493    0.215    2.834
  364.500  123.907    0.501    0.216    2.781
  364.750  123.872    0.516    0.218    2.679
  365.000  124.448    0.523    0.222    2.581
  365.250  125.612    0.530    0.223    2.440
  365.500  126.188    0.539    0.224    2.395
  365.750  128.572    0.545    0.228    2.350
  366.000  130.967    0.551    0.233    2.306
  366.250  129.079    0.558    0.237    2.264
  366.500  126.005    0.559    0.254    2.221
  366.750  112.524    0.552    0.258    2.140
  367.000  110.037    0.518    0.264    2.100
  367.250  103.279    0.481    0.269    2.100
  367.500   97.120    0.451    0.273    2.099
  367.750   97.696    0.440    0.277    2.099
  368.000  100.068    0.433    0.290    2.138
  368.250  100.656    0.436    0.297    2.138
  368.500  102.441    0.444    0.293    2.177
  368.750  105.446    0.455    0.287    2.218
  369.000  104.779    0.465    0.283    2.259
  369.250  102.292    0.478    0.266    2.301
  369.500  100.416    0.480    0.242    2.388
  369.750   99.772    0.469    0.248    2.344
  370.000  101.534    0.465    0.254    2.343
  370.250  102.720    0.449    0.265    2.343
  370.500  103.296    0.446    0.287    2.343
  370.750  103.250    0.443    0.298    2.431
  371.000   98.933    0.428    0.307    2.570
  371.250   95.836    0.406    0.316    2.717
  371.500   88.445    0.388    0.323    2.820
  371.750   85.360    0.373    0.326    3.038
  372.000   81.043    0.360    0.316    3.212
  372.250   75.506    0.339    0.110    3.333
  372.500   70.578    0.319    0.132    3.524
  372.750   70.533    0.350    0.158    3.523
  373.000   75.369    0.398    0.182    3.523
  373.250   90.555    0.432    0.186    3.457
  373.500   94.182    0.446    0.226    3.330
  373.750   97.199    0.464    0.234    3.330
  374.000  100.815    0.467    0.258    3.654
  374.250   96.498    0.463    0.278    3.792
  374.500   86.078    0.457    0.284    3.721
  374.750   85.423    0.447    0.262    3.390
  375.000   85.976    0.452    0.249    2.813
  375.250   85.320    0.459    0.232    2.516
  375.500   82.833    0.454    0.228    2.291
  375.750   82.776    0.450    0.254    2.249
  376.000   86.403    0.459    0.284    2.248
  376.250   91.251    0.457    0.296    2.248
  376.500   96.697    0.446    0.292    2.290
  376.750  101.533    0.438    0.266    2.376
  377.000  103.928    0.447    0.242    2.466
  377.250  106.922    0.461    0.239    2.559
  377.500  105.667    0.467    0.235    2.607
  377.750  104.401    0.474    0.229    2.656
  378.000  104.966    0.472    0.208    2.655
  378.250  106.751    0.466    0.210    2.655
  378.500  108.524    0.463    0.217    2.605
  378.750  108.467    0.459    0.226    2.557
  379.000  107.834    0.449    0.233    2.509
  379.250  105.348    0.450    0.239    2.604
  379.500  104.082    0.457    0.237    2.652
  379.750  108.308    0.471    0.225    2.753
  380.000  113.144    0.484    0.225    2.804
  380.250  118.590    0.493    0.232    2.803
  380.500  122.194    0.523    0.251    2.602
  380.750  120.917    0.540    0.255    2.506
  381.000  120.284    0.552    0.245    2.326
  381.250  116.577    0.547    0.232    2.283
  381.500  116.531    0.533    0.228    2.240
  381.750  119.536    0.532    0.240    2.158
  382.000  122.530    0.575    0.247    2.157
  382.250  122.485    0.573    0.255    2.117
  382.500  121.219    0.560    0.260    2.078
  382.750  119.354    0.548    0.261    2.002
  383.000  115.037    0.518    0.259    1.892
  383.250  109.499    0.466    0.256    1.823
  383.500  103.351    0.424    0.252    1.789
  383.750   96.582    0.389    0.250    1.756
  384.000   92.265    0.368    0.253    1.723
  384.250   86.716    0.349    0.264    1.723
  384.500   84.230    0.325    0.302    1.755
  384.750   81.144    0.310    0.318    1.821
  385.000   77.426    0.296    0.316    2.036
  385.250   74.939    0.275    0.238    2.498
  385.500   73.674    0.264    0.205    3.493
  385.750   75.458    0.259    0.174    4.053
  386.000   79.673    0.268    0.181    5.067
  386.250   79.028    0.296    0.238    5.991
  386.500   77.152    0.309    0.281    6.824
  386.750   75.276    0.318    0.315    6.951
  387.000   73.400    0.346    0.330    6.696
  387.250   70.913    0.364    0.329    6.331
  387.500   69.037    0.384    0.313    5.986
  387.750   67.771    0.375    0.243    5.555
  388.000   64.674    0.365    0.195    5.155
  388.250   62.798    0.346    0.182    4.875
  388.500   65.803    0.346    0.139    4.358
  388.750   71.249    0.365    0.231    4.199
  389.000   74.243    0.360    0.313    3.896
  389.250   74.209    0.358    0.328    4.043
  389.500   74.152    0.351    0.320    4.196
  389.750   73.485    0.349    0.320    4.520
  390.000   73.462    0.349    0.323    4.690
  390.250   74.614    0.350    0.328    4.604
  390.500   75.201    0.348    0.333    4.518
  390.750   76.975    0.346    0.336    4.352
  391.000   77.539    0.346    0.345    4.271
  391.250   77.505    0.352    0.344    4.038
  391.500   77.460    0.363    0.339    3.963
  391.750   76.182    0.370    0.332    3.817
  392.000   74.306    0.376    0.326    3.746
  392.250   72.430    0.384    0.320    3.746
  392.500   69.333    0.388    0.287    3.745
  392.750   67.457    0.366    0.275    3.744
  393.000   70.462    0.327    0.234    3.607
  393.250   71.038    0.321    0.164    3.410
  393.500   70.371    0.341    0.187    3.285
  393.750   70.302    0.336    0.207    3.049
  394.000   70.268    0.302    0.156    2.829
  394.250   70.832    0.269    0.080    2.725
  394.500   73.228    0.309    0.080    2.725
  394.750   75.623    0.343    0.132    2.725
  395.000   76.820    0.395    0.177    2.724
  395.250   77.984    0.423    0.206    2.724
