~VERSION INFORMATION
 VERS.                 2.0:   CWLS LOG ASCII STANDARD -VERSION 2.0
 WRAP.                  NO:   ONE LINE PER DEPTH STEP
~WELL INFORMATION BLOCK
#MNEM.UNIT           DATA                    DESCRIPTION OF MNEMONIC
#---------    -------------------            -------------------------------
# Generated from Intellog Unique Number	CW_73_75/WELL/2726
WELL.         UNIGAS ET AL TOMATO 05-02      : Well_name    - WELL
LOC .         00/05-02-073-23W4/0            : Location     - LOCATION
UWI .         00/05-02-073-23W4/0            : Uwi          - UNIQUE WELL ID
ENTR.         JAYE                           : Entered      - ENTERED BY
SRVC.         SCHLUMBERGER                   : Scn          - SERVICE COMPANY
DATE.         14 DEC 80                      : Date         - LOG DATE
STRT.M        325                            : top_depth    - START DEPTH
STOP.M        622                            : bot_depth    - STOP DEPTH
STEP.M        0.25                           : increment    - STEP LENGTH
 NULL. -999.2500:NULL Value
~CURVE INFORMATION BLOCK
#MNEM UNIT       ERCB CURVE CODE    CURVE DESCRIPTION
#-----------   ------------------   ----------------------------------
DEPT.M        00 001 00 00         : DEPTH        - DEPTH
ILD .OHMM     00 120 00 00         : RESD         - DEEP RESISTIVITY (DIL)
NPHI.V/V      00 330 00 00         : PHIN         - NEUTRON POROSITY (SANDSTONE)
DPHI.V/V      00 890 00 00         : PHID         - DENSITY POROSITY (SANDSTONE)
GR  .API      00 310 00 00         : GR           - GAMMA RAY
CALI.MM       00 280 01 00         : CAL          - CALIPER
~PARAMETER INFORMATION
#MNEM.UNIT           DATA             DESCRIPTION OF MNEMONIC
#---------         -----------     ------------------------------
GL  .M        625                  : gl           - GROUND LEVEL ELEVATION
EREF.M        627.5                : kb           - ELEVATION OF DEPTH REFERENCE
DATM.M        625                  : datum        - DATUM ELEVATION
TDD .M        624                  : tdd          - TOTAL DEPTH DRILLER
RUN .         ONE                  : Run          - RUN NUMBER
ENG .         KUZIO                : Engineer     - RECORDING ENGINEER
BASE.         EDM                  : Branch       - HOME BASE OF LOGGING UNIT
MUD .         GEL CHEM             : Mud_type     - MUD TYPE
MATR.         SANDSTONE            : Logunit      - NEUTRON MATRIX
TMAX.C        23.3                 : BHT          - MAXIMUM RECORDED TEMPERATURE
BHTD.M        625                  : BHTDEP       - MAXIMUM RECORDED TEMPERATURE
RMT .C        16.6                 : MDTP         - TEMPERATURE OF MUD
MUDD.KG/M     1110                 : MWT          - MUD DENSITY
NEUT.         1                    : NEUTRON      - NEUTRON TYPE
RESI.         0                    : RESIST       - RESISTIVITY TYPE
RM  .OHMM     3.19                 : RM           - RESISTIVITY OF MUD
RMC .OHMM     0                    : RMC          - RESISTIVITY OF MUD CAKE
RMF .OHMM     3.11                 : RMF          - RESISTIVITY OF MUD FILTRATE
SUFT.C        0                    : SUFT         - SURFACE TEMPERATURE
~A  DEPTH     RESD     PHIN     PHID       GR      CAL
# ...
  471.000    4.913    0.449    0.301   70.689  158.161
  471.250    4.988    0.470    0.284   75.211  158.726
  471.500    5.123    0.491    0.262   78.418  159.389
  471.750    5.232    0.510    0.222   82.315  161.203
  472.000    5.384    0.499    0.194   82.216  162.390
  472.250    5.509    0.461    0.183   79.059  163.269
  472.500    5.583    0.443    0.206   76.465  163.833
  472.750    5.636    0.455    0.220   78.302  164.300
  473.000    5.668    0.464    0.225   82.074  164.442
  473.250    5.723    0.459    0.216   84.346  164.387
  473.500    5.733    0.466    0.238   81.940  164.115
  473.750    5.722    0.461    0.272   73.918  162.496
  474.000    5.722    0.453    0.292   66.019  158.487
  474.250    5.711    0.445    0.296   62.926  156.138
  474.500    5.689    0.437    0.301   68.131  155.251
  474.750    5.667    0.427    0.302   71.341  155.502
  475.000    5.678    0.416    0.289   73.928  155.959
  475.250    5.787    0.422    0.278   75.953  157.255
  475.500    5.990    0.439    0.263   76.602  160.002
  475.750    5.978    0.450    0.254   76.753  163.274
  476.000    5.854    0.451    0.255   77.779  164.358
  476.250    5.743    0.448    0.250   79.989  164.403
  476.500    5.666    0.450    0.266   82.762  164.135
  476.750    5.591    0.465    0.284   74.240  163.555
  477.000    5.412    0.477    0.302   69.837  162.769
  477.250    5.279    0.469    0.305   69.550  161.779
  477.500    5.209    0.458    0.314   63.836  161.404
  477.750    5.189    0.440    0.326   62.180  161.241
  478.000    5.179    0.432    0.328   64.577  160.555
  478.250    5.149    0.427    0.324   64.603  159.565
  478.500    5.159    0.420    0.320   56.832  158.985
  478.750    5.139    0.406    0.321   56.673  159.031
  479.000    5.149    0.410    0.325   58.633  159.180
  479.250    5.148    0.438    0.329   60.343  159.218
  479.500    5.139    0.439    0.332   61.306  159.059
  479.750    5.099    0.433    0.333   57.714  158.898
  480.000    5.070    0.445    0.330   58.740  158.943
  480.250    5.099    0.456    0.319   62.199  159.607
  480.500    5.138    0.440    0.294   68.154  160.384
  480.750    5.207    0.446    0.243   75.419  161.049
  481.000    5.287    0.471    0.245   81.999  161.717
  481.250    5.451    0.467    0.267   79.154  162.702
  481.500    5.828    0.431    0.239   77.122  163.262
  481.750    6.523    0.429    0.221   79.084  163.623
  482.000    7.413    0.440    0.207   80.796  162.832
  482.250    8.442    0.440    0.203   80.448  160.589
  482.500   10.083    0.387    0.167   68.495  158.971
  482.750   12.089    0.295    0.142   64.402  159.539
  483.000   12.925    0.262    0.113   61.933  161.140
  483.250   11.928    0.256    0.129   60.775  163.267
  483.500    9.759    0.275    0.117   64.920  164.664
  483.750    7.398    0.301    0.138   70.688  165.540
  484.000    5.996    0.337    0.168   76.891  165.794
  484.250    5.640    0.402    0.198   82.659  165.940
  484.500    5.672    0.450    0.225   79.130  165.880
  484.750    5.781    0.456    0.235   78.034  165.929
  485.000    5.972    0.433    0.214   82.805  165.970
  485.250    6.252    0.437    0.201   88.446  166.123
  485.500    6.483    0.429    0.196   93.155  166.894
  485.750    6.570    0.416    0.197   92.558  167.462
  486.000    6.582    0.429    0.199   90.462  167.920
  486.250    6.532    0.431    0.193   89.301  168.377
  486.500    6.347    0.418    0.184   87.394  168.740
  486.750    6.215    0.424    0.175   87.547  168.991
  487.000    6.109    0.436    0.187   91.816  168.723
  487.250    6.062    0.448    0.220   89.722  165.334
  487.500    6.016    0.440    0.241   85.131  161.221
  487.750    6.039    0.412    0.231   86.720  161.263
  488.000    6.062    0.419    0.216   87.494  163.908
  488.250    6.073    0.438    0.210   85.588  166.243
  488.500    6.143    0.438    0.209   85.552  164.829
  488.750    6.226    0.432    0.204   86.576  163.005
  489.000    6.346    0.434    0.193   89.099  162.426
  489.250    6.419    0.419    0.185   90.498  163.510
  489.500    6.455    0.416    0.187   88.403  166.050
  489.750    6.492    0.410    0.183   89.804  168.076
  490.000    6.505    0.399    0.176   96.196  168.634
  490.250    6.492    0.379    0.176  100.777  169.102
  490.500    6.467    0.388    0.176   95.377  169.669
  490.750    6.381    0.408    0.181   91.970  170.020
  491.000    6.284    0.411    0.188   91.747  170.168
  491.250    6.177    0.426    0.184   93.711  170.217
  491.500    6.025    0.439    0.173   95.796  169.840
  491.750    5.934    0.445    0.173   93.575  169.054
  492.000    5.877    0.444    0.177   89.796  167.537
  492.250    5.821    0.434    0.187   91.258  164.778
  492.500    5.776    0.436    0.193   92.598  163.158
  492.750    5.754    0.447    0.196   92.935  162.992
  493.000    5.732    0.452    0.193   91.963  164.185
  493.250    5.699    0.451    0.188   94.423  165.270
  493.500    5.688    0.443    0.180   97.071  166.354
  493.750    5.677    0.438    0.175   99.657  168.170
  494.000    5.688    0.440    0.175   96.692  169.355
  494.250    5.677    0.445    0.178   94.593  169.812
  494.500    5.688    0.454    0.176   93.313  169.861
  494.750    5.687    0.460    0.166   91.655  169.489
  495.000    5.666    0.449    0.160   89.308  169.326
  495.250    5.665    0.406    0.175   86.776  168.856
  495.500    5.687    0.407    0.173   86.117  168.687
  495.750    5.698    0.413    0.180   86.018  168.627
  496.000    5.698    0.422    0.190   90.103  168.257
  496.250    5.687    0.430    0.199   92.874  167.786
  496.500    5.697    0.433    0.191   93.213  166.581
  496.750    5.686    0.435    0.198   92.491  164.750
  497.000    5.697    0.432    0.205   92.520  162.614
  497.250    5.740    0.420    0.198   91.359  161.929
  497.500    5.784    0.437    0.184   89.451  162.495
  497.750    5.817    0.454    0.192   87.483  163.890
  498.000    5.952    0.428    0.179   82.454  165.602
  498.250    6.055    0.440    0.157   78.175  166.584
  498.500    6.102    0.402    0.114   68.905  166.836
  498.750    6.055    0.286    0.053   59.758  166.980
  499.000    5.963    0.325    0.105   69.582  167.236
  499.250    5.850    0.377    0.136   89.328  167.285
  499.500    5.728    0.414    0.165   90.918  167.114
  499.750    5.630    0.410    0.163   89.570  166.956
  500.000    5.929    0.425    0.171   87.481  166.794
  500.250    6.081    0.430    0.182   85.551  170.744
  500.500    6.177    0.425    0.189   81.132  170.152
  500.750    6.204    0.413    0.198   78.149  169.344
  501.000    6.137    0.411    0.204   83.102  168.229
  501.250    6.059    0.432    0.200   86.934  168.887
  501.500    5.970    0.459    0.193   87.323  169.638
  501.750    5.927    0.449    0.198   86.591  169.773
  502.000    5.930    0.435    0.206   86.671  169.178
  502.250    5.966    0.451    0.204   87.438  168.065
  502.500    6.015    0.453    0.198   88.017  167.565
  502.750    6.053    0.447    0.193   87.787  166.767
  503.000    6.057    0.438    0.190   87.552  166.481
  503.250    6.059    0.420    0.195   88.382  166.506
  503.500    6.074    0.395    0.204   90.085  166.847
  503.750    5.996    0.405    0.209   91.291  168.334
  504.000    5.885    0.401    0.210   90.807  170.448
  504.250    5.624    0.399    0.199   91.888  171.412
  504.500    5.385    0.402    0.190   90.904  171.439
  504.750    5.226    0.416    0.184   88.922  170.745
  505.000    5.209    0.430    0.200   93.190  170.144
  505.250    5.445    0.422    0.191   96.766  169.552
  505.500    5.892    0.427    0.187   98.284  169.057
  505.750    6.548    0.439    0.195   98.425  168.677
  506.000    7.960    0.441    0.188   98.255  168.392
  506.250   10.308    0.439    0.193   95.022  168.004
  506.500   11.789    0.452    0.194   90.042  168.133
  506.750   11.884    0.467    0.168   85.060  168.679
  507.000   10.582    0.383    0.145   75.519  168.813
  507.250    8.865    0.337    0.140   60.666  167.486
