~VERSION INFORMATION
 VERS.                 2.0:   CWLS LOG ASCII STANDARD -VERSION 2.0
 WRAP.                  NO:   ONE LINE PER DEPTH STEP
~WELL INFORMATION BLOCK
#MNEM.UNIT           DATA                    DESCRIPTION OF MNEMONIC
#---------    -------------------            -------------------------------
# Generated from Intellog Unique Number	CW_73_75/WELL/829
WELL.         07-31-074-25W4                 : Well_name    - WELL
LOC .         00/07-31-074-25W4/0            : Location     - LOCATION
UWI .         00/07-31-074-25W4/0            : Uwi          - UNIQUE WELL ID
ENTR.         JAYE                           : Entered      - ENTERED BY
SRVC.         COMPUTALOG                     : Scn          - SERVICE COMPANY
DATE.         24 FEB 80                      : Date         - LOG DATE
STRT.M        430                            : top_depth    - START DEPTH
STOP.M        626                            : bot_depth    - STOP DEPTH
STEP.M        0.25                           : increment    - STEP LENGTH
 NULL. -999.2500:NULL Value
~CURVE INFORMATION BLOCK
#MNEM UNIT       ERCB CURVE CODE    CURVE DESCRIPTION
#-----------   ------------------   ----------------------------------
DEPT.M        00 001 00 00         : DEPTH        - DEPTH
ILD .OHMM     00 120 00 00         : RESD         - DEEP RESISTIVITY (DIL)
CALI.MM       00 280 01 00         : CAL          - CALIPER
GR  .API      00 310 00 00         : GR           - GAMMA RAY
NPHI.V/V      00 330 00 00         : PHIN         - NEUTRON POROSITY (SANDSTONE)
DPHI.V/V      00 890 00 00         : PHID         - DENSITY POROSITY (SANDSTONE)
~PARAMETER INFORMATION
#MNEM.UNIT           DATA             DESCRIPTION OF MNEMONIC
#---------         -----------     ------------------------------
GL  .M        703.95               : gl           - GROUND LEVEL ELEVATION
EREF.M        707.95               : kb           - ELEVATION OF DEPTH REFERENCE
DATM.M        703.95               : datum        - DATUM ELEVATION
TDD .M        626.4                : tdd          - TOTAL DEPTH DRILLER
RUN .         ONE                  : Run          - RUN NUMBER
ENG .         HOLDEN               : Engineer     - RECORDING ENGINEER
WIT .         LEGG/LEROUX          : Witness      - WITNESSED BY
BASE.         EDM                  : Branch       - HOME BASE OF LOGGING UNIT
MUD .         GEL CHEM             : Mud_type     - MUD TYPE
MATR.         SANDSTONE            : Logunit      - NEUTRON MATRIX
TMAX.C        18                   : BHT          - MAXIMUM RECORDED TEMPERATURE
BHTD.M        627                  : BHTDEP       - MAXIMUM RECORDED TEMPERATURE
RMT .C        5                    : MDTP         - TEMPERATURE OF MUD
MUDD.KG/M     1186                 : MWT          - MUD DENSITY
NEUT.         1                    : NEUTRON      - NEUTRON TYPE
RESI.         0                    : RESIST       - RESISTIVITY TYPE
RM  .OHMM     4.4                  : RM           - RESISTIVITY OF MUD
RMC .OHMM     5.5                  : RMC          - RESISTIVITY OF MUD CAKE
RMF .OHMM     4.7                  : RMF          - RESISTIVITY OF MUD FILTRATE
SUFT.C        0                    : SUFT         - SURFACE TEMPERATURE
~A  DEPTH     RESD      CAL       GR     PHIN     PHID
# ...
  466.500    9.256  199.213   60.782    0.502    0.317
  466.750    9.134  200.366   56.017    0.475    0.330
  467.000    8.749  201.413   57.018    0.426    0.323
  467.250    8.212  202.565   68.996    0.357    0.314
  467.500    7.037  201.134   73.966    0.390    0.313
  467.750    5.661  198.876   73.851    0.426    0.318
  468.000    4.372  197.446   77.520    0.344    0.306
  468.250    3.698  197.668   87.451    0.341    0.287
  468.500    3.697  199.751   91.367    0.387    0.272
  468.750    4.055  202.558   86.478    0.442    0.289
  469.000    4.540  204.123   82.394    0.394    0.301
  469.250    4.990  204.552   77.691    0.386    0.307
  469.500    5.343  204.153   69.638    0.385    0.299
  469.750    5.616  202.619   67.043    0.353    0.294
  470.000    5.698  199.637   65.130    0.363    0.288
  470.250    5.550  197.896   64.395    0.418    0.275
  470.500    5.477  197.705   63.227    0.448    0.283
  470.750    5.415  197.930   62.368    0.434    0.303
  471.000    5.323  198.049   61.014    0.442    0.320
  471.250    5.156  198.064   60.216    0.426    0.329
  471.500    4.976  198.080   58.799    0.426    0.322
  471.750    4.892  197.783   59.180    0.438    0.315
  472.000    4.873  197.698   61.981    0.420    0.313
  472.250    5.018  197.607   62.796    0.465    0.311
  472.500    5.092  197.417   62.434    0.500    0.309
  472.750    5.128  197.021   62.195    0.489    0.310
  473.000    5.060  196.625   61.026    0.378    0.316
  473.250    4.847  196.432   54.462    0.371    0.324
  473.500    4.123  196.448   55.836    0.399    0.334
  473.750    3.633  196.359   64.341    0.440    0.342
  474.000    3.171  196.169   72.288    0.400    0.341
  474.250    2.862  195.977   77.631    0.401    0.303
  474.500    2.565  195.889   73.113    0.466    0.294
  474.750    2.341  196.110   70.828    0.414    0.287
  475.000    2.345  196.749   77.907    0.407    0.288
  475.250    2.529  197.072   90.381    0.499    0.304
  475.500    2.832  197.813   81.709    0.537    0.321
  475.750    3.740  198.344   72.912    0.597    0.325
  476.000    4.655  199.083   61.449    0.508    0.318
  476.250    4.911  199.408   58.234    0.426    0.325
  476.500    4.722  199.738   60.043    0.426    0.328
  476.750    4.440  199.854   60.609    0.441    0.333
  477.000    4.269  200.078   60.060    0.453    0.335
  477.250    4.119  200.302   62.054    0.464    0.332
  477.500    3.990  200.315   68.141    0.439    0.316
  477.750    3.923  199.920   71.561    0.378    0.298
  478.000    3.878  199.520   69.958    0.409    0.289
  478.250    3.674  199.020   70.897    0.433    0.296
  478.500    3.391  198.518   74.442    0.476    0.307
  478.750    3.141  198.326   79.102    0.531    0.321
  479.000    2.987  198.549   84.570    0.437    0.337
  479.250    3.025  199.598   90.035    0.436    0.349
  479.500    3.349  201.062   90.045    0.467    0.370
  479.750    3.827  202.729   82.054    0.418    0.334
  480.000    4.357  204.501   76.111    0.375    0.284
  480.250    4.709  206.791   71.965    0.386    0.295
  480.500    4.950  202.673   71.789    0.401    0.308
  480.750    5.154  199.693   74.154    0.414    0.320
  481.000    5.561  199.398   75.590    0.417    0.318
  481.250    6.237  199.519   75.662    0.434    0.311
  481.500    7.342  199.533   75.051    0.455    0.288
  481.750   10.064  199.754   69.540    0.345    0.215
  482.000   14.264  200.391   63.535    0.198    0.109
  482.250   13.817  201.027   62.242    0.168    0.064
  482.500   11.600  202.283   66.034    0.176    0.089
  482.750   10.510  203.746   66.231    0.200    0.205
  483.000    9.647  204.381   64.998    0.255    0.296
  483.250    9.806  204.396   68.606    0.387    0.331
  483.500   10.837  203.999   72.955    0.428    0.291
  483.750   11.223  203.601   59.879    0.473    0.186
  484.000   10.631  203.721   53.006    0.502    0.081
  484.250    9.368  203.942   49.170    0.158    0.090
  484.500    8.315  204.370   54.078    0.167    0.149
  484.750    7.450  204.800   64.320    0.257    0.171
  485.000    6.290  204.815   72.391    0.379    0.207
  485.250    5.271  204.521   86.044    0.402    0.250
  485.500    4.670  204.329   88.720    0.413    0.231
  485.750    4.247  204.243   81.846    0.427    0.187
  486.000    3.979  204.258   77.514    0.444    0.190
  486.250    3.978  204.171   90.237    0.464    0.213
  486.500    4.275  204.392   94.649    0.432    0.234
  486.750    4.769  207.199   94.038    0.460    0.265
  487.000    5.500  210.728   83.444    0.570    0.301
  487.250    6.320  214.569   69.376    0.673    0.338
  487.500    7.302  212.103   58.656    0.574    0.315
  487.750    8.085  203.953   66.293    0.416    0.326
  488.000    8.311  200.868   70.147    0.437    0.325
  488.250    7.888  201.918   67.304    0.417    0.324
  488.500    7.513  203.278   61.981    0.412    0.322
  488.750    7.595  203.189   59.573    0.440    0.320
  489.000    7.467  201.966   56.852    0.418    0.318
  489.250    7.273  201.463   54.816    0.433    0.319
  489.500    6.954  201.789   58.794    0.448    0.321
  489.750    6.407  202.427   60.044    0.462    0.320
  490.000    5.968  202.858   58.316    0.429    0.313
  490.250    5.458  203.077   59.876    0.422    0.307
  490.500    5.066  202.782   64.971    0.368    0.300
  490.750    4.781  202.489   72.484    0.373    0.290
  491.000    4.622  202.505   83.159    0.397    0.282
  491.250    4.595  202.522   88.750    0.421    0.282
  491.500    4.645  202.642   82.496    0.354    0.285
  491.750    4.847  202.861   74.506    0.353    0.297
  492.000    5.287  203.187   71.910    0.373    0.298
  492.250    5.746  203.410   73.284    0.444    0.297
  492.500    6.141  203.529   67.588    0.488    0.301
  492.750    6.243  203.855   63.505    0.555    0.308
  493.000    6.047  203.975   61.096    0.493    0.312
  493.250    5.879  204.197   61.787    0.513    0.317
  493.500    5.856  204.419   66.758    0.490    0.318
  493.750    6.019  204.641   71.356    0.425    0.316
  494.000    6.517  204.349   67.211    0.390    0.318
  494.250    7.338  204.361   67.655    0.415    0.272
  494.500    8.049  204.274   67.106    0.464    0.217
  494.750    8.830  204.392   62.092    0.407    0.112
  495.000    9.195  204.824   59.745    0.183    0.093
  495.250    8.331  204.942   61.677    0.171    0.085
  495.500    7.152  204.749   64.290    0.166    0.086
  495.750    5.732  204.456   62.626    0.170    0.185
  496.000    4.637  204.163   61.890    0.200    0.239
  496.250    4.393  204.073   63.699    0.253    0.266
  496.500    4.507  204.090   66.994    0.394    0.289
  496.750    4.729  203.693   70.104    0.379    0.296
  497.000    5.831  203.811   76.377    0.365    0.261
  497.250    6.072  204.033   77.193    0.429    0.250
  497.500    5.871  204.564   70.877    0.462    0.216
  497.750    5.561  204.890   62.391    0.265    0.145
  498.000    5.067  204.908   66.369    0.261    0.149
  498.250    4.659  204.922   85.478    0.380    0.178
  498.500    4.300  204.939   96.278    0.407    0.183
  498.750    4.158  204.953   94.241    0.410    0.185
  499.000    4.266  204.557   87.677    0.419    0.192
  499.250    4.426  204.573   92.276    0.443    0.200
  499.500    4.441  203.968   97.804    0.467    0.207
  499.750    4.374  203.260   91.799    0.422    0.203
  500.000    4.221  203.378   83.808    0.374    0.191
  500.250    4.096  204.427   88.469    0.359    0.177
  500.500    3.990  206.406   89.470    0.411    0.183
  500.750    3.967  209.834   88.301    0.413    0.209
  501.000    3.900  212.537   89.055    0.406    0.228
  501.250    3.560  213.586   96.939    0.403    0.225
  501.500    2.816  213.187   99.926    0.435    0.211
  501.750    2.519  212.274   93.920    0.458    0.236
  502.000    2.467  212.288   89.030    0.441    0.255
  502.250    2.494  213.441   85.567    0.448    0.277
  502.500    2.636  215.420   83.778    0.366    0.275
  502.750    2.935  218.536   81.120    0.360    0.271
