~VERSION INFORMATION
 VERS.                 2.0:   CWLS LOG ASCII STANDARD -VERSION 2.0
 WRAP.                  NO:   ONE LINE PER DEPTH STEP
~WELL INFORMATION BLOCK
#MNEM.UNIT           DATA                    DESCRIPTION OF MNEMONIC
#---------    -------------------            -------------------------------
# Generated from Intellog Unique Number	CW_82_90/WELL/554
WELL.         PARAMOUNT ET AL GRANOR 07-01   : Well_name    - WELL
LOC .         00/07-01-084-19W4/0            : Location     - LOCATION
UWI .         00/07-01-084-19W400            : Uwi          - UNIQUE WELL ID
ENTR.         JAYE                           : Entered      - ENTERED BY
SRVC.         COMPUTALOG                     : Scn          - SERVICE COMPANY
DATE.         8 MAR 77                       : Date         - LOG DATE
STRT.M        207.264                        : top_depth    - START DEPTH
STOP.M        341.264                        : bot_depth    - STOP DEPTH
STEP.M        0.25                           : increment    - STEP LENGTH
 NULL. -999.2500:NULL Value
~CURVE INFORMATION BLOCK
#MNEM UNIT       ERCB CURVE CODE    CURVE DESCRIPTION
#-----------   ------------------   ----------------------------------
DEPT.M        00 001 00 00         : DEPTH        - DEPTH
CALI.MM       00 280 01 00         : CAL          - CALIPER
GR  .API      00 310 00 00         : GR           - GAMMA RAY
NPHI.V/V      00 330 00 00         : PHIN         - NEUTRON POROSITY (SANDSTONE)
DPHI.V/V      00 890 00 00         : PHID         - DENSITY POROSITY (SANDSTONE)
ILD .OHMM     00 120 00 00         : RESD         - DEEP RESISTIVITY (DLL)
~PARAMETER INFORMATION
#MNEM.UNIT           DATA             DESCRIPTION OF MNEMONIC
#---------         -----------     ------------------------------
GL  .M        579.272              : gl           - GROUND LEVEL ELEVATION
EREF.M        582.32               : kb           - ELEVATION OF DEPTH REFERENCE
DATM.M        579.272              : datum        - DATUM ELEVATION
TDD .M        342.29               : tdd          - TOTAL DEPTH DRILLER
RUN .         ONE                  : Run          - RUN NUMBER
ENG .         KING                 : Engineer     - RECORDING ENGINEER
WIT .         CONNELLY             : Witness      - WITNESSED BY
BASE.         MEDICINE HAT         : Branch       - HOME BASE OF LOGGING UNIT
MUD .         CHEM GEL             : Mud_type     - MUD TYPE
MATR.         SANDSTONE            : Logunit      - NEUTRON MATRIX
TMAX.C        16.6667              : BHT          - MAXIMUM RECORDED TEMPERATURE
BHTD.M        342.29               : BHTDEP       - MAXIMUM RECORDED TEMPERATURE
RMT .C        15.5556              : MDTP         - TEMPERATURE OF MUD
MUDD.KG/M     9500                 : MWT          - MUD DENSITY
NEUT.         0                    : NEUTRON      - NEUTRON TYPE
RESI.         1                    : RESIST       - RESISTIVITY TYPE
RM  .OHMM     4.2                  : RM           - RESISTIVITY OF MUD
RMC .OHMM     0                    : RMC          - RESISTIVITY OF MUD CAKE
RMF .OHMM     3.9                  : RMF          - RESISTIVITY OF MUD FILTRATE
SUFT.C        4                    : SUFT         - SURFACE TEMPERATURE
~A  DEPTH      CAL       GR     PHIN     PHID     RESD
  207.264  157.055   55.172    0.351    0.280    4.998
  207.514  156.738   46.792    0.336    0.301    5.790
  207.764  157.051   44.433    0.338    0.305    6.689
  208.014  157.365   47.473    0.333    0.308    8.336
  208.264  157.888   47.161    0.328    0.307    9.415
  208.514  158.096   48.153    0.325    0.306    9.502
  208.764  157.464   51.193    0.329    0.304    8.703
  209.014  157.042   54.109    0.339    0.296    8.182
  209.264  156.723   45.791    0.343    0.273    8.014
  209.514  156.721   39.460    0.336    0.271    8.012
  209.764  156.825   33.253    0.317    0.280    8.780
  210.014  156.718   29.714    0.304    0.297    9.859
  210.264  156.716   33.561    0.299    0.316   12.039
  210.514  156.714   39.890    0.300    0.335   13.734
  210.764  156.713   38.213    0.304    0.333   14.272
  211.014  156.185   33.557    0.301    0.333   14.260
  211.264  154.607   32.873    0.294    0.327   14.216
  211.514  153.554   38.520    0.291    0.325   14.082
  211.764  153.972   40.567    0.297    0.329   14.061
  212.014  153.865   37.897    0.293    0.336   14.132
  212.264  153.443   36.344    0.285    0.341   14.350
  212.514  152.600   32.806    0.275    0.345   14.552
  212.764  152.073   35.101    0.277    0.344   14.844
  213.014  152.281   35.596    0.285    0.347   15.062
  213.264  152.594   34.912    0.282    0.348   15.125
  213.514  153.328   35.035    0.282    0.346   14.908
  213.764  153.326   37.516    0.289    0.344   14.494
  214.014  153.219   40.556    0.290    0.341   14.187
  214.264  153.112   43.286    0.289    0.337   14.143
  214.514  152.900   41.361    0.287    0.328   14.484
  214.764  153.003   41.111    0.285    0.320   14.784
  215.014  153.106   43.407    0.283    0.316   14.601
  215.264  152.894   42.723    0.281    0.317   14.286
  215.514  154.153   36.143    0.276    0.315   14.823
  215.764  154.782   30.246    0.246    0.307   15.444
  216.014  155.305   33.410    0.175    0.310   15.818
  216.264  153.832   36.884    0.185    0.334   15.232
  216.514  154.776   37.007    0.283    0.330   14.597
  216.764  156.350   40.295    0.290    0.325   15.455
  217.014  156.664   39.425    0.292    0.322   15.575
  217.264  155.926   31.356    0.295    0.317   15.079
  217.514  155.294   34.272    0.317    0.305   14.427
  217.764  155.712   34.147    0.322    0.316   14.178
  218.014  156.235   30.049    0.320    0.327   14.092
  218.264  157.074   27.007    0.315    0.327   14.089
  218.514  157.703   25.269    0.307    0.325   14.258
  218.764  158.121   24.895    0.291    0.319   14.673
  219.014  158.434   24.149    0.253    0.309   15.851
  219.264  159.168   22.845    0.199    0.283   17.465
  219.514  159.271   20.795    0.120    0.105   19.020
  219.764  159.374   18.250    0.075    0.073   19.797
  220.014  160.003   18.062    0.047    0.046   20.515
  220.264  160.421   18.682    0.022    0.028   20.963
  220.514  160.735   20.542    0.009    0.019   20.828
  220.764  160.733   20.852    0.001    0.024   20.300
  221.014  160.100   21.223   -0.013    0.036   19.730
  221.264  160.203   21.346   -0.020    0.067   19.161
  221.514  159.886   19.235   -0.015    0.041   18.378
  221.764  159.253   18.799   -0.009    0.029   17.816
  222.014  158.621   22.398    0.000    0.045   17.239
  222.264  158.094   25.499    0.006    0.068   14.593
  222.514  157.356   27.174    0.024    0.153   14.589
  222.764  157.039   31.207    0.087    0.270   14.709
  223.014  157.037   33.377    0.173    0.251   14.935
  223.264  157.140   31.887    0.127    0.198   15.310
  223.514  157.769   23.135    0.083    0.055   16.365
  223.764  158.397   17.300    0.042    0.037   17.510
  224.014  159.131   17.299    0.019    0.046   18.245
  224.264  159.759   19.905    0.045    0.077   18.226
  224.514  159.337   20.462    0.072    0.145   17.615
  224.764  157.023   21.826    0.101    0.341   16.488
  225.014  154.709   25.300    0.136    0.348   15.746
  225.264  154.182   29.457    0.269    0.340   15.110
  225.514  154.285   31.008    0.314    0.337   14.229
  225.764  152.812   27.717    0.328    0.336   13.725
  226.014  153.440   27.654    0.329    0.332   13.459
  226.264  153.123   27.839    0.327    0.328   13.308
  226.514  151.860   27.031    0.325    0.327   13.246
  226.764  150.912   27.092    0.322    0.331   13.194
  227.014  150.385   26.967    0.318    0.342   13.141
  227.264  150.068   24.111    0.314    0.337   13.105
  227.514  150.381   22.992    0.318    0.339   13.102
  227.764  150.694   26.653    0.328    0.344   13.057
  228.014  150.902   27.086    0.322    0.348   12.980
  228.264  150.900   32.050    0.308    0.362   12.952
  228.514  151.424   31.863    0.306    0.351   12.908
  228.764  152.368   31.365    0.323    0.344   12.822
  229.014  153.207   32.295    0.330    0.347   12.762
  229.264  154.150   32.790    0.328    0.345   12.684
  229.514  154.254   33.161    0.325    0.337   12.591
  229.764  153.831   39.428    0.322    0.338   12.472
  230.014  153.093   42.096    0.320    0.338   12.345
  230.264  152.461   42.032    0.320    0.336   12.277
  230.514  152.039   40.790    0.323    0.331   12.175
  230.764  152.457   37.996    0.337    0.339   12.065
  231.014  153.086   37.436    0.342    0.339   11.922
  231.264  153.294   36.070    0.336    0.333   11.746
  231.514  153.082   35.945    0.333    0.331   11.595
  231.764  152.554   36.998    0.329    0.321   11.395
  232.014  152.027   38.053    0.326    0.321   11.269
  232.264  151.815   40.844    0.333    0.325   11.134
  232.514  150.972   41.898    0.365    0.330   11.073
  232.764  150.760   40.842    0.361    0.327   11.045
  233.014  150.758   39.165    0.355    0.313   11.066
  233.264  150.651   38.481    0.336    0.311   11.087
  233.514  150.754   41.025    0.332    0.323   11.076
  233.764  151.173   42.016    0.330    0.343   11.064
  234.014  151.696   39.905    0.328    0.339   11.053
  234.264  151.694   38.290    0.328    0.333   11.024
  234.514  151.902   37.793    0.328    0.333   10.989
  234.764  152.005   37.791    0.329    0.330   10.919
  235.014  151.898   36.239    0.330    0.328   10.867
  235.264  151.056   34.686    0.327    0.330   10.798
  235.514  150.213   35.368    0.315    0.328   10.712
  235.764  149.160   36.049    0.312    0.320   10.619
  236.014  148.948   35.986    0.322    0.316   10.517
  236.264  149.051   39.150    0.338    0.311   10.440
  236.514  148.944   43.555    0.339    0.305   10.321
  236.764  149.782   46.036    0.328    0.304   10.269
  237.014  149.676   43.801    0.321    0.313   10.232
  237.264  150.830   41.069    0.315    0.315   10.229
  237.514  152.509   42.309    0.310    0.306   10.226
  237.764  154.609   42.432    0.304    0.304   10.239
  238.014  155.658   42.431    0.303    0.303   10.251
  238.264  156.287   42.430    0.307    0.306   10.240
  238.514  157.231   41.560    0.314    0.313   10.213
  238.764  157.964   36.035    0.323    0.318   10.111
  239.014  157.016   32.869    0.339    0.318    9.681
  239.264  156.909   34.047    0.343    0.321    8.676
  239.514  156.907   35.101    0.345    0.325    8.303
  239.764  156.905   35.348    0.347    0.326    7.972
  240.014  157.008   38.698    0.350    0.323    7.796
  240.264  157.006   41.055    0.359    0.312    7.842
  240.514  156.899   41.302    0.367    0.315    7.888
  240.764  156.792   42.728    0.374    0.320    7.901
  241.014  156.791   45.334    0.373    0.333    7.101
  241.264  156.894   50.173    0.371    0.330    5.687
  241.514  157.732   57.868    0.372    0.317    4.780
  241.764  159.097   66.741    0.388    0.275    4.276
  242.014  160.356   72.139    0.399    0.242    3.970
  242.264  161.405   71.021    0.395    0.220    3.835
  242.514  162.033   61.401    0.382    0.210    3.840
  242.764  162.347   58.110    0.373    0.194    3.845
  243.014  163.185   68.784    0.374    0.164    3.915
  243.264  165.075   70.520    0.414    0.171    3.961
  243.514  166.544   74.056    0.431    0.185    4.048
