~VERSION INFORMATION
 VERS.                 2.0:   CWLS LOG ASCII STANDARD -VERSION 2.0
 WRAP.                  NO:   ONE LINE PER DEPTH STEP
~WELL INFORMATION BLOCK
#MNEM.UNIT           DATA                    DESCRIPTION OF MNEMONIC
#---------    -------------------            -------------------------------
# Generated from Intellog Unique Number	CS_77_79/WELL/920
WELL.         CANADIAN WORLDWIDE ENERGY      : Well_name    - WELL
LOC .         00/08-20-077-05W4/0            : Location     - LOCATION
UWI .         00/08-20-077-05W4/0            : Uwi          - UNIQUE WELL ID
ENTR.         SP                             : Entered      - ENTERED BY
SRVC.         SCHLUMBERGER                   : Scn          - SERVICE COMPANY
STRT.M        155.250                        : top_depth    - START DEPTH
STOP.M        408.000                        : bot_depth    - STOP DEPTH
STEP.M        0.25                           : increment    - STEP LENGTH
 NULL. -999.2500:NULL Value
~CURVE INFORMATION BLOCK
#MNEM UNIT       ERCB CURVE CODE    CURVE DESCRIPTION
#-----------   ------------------   ----------------------------------
DEPT.M        00 001 00 00         : DEPTH        - DEPTH
ILD .OHMM     00 120 00 00         : RESD         - DEEP RESISTIVITY (DIL)
DPHI.V/V      00 890 00 00         : PHID         - DENSITY POROSITY (SANDSTONE)
NPHI.V/V      00 330 00 00         : PHIN         - NEUTRON POROSITY (SANDSTONE)
GR  .API      00 310 00 00         : GR           - GAMMA RAY
~PARAMETER INFORMATION
#MNEM.UNIT           DATA             DESCRIPTION OF MNEMONIC
#---------         -----------     ------------------------------
GL  .M        570.1                : gl           - GROUND LEVEL ELEVATION
EREF.M        574                  : kb           - ELEVATION OF DEPTH REFERENCE
DATM.M        570.1                : datum        - DATUM ELEVATION
TDD .M        415                  : tdd          - TOTAL DEPTH DRILLER
RUN .         ONE                  : Run          - RUN NUMBER
ENG .         BILL                 : Engineer     - RECORDING ENGINEER
WIT .         JIM                  : Witness      - WITNESSED BY
MUD .         GEL                  : Mud_type     - MUD TYPE
MATR.         SANDSTONE            : Logunit      - NEUTRON MATRIX
TMAX.C        20                   : BHT          - MAXIMUM RECORDED TEMPERATURE
BHTD.M        415                  : BHTDEP       - MAXIMUM RECORDED TEMPERATURE
MATR.         1                    : LOGUNIT      - NEUTRON MATRIX
RMT .C        25                   : MDTP         - TEMPERATURE OF MUD
NEUT.         1                    : NEUTRON      - NEUTRON TYPE
RESI.         0                    : RESIST       - RESISTIVITY TYPE
RMC .OHMM     0.25                 : RMC          - RESISTIVITY OF MUD CAKE
RMF .OHMM     0.25                 : RMF          - RESISTIVITY OF MUD FILTRATE
SUFT.C        15                   : SUFT         - SURFACE TEMPERATURE
~A  DEPTH     RESD     PHID     PHIN       GR
# ...
  285.750   11.950    0.000    0.168   56.329
  286.000   11.516    0.083    0.208   61.247
  286.250   10.494    0.182    0.265   65.558
  286.500    9.562    0.278    0.322   69.255
  286.750    9.218    0.229    0.364   70.501
  287.000    8.891    0.235    0.361   71.754
  287.250    8.897    0.269    0.360   72.992
  287.500    9.079    0.293    0.365   77.300
  287.750    9.258    0.282    0.379   76.102
  288.000    9.266    0.266    0.391   74.291
  288.250    9.452    0.278    0.389   73.698
  288.500    9.461    0.290    0.382   73.105
  288.750    9.469    0.275    0.364   73.738
  289.000    9.478    0.269    0.354   78.046
  289.250    9.485    0.279    0.352   82.357
  289.500    9.316    0.283    0.361   79.933
  289.750    9.322    0.284    0.390   78.113
  290.000    9.158    0.282    0.404   78.145
  290.250    9.166    0.286    0.410   77.555
  290.500    8.676    0.298    0.404   78.797
  290.750    8.361    0.301    0.396   80.653
  291.000    8.217    0.284    0.411   82.508
  291.250    8.069    0.271    0.416   82.534
  291.500    7.781    0.275    0.415   82.558
  291.750    7.785    0.277    0.403   83.802
  292.000    7.508    0.259    0.389   85.048
  292.250    7.372    0.249    0.382   87.516
  292.500    7.246    0.218    0.392   91.829
  292.750    7.250    0.207    0.391   92.459
  293.000    7.398    0.210    0.386   93.706
  293.250    7.403    0.220    0.381   94.955
  293.500    7.549    0.228    0.375   93.139
  293.750    7.848    0.235    0.372   90.103
  294.000    7.853    0.250    0.384   88.900
  294.250    7.860    0.261    0.403   88.318
  294.500    8.015    0.269    0.410   88.329
  294.750    7.874    0.282    0.417   87.739
  295.000    7.883    0.267    0.414   84.700
  295.250    7.743    0.277    0.407   78.608
  295.500    7.605    0.290    0.418   76.799
  295.750    7.470    0.288    0.434   76.816
  296.000    6.939    0.289    0.447   78.671
  296.250    6.687    0.294    0.421   78.080
  296.500    5.871    0.286    0.410   78.099
  296.750    5.348    0.270    0.415   80.572
  297.000    4.437    0.253    0.415   86.109
  297.250    3.823    0.221    0.399   91.025
  297.500    3.549    0.213    0.406   92.883
  297.750    3.358    0.217    0.411   90.458
  298.000    3.119    0.220    0.425   92.926
  298.250    3.121    0.219    0.426   95.403
  298.500    3.185    0.218    0.400   97.260
  298.750    3.248    0.224    0.387   97.278
  299.000    3.375    0.233    0.397   97.919
  299.250    3.506    0.234    0.421   98.548
  299.500    3.784    0.232    0.440   96.736
  299.750    3.931    0.230    0.449   97.990
  300.000    4.323    0.228    0.456   99.226
  300.250    4.493    0.233    0.474  101.086
  300.500    4.668    0.251    0.480   94.373
  300.750    4.945    0.285    0.453   85.826
  301.000    5.041    0.283    0.443   81.567
  301.250    5.648    0.280    0.439   81.587
  301.500    5.980    0.282    0.440   84.667
  301.750    6.575    0.278    0.441   82.854
  302.000    7.230    0.244    0.367   72.469
  302.250    7.948    0.090    0.338   65.144
  302.500    8.417    0.188    0.305   63.331
  302.750    8.425    0.247    0.302   76.821
  303.000    7.973    0.299    0.356   80.516
  303.250    7.830    0.317    0.388   75.642
  303.500    7.551    0.316    0.405   69.548
  303.750    7.556    0.307    0.405   68.954
  304.000    7.705    0.301    0.409   68.973
  304.250    7.573    0.315    0.419   71.448
  304.500    7.580    0.310    0.417   75.141
  304.750    7.445    0.293    0.412   81.294
  305.000    7.451    0.270    0.397   83.757
  305.250    7.319    0.250    0.389   85.614
  305.500    7.189    0.225    0.396   84.414
  305.750    7.195    0.222    0.411   83.211
  306.000    7.073    0.218    0.421   84.459
  306.250    6.947    0.216    0.418   86.931
  306.500    6.953    0.216    0.426   90.012
  306.750    6.961    0.222    0.442   93.092
  307.000    6.967    0.229    0.438   90.054
  307.250    7.106    0.234    0.412   88.248
  307.500    6.980    0.230    0.404   90.101
  307.750    6.987    0.228    0.399   91.961
  308.000    6.485    0.233    0.407   91.374
  308.250    6.614    0.235    0.415   90.173
  308.500    6.622    0.233    0.402   87.740
  308.750    6.627    0.231    0.384   86.537
  309.000    6.632    0.266    0.381   85.947
  309.250    6.638    0.277    0.387   81.683
  309.500    6.643    0.268    0.393   76.810
  309.750    6.404    0.253    0.393   79.893
  310.000    6.292    0.252    0.388   83.590
  310.250    6.065    0.261    0.411   82.390
  310.500    5.846    0.292    0.427   78.739
  310.750    5.853    0.299    0.427   78.756
  311.000    6.082    0.284    0.409   87.966
  311.250    5.648    0.264    0.395   91.043
  311.500    5.343    0.237    0.390   91.684
  311.750    4.602    0.224    0.392   93.537
  312.000    3.966    0.225    0.429   96.625
  312.250    3.613    0.233    0.458   93.588
  312.500    3.231    0.279    0.474   88.098
  312.750    2.783    0.297    0.484   85.056
  313.000    2.633    0.296    0.506   87.536
  313.250    2.539    0.283    0.527   87.550
  313.500    2.541    0.278    0.492   85.127
  313.750    2.591    0.294    0.459   82.089
  314.000    2.499    0.315    0.470   81.505
  314.250    2.597    0.308    0.495   82.129
  314.500    2.648    0.290    0.504   85.218
  314.750    2.805    0.270    0.508   87.682
  315.000    2.914    0.260    0.507   89.542
  315.250    3.085    0.259    0.472   89.570
  315.500    3.392    0.249    0.407   88.368
  315.750    3.947    0.238    0.387   84.717
  316.000    4.421    0.224    0.382   81.677
  316.250    4.953    0.223    0.394   84.760
  316.500    5.445    0.222    0.406   90.903
  316.750    5.659    0.220    0.411   92.759
  317.000    5.879    0.217    0.411   87.893
  317.250    5.886    0.212    0.391   89.135
  317.500    5.781    0.208    0.378   90.990
  317.750    5.680    0.216    0.378   91.010
  318.000    5.374    0.225    0.393   94.099
  318.250    4.898    0.237    0.400   99.014
  318.500    4.633    0.246    0.437  103.936
  318.750    4.383    0.231    0.453  100.287
  319.000    4.227    0.224    0.447   93.574
  319.250    4.230    0.220    0.433   90.533
  319.500    4.157    0.219    0.432   94.233
  319.750    4.082    0.215    0.431   93.026
  320.000    3.935    0.214    0.428   93.058
  320.250    3.795    0.216    0.426   96.137
  320.500    3.726    0.217    0.423   99.837
  320.750    3.594    0.220    0.420  100.460
  321.000    3.530    0.218    0.435   96.813
  321.250    3.533    0.220    0.450   94.994
  321.500    3.470    0.227    0.454   96.859
  321.750    3.540    0.234    0.448   99.326
  322.000    3.609    0.235    0.436   98.131
  322.250    3.894    0.242    0.431   96.313
  322.500    4.445    0.234    0.425   92.660
  322.750    5.680    0.229    0.416   90.849
  323.000    6.606    0.218    0.382   87.817
  323.250    7.684    0.214    0.363   85.382
  323.500    8.609    0.211    0.347   78.666
  323.750    9.114    0.064    0.337   68.283
  324.000    9.471    0.045    0.323   64.020
  324.250    9.480    0.089    0.310   75.679
  324.500    9.668    0.220    0.327   79.368
  324.750    9.862    0.242    0.329   75.727
  325.000   10.057    0.263    0.316   73.292
  325.250   10.066    0.279    0.310   70.251
  325.500   10.077    0.283    0.311   66.608
  325.750    9.899    0.287    0.307   66.625
  326.000    9.366    0.321    0.305   73.389
  326.250    8.220    0.347    0.300   75.237
  326.500    7.080    0.332    0.285   78.321
  326.750    5.349    0.303    0.345   80.796
  327.000    5.157    0.272    0.361   85.715
  327.250    5.777    0.280    0.339   83.285
  327.500    6.975    0.312    0.279   81.470
  327.750    9.789    0.347    0.253   80.273
  328.000   13.230    0.367    0.229   78.467
  328.250   16.276    0.391    0.213   76.033
  328.500   19.656    0.375    0.208   72.997
  328.750   20.431    0.349    0.205   71.797
  329.000   17.598    0.325    0.207   71.811
