~VERSION INFORMATION
 VERS.                 2.0:   CWLS LOG ASCII STANDARD -VERSION 2.0
 WRAP.                  NO:   ONE LINE PER DEPTH STEP
~WELL INFORMATION BLOCK
#MNEM.UNIT           DATA                    DESCRIPTION OF MNEMONIC
#---------    -------------------            -------------------------------
# Generated from Intellog Unique Number	CW_70_72/WELL/913
NULL.         -999.25                        : NULL_VALUE
WELL.         SUNDANCE CANAL 07-24           : Well_name    - WELL              
LOC .         07-24-071-23W4                 : Location     - LOCATION          
UWI .         00/07-24-071-23W4/0            : Uwi          - UNIQUE WELL ID    
ENTR.         JAYE                           : Entered      - ENTERED BY        
SRVC.         SCHLUMBERGER                   : Scn          - SERVICE COMPANY   
DATE.         21 FEB 77                      : Date         - LOG DATE          
STRT.M        432.816                        : top_depth    - START DEPTH       
STOP.M        658.316                        : bot_depth    - STOP DEPTH        
STEP.M        0.25                           : increment    - STEP LENGTH       
~CURVE INFORMATION BLOCK
#MNEM UNIT       ERCB CURVE CODE    CURVE DESCRIPTION
#-----------   ------------------   ----------------------------------
DEPT.M        00 001 00 00         : DEPTH        - DEPTH                       
DPHI.V/V      00 890 00 00         : PHID         - DENSITY POROSITY (SANDSTONE)
NPHI.V/V      00 330 00 00         : PHIN         - NEUTRON POROSITY (SANDSTONE)
GR  .API      00 310 00 00         : GR           - GAMMA RAY                   
CALI.MM       00 280 01 00         : CAL          - CALIPER                     
ILD .OHMM     00 120 00 00         : RESD         - DEEP RESISTIVITY (DIL)      
~PARAMETER INFORMATION       
#MNEM.UNIT           DATA             DESCRIPTION OF MNEMONIC
#---------         -----------     ------------------------------
GL  .M        641.909              : gl           - GROUND LEVEL ELEVATION      
EREF.M        645.566              : kb           - ELEVATION OF DEPTH REFERENCE
DATM.M        641.909              : datum        - DATUM ELEVATION             
TDD .M        669.036              : tdd          - TOTAL DEPTH DRILLER         
RUN .         ONE                  : Run          - RUN NUMBER                  
ENG .         BIGG/LEDUC           : Engineer     - RECORDING ENGINEER          
WIT .         CHRISTENSEN          : Witness      - WITNESSED BY                
BASE.         EDM                  : Branch       - HOME BASE OF LOGGING UNIT   
MUD .         GEL CHEN             : Mud_type     - MUD TYPE                    
MATR.         SANDSTONE            : Logunit      - NEUTRON MATRIX              
TMAX.C        -17.7778             : BHT          - MAXIMUM RECORDED TEMPERATURE
BHTD.M        669.95               : BHTDEP       - MAXIMUM RECORDED TEMPERATURE
RMT .C        15.5556              : MDTP         - TEMPERATURE OF MUD          
MUDD.KG/M     1104                 : MWT          - MUD DENSITY                 
NEUT.         1                    : NEUTRON      - NEUTRON TYPE                
RESI.         0                    : RESIST       - RESISTIVITY TYPE            
RM  .OHMM     2.18                 : RM           - RESISTIVITY OF MUD          
RMC .OHMM     0                    : RMC          - RESISTIVITY OF MUD CAKE     
RMF .OHMM     4.77                 : RMF          - RESISTIVITY OF MUD FILTRATE 
SUFT.C        0                    : SUFT         - SURFACE TEMPERATURE         
~A  DEPTH     PHID     PHIN       GR      CAL     RESD
# ...
  615.316    0.097    0.356  128.143  162.567    3.963
  615.566    0.117    0.349  133.307  161.412    4.004
  615.816    0.136    0.354  135.304  162.116    3.986
  616.066    0.124    0.363  135.597  164.054    3.918
  616.316    0.117    0.374  135.890  165.582    3.774
  616.566    0.118    0.386  137.402  166.799    3.602
  616.816    0.122    0.397  142.200  167.403    3.418
  617.066    0.129    0.404  143.772  168.204    3.280
  617.316    0.132    0.397  141.570  168.603    3.171
  617.566    0.125    0.394  145.455  168.994    3.123
  617.816    0.107    0.410  151.166  169.079    3.149
  618.066    0.135    0.429  148.781  169.060    3.241
  618.316    0.151    0.412  142.256  165.230    3.310
  618.566    0.140    0.384  139.202  161.396    3.357
  618.816    0.129    0.372  140.591  162.821    3.386
  619.066    0.115    0.376  145.998  164.451    3.433
  619.316    0.116    0.397  149.761  165.257    3.507
  619.566    0.147    0.392  146.950  165.238    3.596
  619.816    0.146    0.385  143.348  164.912    3.687
  620.066    0.126    0.379  141.996  164.688    3.830
  620.316    0.153    0.376  143.448  164.669    3.993
  620.566    0.132    0.372  148.306  164.443    4.162
  620.816    0.106    0.377  154.078  164.323    4.355
  621.066    0.095    0.401  158.998  164.098    4.515
  621.316    0.132    0.385  160.936  165.006    4.664
  621.566    0.138    0.352  160.925  165.402    4.817
  621.816    0.133    0.331  155.922  166.002    4.985
  622.066    0.117    0.315  146.719  162.994    5.245
  622.316    0.175    0.296   74.389  158.027    5.528
  622.566    0.249    0.273   47.410  155.326    5.935
  622.816    0.273    0.272   36.868  154.484    6.396
  623.066    0.256    0.288   35.396  154.672    6.841
  623.316    0.235    0.293   36.845  155.684    7.304
  623.566    0.242    0.284   39.939  157.110    7.475
  623.816    0.249    0.274   44.434  159.565    7.082
  624.066    0.226    0.273   46.917  161.092    6.550
  624.316    0.208    0.275   47.881  161.795    5.960
  624.566    0.185    0.273   49.696  161.467    5.451
  624.816    0.203    0.266   54.555  160.003    5.202
  625.066    0.197    0.258   60.084  158.542    5.514
  625.316    0.176    0.248   61.656  157.082    5.910
  625.566    0.156    0.241   59.940  156.651    6.391
  625.816    0.147    0.258   58.101  156.012    6.989
  626.066    0.207    0.271   56.570  155.684    7.601
  626.316    0.235    0.275   55.280  155.872    8.145
  626.566    0.262    0.274   54.783  156.885    8.760
  626.816    0.238    0.268   54.833  158.516    9.388
  627.066    0.228    0.262   55.918  160.354    9.823
  627.316    0.183    0.255   59.194  161.675    9.998
  627.566    0.155    0.247   63.688  159.905    9.525
  627.816    0.130    0.262   69.459  155.763    9.007
  628.066    0.154    0.253   73.650  156.774    8.548
  628.316    0.158    0.249   75.951  158.405    8.447
  628.566    0.164    0.246   75.210  160.034    8.823
  628.816    0.174    0.247   76.477  160.946    9.491
  629.066    0.193    0.259   77.196  159.999   10.150
  629.316    0.208    0.270   77.064  157.505   10.819
  629.566    0.217    0.285   77.114  155.529   11.133
  629.816    0.214    0.299   76.921  154.481   11.187
  630.066    0.215    0.306   73.561  155.899   10.675
  630.316    0.218    0.286   70.751  155.883    9.766
  630.566    0.210    0.277   74.818  155.764    8.596
  630.816    0.208    0.270   75.111  155.231    7.550
  631.066    0.203    0.264   73.518  154.180    6.536
  631.316    0.190    0.250   80.750  153.957    5.774
  631.566    0.192    0.262   88.715  153.730    5.243
  631.816    0.225    0.270   88.947  153.919    4.867
  632.066    0.199    0.250   83.092  155.032    4.544
  632.316    0.181    0.235   86.308  155.737    4.226
  632.566    0.190    0.230   98.716  156.235    3.996
  632.816    0.171    0.237  112.462  157.864    3.920
  633.066    0.181    0.243  126.270  158.775    3.903
  633.316    0.205    0.248  141.173  159.786    3.995
  633.566    0.188    0.259  151.937  160.799    4.149
  633.816    0.185    0.273  163.431  160.986    4.247
  634.066    0.190    0.328  179.491  160.864    4.259
  634.316    0.207    0.363  190.073  161.053    4.264
  634.566    0.258    0.470  195.662  161.033    4.237
  634.816    0.304    0.558  199.973  161.427    4.218
  635.066    0.265    0.560  137.200  161.714    4.294
  635.316    0.205    0.343  100.726  161.699    4.419
  635.566    0.185    0.310   82.878  161.785    4.624
  635.816    0.169    0.291   83.109  161.661    4.883
  636.066    0.145    0.287   92.475  161.538    5.281
  636.316    0.113    0.336  104.760  161.315    5.690
  636.566    0.119    0.361  105.418  160.678    5.953
  636.816    0.180    0.319   91.346  160.248    5.426
  637.066    0.214    0.283   53.714  158.477    4.561
  637.316    0.246    0.266   40.736  156.912    3.834
  637.566    0.254    0.259   38.047  156.377    3.405
  637.816    0.262    0.262   38.888  156.049    2.888
  638.066    0.257    0.266   40.216  156.133    2.450
  638.316    0.258    0.268   43.006  156.941    2.221
  638.566    0.247    0.268   47.926  157.645    2.195
  638.816    0.240    0.267   60.516  158.553    2.267
  639.066    0.235    0.272   84.429  159.770    2.507
  639.316    0.200    0.283  131.048  160.475    2.834
  639.566    0.148    0.314  139.802  161.179    3.293
  639.816    0.177    0.326  143.870  161.881    3.661
  640.066    0.200    0.311  147.938  162.996    4.041
  640.316    0.178    0.296  154.381  164.010    4.568
  640.566    0.125    0.284  149.012  166.155    5.116
  640.816    0.149    0.276  146.567  167.889    5.574
  641.066    0.099    0.275  143.268  169.314    5.622
  641.316    0.114    0.303  134.795  165.790    5.209
  641.566    0.143    0.307  128.393  159.072    4.576
  641.816    0.114    0.300  123.633  155.137    4.110
  642.066    0.120    0.298  118.083  154.809    3.787
  642.316    0.135    0.310  109.002  156.438    3.681
  642.566    0.153    0.310  105.156  157.964    3.762
  642.816    0.167    0.299  110.867  160.009    3.964
  643.066    0.147    0.289  115.848  161.950    4.178
  643.316    0.085    0.278  115.531  163.989    4.284
  643.566    0.075    0.267  112.355  165.416    4.337
  643.816    0.080    0.265  109.667  167.047    4.310
  644.066    0.092    0.275  113.856  168.060    4.152
  644.316    0.095    0.298  120.906  168.145    3.962
  644.566    0.082    0.308  129.723  167.714    3.684
  644.816    0.086    0.299  139.938  166.766    3.143
  645.066    0.055    0.317  146.927  166.440    2.396
  645.316    0.053    0.362  153.613  165.905    1.938
  645.566    0.083    0.436  153.115  165.164    1.620
  645.816    0.117    0.444   82.916  164.528    1.501
  646.066    0.175    0.434   55.937  163.788    1.568
  646.316    0.199    0.425   44.969  163.771    1.677
  646.566    0.190    0.415   37.653  162.718    1.837
  646.816    0.175    0.400   34.111  161.772    1.994
  647.066    0.162    0.388   31.543  160.723    2.181
  647.316    0.171    0.410   31.289  160.085    2.329
  647.566    0.195    0.416   30.487  159.861    2.392
  647.816    0.210    0.425   25.727  160.051    2.399
  648.066    0.228    0.441   24.984  160.341    2.367
  648.316    0.227    0.431   25.583  160.627    2.322
  648.566    0.215    0.412   24.963  160.610    2.320
  648.816    0.198    0.395   23.064  160.699    2.357
  649.066    0.178    0.374   22.202  160.885    2.448
  649.316    0.160    0.365   22.069  160.968    2.576
  649.566    0.147    0.359   22.302  160.848    2.755
  649.816    0.142    0.361   22.777  160.725    2.867
  650.066    0.138    0.374   23.375  160.706    2.828
  650.316    0.135    0.394   23.913  160.791    2.660
  650.566    0.154    0.424   24.997  160.670    2.506
  650.816    0.181    0.425   25.596  160.238    2.396
  651.066    0.179    0.416   26.254  160.635    2.278
  651.316    0.165    0.418   26.426  161.336    2.186
  651.566    0.165    0.437   24.588  161.009    2.094
