~VERSION INFORMATION
 VERS.                 2.0:   CWLS LOG ASCII STANDARD -VERSION 2.0
 WRAP.                  NO:   ONE LINE PER DEPTH STEP
~WELL INFORMATION BLOCK
#MNEM.UNIT           DATA                    DESCRIPTION OF MNEMONIC
#---------    -------------------            -------------------------------
# Generated from Intellog Unique Number	CS_67_68/WELL/2161
WELL.         BVX et al TWEEDIE              : Well_name    - WELL
LOC .         00/03-06-067-11W4/0            : Location     - LOCATION
UWI .         00/03-06-067-11W4/0            : Uwi          - UNIQUE WELL ID
ENTR.         SP                             : Entered      - ENTERED BY
SRVC.         SCHLUMBERGER                   : Scn          - SERVICE COMPANY
STRT.M        365                            : top_depth    - START DEPTH
STOP.M        564                            : bot_depth    - STOP DEPTH
STEP.M        0.25                           : increment    - STEP LENGTH
 NULL. -999.2500:NULL Value
~CURVE INFORMATION BLOCK
#MNEM UNIT       ERCB CURVE CODE    CURVE DESCRIPTION
#-----------   ------------------   ----------------------------------
DEPT.M        00 001 00 00         : DEPTH        - DEPTH
ILD .OHMM     00 120 00 00         : RESD         - DEEP RESISTIVITY (DIL)
DPHI.V/V      00 890 00 00         : PHID         - DENSITY POROSITY (LIMESTONE)
NPHI.V/V      00 330 00 00         : PHIN         - NEUTRON POROSITY (LIMESTONE)
GR  .API      00 310 00 00         : GR           - GAMMA RAY
CALI.MM       00 280 01 00         : CAL          - CALIPER
~PARAMETER INFORMATION
#MNEM.UNIT           DATA             DESCRIPTION OF MNEMONIC
#---------         -----------     ------------------------------
GL  .M        643.48               : gl           - GROUND LEVEL ELEVATION
EREF.M        647.88               : kb           - ELEVATION OF DEPTH REFERENCE
DATM.M        647.88               : datum        - DATUM ELEVATION
TDD .M        563.2                : tdd          - TOTAL DEPTH DRILLER
RUN .         ONE                  : Run          - RUN NUMBER
ENG .         BILL                 : Engineer     - RECORDING ENGINEER
WIT .         JIM                  : Witness      - WITNESSED BY
MUD .         GEL                  : Mud_type     - MUD TYPE
MATR.         LIMESTONE            : Logunit      - NEUTRON MATRIX
TMAX.C        30                   : BHT          - MAXIMUM RECORDED TEMPERATURE
BHTD.M        562                  : BHTDEP       - MAXIMUM RECORDED TEMPERATURE
MATR.         1                    : LOGUNIT      - NEUTRON MATRIX
RMT .C        25                   : MDTP         - TEMPERATURE OF MUD
NEUT.         1                    : NEUTRON      - NEUTRON TYPE
RESI.         0                    : RESIST       - RESISTIVITY TYPE
RMC .OHMM     0.25                 : RMC          - RESISTIVITY OF MUD CAKE
RMF .OHMM     0.25                 : RMF          - RESISTIVITY OF MUD FILTRATE
SUFT.C        15                   : SUFT         - SURFACE TEMPERATURE
~A  DEPTH     RESD     PHID     PHIN       GR      CAL
# ...
  438.000    2.415    0.265    0.336   73.257  145.759
  438.250    2.483    0.252    0.326   69.562  145.979
  438.500    2.558    0.254    0.322   72.007  145.799
  438.750    2.670    0.242    0.316   78.585  144.299
  439.000    2.834    0.218    0.308   88.326  143.003
  439.250    2.974    0.196    0.295   98.128  145.862
  439.500    3.099    0.191    0.282   95.161  147.098
  439.750    3.234    0.208    0.269   91.587  146.714
  440.000    3.388    0.221    0.261   94.760  145.520
  440.250    3.536    0.226    0.291   96.779  145.340
  440.500    3.663    0.207    0.310   98.375  145.563
  440.750    3.753    0.194    0.296   94.009  145.989
  441.000    3.745    0.188    0.284   89.217  147.124
  441.250    3.717    0.184    0.278   83.271  147.550
  441.500    3.640    0.184    0.275   77.022  147.371
  441.750    3.533    0.186    0.284   82.142  147.797
  442.000    3.390    0.226    0.310   90.546  147.920
  442.250    3.199    0.237    0.307   98.462  147.433
  442.500    3.035    0.240    0.324  107.595  148.570
  442.750    2.832    0.227    0.345  117.945  151.935
  443.000    2.672    0.202    0.359  123.733  157.023
  443.250    2.484    0.188    0.374  126.848  163.021
  443.500    2.362    0.196    0.396  126.861  167.300
  443.750    2.212    0.203    0.388  127.055  170.563
  444.000    2.118    0.202    0.397  120.076  173.016
  444.250    2.098    0.204    0.411  112.610  173.645
  444.500    2.198    0.210    0.417  111.223  172.451
  444.750    2.329    0.224    0.393  109.594  170.444
  445.000    2.537    0.235    0.363  100.122  170.973
  445.250    2.734    0.234    0.331   95.148  172.209
  445.500    2.918    0.224    0.311   90.419  170.000
  445.750    3.034    0.217    0.301   85.506  164.550
  446.000    3.068    0.212    0.315   89.714  161.836
  446.250    3.056    0.213    0.338   95.746  167.531
  446.500    3.005    0.214    0.360   98.191  170.389
  446.750    2.938    0.214    0.363   89.144  167.674
  447.000    2.798    0.247    0.342   81.557  164.253
  447.250    2.715    0.262    0.326   90.996  161.636
  447.500    2.654    0.266    0.327   95.384  160.442
  447.750    2.619    0.267    0.339   96.248  160.158
  448.000    2.649    0.259    0.342   93.647  161.094
  448.250    2.728    0.259    0.350   88.552  162.937
  448.500    2.764    0.216    0.354   88.384  163.667
  448.750    2.712    0.181    0.368   92.289  162.575
  449.000    2.642    0.188    0.389   91.691  160.672
  449.250    2.592    0.269    0.407   87.873  159.372
  449.500    2.535    0.288    0.407   87.824  157.773
  449.750    2.419    0.280    0.368   94.038  156.071
  450.000    2.414    0.247    0.335   98.611  154.069
  450.250    2.776    0.210    0.312   93.216  153.883
  450.500    3.321    0.191    0.281   87.938  152.284
  450.750    4.101    0.181    0.248   83.874  151.900
  451.000    4.621    0.163    0.221   78.293  155.973
  451.250    5.006    0.124    0.205   73.746  162.581
  451.500    5.264    0.092    0.188   69.016  165.442
  451.750    5.273    0.081    0.200   70.488  166.881
  452.000    4.575    0.087    0.261   79.439  168.625
  452.250    3.794    0.216    0.330   85.409  167.634
  452.500    2.959    0.252    0.386   83.051  164.004
  452.750    2.539    0.267    0.414   78.260  160.278
  453.000    2.215    0.280    0.398   76.023  156.751
  453.250    2.097    0.291    0.383   76.157  153.429
  453.500    2.066    0.299    0.368   75.441  150.210
  453.750    2.039    0.305    0.356   73.264  148.506
  454.000    2.038    0.308    0.368   71.453  147.917
  454.250    2.038    0.310    0.358   75.356  148.144
  454.500    2.045    0.312    0.348   80.659  148.467
  454.750    2.076    0.305    0.351   81.706  149.097
  455.000    2.115    0.297    0.341   82.388  149.420
  455.250    2.162    0.291    0.339   83.981  149.644
  455.500    2.240    0.291    0.348   88.433  149.667
  455.750    2.299    0.286    0.359   91.667  150.598
  456.000    2.377    0.282    0.381   94.233  153.053
  456.250    2.467    0.278    0.391   87.679  155.101
  456.500    2.542    0.266    0.381   80.275  156.845
  456.750    2.570    0.265    0.371   71.713  157.878
  457.000    2.527    0.275    0.339   73.915  158.406
  457.250    2.493    0.284    0.329   80.190  158.023
  457.500    2.535    0.276    0.326   81.969  156.830
  457.750    2.612    0.254    0.322   82.100  156.443
  458.000    2.721    0.240    0.330   83.877  156.159
  458.250    2.803    0.229    0.347   85.592  155.775
  458.500    2.855    0.241    0.362   85.118  155.697
  458.750    2.871    0.259    0.381   80.753  155.210
  459.000    2.849    0.274    0.373   76.449  154.623
  459.250    2.780    0.263    0.351   77.192  154.643
  459.500    2.723    0.249    0.338   77.144  153.857
  459.750    2.738    0.238    0.331   79.162  153.066
  460.000    2.815    0.245    0.326   83.313  152.376
  460.250    2.917    0.264    0.325   85.694  152.399
  460.500    3.010    0.254    0.319   88.077  153.435
  460.750    3.090    0.217    0.327   89.427  155.485
  461.000    3.130    0.195    0.342   90.717  158.143
  461.250    3.170    0.213    0.355   92.736  160.288
  461.500    3.158    0.225    0.379   90.863  162.231
  461.750    3.187    0.240    0.382   85.222  159.010
  462.000    3.277    0.231    0.360   81.648  154.368
  462.250    3.427    0.221    0.346   87.740  152.363
  462.500    3.590    0.206    0.331   92.556  152.080
  462.750    3.761    0.193    0.321   96.037  156.156
  463.000    3.955    0.183    0.322   95.683  159.824
  463.250    4.159    0.177    0.308   94.540  163.089
  463.500    4.236    0.173    0.296   94.248  163.517
  463.750    4.204    0.171    0.286  100.222  162.827
  464.000    4.103    0.168    0.313  104.793  163.354
  464.250    3.974    0.175    0.338   95.990  164.492
  464.500    3.878    0.184    0.357   91.867  164.818
  464.750    3.770    0.192    0.368   95.345  163.215
  465.000    3.791    0.196    0.364   97.183  161.109
  465.250    3.833    0.198    0.361   98.169  161.130
  465.500    3.861    0.202    0.358   97.998  160.746
  465.750    3.926    0.194    0.356   94.424  159.654
  466.000    3.969    0.186    0.352   96.990  158.557
  466.250    3.991    0.182    0.348  101.806  156.653
  466.500    3.924    0.188    0.347  105.528  154.752
  466.750    3.858    0.199    0.362   97.332  153.960
  467.000    3.757    0.205    0.373   89.685  154.183
  467.250    3.722    0.210    0.382   91.581  153.089
  467.500    3.756    0.202    0.388   96.153  150.577
  467.750    3.855    0.194    0.374   99.754  147.558
  468.000    3.964    0.188    0.356  102.198  145.046
  468.250    4.053    0.182    0.347  104.825  146.485
  468.500    4.052    0.178    0.348  106.846  151.978
  468.750    3.910    0.179    0.356  111.965  157.980
  469.000    3.731    0.181    0.357  118.180  161.648
  469.250    3.534    0.175    0.347  115.030  162.988
  469.500    3.372    0.173    0.336  100.391  163.210
  469.750    3.285    0.176    0.326   92.437  163.638
  470.000    3.223    0.180    0.318   91.841  163.863
  470.250    3.211    0.177    0.312   91.246  163.781
  470.500    3.180    0.181    0.306   93.084  163.092
  470.750    3.192    0.186    0.323   97.780  161.492
  471.000    3.209    0.183    0.346  100.344  160.503
  471.250    3.269    0.183    0.364  101.026  161.839
  471.500    3.343    0.199    0.375  102.801  163.786
  471.750    3.431    0.211    0.379   99.835  165.629
  472.000    3.475    0.199    0.385   93.281  163.627
  472.250    3.430    0.196    0.368   88.247  159.593
  472.500    3.266    0.219    0.351   88.260  152.722
  472.750    3.134    0.247    0.362   94.352  146.968
  473.000    3.053    0.226    0.376   99.594  145.873
  473.250    3.052    0.189    0.383   98.026  148.737
  473.500    3.069    0.196    0.366   93.539  150.478
  473.750    3.074    0.205    0.357   95.074  151.003
  474.000    3.000    0.211    0.365   96.300  148.290
  474.250    2.847    0.217    0.375   92.543  146.286
