~VERSION INFORMATION
 VERS.                 2.0:   CWLS LOG ASCII STANDARD -VERSION 2.0
 WRAP.                  NO:   ONE LINE PER DEPTH STEP
~WELL INFORMATION BLOCK
#MNEM.UNIT           DATA                    DESCRIPTION OF MNEMONIC
#---------    -------------------            -------------------------------
# Generated from Intellog Unique Number	CS_73_76/WELL/2178
WELL.         ASHLAND OIL CANADA LIMITED     : Well_name    - WELL
LOC .         00/07-32-074-18W4/0            : Location     - LOCATION
UWI .         00/07-32-074-18W4/0            : Uwi          - UNIQUE WELL ID
ENTR.         SP                             : Entered      - ENTERED BY
SRVC.         SCHLUMBERGER                   : Scn          - SERVICE COMPANY
STRT.M        335.280                        : top_depth    - START DEPTH
STOP.M        490.530                        : bot_depth    - STOP DEPTH
STEP.M        0.25                           : increment    - STEP LENGTH
 NULL. -999.2500:NULL Value
~CURVE INFORMATION BLOCK
#MNEM UNIT       ERCB CURVE CODE    CURVE DESCRIPTION
#-----------   ------------------   ----------------------------------
DEPT.M        00 001 00 00         : DEPTH        - DEPTH
GR  .API      00 310 00 00         : GR           - GAMMA RAY
DPHI.V/V      00 890 00 00         : PHID         - DENSITY POROSITY (SANDSTONE)
NPHI.V/V      00 330 00 00         : PHIN         - NEUTRON POROSITY (SANDSTONE)
ILD .OHMM     00 120 00 00         : RESD         - DEEP RESISTIVITY (DIL)
~PARAMETER INFORMATION
#MNEM.UNIT           DATA             DESCRIPTION OF MNEMONIC
#---------         -----------     ------------------------------
GL  .M        583.844              : gl           - GROUND LEVEL ELEVATION
EREF.M        586.892              : kb           - ELEVATION OF DEPTH REFERENCE
DATM.M        583.844              : datum        - DATUM ELEVATION
TDD .M        513.588              : tdd          - TOTAL DEPTH DRILLER
RUN .         ONE                  : Run          - RUN NUMBER
ENG .         BILL                 : Engineer     - RECORDING ENGINEER
WIT .         JIM                  : Witness      - WITNESSED BY
MUD .         GEL                  : Mud_type     - MUD TYPE
MATR.         SANDSTONE            : Logunit      - NEUTRON MATRIX
TMAX.C        60                   : BHT          - MAXIMUM RECORDED TEMPERATURE
BHTD.M        513.588              : BHTDEP       - MAXIMUM RECORDED TEMPERATURE
MATR.         1                    : LOGUNIT      - NEUTRON MATRIX
RMT .C        25                   : MDTP         - TEMPERATURE OF MUD
NEUT.         1                    : NEUTRON      - NEUTRON TYPE
RESI.         0                    : RESIST       - RESISTIVITY TYPE
RMC .OHMM     0.25                 : RMC          - RESISTIVITY OF MUD CAKE
RMF .OHMM     0.25                 : RMF          - RESISTIVITY OF MUD FILTRATE
SUFT.C        15                   : SUFT         - SURFACE TEMPERATURE
~A  DEPTH       GR     PHID     PHIN     RESD
  335.280   43.433    0.297    0.567   11.648
  335.530   42.849    0.310    0.576   11.422
  335.780   42.097    0.320    0.582   11.424
  336.030   42.623    0.315    0.554   11.419
  336.280   44.634    0.318    0.543   11.414
  336.530   44.502    0.318    0.562   11.410
  336.780   43.391    0.308    0.567   11.403
  337.030   42.125    0.301    0.573   11.377
  337.280   40.181    0.295    0.580   11.616
  337.530   43.115    0.291    0.584   11.595
  337.780   45.408    0.294    0.564   11.591
  338.030   44.213    0.305    0.556   11.585
  338.280   44.135    0.315    0.568   11.734
  338.530   44.809    0.306    0.575   11.784
  338.780   44.712    0.301    0.582   11.785
  339.030   44.672    0.309    0.583   11.772
  339.280   44.673    0.307    0.596   11.729
  339.530   46.820    0.307    0.583   11.548
  339.780   48.075    0.298    0.555   11.463
  340.030   49.977    0.302    0.565   11.142
  340.280   51.928    0.286    0.561   11.339
  340.530   54.655    0.276    0.542   11.329
  340.780   58.312    0.247    0.542   11.328
  341.030   62.783    0.207    0.539   11.678
  341.280   65.978    0.162    0.473   12.015
  341.530   65.735    0.123    0.342   12.619
  341.780   63.560    0.085    0.319   13.333
  342.030   61.308    0.076    0.331   15.292
  342.280   60.330    0.051    0.332   17.432
  342.530   58.019    0.056    0.226   18.488
  342.780   55.888    0.112    0.531   16.661
  343.030   52.868    0.200    0.536   14.804
  343.280   60.383    0.236    0.537   12.429
  343.530   65.861    0.238    0.533   10.959
  343.780   68.700    0.235    0.545    9.539
  344.030   71.520    0.222    0.558    8.905
  344.280   74.422    0.235    0.570    8.369
  344.530   81.756    0.249    0.581    8.062
  344.780   87.473    0.263    0.585    8.044
  345.030   88.469    0.278    0.572    8.520
  345.280   84.369    0.273    0.571    8.885
  345.530   82.909    0.253    0.538    8.938
  345.780   81.344    0.203    0.510    8.394
  346.030   80.212    0.184    0.499    7.887
  346.280   79.624    0.179    0.514    7.589
  346.530   77.533    0.179    0.520    7.109
  346.780   79.247    0.184    0.534    7.039
  347.030   84.268    0.187    0.542    6.816
  347.280   86.399    0.177    0.551    6.810
  347.530   85.993    0.169    0.562    7.001
  347.780   87.493    0.175    0.560    7.066
  348.030   89.963    0.183    0.551    6.986
  348.280   88.882    0.168    0.547    6.779
  348.530   89.126    0.164    0.536    6.345
  348.780   87.528    0.183    0.543    5.923
  349.030   85.880    0.202    0.550    5.499
  349.280   87.627    0.218    0.561    5.177
  349.530   87.543    0.225    0.576    5.154
  349.780   85.818    0.251    0.597    5.263
  350.030   84.939    0.253    0.590    5.502
  350.280   83.425    0.219    0.569    5.933
  350.530   82.810    0.252    0.591    6.438
  350.780   80.533    0.264    0.608    7.099
  351.030   76.047    0.278    0.586    7.563
  351.280   70.931    0.292    0.550    7.981
  351.530   67.288    0.297    0.516    7.274
  351.780   65.267    0.305    0.478    6.183
  352.030   64.213    0.289    0.508    4.984
  352.280   66.544    0.284    0.557    4.458
  352.530   72.101    0.266    0.598    4.006
  352.780   82.205    0.167    0.607    3.643
  353.030   87.762    0.168    0.583    3.672
  353.280   87.018    0.170    0.565    3.903
  353.530   85.460    0.212    0.563    4.218
  353.780   86.020    0.221    0.595    4.459
  354.030   85.915    0.282    0.635    4.850
  354.280   82.231    0.323    0.665    5.376
  354.530   75.206    0.307    0.616    5.799
  354.780   69.265    0.305    0.543    6.458
  355.030   65.005    0.304    0.497    6.798
  355.280   61.001    0.303    0.508    7.024
  355.530   59.133    0.311    0.518    7.331
  355.780   56.040    0.314    0.490    7.638
  356.030   55.283    0.302    0.471    7.774
  356.280   56.633    0.291    0.470    7.863
  356.530   58.293    0.291    0.477    8.048
  356.780   58.180    0.285    0.506    8.207
  357.030   59.404    0.274    0.535    8.318
  357.280   65.341    0.268    0.562    8.723
  357.530   71.156    0.280    0.576    8.963
  357.780   65.583    0.279    0.586    9.232
  358.030   62.623    0.272    0.561    9.512
  358.280   59.221    0.264    0.537    9.790
  358.530   57.811    0.248    0.520   10.409
  358.780   57.876    0.250    0.489   10.830
  359.030   57.481    0.248    0.458   11.880
  359.280   54.085    0.225    0.388   12.966
  359.530   52.944    0.249    0.377   14.488
  359.780   54.346    0.270    0.415   15.854
  360.030   54.075    0.294    0.477   16.909
  360.280   52.333    0.306    0.515   17.240
  360.530   53.917    0.310    0.528   16.582
  360.780   53.574    0.306    0.550   14.866
  361.030   51.023    0.286    0.572   13.600
  361.280   49.362    0.246    0.591   12.796
  361.530   47.247    0.178    0.559   12.431
  361.780   48.361    0.121    0.412   13.450
  362.030   50.416    0.066    0.244   15.055
  362.280   49.148    0.060    0.261   18.103
  362.530   44.041    0.028    0.249   21.714
  362.780   41.463   -0.001    0.139   27.276
  363.030   40.544   -0.000    0.134   36.157
  363.280   39.589    0.000    0.126   42.706
  363.530   37.721    0.000    0.124   41.910
  363.780   35.727    0.000    0.126   38.370
  364.030   36.392   -0.000    0.132   35.357
  364.280   38.269    0.000    0.136   31.282
  364.530   38.624   -0.000    0.144   27.676
  364.780   37.756   -0.000    0.161   26.029
  365.030   40.020    0.004    0.171   24.477
  365.280   41.860    0.019    0.180   23.049
  365.530   43.773    0.034    0.187   21.882
  365.780   45.658    0.045    0.197   20.805
  366.030   46.562    0.055    0.211   20.279
  366.280   47.469    0.076    0.221   18.733
  366.530   49.074    0.098    0.251   16.954
  366.780   51.037    0.120    0.275   14.440
  367.030   52.107    0.161    0.300   11.912
  367.280   53.051    0.231    0.357    9.866
  367.530   54.972    0.291    0.430    8.306
  367.780   56.925    0.302    0.488    7.621
  368.030   57.729    0.291    0.524    7.082
  368.280   57.587    0.297    0.545    6.659
  368.530   58.998    0.298    0.561    6.426
  368.780   59.864    0.296    0.561    6.429
  369.030   60.634    0.302    0.569    6.425
  369.280   59.821    0.298    0.558    6.419
  369.530   58.642    0.304    0.549    6.510
  369.780   58.691    0.300    0.555    6.531
  370.030   58.019    0.290    0.574    6.531
  370.280   57.329    0.279    0.590    6.527
  370.530   58.336    0.267    0.601    6.516
  370.780   61.975    0.274    0.610    6.639
  371.030   62.705    0.270    0.596    6.772
  371.280   61.905    0.265    0.609    7.040
  371.530   60.326    0.276    0.562    7.138
  371.780   58.814    0.267    0.530    7.414
  372.030   55.801    0.281    0.529    7.530
  372.280   52.932    0.290    0.538    7.530
  372.530   53.902    0.296    0.537    7.497
  372.780   60.059    0.297    0.524    7.115
  373.030   62.885    0.308    0.515    7.021
  373.280   65.319    0.292    0.516    6.917
  373.530   66.456    0.287    0.524    6.613
  373.780   66.975    0.275    0.526    6.286
  374.030   69.873    0.285    0.532    6.112
  374.280   71.676    0.261    0.545    5.825
  374.530   71.880    0.245    0.532    5.652
  374.780   73.590    0.221    0.524    5.354
  375.030   76.425    0.175    0.509    5.037
  375.280   81.094    0.174    0.531    4.919
  375.530   84.245    0.176    0.568    4.824
  375.780   84.459    0.207    0.588    4.904
  376.030   83.955    0.246    0.600    5.199
  376.280   84.512    0.276    0.604    5.578
  376.530   83.429    0.285    0.592    6.094
  376.780   79.582    0.284    0.593    6.449
  377.030   75.019    0.285    0.578    7.055
  377.280   72.350    0.286    0.556    7.182
  377.530   70.442    0.283    0.575    7.307
  377.780   69.538    0.299    0.593    7.189
  378.030   67.979    0.295    0.608    7.036
  378.280   69.557    0.281    0.624    7.046
  378.530   72.625    0.270    0.627    7.048
