~VERSION INFORMATION
 VERS.                 2.0:   CWLS LOG ASCII STANDARD -VERSION 2.0
 WRAP.                  NO:   ONE LINE PER DEPTH STEP
~WELL INFORMATION BLOCK
#MNEM.UNIT           DATA                    DESCRIPTION OF MNEMONIC
#---------    -------------------            -------------------------------
# Generated from Intellog Unique Number	CS_67_68/WELL/2168
WELL.         06-13-067-08W4                 : Well_name    - WELL
LOC .         00/06-13-067-08W4/0            : Location     - LOCATION
UWI .         00/06-13-067-08W4/0            : Uwi          - UNIQUE WELL ID
ENTR.         SP                             : Entered      - ENTERED BY
SRVC.         SCHLUMBERGER                   : Scn          - SERVICE COMPANY
STRT.M        335                            : top_depth    - START DEPTH
STOP.M        566                            : bot_depth    - STOP DEPTH
STEP.M        0.25                           : increment    - STEP LENGTH
 NULL. -999.2500:NULL Value
~CURVE INFORMATION BLOCK
#MNEM UNIT       ERCB CURVE CODE    CURVE DESCRIPTION
#-----------   ------------------   ----------------------------------
DEPT.M        00 001 00 00         : DEPTH        - DEPTH
ILD .OHMM     00 120 00 00         : RESD         - DEEP RESISTIVITY (DIL)
DPHI.V/V      00 890 00 00         : PHID         - DENSITY POROSITY (LIMESTONE)
NPHI.V/V      00 330 00 00         : PHIN         - NEUTRON POROSITY (LIMESTONE)
GR  .API      00 310 00 00         : GR           - GAMMA RAY
CALI.MM       00 280 01 00         : CAL          - CALIPER
~PARAMETER INFORMATION
#MNEM.UNIT           DATA             DESCRIPTION OF MNEMONIC
#---------         -----------     ------------------------------
GL  .M        646.93               : gl           - GROUND LEVEL ELEVATION
EREF.M        650.73               : kb           - ELEVATION OF DEPTH REFERENCE
DATM.M        650.73               : datum        - DATUM ELEVATION
TDD .M        570                  : tdd          - TOTAL DEPTH DRILLER
RUN .         ONE                  : Run          - RUN NUMBER
ENG .         BILL                 : Engineer     - RECORDING ENGINEER
WIT .         JIM                  : Witness      - WITNESSED BY
MUD .         GEL                  : Mud_type     - MUD TYPE
MATR.         LIMESTONE            : Logunit      - NEUTRON MATRIX
TMAX.C        21                   : BHT          - MAXIMUM RECORDED TEMPERATURE
BHTD.M        570.5                : BHTDEP       - MAXIMUM RECORDED TEMPERATURE
MATR.         1                    : LOGUNIT      - NEUTRON MATRIX
RMT .C        25                   : MDTP         - TEMPERATURE OF MUD
NEUT.         1                    : NEUTRON      - NEUTRON TYPE
RESI.         0                    : RESIST       - RESISTIVITY TYPE
RMC .OHMM     0.25                 : RMC          - RESISTIVITY OF MUD CAKE
RMF .OHMM     0.25                 : RMF          - RESISTIVITY OF MUD FILTRATE
SUFT.C        15                   : SUFT         - SURFACE TEMPERATURE
~A  DEPTH     RESD     PHID     PHIN       GR      CAL
# ...
  481.000    4.284    0.216    0.479   81.997  156.161
  481.250    4.247    0.223    0.432   80.460  156.266
  481.500    4.162    0.258    0.410   83.479  156.372
  481.750    3.988    0.289    0.434   82.003  156.375
  482.000    3.693    0.273    0.450   79.111  157.097
  482.250    3.427    0.244    0.460   82.561  157.921
  482.500    3.198    0.224    0.447   86.073  158.642
  482.750    2.967    0.224    0.439   88.353  159.364
  483.000    2.806    0.251    0.461   89.709  160.188
  483.250    2.683    0.269    0.478   89.773  160.910
  483.500    2.561    0.256    0.493   89.405  161.528
  483.750    2.408    0.253    0.495   88.853  161.942
  484.000    2.247    0.258    0.501   89.409  162.356
  484.250    2.050    0.259    0.478   90.150  162.564
  484.500    1.860    0.255    0.469   91.322  162.567
  484.750    1.690    0.271    0.500   94.033  162.570
  485.000    1.533    0.279    0.512   96.805  162.368
  485.250    1.642    0.283    0.513   98.101  161.242
  485.500    1.765    0.274    0.520   98.656  160.219
  485.750    1.982    0.264    0.527  100.259  159.914
  486.000    2.196    0.266    0.527   96.443  159.917
  486.250    2.523    0.242    0.532   91.396  160.229
  486.500    2.833    0.202    0.512   89.920  160.231
  486.750    3.046    0.172    0.473   91.523  160.132
  487.000    3.207    0.178    0.450   93.680  159.827
  487.250    3.149    0.235    0.466   94.544  159.420
  487.500    3.070    0.263    0.477   93.622  159.115
  487.750    3.043    0.260    0.492   93.624  158.913
  488.000    3.010    0.250    0.507   93.441  158.916
  488.250    2.996    0.241    0.530   93.012  158.611
  488.500    3.009    0.234    0.514   92.213  158.306
  488.750    3.045    0.230    0.501   90.552  157.796
  489.000    3.094    0.238    0.482   87.414  157.286
  489.250    3.143    0.248    0.490   83.659  156.982
  489.500    3.187    0.243    0.483   84.770  157.498
  489.750    3.231    0.209    0.446   90.806  157.706
  490.000    3.327    0.213    0.448   97.212  157.401
  490.250    3.483    0.246    0.472  101.709  156.891
  490.500    3.724    0.252    0.490  106.329  156.586
  490.750    4.119    0.247    0.500   96.787  156.589
  491.000    4.599    0.229    0.414   84.288  156.182
  491.250    5.048    0.156    0.353   84.106  156.082
  491.500    5.346    0.195    0.340   87.987  156.702
  491.750    5.725    0.222    0.408   81.954  157.526
  492.000    6.297    0.200    0.436   75.921  158.965
  492.250    6.795    0.135    0.379   77.955  159.995
  492.500    7.142    0.086    0.340   82.514  159.998
  492.750    7.228    0.106    0.341   85.040  159.591
  493.000    6.848    0.132    0.360   89.537  159.388
  493.250    6.073    0.134    0.380   93.973  158.981
  493.500    5.088    0.186    0.393   98.100  159.189
  493.750    4.256    0.211    0.392  100.196  159.192
  494.000    3.897    0.208    0.402  104.631  159.401
  494.250    3.770    0.223    0.435  107.281  159.404
  494.500    3.793    0.234    0.494  108.391  160.331
  494.750    3.890    0.225    0.465   99.710  161.976
  495.000    4.263    0.216    0.423   99.097  163.723
  495.250    4.706    0.207    0.430  102.793  163.932
  495.500    5.365    0.202    0.443   96.822  163.422
  495.750    5.978    0.220    0.431   85.186  161.680
  496.000    6.763    0.238    0.416   79.707  159.528
  496.250    7.480    0.245    0.400   72.012  157.786
  496.500    8.057    0.226    0.387   72.322  156.866
  496.750    8.629    0.214    0.393   73.617  156.459
  497.000    9.156    0.200    0.400   70.417  156.359
  497.250    9.284    0.131    0.395   66.909  156.567
  497.500    7.324    0.110    0.353   75.038  156.879
  497.750    6.694    0.181    0.351   85.570  157.497
  498.000    6.548    0.209    0.397   93.762  158.116
  498.250    6.540    0.234    0.440   98.874  158.427
  498.500    6.682    0.257    0.469   95.490  158.533
  498.750    7.433    0.270    0.446   92.905  158.844
  499.000    8.082    0.264    0.424   94.200  159.257
  499.250    8.705    0.256    0.410   91.616  159.261
  499.500    9.219    0.255    0.399   92.172  159.264
  499.750    9.331    0.259    0.391   94.883  159.370
  500.000    9.042    0.262    0.395   98.148  160.091
  500.250    8.615    0.257    0.397  100.367  160.813
  500.500    8.177    0.229    0.389  100.615  162.047
  500.750    7.732    0.174    0.382  104.681  163.487
  501.000    7.409    0.157    0.379  110.040  164.927
  501.250    7.441    0.187    0.396  114.599  166.982
  501.500    7.822    0.204    0.406  110.844  164.009
  501.750    8.253    0.220    0.418   97.299  159.291
  502.000    8.591    0.231    0.379   81.784  155.908
  502.250    9.132    0.233    0.353   79.569  153.550
  502.500    9.745    0.229    0.346   80.679  152.938
  502.750   10.819    0.221    0.326   83.021  152.941
  503.000   12.711    0.211    0.311   85.671  153.253
  503.250   14.906    0.216    0.323   77.914  153.563
  503.500   16.961    0.244    0.348   71.820  153.567
  503.750   18.338    0.270    0.356   69.050  153.672
  504.000   19.384    0.279    0.360   73.117  153.778
  504.250   19.918    0.270    0.377   77.121  153.883
  504.500   18.309    0.262    0.386   79.709  153.887
  504.750   16.606    0.250    0.376   81.558  154.300
  505.000   14.781    0.236    0.367   80.082  154.919
  505.250   13.767    0.226    0.376   81.747  155.743
  505.500   14.663    0.211    0.394   85.628  156.772
  505.750   15.734    0.197    0.409   77.932  158.212
  506.000   16.015    0.193    0.369   66.543  158.318
  506.250   15.608    0.226    0.342   58.355  155.755
  506.500   15.501    0.244    0.328   67.655  155.245
  506.750   16.292    0.237    0.339   72.213  155.249
  507.000   17.483    0.272    0.356   70.553  155.046
  507.250   18.655    0.277    0.363   67.660  155.255
  507.500   20.058    0.280    0.367   65.692  155.258
  507.750   21.161    0.297    0.370   65.694  155.364
  508.000   21.907    0.308    0.378   67.604  155.572
  508.250   20.834    0.316    0.388   69.269  155.575
  508.500   16.937    0.305    0.393   71.857  155.680
  508.750   14.381    0.300    0.398   73.275  155.889
  509.000   11.982    0.296    0.388   77.711  156.200
  509.250   10.486    0.287    0.372   83.069  156.511
  509.500    9.388    0.266    0.361   90.707  156.822
  509.750    8.776    0.237    0.350   96.866  157.133
  510.000    8.330    0.211    0.336  102.348  157.444
  510.250    8.257    0.196    0.329  108.016  157.652
  510.500    8.389    0.180    0.338  107.833  157.860
  510.750    8.555    0.193    0.349  103.770  158.069
  511.000    8.791    0.195    0.351   98.661  157.969
  511.250    8.998    0.184    0.342   92.998  157.972
  511.500    9.158    0.172    0.333   96.448  157.975
  511.750    9.095    0.162    0.347  101.068  157.876
  512.000    8.780    0.191    0.360  105.011  157.263
  512.250    8.319    0.205    0.359   83.153  156.240
  512.500    7.941    0.215    0.362   70.470  155.627
  512.750    7.637    0.268    0.360   59.635  155.015
  513.000    7.236    0.284    0.368   59.575  154.402
  513.250    6.972    0.290    0.383   57.422  153.892
  513.500    6.680    0.283    0.403   49.973  153.177
  513.750    6.425    0.290    0.395   44.925  152.770
  514.000    6.180    0.297    0.359   46.775  152.772
  514.250    6.034    0.292    0.339   49.362  152.570
  514.500    5.936    0.290    0.331   57.123  152.471
  514.750    5.873    0.294    0.338   62.667  152.474
  515.000    5.822    0.301    0.347   69.011  152.477
  515.250    5.782    0.292    0.357   73.570  152.583
  515.500    5.677    0.281    0.372   69.323  152.586
  515.750    5.460    0.271    0.369   60.334  152.486
  516.000    5.212    0.292    0.384   52.393  152.695
  516.250    5.118    0.310    0.375   45.744  152.800
  516.500    5.113    0.300    0.355   49.564  152.803
  516.750    5.145    0.293    0.352   57.633  152.806
  517.000    5.553    0.284    0.350   66.502  152.810
  517.250    6.118    0.265    0.347   73.030  152.813
