~VERSION INFORMATION
 VERS.                 2.0:   CWLS LOG ASCII STANDARD -VERSION 2.0
 WRAP.                  NO:   ONE LINE PER DEPTH STEP
~WELL INFORMATION BLOCK
#MNEM.UNIT           DATA                    DESCRIPTION OF MNEMONIC
#---------    -------------------            -------------------------------
# Generated from Intellog Unique Number	CS_77_79/WELL/917
WELL.         ICGR GRAHAM                    : Well_name    - WELL
LOC .         00/08-09-079-05W4/0            : Location     - LOCATION
UWI .         00/08-09-079-05W4/0            : Uwi          - UNIQUE WELL ID
ENTR.         JHS                            : Entered      - ENTERED BY
SRVC.         SCHLUMBERGER                   : Scn          - SERVICE COMPANY
STRT.M        95                             : top_depth    - START DEPTH
STOP.M        330                            : bot_depth    - STOP DEPTH
STEP.M        0.25                           : increment    - STEP LENGTH
 NULL. -999.2500:NULL Value
~CURVE INFORMATION BLOCK
#MNEM UNIT       ERCB CURVE CODE    CURVE DESCRIPTION
#-----------   ------------------   ----------------------------------
DEPT.M        00 001 00 00         : DEPTH        - DEPTH
DPHI.V/V      00 890 00 00         : PHID         - DENSITY POROSITY (LIMESTONE)
NPHI.V/V      00 330 00 00         : PHIN         - NEUTRON POROSITY (LIMESTONE)
GR  .API      00 310 00 00         : GR           - GAMMA RAY
ILD .OHMM     00 120 00 00         : RESD         - DEEP RESISTIVITY (DIL)
RHOB.KG/M3    00 350 00 00         : DENS         - BULK DENSITY
~PARAMETER INFORMATION
#MNEM.UNIT           DATA             DESCRIPTION OF MNEMONIC
#---------         -----------     ------------------------------
GL  .M        510.2                : gl           - GROUND LEVEL ELEVATION
EREF.M        513.2                : kb           - ELEVATION OF DEPTH REFERENCE
DATM.M        513.2                : datum        - DATUM ELEVATION
TDD .M        339                  : tdd          - TOTAL DEPTH DRILLER
RUN .         ONE                  : Run          - RUN NUMBER
ENG .         BILL                 : Engineer     - RECORDING ENGINEER
WIT .         JIM                  : Witness      - WITNESSED BY
MUD .         GEL                  : Mud_type     - MUD TYPE
MATR.         LIMESTONE            : Logunit      - NEUTRON MATRIX
TMAX.C        24                   : BHT          - MAXIMUM RECORDED TEMPERATURE
BHTD.M        339                  : BHTDEP       - MAXIMUM RECORDED TEMPERATURE
MATR.         1                    : LOGUNIT      - NEUTRON MATRIX
RMT .C        25                   : MDTP         - TEMPERATURE OF MUD
NEUT.         1                    : NEUTRON      - NEUTRON TYPE
RESI.         0                    : RESIST       - RESISTIVITY TYPE
RMC .OHMM     0.25                 : RMC          - RESISTIVITY OF MUD CAKE
RMF .OHMM     0.25                 : RMF          - RESISTIVITY OF MUD FILTRATE
SUFT.C        15                   : SUFT         - SURFACE TEMPERATURE
~A  DEPTH     PHID     PHIN       GR     RESD     DENS
# ...
  277.500    0.288    0.397   41.248    3.796 2217.340
  277.750    0.309    0.407   33.909    3.727 2181.780
  278.000    0.317    0.363   32.079    3.590 2167.150
  278.250    0.320    0.346   33.925    3.459 2163.010
  278.500    0.314    0.360   35.158    3.333 2173.500
  278.750    0.305    0.375   35.777    3.272 2188.190
  279.000    0.312    0.370   35.174    3.212 2175.660
  279.250    0.315    0.359   35.792    3.154 2171.510
  279.500    0.301    0.365   37.023    3.155 2194.570
  279.750    0.297    0.386   37.643    3.216 2202.980
  280.000    0.309    0.392   38.875    3.217 2182.080
  280.250    0.312    0.377   35.822    3.279 2175.830
  280.500    0.318    0.374   32.767    3.280 2165.390
  280.750    0.334    0.375   29.714    3.220 2138.200
  281.000    0.340    0.370   32.783    3.222 2127.760
  281.250    0.343    0.365   41.975    3.346 2123.610
  281.500    0.349    0.380   56.675    3.676 2113.170
  281.750    0.279    0.402   67.092    4.039 2232.560
  282.000    0.235    0.386   65.876    4.439 2307.970
  282.250    0.239    0.362   58.536    4.525 2301.720
  282.500    0.269    0.372   51.810    4.441 2249.400
  282.750    0.316    0.394   52.429    4.045 2169.870
  283.000    0.323    0.399   56.111    3.825 2157.340
  283.250    0.323    0.403   59.792    3.755 2157.370
  283.500    0.315    0.411   62.859    3.828 2172.060
  283.750    0.289    0.402   76.338    3.975 2216.070
  284.000    0.263    0.384   84.304    4.451 2260.070
  284.250    0.228    0.383   91.046    4.800 2320.820
  284.500    0.206    0.393   95.340    5.580 2358.550
  284.750    0.212    0.410   89.838    5.904 2348.110
  285.000    0.230    0.394   83.110    5.907 2316.730
  285.250    0.257    0.384   73.934    5.585 2270.700
  285.500    0.284    0.388   69.656    4.899 2224.670
  285.750    0.317    0.384   80.073    4.298 2168.170
  286.000    0.313    0.374   88.650    4.299 2174.480
  286.250    0.260    0.384   96.618    4.724 2264.550
  286.500    0.234    0.422   91.116    5.389 2310.650
  286.750    0.231    0.436   78.878    6.148 2314.880
  287.000    0.238    0.411   64.803    6.266 2302.350
  287.250    0.247    0.391   59.301    6.038 2287.710
  287.500    0.263    0.401   58.695    5.396 2260.530
  287.750    0.274    0.416   68.501    5.008 2241.710
  288.000    0.281    0.426   74.632    5.105 2229.190
  288.250    0.221    0.412   77.088    5.505 2331.810
  288.500    0.148    0.389   80.767    5.936 2457.480
  288.750    0.150    0.406   88.122    6.051 2453.330
  289.000    0.210    0.411   94.865    5.830 2350.760
  289.250    0.201    0.423   91.201    5.513 2365.450
  289.500    0.200    0.444   89.370    5.312 2367.570
  289.750    0.211    0.446   89.990    5.313 2348.760
  290.000    0.205    0.454   93.671    5.315 2359.270
  290.250    0.206    0.454   96.740    5.418 2357.210
  290.500    0.210    0.437  101.645    5.318 2350.950
  290.750    0.209    0.444  103.490    5.320 2353.080
  291.000    0.209    0.444  100.436    5.323 2353.110
  291.250    0.214    0.450   95.546    5.324 2344.770
  291.500    0.218    0.465   93.716    5.326 2336.440
  291.750    0.220    0.452   99.848    5.328 2334.370
  292.000    0.207    0.452  104.755    5.330 2355.340
  292.250    0.195    0.444  105.372    5.332 2376.310
  292.500    0.193    0.444  103.545    5.234 2380.530
  292.750    0.195    0.463  104.163    5.139 2376.370
  293.000    0.207    0.493  108.458    5.045 2355.470
  293.250    0.212    0.518  112.751    4.861 2347.130
  293.500    0.210    0.523  113.982    4.772 2351.350
  293.750    0.205    0.515  102.357    4.598 2359.750
  294.000    0.223    0.475   74.812    4.514 2328.370
  294.250    0.273    0.413   82.779    4.349 2242.560
  294.500    0.259    0.398   90.746    4.351 2267.720
  294.750    0.235    0.410   87.693    4.352 2307.540
  295.000    0.235    0.401   80.966    4.354 2307.580
  295.250    0.244    0.401   74.851    4.195 2292.950
  295.500    0.255    0.409   67.511    3.967 2274.130
  295.750    0.278    0.391   76.702    3.822 2234.380
  296.000    0.257    0.387   86.507    3.614 2270.010
  296.250    0.241    0.401   87.739    3.548 2297.270
  296.500    0.247    0.418   80.399    3.418 2286.830
  296.750    0.278    0.431   70.610    3.293 2234.510
  297.000    0.310    0.403   57.761    3.056 2180.100
  297.250    0.299    0.399   57.157    2.945 2198.980
  297.500    0.271    0.448   52.878    2.785 2247.170
  297.750    0.299    0.459   44.927    2.633 2199.040
  298.000    0.334    0.438   40.036    2.585 2138.350
  298.250    0.345    0.422   44.941    2.538 2119.540
  298.500    0.324    0.435   51.072    2.586 2155.180
  298.750    0.318    0.446   52.306    2.687 2165.670
  299.000    0.320    0.440   56.597    2.843 2163.620
  299.250    0.297    0.420   65.789    3.124 2201.330
  299.500    0.266    0.400   73.757    3.498 2255.810
  299.750    0.246    0.386   78.049    3.916 2289.340
  300.000    0.226    0.383   81.118    4.467 2322.880
  300.250    0.219    0.397   84.800    4.817 2335.470
  300.500    0.217    0.409   86.643    4.730 2339.700
  300.750    0.228    0.414   86.651    4.308 2320.880
  301.000    0.248    0.409   84.822    3.850 2285.320
  301.250    0.259    0.394   79.320    3.441 2266.500
  301.500    0.268    0.407   70.755    3.254 2251.880
  301.750    0.308    0.417   64.028    3.194 2182.820
  302.000    0.306    0.377   81.792    3.136 2187.040
  302.250    0.269    0.368   92.821    3.257 2249.880
  302.500    0.241    0.378   94.051    3.383 2298.070
  302.750    0.230    0.415   72.018    3.448 2316.960
  303.000    0.247    0.426   68.352    3.582 2287.670
  303.250    0.270    0.371   81.217    3.583 2247.920
  303.500    0.258    0.371   83.062    3.652 2268.890
  303.750    0.257    0.377   86.130    3.722 2271.020
  304.000    0.254    0.386   94.099    3.866 2275.240
  304.250    0.242    0.391   97.778    3.868 2296.210
  304.500    0.231    0.404   96.562    3.869 2315.100
  304.750    0.227    0.419   87.998    3.728 2321.400
  305.000    0.233    0.434   80.658    3.525 2310.970
  305.250    0.259    0.412   74.543    3.396 2267.030
  305.500    0.279    0.426   67.204    3.211 2233.550
  305.750    0.293    0.434   58.028    3.094 2208.460
  306.000    0.299    0.411   54.362    2.981 2198.030
  306.250    0.302    0.396   58.655    2.926 2193.880
  306.500    0.304    0.412   59.887    2.873 2189.720
  306.750    0.314    0.419   56.837    2.929 2172.990
  307.000    0.308    0.385   57.455    2.985 2183.500
  307.250    0.282    0.380   63.584    3.101 2227.500
  307.500    0.260    0.411   71.550    3.221 2265.230
  307.750    0.256    0.433   71.562    3.222 2271.540
  308.000    0.281    0.416   68.505    3.222 2229.690
  308.250    0.292    0.412   62.390    3.164 2210.890
  308.500    0.315    0.439   56.274    3.106 2171.130
  308.750    0.336    0.414   51.996    2.993 2135.570
  309.000    0.302    0.403   64.861    2.938 2194.230
  309.250    0.286    0.439   64.869    2.939 2221.480
  309.500    0.318    0.446   54.468    2.940 2167.070
  309.750    0.278    0.403   63.048    2.997 2234.110
  310.000    0.250    0.417   75.300    3.112 2282.300
  310.250    0.270    0.456   69.185    3.233 2248.830
  310.500    0.316    0.428   48.988    3.358 2169.290
  310.750    0.303    0.398   48.384    3.422 2192.360
  311.000    0.275    0.390   58.799    3.360 2240.560
  311.250    0.265    0.412   56.971    3.237 2257.340
  311.500    0.290    0.404   43.508    3.119 2213.400
  311.750    0.314    0.382   41.067    3.062 2173.650
  312.000    0.310    0.376   49.648    3.006 2179.970
  312.250    0.316    0.383   54.552    3.007 2169.530
  312.500    0.310    0.387   52.723    2.952 2180.020
  312.750    0.296    0.389   48.446    2.953 2203.090
  313.000    0.303    0.389   44.778    3.011 2192.660
  313.250    0.310    0.374   36.828    3.127 2180.130
  313.500    0.310    0.363   39.284    3.187 2180.160
  313.750    0.295    0.376   51.537    3.310 2205.320
