~VERSION INFORMATION
 VERS.                 2.0:   CWLS LOG ASCII STANDARD -VERSION 2.0
 WRAP.                  NO:   ONE LINE PER DEPTH STEP
~WELL INFORMATION BLOCK
#MNEM.UNIT           DATA                    DESCRIPTION OF MNEMONIC
#---------    -------------------            -------------------------------
# Generated from Intellog Unique Number	CS_73_76/WELL/3226
WELL.         PRECABRIAMN SHIELD RESOURC     : Well_name    - WELL
LOC .         00/08-36-076-10W4/0            : Location     - LOCATION
UWI .         00/08-36-076-10W4/0            : Uwi          - UNIQUE WELL ID
ENTR.         SP                             : Entered      - ENTERED BY
SRVC.         SCHLUMBERGER                   : Scn          - SERVICE COMPANY
STRT.M        225                            : top_depth    - START DEPTH
STOP.M        440                            : bot_depth    - STOP DEPTH
STEP.M        0.25                           : increment    - STEP LENGTH
 NULL. -999.2500:NULL Value
~CURVE INFORMATION BLOCK
#MNEM UNIT       ERCB CURVE CODE    CURVE DESCRIPTION
#-----------   ------------------   ----------------------------------
DEPT.M        00 001 00 00         : DEPTH        - DEPTH
GR  .API      00 310 00 00         : GR           - GAMMA RAY
DPHI.V/V      00 890 00 00         : PHID         - DENSITY POROSITY (LIMESTONE)
NPHI.V/V      00 330 00 00         : PHIN         - NEUTRON POROSITY (LIMESTONE)
ILD .OHMM     00 120 00 00         : RESD         - DEEP RESISTIVITY (DIL)
~PARAMETER INFORMATION
#MNEM.UNIT           DATA             DESCRIPTION OF MNEMONIC
#---------         -----------     ------------------------------
GL  .M        639.1                : gl           - GROUND LEVEL ELEVATION
EREF.M        642.6                : kb           - ELEVATION OF DEPTH REFERENCE
DATM.M        639.1                : datum        - DATUM ELEVATION
TDD .M        454                  : tdd          - TOTAL DEPTH DRILLER
RUN .         ONE                  : Run          - RUN NUMBER
ENG .         BILL                 : Engineer     - RECORDING ENGINEER
WIT .         JIM                  : Witness      - WITNESSED BY
MUD .         GEL                  : Mud_type     - MUD TYPE
MATR.         LIMESTONE            : Logunit      - NEUTRON MATRIX
TMAX.C        60                   : BHT          - MAXIMUM RECORDED TEMPERATURE
BHTD.M        2072                 : BHTDEP       - MAXIMUM RECORDED TEMPERATURE
MATR.         1                    : LOGUNIT      - NEUTRON MATRIX
RMT .C        25                   : MDTP         - TEMPERATURE OF MUD
NEUT.         1                    : NEUTRON      - NEUTRON TYPE
RESI.         0                    : RESIST       - RESISTIVITY TYPE
RMC .OHMM     0.25                 : RMC          - RESISTIVITY OF MUD CAKE
RMF .OHMM     0.25                 : RMF          - RESISTIVITY OF MUD FILTRATE
SUFT.C        15                   : SUFT         - SURFACE TEMPERATURE
~A  DEPTH       GR     PHID     PHIN     RESD
# ...
  268.500   86.980    0.215    0.372   10.828
  268.750   88.840    0.211    0.377   10.238
  269.000   94.374    0.248    0.380   10.048
  269.250   97.455    0.295    0.389    9.325
  269.500  100.535    0.293    0.414    9.679
  269.750  103.012    0.276    0.434   10.236
  270.000  101.191    0.268    0.419   11.237
  270.250   95.092    0.269    0.378   11.884
  270.500   91.439    0.285    0.379   12.568
  270.750   89.010    0.284    0.391   12.804
  271.000   87.197    0.277    0.438   13.045
  271.250   86.001    0.275    0.477   12.803
  271.500   86.014    0.285    0.491   12.803
  271.750   92.153    0.280    0.427   12.333
  272.000   84.225    0.263    0.426   11.880
  272.250   82.402    0.252    0.438   11.444
  272.500   90.384    0.254    0.455   11.232
  272.750   97.141    0.267    0.431   11.232
  273.000   99.000    0.277    0.403   11.659
  273.250   97.799    0.292    0.391   12.330
  273.500   95.370    0.299    0.384   12.562
  273.750   91.100    0.300    0.377   12.798
  274.000   89.295    0.298    0.375   12.797
  274.250   89.305    0.294    0.370   12.560
  274.500   86.268    0.288    0.371   12.327
  274.750   82.618    0.276    0.378   11.875
  275.000   84.471    0.269    0.396   11.227
  275.250   91.845    0.270    0.428   11.019
  275.500   96.760    0.270    0.447   10.615
  275.750   88.219    0.261    0.468   10.225
  276.000   87.006    0.249    0.479   10.036
  276.250   83.968    0.176    0.464    9.850
  276.500   82.152    0.149    0.441    9.488
  276.750   85.239    0.187    0.414    8.483
  277.000   87.704    0.242    0.395    7.583
  277.250   86.503    0.246    0.402    6.779
  277.500   93.262    0.245    0.426    7.037
  277.750   98.788    0.260    0.572    7.871
  278.000   97.584    0.289    0.626    9.138
  278.250   81.690    0.333    0.671   11.014
  278.500   65.179    0.476    0.727   14.038
  278.750   44.384    0.619    0.715   16.919
  279.000   34.608    0.648    0.608   18.574
  279.250   36.472    0.634    0.365   21.565
  279.500   45.065    0.387    0.360   22.806
  279.750   49.980    0.308    0.366   24.119
  280.000   48.777    0.280    0.380   25.987
  280.250   51.247    0.287    0.371   26.975
  280.500   52.496    0.297    0.360   28.528
  280.750   51.294    0.325    0.357   29.064
  281.000   50.090    0.344    0.358   29.610
  281.250   50.724    0.353    0.367   29.610
  281.500   53.806    0.354    0.377   30.166
  281.750   56.885    0.350    0.391   30.165
  282.000   59.356    0.347    0.397   30.732
  282.250   57.539    0.343    0.397   31.310
  282.500   56.337    0.349    0.387   32.499
  282.750   55.134    0.347    0.383   34.370
  283.000   53.931    0.339    0.385   35.016
  283.250   52.729    0.338    0.377   35.675
  283.500   52.756    0.342    0.370   37.031
  283.750   54.000    0.348    0.363   37.726
  284.000   54.022    0.351    0.361   38.435
  284.250   52.204    0.354    0.363   38.434
  284.500   50.389    0.355    0.371   38.433
  284.750   49.193    0.358    0.379   37.720
  285.000   48.596    0.368    0.378   36.335
  285.250   48.000    0.375    0.373   36.334
  285.500   48.022    0.379    0.369   35.001
  285.750   53.555    0.380    0.367   33.717
  286.000   59.088    0.375    0.369   32.480
  286.250   61.556    0.361    0.372   30.709
  286.500   62.187    0.335    0.372   30.708
  286.750   56.703    0.322    0.373   30.138
  287.000   56.117    0.318    0.396   30.137
  287.250   56.742    0.312    0.402   29.579
  287.500   59.832    0.318    0.404   27.966
  287.750   61.078    0.382    0.420   25.473
  288.000   61.091    0.415    0.411   24.538
  288.250   59.887    0.404    0.404   25.471
  288.500   59.303    0.379    0.381   26.936
  288.750   58.711    0.360    0.392   28.487
  289.000   59.340    0.354    0.376   29.570
  289.250   56.913    0.357    0.369   30.693
  289.500   52.040    0.366    0.365   31.270
  289.750   50.219    0.387    0.363   31.269
  290.000   49.630    0.377    0.362   31.268
  290.250   52.105    0.358    0.370   31.266
  290.500   55.198    0.340    0.386   31.265
  290.750   55.824    0.334    0.416   31.263
  291.000   56.452    0.336    0.411   30.684
  291.250   56.472    0.344    0.388   30.683
  291.500   55.882    0.353    0.382   30.113
  291.750   54.066    0.349    0.398   30.113
  292.000   51.026    0.345    0.412   30.111
  292.250   48.599    0.337    0.404   30.110
  292.500   49.844    0.332    0.408   30.108
  292.750   49.258    0.301    0.420   29.550
  293.000   46.215    0.293    0.411   30.105
  293.250   48.690    0.318    0.402   30.104
  293.500   51.773    0.347    0.402   30.103
  293.750   53.623    0.359    0.403   30.669
  294.000   54.869    0.336    0.395   31.246
  294.250   50.607    0.302    0.390   31.834
  294.500   48.791    0.273    0.385   33.666
  294.750   48.821    0.262    0.374   34.298
  295.000   48.831    0.257    0.362   34.297
  295.250   46.405    0.258    0.374   33.661
  295.500   48.270    0.324    0.385   32.426
  295.750   50.732    0.357    0.381   30.659
  296.000   55.653    0.364    0.380   29.534
  296.250   53.224    0.372    0.383   28.450
  296.500   48.962    0.379    0.382   27.923
  296.750   49.596    0.382    0.378   27.405
  297.000   53.296    0.385    0.385   26.897
  297.250   55.145    0.377    0.395   26.896
  297.500   55.168    0.374    0.405   26.895
  297.750   54.582    0.370    0.422   26.893
  298.000   55.826    0.365    0.420   26.892
  298.250   58.295    0.367    0.406   26.891
  298.500   56.476    0.367    0.393   26.890
  298.750   52.829    0.364    0.393   26.889
  299.000   50.402    0.368    0.404   27.395
  299.250   49.202    0.376    0.398   27.392
  299.500   48.608    0.378    0.384   27.392
  299.750   49.859    0.373    0.383   27.907
  300.000   49.871    0.371    0.405   27.906
  300.250   49.894    0.368    0.470   27.905
  300.500   49.305    0.367    0.463   27.903
  300.750   49.938    0.366    0.416   27.902
  301.000   48.732    0.363    0.401   27.901
  301.250   47.534    0.362    0.398   27.900
  301.500   48.777    0.369    0.402   27.898
  301.750   50.020    0.367    0.407   27.897
  302.000   47.592    0.364    0.403   27.380
  302.250   48.229    0.361    0.406   27.379
  302.500   50.699    0.361    0.409   27.378
  302.750   52.554    0.364    0.397   26.870
  303.000   51.964    0.371    0.390   26.372
  303.250   51.374    0.386    0.395   26.371
  303.500   51.400    0.382    0.399   25.882
  303.750   53.262    0.379    0.412   25.881
  304.000   55.113    0.374    0.428   25.401
  304.250   58.199    0.370    0.443   25.400
  304.500   61.280    0.371    0.427   24.929
  304.750   63.137    0.368    0.391   24.467
  305.000   65.608    0.364    0.393   23.133
  305.250   66.237    0.361    0.398   20.299
  305.500   61.981    0.352    0.397   16.841
  305.750   63.220    0.343    0.404   12.727
  306.000   66.915    0.334    0.420   10.758
  306.250   69.384    0.333    0.476   10.758
  306.500   65.124    0.339    0.457   11.810
  306.750   62.078    0.349    0.433   13.970
  307.000   56.594    0.357    0.389   16.525
  307.250   54.162    0.360    0.383   19.916
  307.500   51.737    0.351    0.383   21.864
  307.750   51.762    0.349    0.378   24.002
  308.000   53.005    0.357    0.379   24.914
  308.250   55.476    0.371    0.380   24.913
  308.500   58.560    0.373    0.390   25.381
  308.750   56.131    0.373    0.399   25.380
  309.000   52.481    0.372    0.397   25.378
  309.250   51.276    0.368    0.405   25.377
  309.500   51.917    0.364    0.412   23.994
  309.750   51.926    0.361    0.417   25.854
  310.000   50.726    0.356    0.413   25.853
  310.250   52.588    0.369    0.392   25.852
  310.500   56.282    0.373    0.389   25.373
  310.750   55.080    0.369    0.396   25.371
  311.000   52.657    0.365    0.388   25.370
  311.250   52.669    0.358    0.376   24.900
  311.500   52.075    0.353    0.371   24.439
  311.750   51.489    0.352    0.393   23.985
