~VERSION INFORMATION
 VERS.                 2.0:   CWLS LOG ASCII STANDARD -VERSION 2.0
 WRAP.                  NO:   ONE LINE PER DEPTH STEP
~WELL INFORMATION BLOCK
#MNEM.UNIT           DATA                    DESCRIPTION OF MNEMONIC
#---------    -------------------            -------------------------------
# Generated from Intellog Unique Number	CS_77_79/WELL/917
WELL.         ICGR GRAHAM                    : Well_name    - WELL
LOC .         00/08-09-079-05W4/0            : Location     - LOCATION
UWI .         00/08-09-079-05W4/0            : Uwi          - UNIQUE WELL ID
ENTR.         JHS                            : Entered      - ENTERED BY
SRVC.         SCHLUMBERGER                   : Scn          - SERVICE COMPANY
STRT.M        95                             : top_depth    - START DEPTH
STOP.M        330                            : bot_depth    - STOP DEPTH
STEP.M        0.25                           : increment    - STEP LENGTH
 NULL. -999.2500:NULL Value
~CURVE INFORMATION BLOCK
#MNEM UNIT       ERCB CURVE CODE    CURVE DESCRIPTION
#-----------   ------------------   ----------------------------------
DEPT.M        00 001 00 00         : DEPTH        - DEPTH
DPHI.V/V      00 890 00 00         : PHID         - DENSITY POROSITY (LIMESTONE)
NPHI.V/V      00 330 00 00         : PHIN         - NEUTRON POROSITY (LIMESTONE)
GR  .API      00 310 00 00         : GR           - GAMMA RAY
ILD .OHMM     00 120 00 00         : RESD         - DEEP RESISTIVITY (DIL)
RHOB.KG/M3    00 350 00 00         : DENS         - BULK DENSITY
~PARAMETER INFORMATION
#MNEM.UNIT           DATA             DESCRIPTION OF MNEMONIC
#---------         -----------     ------------------------------
GL  .M        510.2                : gl           - GROUND LEVEL ELEVATION
EREF.M        513.2                : kb           - ELEVATION OF DEPTH REFERENCE
DATM.M        513.2                : datum        - DATUM ELEVATION
TDD .M        339                  : tdd          - TOTAL DEPTH DRILLER
RUN .         ONE                  : Run          - RUN NUMBER
ENG .         BILL                 : Engineer     - RECORDING ENGINEER
WIT .         JIM                  : Witness      - WITNESSED BY
MUD .         GEL                  : Mud_type     - MUD TYPE
MATR.         LIMESTONE            : Logunit      - NEUTRON MATRIX
TMAX.C        24                   : BHT          - MAXIMUM RECORDED TEMPERATURE
BHTD.M        339                  : BHTDEP       - MAXIMUM RECORDED TEMPERATURE
MATR.         1                    : LOGUNIT      - NEUTRON MATRIX
RMT .C        25                   : MDTP         - TEMPERATURE OF MUD
NEUT.         1                    : NEUTRON      - NEUTRON TYPE
RESI.         0                    : RESIST       - RESISTIVITY TYPE
RMC .OHMM     0.25                 : RMC          - RESISTIVITY OF MUD CAKE
RMF .OHMM     0.25                 : RMF          - RESISTIVITY OF MUD FILTRATE
SUFT.C        15                   : SUFT         - SURFACE TEMPERATURE
~A  DEPTH     PHID     PHIN       GR     RESD     DENS
   95.000    0.181    0.602   65.854   23.621    0.000
   95.250    0.226    0.549   75.653   27.480    0.000
   95.500    0.294    0.476   77.523   35.804    0.000
   95.750    0.332    0.431   72.069   41.669    0.000
   96.000    0.336    0.424   75.767   40.946    0.000
   96.250    0.284    0.466   83.738   35.933    0.000
   96.500    0.265    0.488   81.949   27.122    0.000
   96.750    0.271    0.455   72.845   16.645    0.000
   97.000    0.265    0.421   71.050   13.296    0.000
   97.250    0.255    0.416   80.854   13.063    0.000
   97.500    0.239    0.444   84.539   14.099    0.000
   97.750    0.239    0.460   79.702   15.218    0.000
   98.000    0.269    0.456   71.816   15.526    0.000
   98.250    0.286    0.407   68.811   14.691    0.000
   98.500    0.245    0.397   78.615   15.561    0.000
   98.750    0.219    0.414   83.520   18.457    0.000
   99.000    0.239    0.424   78.079   19.185    0.000
   99.250    0.266    0.443   73.233   19.204    0.000
   99.500    0.275    0.453   71.446   19.592    0.000
   99.750    0.269    0.431   73.916   20.363    0.000
  100.000    0.245    0.424   79.451   22.834    0.000
  100.250    0.267    0.436   84.983   23.283    0.000
  100.500    0.290    0.438   89.279   25.146    0.000
  100.750    0.293    0.441   85.659   26.127    0.000
  101.000    0.294    0.454   69.235   27.156    0.000
  101.250    0.300    0.435   60.134   29.884    0.000
  101.500    0.330    0.390   60.794   30.475    0.000
  101.750    0.344    0.386   66.922   31.679    0.000
  102.000    0.335    0.394   74.277   29.981    0.000
  102.250    0.319    0.414   81.024   29.451    0.000
  102.500    0.312    0.436   82.888   29.486    0.000
  102.750    0.307    0.414   75.001   30.082    0.000
  103.000    0.305    0.430   51.871   31.277    0.000
  103.250    0.355    0.486   44.591   31.890    0.000
  103.500    0.386    0.482   39.141   34.431    0.000
  103.750    0.355    0.444   36.142   36.465    0.000
  104.000    0.341    0.410   34.951   38.623    0.000
  104.250    0.344    0.383   36.216   40.923    0.000
  104.500    0.335    0.377   42.966   42.530    0.000
  104.750    0.337    0.395   47.264   43.386    0.000
  105.000    0.340    0.410   44.263   44.275    0.000
  105.250    0.340    0.410   43.080   44.321    0.000
  105.500    0.338    0.391   50.431   44.370    0.000
  105.750    0.325    0.369   55.960   43.589    0.000
  106.000    0.315    0.369   53.567   42.828    0.000
  106.250    0.314    0.387   51.771   42.070    0.000
  106.500    0.325    0.408   51.211   40.557    0.000
  106.750    0.341    0.413   52.471   39.115    0.000
  107.000    0.338    0.426   55.552   38.426    0.000
  107.250    0.324    0.438   59.854   37.749    0.000
  107.500    0.312    0.437   64.162   38.514    0.000
  107.750    0.303    0.424   57.500   39.291    0.000
  108.000    0.316    0.411   47.782   40.853    0.000
  108.250    0.328    0.404   38.067   40.882    0.000
  108.500    0.335    0.414   36.282   42.502    0.000
  108.750    0.339    0.426   36.920   42.557    0.000
  109.000    0.343    0.444   40.620   43.421    0.000
  109.250    0.345    0.433   43.093   42.662    0.000
  109.500    0.350    0.411   46.189   42.688    0.000
  109.750    0.351    0.401   48.064   41.944    0.000
  110.000    0.351    0.411   47.488   41.210    0.000
  110.250    0.341    0.420   46.919   41.264    0.000
  110.500    0.334    0.407   49.391   41.295    0.000
  110.750    0.330    0.387   51.264   41.346    0.000
  111.000    0.327    0.382   49.468   40.625    0.000
  111.250    0.330    0.386   50.728   39.170    0.000
  111.500    0.336    0.395   53.213   37.763    0.000
  111.750    0.345    0.405   54.474   36.410    0.000
  112.000    0.334    0.421   57.562   34.449    0.000
  112.250    0.327    0.445   61.871   33.840    0.000
  112.500    0.350    0.450   65.574   32.633    0.000
  112.750    0.368    0.440   68.043   32.054    0.000
  113.000    0.367    0.434   68.686   30.917    0.000
  113.250    0.356    0.451   66.903   30.946    0.000
  113.500    0.347    0.458   65.726   30.403    0.000
  113.750    0.343    0.458   68.803   29.317    0.000
  114.000    0.340    0.453   72.500   28.793    0.000
  114.250    0.336    0.424   68.276   26.737    0.000
  114.500    0.325    0.407   67.088   24.363    0.000
  114.750    0.303    0.399   76.885   20.591    0.000
  115.000    0.284    0.424   86.683   16.446    0.000
  115.250    0.270    0.457   97.698   13.384    0.000
  115.500    0.246    0.475  104.446   10.490    0.000
  115.750    0.138    0.496  103.259    9.036    0.000
  116.000    0.119    0.522  102.699    8.079    0.000
  116.250    0.159    0.515  106.392    7.226    0.000
  116.500    0.216    0.498  108.259    6.709    0.000
  116.750    0.217    0.504  110.125    6.230    0.000
  117.000    0.195    0.513  116.872    5.895    0.000
  117.250    0.199    0.490  121.181    5.790    0.000
  117.500    0.216    0.488  121.218    5.907    0.000
  117.750    0.220    0.507  118.213    6.501    0.000
  118.000    0.247    0.542  113.985    6.754    0.000
  118.250    0.260    0.502  106.094    8.164    0.000
  118.500    0.266    0.458   90.895    9.862    0.000
  118.750    0.273    0.481   61.050   13.855    0.000
  119.000    0.300    0.469   48.893   17.060    0.000
  119.250    0.325    0.382   47.723   21.010    0.000
  119.500    0.315    0.394   63.609   23.548    0.000
  119.750    0.302    0.422   68.535   25.413    0.000
  120.000    0.312    0.428   63.685   25.932    0.000
  120.250    0.333    0.393   55.797   24.539    0.000
  120.500    0.338    0.367   46.693   22.784    0.000
  120.750    0.329    0.362   58.924   21.555    0.000
  121.000    0.285    0.410   70.552   20.778    0.000
  121.250    0.264    0.417   68.760   20.042    0.000
  121.500    0.277    0.407   66.366   20.447    0.000
  121.750    0.297    0.417   63.960   20.851    0.000
  122.000    0.304    0.441   57.294   21.672    0.000
  122.250    0.316    0.415   57.944   22.115    0.000
  122.500    0.319    0.404   65.306   21.727    0.000
  122.750    0.304    0.410   68.996   20.551    0.000
  123.000    0.290    0.433   72.691   19.451    0.000
  123.250    0.288    0.417   72.740   19.113    0.000
  123.500    0.288    0.408   75.217   19.135    0.000
  123.750    0.271    0.412   75.859   19.887    0.000
  124.000    0.256    0.434   69.199   21.066    0.000
  124.250    0.268    0.441   64.364   22.311    0.000
  124.500    0.314    0.432   63.786   24.080    0.000
  124.750    0.366    0.418   83.337   26.994    0.000
  125.000    0.365    0.412   98.007   29.695    0.000
  125.250    0.343    0.418  102.319   30.866    0.000
  125.500    0.332    0.439   84.669   30.905    0.000
  125.750    0.333    0.446   63.367   30.926    0.000
  126.000    0.338    0.413   36.583   30.960    0.000
  126.250    0.327    0.397   36.625   30.419    0.000
  126.500    0.330    0.408   44.590   29.887    0.000
  126.750    0.343    0.426   51.335   29.363    0.000
  127.000    0.346    0.419   57.467   28.846    0.000
  127.250    0.344    0.420   61.168   28.341    0.000
  127.500    0.338    0.427   60.598   27.847    0.000
  127.750    0.327    0.428   58.206   27.357    0.000
  128.000    0.322    0.423   60.682   26.884    0.000
  128.250    0.323    0.429   58.886   25.926    0.000
  128.500    0.322    0.439   49.779   25.456    0.000
  128.750    0.320    0.435   48.602   24.552    0.000
  129.000    0.306    0.412   52.904   23.664    0.000
  129.250    0.303    0.400   65.749   22.819    0.000
  129.500    0.294    0.407   76.158   22.002    0.000
  129.750    0.283    0.440   80.460   20.428    0.000
  130.000    0.286    0.442   81.108   20.066    0.000
  130.250    0.297    0.432   84.211   20.099    0.000
  130.500    0.305    0.424   85.469   20.493    0.000
  130.750    0.305    0.421   84.902   20.519    0.000
  131.000    0.295    0.439   86.152   20.542    0.000
  131.250    0.296    0.429   91.066   20.183    0.000
