~VERSION INFORMATION
 VERS.                 2.0:   CWLS LOG ASCII STANDARD -VERSION 2.0
 WRAP.                  NO:   ONE LINE PER DEPTH STEP
~WELL INFORMATION BLOCK
#MNEM.UNIT           DATA                    DESCRIPTION OF MNEMONIC
#---------    -------------------            -------------------------------
# Generated from Intellog Unique Number	CW_73_75/WELL/2727
WELL.         CAVALIER ET AL CALL 06-13      : Well_name    - WELL
LOC .         00/06-13-073-22W4/0            : Location     - LOCATION
UWI .         00/06-13-073-22W4/0            : Uwi          - UNIQUE WELL ID
ENTR.         JAYE                           : Entered      - ENTERED BY
SRVC.         SCHLUMBERGER                   : Scn          - SERVICE COMPANY
DATE.         25 JAN 75                      : Date         - LOG DATE
STRT.M        335.28                         : top_depth    - START DEPTH
STOP.M        533.28                         : bot_depth    - STOP DEPTH
STEP.M        0.25                           : increment    - STEP LENGTH
 NULL. -999.2500:NULL Value
~CURVE INFORMATION BLOCK
#MNEM UNIT       ERCB CURVE CODE    CURVE DESCRIPTION
#-----------   ------------------   ----------------------------------
DEPT.M        00 001 00 00         : DEPTH        - DEPTH
ILD .OHMM     00 120 00 00         : RESD         - DEEP RESISTIVITY (DIL)
NPHI.V/V      00 330 00 00         : PHIN         - NEUTRON POROSITY (SANDSTONE)
DPHI.V/V      00 890 00 00         : PHID         - DENSITY POROSITY (SANDSTONE)
GR  .API      00 310 00 00         : GR           - GAMMA RAY
CALI.MM       00 280 01 00         : CAL          - CALIPER
~PARAMETER INFORMATION
#MNEM.UNIT           DATA             DESCRIPTION OF MNEMONIC
#---------         -----------     ------------------------------
GL  .M        634.136              : gl           - GROUND LEVEL ELEVATION
EREF.M        637.184              : kb           - ELEVATION OF DEPTH REFERENCE
DATM.M        634.136              : datum        - DATUM ELEVATION
TDD .M        562.356              : tdd          - TOTAL DEPTH DRILLER
RUN .         ONE                  : Run          - RUN NUMBER
ENG .         EARLEY               : Engineer     - RECORDING ENGINEER
WIT .         CONNELLY             : Witness      - WITNESSED BY
BASE.         EDM                  : Branch       - HOME BASE OF LOGGING UNIT
MUD .         GEL CHEM & LCM DIESL : Mud_type     - MUD TYPE
MATR.         SANDSTONE            : Logunit      - NEUTRON MATRIX
TMAX.C        27.7778              : BHT          - MAXIMUM RECORDED TEMPERATURE
BHTD.M        541.325              : BHTDEP       - MAXIMUM RECORDED TEMPERATURE
RMT .C        13.3333              : MDTP         - TEMPERATURE OF MUD
MUDD.KG/M     960                  : MWT          - MUD DENSITY
NEUT.         1                    : NEUTRON      - NEUTRON TYPE
RESI.         0                    : RESIST       - RESISTIVITY TYPE
RM  .OHMM     2.5                  : RM           - RESISTIVITY OF MUD
RMC .OHMM     1.25                 : RMC          - RESISTIVITY OF MUD CAKE
RMF .OHMM     2.7                  : RMF          - RESISTIVITY OF MUD FILTRATE
SUFT.C        -17.7778             : SUFT         - SURFACE TEMPERATURE
~A  DEPTH     RESD     PHIN     PHID       GR      CAL
# ...
  481.280    8.785    0.445    0.246   85.032  428.240
  481.530    8.474    0.406    0.224   86.646  429.423
  481.780    7.888    0.383    0.174   89.544  422.432
  482.030    7.105    0.359    0.154   95.497  414.720
  482.280    6.127    0.458    0.184  101.572  422.113
  482.530    5.580    0.464    0.249  107.709  427.846
  482.780    5.308    0.470    0.273  113.112  429.234
  483.030    5.036    0.477    0.299  112.226  429.174
  483.280    4.961    0.543    0.351  112.434  469.676
  483.530    5.042    0.592    0.442  113.315  490.931
  483.780    5.280    0.620    0.544  114.380  521.085
  484.030    5.793    0.618    0.424  118.133  578.348
  484.280    6.738    0.575    0.380  117.673  521.899
  484.530    7.722    0.522    0.285  106.394  497.838
  484.780    8.588    0.448    0.190   93.771  406.311
  485.030    9.180    0.342    0.162   80.294  403.873
  485.280    9.340    0.279    0.114   74.761  417.473
  485.530    8.872    0.279    0.040   78.882  425.485
  485.780    8.324    0.329    0.094   85.812  426.782
  486.030    7.503    0.382    0.134   94.210  426.613
  486.280    6.917    0.433    0.173   98.088  426.967
  486.530    6.449    0.451    0.183   99.093  427.635
  486.780    6.059    0.435    0.180  100.526  428.195
  487.030    5.826    0.455    0.177  103.178  428.037
  487.280    5.750    0.468    0.202  106.077  428.191
  487.530    5.675    0.461    0.216  107.326  428.337
  487.780    5.678    0.455    0.203  108.088  428.793
  488.030    5.720    0.471    0.201  109.149  431.009
  488.280    5.801    0.493    0.230  110.707  434.775
  488.530    5.882    0.497    0.187  111.833  438.856
  488.780    5.924    0.479    0.217  113.568  439.419
  489.030    5.966    0.465    0.200  113.532  434.497
  489.280    6.047    0.452    0.172  110.383  427.401
  489.530    6.129    0.440    0.143  109.005  423.932
  489.780    6.249    0.443    0.125  109.336  422.838
  490.030    6.409    0.453    0.152  112.235  422.982
  490.280    6.530    0.451    0.167  115.375  423.337
  490.530    6.611    0.456    0.151  116.017  424.831
  490.780    6.692    0.457    0.210  114.450  442.259
  491.030    6.774    0.449    0.162  113.623  428.546
  491.280    6.816    0.448    0.155  113.773  425.692
  491.530    6.857    0.464    0.155  114.351  425.944
  491.780    6.900    0.450    0.137  115.047  426.405
  492.030    6.902    0.438    0.129  117.152  426.342
  492.280    6.905    0.435    0.142  119.011  426.293
  492.530    6.908    0.455    0.129  120.014  425.916
  492.780    6.871    0.467    0.169  121.017  425.655
  493.030    6.756    0.462    0.166  120.312  426.009
  493.280    6.681    0.457    0.148  117.648  426.781
  493.530    6.605    0.456    0.152  113.278  427.236
  493.780    6.490    0.475    0.162  109.148  427.591
  494.030    6.415    0.465    0.146  104.714  427.220
  494.280    6.339    0.458    0.134  103.213  427.267
  494.530    6.263    0.473    0.146  105.805  428.452
  494.780    6.187    0.490    0.185  109.253  430.562
  495.030    6.150    0.488    0.244  110.137  433.710
  495.280    6.114    0.482    0.224  107.962  426.721
  495.530    6.117    0.506    0.175  110.250  434.213
  495.780    6.159    0.483    0.247  114.310  429.085
  496.030    6.240    0.467    0.193  113.238  425.615
  496.280    6.361    0.453    0.138  108.984  425.450
  496.530    6.481    0.440    0.122  107.363  425.499
  496.780    6.481    0.449    0.138  108.366  425.651
  497.030    6.565    0.461    0.159  108.698  425.700
  497.280    6.646    0.463    0.159  108.421  425.942
  497.530    6.767    0.463    0.159  108.019  426.402
  497.780    6.848    0.457    0.172  108.596  427.997
  498.030    6.969    0.445    0.194  109.478  432.595
  498.280    7.129    0.430    0.196  110.297  424.673
  498.530    7.249    0.447    0.200  108.063  423.275
  498.780    7.291    0.440    0.210  103.752  423.529
  499.030    7.333    0.427    0.171  100.051  423.876
  499.280    7.297    0.416    0.186   98.122  424.649
  499.530    6.985    0.399    0.169  101.019  425.104
  499.780    6.714    0.396    0.149  105.202  425.571
  500.030    6.520    0.421    0.133  107.732  425.922
  500.280    6.287    0.458    0.149  110.632  426.279
  500.530    6.055    0.466    0.147  113.043  426.947
  500.780    6.018    0.452    0.133  112.640  427.721
  501.030    5.982    0.446    0.137  113.401  428.274
  501.280    6.063    0.451    0.152  114.893  428.836
  501.530    6.183    0.470    0.168  116.510  429.398
  501.780    6.422    0.490    0.189  117.330  429.750
  502.030    6.739    0.496    0.217  116.990  429.693
  502.280    6.898    0.460    0.246  112.005  428.601
  502.530    6.823    0.408    0.202  104.332  425.953
  502.780    6.747    0.382    0.133   97.575  423.104
  503.030    6.632    0.380    0.123   96.504  422.113
  503.280    6.635    0.406    0.149   97.021  423.712
  503.530    6.873    0.402    0.173   96.678  424.685
  503.780    7.896    0.410    0.180   94.505  425.246
  504.030    9.077    0.431    0.156   89.337  425.196
  504.280   11.199    0.424    0.150   81.971  424.931
  504.530   16.109    0.362    0.112   74.910  424.770
  504.780   18.467    0.274    0.069   69.863  424.814
  505.030   18.824    0.252    0.027   69.038  425.068
  505.280   16.510    0.266   -0.003   69.734  425.205
  505.530   14.236    0.292    0.011   71.964  425.360
  505.780   11.530    0.332    0.069   73.698  425.402
  506.030   10.198    0.296    0.098   77.638  425.551
  506.280    9.141    0.264    0.078   81.816  425.801
  506.530    7.966    0.275    0.030   88.319  425.850
  506.780    7.027    0.310    0.008   95.741  425.791
  507.030    6.598    0.412    0.058  103.101  425.937
  507.280    6.639    0.417    0.094  105.631  425.982
  507.530    6.760    0.406    0.128  106.451  426.023
  507.780    6.881    0.443    0.138  106.601  426.171
  508.030    6.923    0.461    0.125  106.870  426.217
  508.280    7.004    0.437    0.145  108.487  426.368
  508.530    7.046    0.438    0.162  110.469  426.834
  508.780    7.088    0.433    0.160  112.329  427.181
  509.030    7.130    0.428    0.131  112.906  427.643
  509.280    7.133    0.429    0.133  112.933  427.905
  509.530    7.175    0.429    0.136  111.553  428.044
  509.780    7.217    0.424    0.121  109.133  428.091
  510.030    7.259    0.425    0.125  111.972  428.134
  510.280    7.261    0.415    0.149  113.832  428.184
  510.530    7.225    0.424    0.144  115.202  428.426
  510.780    7.150    0.436    0.132  114.311  428.683
  511.030    7.113    0.436    0.138  109.816  428.517
  511.280    6.920    0.410    0.139  108.500  427.941
  511.530    6.647    0.380    0.125  108.830  427.062
  511.780    6.336    0.380    0.140  112.952  426.794
  512.030    6.182    0.401    0.157  116.218  427.041
  512.280    6.145    0.418    0.186  116.731  427.809
  512.530    6.148    0.428    0.212  111.442  432.199
  512.780    6.230    0.394    0.238  103.343  441.142
  513.030    6.310    0.376    0.184  100.497  440.982
  513.280    6.471    0.386    0.139  102.174  430.886
  513.530    6.434    0.401    0.098  105.804  425.865
  513.780    6.319    0.424    0.127  111.697  426.017
  514.030    5.772    0.425    0.138  111.234  425.742
  514.280    4.990    0.406    0.162  109.979  425.686
  514.530    4.325    0.433    0.150  110.678  426.142
  514.780    3.817    0.591    0.198  108.199  428.258
  515.030    3.428    0.691    0.561   98.998  464.000
  515.280    3.234    0.721    0.591   91.447  513.501
  515.530    3.041    0.733    0.623   84.386  556.591
  515.780    3.004    0.750    0.647   78.731  606.713
  516.030    2.968    0.765    0.664   75.762  607.174
  516.280    3.049    0.776    0.623   78.540  617.770
  516.530    3.444    0.769    0.588   81.438  628.993
  516.780    3.957    0.756    0.506   84.946  639.486
  517.030    4.628    0.708    0.493   86.318  602.592
  517.280    5.298    0.584    0.484   86.895  500.720
  517.530    5.811    0.558    0.492   89.549  512.043
