~VERSION INFORMATION
 VERS.                 2.0:   CWLS LOG ASCII STANDARD -VERSION 2.0
 WRAP.                  NO:   ONE LINE PER DEPTH STEP
~WELL INFORMATION BLOCK
#MNEM.UNIT           DATA                    DESCRIPTION OF MNEMONIC
#---------    -------------------            -------------------------------
# Generated from Intellog Unique Number	CS_71_72/WELL/619
WELL.         MAYNARD ENERGY INC.            : Well_name    - WELL
LOC .         00/02-26-072-13W4/0            : Location     - LOCATION
UWI .         00/02-26-072-13W4/0            : Uwi          - UNIQUE WELL ID
ENTR.         SP                             : Entered      - ENTERED BY
SRVC.         SCHLUMBERGER                   : Scn          - SERVICE COMPANY
STRT.M        300                            : top_depth    - START DEPTH
STOP.M        530                            : bot_depth    - STOP DEPTH
STEP.M        0.25                           : increment    - STEP LENGTH
 NULL. -999.2500:NULL Value
~CURVE INFORMATION BLOCK
#MNEM UNIT       ERCB CURVE CODE    CURVE DESCRIPTION
#-----------   ------------------   ----------------------------------
DEPT.M        00 001 00 00         : DEPTH        - DEPTH
ILD .OHMM     00 120 00 00         : RESD         - DEEP RESISTIVITY (DIL)
DPHI.V/V      00 890 00 00         : PHID         - DENSITY POROSITY (LIMESTONE)
NPHI.V/V      00 330 00 00         : PHIN         - NEUTRON POROSITY (LIMESTONE)
GR  .API      00 310 00 00         : GR           - GAMMA RAY
~PARAMETER INFORMATION
#MNEM.UNIT           DATA             DESCRIPTION OF MNEMONIC
#---------         -----------     ------------------------------
GL  .M        653.8                : gl           - GROUND LEVEL ELEVATION
EREF.M        657.5                : kb           - ELEVATION OF DEPTH REFERENCE
DATM.M        653.8                : datum        - DATUM ELEVATION
TDD .M        542                  : tdd          - TOTAL DEPTH DRILLER
RUN .         ONE                  : Run          - RUN NUMBER
ENG .         BILL                 : Engineer     - RECORDING ENGINEER
WIT .         JIM                  : Witness      - WITNESSED BY
MUD .         GEL                  : Mud_type     - MUD TYPE
MATR.         LIMESTONE            : Logunit      - NEUTRON MATRIX
TMAX.C        22                   : BHT          - MAXIMUM RECORDED TEMPERATURE
BHTD.M        542                  : BHTDEP       - MAXIMUM RECORDED TEMPERATURE
MATR.         1                    : LOGUNIT      - NEUTRON MATRIX
RMT .C        144                  : MDTP         - TEMPERATURE OF MUD
NEUT.         1                    : NEUTRON      - NEUTRON TYPE
RESI.         0                    : RESIST       - RESISTIVITY TYPE
RMC .OHMM     0.25                 : RMC          - RESISTIVITY OF MUD CAKE
RMF .OHMM     0.25                 : RMF          - RESISTIVITY OF MUD FILTRATE
SUFT.C        15                   : SUFT         - SURFACE TEMPERATURE
~A  DEPTH     RESD     PHID     PHIN       GR
# ...
  387.000    6.143    0.309    0.457   73.476
  387.250    6.469    0.302    0.451   72.270
  387.500    6.714    0.305    0.442   69.860
  387.750    6.877    0.314    0.433   69.259
  388.000    7.202    0.327    0.421   69.268
  388.250    7.447    0.335    0.419   69.272
  388.500    7.692    0.329    0.428   69.276
  388.750    7.856    0.324    0.441   69.889
  389.000    8.182    0.315    0.432   69.896
  389.250    8.346    0.315    0.417   69.900
  389.500    8.429    0.319    0.410   68.090
  389.750    8.512    0.333    0.410   67.492
  390.000    8.033    0.342    0.409   74.758
  390.250    7.792    0.347    0.415   78.391
  390.500    7.311    0.333    0.432   85.656
  390.750    6.911    0.319    0.438   91.105
  391.000    6.833    0.309    0.440   86.273
  391.250    6.917    0.333    0.427   79.022
  391.500    7.162    0.347    0.415   73.585
  391.750    7.567    0.357    0.409   71.169
  392.000    8.054    0.359    0.405   66.942
  392.250    8.541    0.354    0.406   65.134
  392.500    8.867    0.354    0.401   64.534
  392.750    9.111    0.354    0.398   69.380
  393.000    9.275    0.343    0.393   73.015
  393.250    9.439    0.341    0.393   73.022
  393.500    9.523    0.336    0.395   72.421
  393.750    9.445    0.328    0.400   74.242
  394.000    9.367    0.343    0.405   78.484
  394.250    9.290    0.347    0.416   80.303
  394.500    9.292    0.334    0.424   81.518
  394.750    9.294    0.330    0.428   77.895
  395.000    9.701    0.326    0.431   66.411
  395.250   10.106    0.332    0.434   62.785
  395.500   10.997    0.338    0.416   64.606
  395.750   12.128    0.332    0.387   69.452
  396.000   14.227    0.306    0.349   68.854
  396.250   16.730    0.263    0.288   60.996
  396.500   20.968    0.193    0.219   53.745
  396.750   26.613    0.150    0.184   48.309
  397.000   46.774    0.058    0.166   46.498
  397.250   67.742    0.020    0.155   43.481
  397.500  180.645    0.010    0.133   42.276
  397.750  195.968    0.005    0.116   42.281
  398.000  202.419   -0.002    0.115   42.895
  398.250  200.000   -0.006    0.126   42.900
  398.500  145.161   -0.007    0.137   42.906
  398.750  116.935   -0.008    0.149   43.516
  399.000   91.129   -0.007    0.163   45.943
  399.250   59.677    0.001    0.187   48.971
  399.500   34.677    0.030    0.234   55.028
  399.750   23.387    0.071    0.281   59.267
  400.000   16.129    0.176    0.330   63.507
  400.250   12.502    0.249    0.371   65.932
  400.500   10.972    0.321    0.390   65.938
  400.750   10.007    0.343    0.397   65.338
  401.000    9.285    0.334    0.401   71.393
  401.250    8.884    0.323    0.408   77.449
  401.500    8.564    0.321    0.416   79.267
  401.750    8.245    0.321    0.421   82.301
  402.000    8.087    0.313    0.426   83.514
  402.250    8.009    0.308    0.426   82.916
  402.500    8.011    0.306    0.428   81.715
  402.750    8.014    0.308    0.432   82.323
  403.000    8.098    0.304    0.436   84.749
  403.250    8.182    0.298    0.442   85.963
  403.500    8.264    0.292    0.444   87.785
  403.750    8.267    0.287    0.450   83.556
  404.000    8.271    0.289    0.452   76.304
  404.250    8.192    0.320    0.460   70.868
  404.500    8.115    0.330    0.467   71.478
  404.750    7.956    0.336    0.472   76.931
  405.000    7.879    0.343    0.466   80.567
  405.250    7.882    0.336    0.469   84.198
  405.500    7.884    0.322    0.454   84.206
  405.750    7.967    0.309    0.419   83.606
  406.000    8.131    0.292    0.423   83.006
  406.250    8.377    0.277    0.428   79.989
  406.500    8.541    0.336    0.422   78.182
  406.750    8.624    0.336    0.415   78.187
  407.000    8.788    0.311    0.408   78.191
  407.250    8.952    0.290    0.403   78.198
  407.500    9.117    0.287    0.400   80.020
  407.750    9.280    0.277    0.405   81.233
  408.000    9.283    0.255    0.403   82.449
  408.250    9.286    0.240    0.398   80.640
  408.500    9.289    0.241    0.405   77.624
  408.750    9.210    0.259    0.411   78.233
  409.000    9.053    0.264    0.407   81.869
  409.250    9.055    0.250    0.399   85.505
  409.500    9.058    0.230    0.395   85.509
  409.750    9.222    0.252    0.393   80.073
  410.000    9.467    0.289    0.395   77.660
  410.250    9.711    0.314    0.396   75.247
  410.500   10.118    0.325    0.392   74.648
  410.750   10.524    0.320    0.381   75.258
  411.000   10.849    0.182    0.371   71.031
  411.250   11.093    0.073    0.350   66.801
  411.500   11.257    0.045    0.305   63.178
  411.750   10.374    0.049    0.308   71.050
  412.000    9.570    0.130    0.347   75.287
  412.250    9.008    0.180    0.422   82.553
  412.500    8.446    0.237    0.465   86.793
  412.750    7.965    0.231    0.464   88.008
  413.000    7.646    0.213    0.446   90.432
  413.250    7.569    0.224    0.432   91.044
  413.500    7.572    0.243    0.432   87.422
  413.750    7.655    0.261    0.424   81.984
  414.000    7.739    0.259    0.419   81.385
  414.250    7.741    0.249    0.438   84.415
  414.500    7.663    0.244    0.449   86.842
  414.750    7.665    0.260    0.459   87.451
  415.000    7.507    0.272    0.447   85.644
  415.250    7.429    0.254    0.462   85.650
  415.500    7.351    0.233    0.472   86.259
  415.750    7.274    0.238    0.476   89.896
  416.000    7.277    0.246    0.447   92.925
  416.250    7.279    0.256    0.423   96.560
  416.500    7.282    0.245    0.420   95.356
  416.750    7.365    0.237    0.436   89.919
  417.000    7.611    0.235    0.445   83.878
  417.250    7.694    0.253    0.432   80.858
  417.500    7.859    0.263    0.425   77.841
  417.750    7.941    0.268    0.413   79.056
  418.000    8.025    0.266    0.409   82.087
  418.250    8.028    0.274    0.415   83.908
  418.500    7.869    0.281    0.428   82.703
  418.750    7.630    0.290    0.436   82.107
  419.000    7.149    0.292    0.445   83.321
  419.250    6.507    0.274    0.438   86.957
  419.500    6.026    0.259    0.432   89.380
  419.750    5.142    0.257    0.456   91.806
  420.000    4.580    0.270    0.551   89.997
  420.250    3.534    0.288    0.614   94.841
  420.500    2.973    0.293    0.627  101.500
  420.750    2.733    0.297    0.636  106.347
  421.000    2.575    0.288    0.617  103.934
  421.250    2.740    0.291    0.600  102.124
  421.500    2.985    0.299    0.578  100.316
  421.750    3.228    0.303    0.547   97.902
  422.000    4.119    0.283    0.508   92.466
  422.250    4.444    0.271    0.469   90.052
  422.500    5.173    0.266    0.447   88.847
  422.750    5.660    0.277    0.469   93.694
  423.000    5.984    0.277    0.480   96.118
  423.250    6.230    0.274    0.455   93.100
  423.500    6.232    0.266    0.430   86.454
  423.750    6.316    0.266    0.418   83.436
  424.000    6.319    0.272    0.444   86.466
  424.250    6.321    0.286    0.445   91.315
  424.500    6.325    0.295    0.438   90.107
  424.750    6.328    0.290    0.449   91.324
  425.000    6.330    0.283    0.446   91.934
  425.250    6.332    0.276    0.432   89.522
  425.500    6.336    0.288    0.430   88.317
  425.750    6.338    0.277    0.438   87.112
  426.000    6.423    0.271    0.447   87.119
  426.250    6.425    0.283    0.458   87.728
  426.500    6.427    0.302    0.474   94.392
  426.750    6.430    0.323    0.470   95.607
  427.000    6.433    0.335    0.447   95.612
  427.250    6.437    0.331    0.435   91.383
  427.500    6.439    0.351    0.424   79.896
  427.750    6.441    0.360    0.417   64.782
  428.000    6.526    0.350    0.414   59.344
  428.250    6.528    0.340    0.406   62.376
  428.500    6.612    0.352    0.404   65.404
  428.750    6.695    0.358    0.404   70.252
  429.000    6.859    0.354    0.405   72.069
  429.250    7.103    0.347    0.396   77.519
  429.500    7.590    0.326    0.390   79.339
  429.750    7.916    0.271    0.384   75.716
  430.000    8.161    0.213    0.381   72.093
  430.250    8.243    0.192    0.383   72.705
