~VERSION INFORMATION
 VERS.                 2.0:   CWLS LOG ASCII STANDARD -VERSION 2.0
 WRAP.                  NO:   ONE LINE PER DEPTH STEP
~WELL INFORMATION BLOCK
#MNEM.UNIT           DATA                    DESCRIPTION OF MNEMONIC
#---------    -------------------            -------------------------------
# Generated from Intellog Unique Number	CX_WELLS/WELL/2617
WELL.         05-04-080-11W4                 : Well_name    - WELL
LOC .         00/05-04-080-11W4/0            : Location     - LOCATION
UWI .         00/05-04-080-11W400            : Uwi          - UNIQUE WELL ID
ENTR.         T                              : Entered      - ENTERED BY
SRVC.         SCHLUMBERGER                   : Scn          - SERVICE COMPANY
STRT.M        250                            : top_depth    - START DEPTH
STOP.M        480                            : bot_depth    - STOP DEPTH
STEP.M        0.25                           : increment    - STEP LENGTH
 NULL. -999.2500:NULL Value
~CURVE INFORMATION BLOCK
#MNEM UNIT       ERCB CURVE CODE    CURVE DESCRIPTION
#-----------   ------------------   ----------------------------------
DEPT.M        00 001 00 00         : DEPTH        - DEPTH
GR  .API      00 310 00 00         : GR           - GAMMA RAY
NPHI.V/V      00 330 00 00         : PHIN         - NEUTRON POROSITY (SANDSTONE)
DPHI.V/V      00 890 00 00         : PHID         - DENSITY POROSITY (SANDSTONE)
ILD .OHMM     00 120 00 00         : RESD         - DEEP RESISTIVITY (DIL)
~PARAMETER INFORMATION
#MNEM.UNIT           DATA             DESCRIPTION OF MNEMONIC
#---------         -----------     ------------------------------
GL  .M        682.9                : gl           - GROUND LEVEL ELEVATION
EREF.M        686.7                : kb           - ELEVATION OF DEPTH REFERENCE
DATM.M        686.7                : datum        - DATUM ELEVATION
TDD .M        492                  : tdd          - TOTAL DEPTH DRILLER
RUN .         ONE                  : Run          - RUN NUMBER
ENG .         BILL                 : Engineer     - RECORDING ENGINEER
WIT .         JIM                  : Witness      - WITNESSED BY
MUD .         GEL                  : Mud_type     - MUD TYPE
MATR.         SANDSTONE            : Logunit      - NEUTRON MATRIX
TMAX.C        24                   : BHT          - MAXIMUM RECORDED TEMPERATURE
BHTD.M        492                  : BHTDEP       - MAXIMUM RECORDED TEMPERATURE
MATR.         1                    : LOGUNIT      - NEUTRON MATRIX
RMT .C        25                   : MDTP         - TEMPERATURE OF MUD
NEUT.         1                    : NEUTRON      - NEUTRON TYPE
RESI.         4.5                  : RESIST       - RESISTIVITY TYPE
RMC .OHMM     8                    : RMC          - RESISTIVITY OF MUD CAKE
RMF .OHMM     6                    : RMF          - RESISTIVITY OF MUD FILTRATE
SUFT.C        4                    : SUFT         - SURFACE TEMPERATURE
~A  DEPTH       GR     PHIN     PHID     RESD
# ...
  424.000   75.064    0.313    0.255   10.873
  424.250   74.523    0.311    0.276   10.689
  424.500   72.197    0.320    0.282   10.313
  424.750   71.641    0.323    0.281   10.128
  425.000   72.314    0.326    0.279    9.587
  425.250   77.155    0.332    0.270    9.247
  425.500   89.206    0.337    0.252    9.091
  425.750   91.064    0.346    0.213    8.931
  426.000   98.932    0.357    0.202    9.116
  426.250  107.386    0.361    0.186    9.478
  426.500  112.856    0.362    0.181    9.851
  426.750  112.914    0.362    0.179   10.437
  427.000  112.958    0.360    0.182   11.480
  427.250  113.630    0.359    0.201   12.628
  427.500  115.488    0.355    0.210   14.422
  427.750  111.933    0.350    0.212   16.789
  428.000   75.398    0.346    0.225   19.167
  428.250   66.476    0.334    0.266   21.483
  428.500   66.519    0.269    0.266   25.974
  428.750   66.578    0.262    0.267   29.113
  429.000   65.437    0.267    0.273   31.416
  429.250   61.298    0.280    0.285   34.557
  429.500   57.743    0.339    0.332   35.929
  429.750   53.004    0.355    0.341   34.654
  430.000   48.880    0.194    0.340   33.424
  430.250   50.752    0.194    0.355   34.117
  430.500   51.380    0.194    0.355   34.800
  430.750   53.238    0.196    0.344   36.868
  431.000   56.909    0.220    0.328   40.583
  431.250   58.795    0.282    0.304   42.964
  431.500   58.824    0.274    0.301   47.276
  431.750   59.526    0.246    0.335   51.017
  432.000   60.155    0.205    0.359   57.201
  432.250   59.029    0.173    0.354   62.919
  432.500   56.674    0.143    0.368   67.922
  432.750   53.719    0.117    0.392   73.322
  433.000   50.165    0.098    0.417   76.235
  433.250   44.826    0.082    0.432   74.922
  433.500   40.702    0.080    0.427   69.599
  433.750   37.147    0.092    0.407   58.860
  434.000   35.407    0.125    0.397   50.704
  434.250   38.478    0.137    0.397   32.969
  434.500   42.719    0.162    0.388   20.654
  434.750   48.789    0.189    0.366   16.499
  435.000   53.659    0.239    0.332   12.007
  435.250   47.706    0.341    0.285   12.261
  435.500   42.368    0.354    0.256   12.269
  435.750   38.228    0.364    0.269   13.003
  436.000   36.473    0.365    0.291   13.771
  436.250   40.129    0.353    0.295   16.329
  436.500   46.799    0.348    0.280   21.268
  436.750   50.455    0.345    0.271   31.604
  437.000   47.515    0.349    0.272   36.777
  437.250   43.376    0.357    0.289   49.734
  437.500   38.622    0.362    0.298   75.303
  437.750   35.083    0.356    0.303   75.409
  438.000   31.543    0.350    0.305   75.541
  438.250   28.632    0.345    0.308   74.240
  438.500   27.476    0.345    0.310   71.605
  438.750   26.921    0.350    0.313   70.396
  439.000   27.593    0.350    0.316   70.445
  439.250   30.664    0.345    0.311   70.594
  439.500   32.492    0.340    0.317   70.668
  439.750   34.964    0.344    0.326   68.183
  440.000   35.008    0.350    0.327   63.294
  440.250   37.480    0.356    0.332   56.630
  440.500   39.936    0.360    0.339   52.607
  440.750   44.792    0.371    0.348   48.869
  441.000   50.847    0.379    0.357   49.883
  441.250   56.902    0.391    0.347   50.882
  441.500   62.372    0.399    0.324   54.946
  441.750   57.048    0.394    0.317   58.191
  442.000   46.883    0.388    0.327   65.245
  442.250   45.142    0.383    0.330   70.432
  442.500   37.405    0.381    0.328   67.956
  442.750   38.063    0.377    0.329   60.779
  443.000   41.120    0.374    0.329   55.372
  443.250   42.991    0.370    0.323   34.044
  443.500   43.035    0.367    0.309   25.245
  443.750   44.307    0.360    0.292   23.024
  444.000   44.951    0.355    0.293   21.388
  444.250   48.008    0.350    0.293   20.231
  444.500   54.677    0.345    0.294   18.094
  444.750   64.330    0.343    0.288   15.894
  445.000   70.984    0.338    0.260   13.951
  445.250   95.044    0.339    0.237   11.583
  445.500  108.924    0.342    0.206   11.168
  445.750  107.768    0.343    0.196   10.578
  446.000  102.429    0.350    0.201   10.586
  446.250  102.488    0.354    0.201   10.601
  446.500  110.342    0.355    0.167   10.616
  446.750  118.225    0.355    0.148   10.630
  447.000  114.656    0.355    0.124   10.847
  447.250  106.919    0.353    0.135   11.714
  447.500   99.181    0.341    0.204   12.175
  447.750  101.638    0.340    0.291   13.392
  448.000  103.496    0.332    0.338   14.188
  448.250   99.956    0.298    0.348   15.031
  448.500   53.840    0.224    0.349   15.337
  448.750   53.870    0.253    0.342   15.364
  449.000   52.129    0.329    0.323   14.824
  449.250   48.589    0.342    0.277   14.839
  449.500   48.048    0.342    0.277   14.860
  449.750   49.320    0.340    0.280   14.886
  450.000   51.178    0.340    0.272   15.179
  450.250   54.234    0.338    0.262   14.918
  450.500   58.476    0.336    0.257   14.126
  450.750   62.132    0.336    0.249   13.366
  451.000   72.399    0.335    0.244   12.656
  451.250   82.652    0.336    0.239   12.434
  451.500   90.535    0.337    0.233   11.992
  451.750   92.392    0.337    0.222   12.009
  452.000   96.049    0.337    0.199   11.806
  452.250   99.705    0.338    0.188   12.043
  452.500  103.946    0.340    0.189   13.009
  452.750  104.604    0.342    0.201   13.773
  453.000   96.867    0.343    0.217   15.730
  453.250   74.124    0.345    0.240   19.365
  453.500   57.391    0.344    0.250   23.850
  453.750   52.038    0.345    0.249   29.362
  454.000   48.528    0.347    0.280   32.297
  454.250   48.557    0.346    0.301   30.013
  454.500   50.429    0.350    0.303   28.948
  454.750   52.286    0.352    0.303   27.401
  455.000   54.143    0.356    0.302   25.936
  455.250   54.202    0.358    0.294   25.490
  455.500   53.660    0.360    0.291   24.576
  455.750   54.318    0.362    0.292   24.161
  456.000   57.390    0.362    0.293   23.753
  456.250   60.432    0.360    0.294   22.902
  456.500   62.304    0.355    0.290   21.267
  456.750   64.161    0.349    0.281   19.028
  457.000   66.004    0.345    0.253   17.341
  457.250   68.461    0.341    0.207   15.238
  457.500   73.916    0.339    0.183   14.418
  457.750   84.183    0.338    0.164   13.652
  458.000   89.638    0.339    0.153   13.408
  458.250   95.708    0.346    0.148   12.691
  458.500   96.980    0.352    0.155   12.477
  458.750   95.225    0.356    0.187   12.732
  459.000   88.073    0.352    0.229   12.745
  459.250   69.542    0.350    0.242   12.745
  459.500   64.803    0.343    0.225   14.315
  459.750   63.662    0.341    0.223   16.337
  460.000   66.104    0.340    0.232   18.664
  460.250   72.174    0.345    0.251   21.323
  460.500   72.832    0.348    0.260   23.011
  460.750   70.491    0.349    0.257   25.329
  461.000   65.752    0.354    0.255   27.841
  461.250   56.202    0.360    0.278   32.399
  461.500   51.477    0.363    0.291   37.002
  461.750   48.537    0.364    0.298   42.258
  462.000   46.197    0.364    0.303   44.770
  462.250   48.054    0.363    0.304   48.329
  462.500   50.511    0.359    0.305   50.284
  462.750   50.555    0.358    0.306   50.320
  463.000   48.229    0.359    0.307   51.363
  463.250   46.489    0.360    0.307   51.417
  463.500   45.348    0.362    0.310   52.502
  463.750   44.792    0.365    0.309   51.562
  464.000   44.865    0.364    0.301   41.218
  464.250   50.305    0.347    0.273   38.289
  464.500   61.772    0.357    0.264   37.643
  464.750   58.232    0.364    0.301   39.894
  465.000   49.881    0.369    0.310   42.251
  465.250   40.944    0.367    0.318   44.746
  465.500   36.205    0.356    0.325   50.187
  465.750   36.863    0.355    0.324   54.177
  466.000   37.536    0.360    0.325   57.417
  466.250   37.594    0.362    0.326   58.547
  466.500   37.053    0.362    0.330   59.761
  466.750   36.497    0.361    0.331   59.845
  467.000   35.356    0.357    0.323   58.814
  467.250   37.828    0.358    0.311   55.671
