~VERSION INFORMATION
 VERS.                 2.0:   CWLS LOG ASCII STANDARD -VERSION 2.0
 WRAP.                  NO:   ONE LINE PER DEPTH STEP
~WELL INFORMATION BLOCK
#MNEM.UNIT           DATA                    DESCRIPTION OF MNEMONIC
#---------    -------------------            -------------------------------
# Generated from Intellog Unique Number	CW_82_90/WELL/3414
WELL.         CDN SUP LIEGE                  : Well_name    - WELL
LOC .         00/03-18-089-19W4/0            : Location     - LOCATION
UWI .         00/03-18-089-19W400            : Uwi          - UNIQUE WELL ID
ENTR.         MAX                            : Entered      - ENTERED BY
SRVC.         SCHLUMBERGER                   : Scn          - SERVICE COMPANY
STRT.M        110                            : top_depth    - START DEPTH
STOP.M        262                            : bot_depth    - STOP DEPTH
STEP.M        0.25                           : increment    - STEP LENGTH
 NULL. -999.2500:NULL Value
~CURVE INFORMATION BLOCK
#MNEM UNIT       ERCB CURVE CODE    CURVE DESCRIPTION
#-----------   ------------------   ----------------------------------
DEPT.M        00 001 00 00         : DEPTH        - DEPTH
CALI.MM       00 280 01 00         : CAL          - CALIPER
DPHI.V/V      00 890 00 00         : PHID         - DENSITY POROSITY (SANDSTONE)
NPHI.V/V      00 330 00 00         : PHIN         - NEUTRON POROSITY (SANDSTONE)
ILD .OHMM     00 120 00 00         : RESD         - DEEP RESISTIVITY (DIL)
GR  .API      00 310 00 00         : GR           - GAMMA RAY
~PARAMETER INFORMATION
#MNEM.UNIT           DATA             DESCRIPTION OF MNEMONIC
#---------         -----------     ------------------------------
GL  .M        504.11               : gl           - GROUND LEVEL ELEVATION
EREF.M        507.31               : kb           - ELEVATION OF DEPTH REFERENCE
DATM.M        504.11               : datum        - DATUM ELEVATION
TDD .M        262                  : tdd          - TOTAL DEPTH DRILLER
RUN .         ONE                  : Run          - RUN NUMBER
ENG .         BILL                 : Engineer     - RECORDING ENGINEER
WIT .         JIM                  : Witness      - WITNESSED BY
MUD .         GEL                  : Mud_type     - MUD TYPE
MATR.         SANDSTONE            : Logunit      - NEUTRON MATRIX
TMAX.C        17                   : BHT          - MAXIMUM RECORDED TEMPERATURE
BHTD.M        262                  : BHTDEP       - MAXIMUM RECORDED TEMPERATURE
MATR.         1                    : LOGUNIT      - NEUTRON MATRIX
RMT .C        17                   : MDTP         - TEMPERATURE OF MUD
NEUT.         1                    : NEUTRON      - NEUTRON TYPE
RESI.         0                    : RESIST       - RESISTIVITY TYPE
RMC .OHMM     4.17                 : RMC          - RESISTIVITY OF MUD CAKE
RMF .OHMM     4.17                 : RMF          - RESISTIVITY OF MUD FILTRATE
SUFT.C        -10                  : SUFT         - SURFACE TEMPERATURE
~A  DEPTH      CAL     PHID     PHIN     RESD       GR
# ...
  219.500  220.868    0.111    0.399   12.604   83.663
  219.750  221.816    0.145    0.390   11.700   87.804
  220.000  221.791    0.177    0.391   10.565   93.723
  220.250  221.757    0.212    0.470    9.025   93.109
  220.500  220.233    0.237    0.500    7.781   89.526
  220.750  220.199    0.248    0.487    6.834   87.426
  221.000  220.656    0.222    0.474    6.002   87.406
  221.250  220.136    0.195    0.462    6.224   87.383
  221.500  218.121    0.171    0.451    6.948   86.771
  221.750  218.578    0.158    0.445    7.758   84.671
  222.000  218.544    0.163    0.419    8.661   82.866
  222.250  216.530    0.154    0.418    8.981   82.543
  222.500  213.026    0.148    0.424    8.812   82.528
  222.750  212.988    0.177    0.427    7.956   86.667
  223.000  215.933    0.196    0.417    7.386   91.994
  223.250  222.332    0.210    0.442    6.793   92.865
  223.500  221.807    0.219    0.492    6.191   93.735
  223.750  218.802    0.228    0.511    5.387   97.280
  224.000  217.774    0.233    0.510    4.688   99.933
  224.250  216.754    0.239    0.527    4.233   98.725
  224.500  214.240    0.229    0.526    3.893   94.246
  224.750  212.226    0.212    0.480    4.000   88.880
  225.000  210.702    0.229    0.456    5.625   77.274
  225.250  209.683    0.250    0.452    7.836   74.281
  225.500  209.653    0.235    0.427    9.595   77.825
  225.750  210.114    0.212    0.413   10.812   85.828
  226.000  211.070    0.214    0.414   12.182   88.185
  226.250  209.048    0.221    0.437   13.353   75.982
  226.500  208.019    0.221    0.427   14.908   68.832
  226.750  209.471    0.224    0.410   16.644   61.976
  227.000  213.901    0.254    0.396   19.823   59.285
  227.250  218.324    0.308    0.400   23.391   57.776
  227.500  221.260    0.264    0.425   27.858   56.568
  227.750  220.232    0.196    0.426   35.391   56.542
  228.000  219.703    0.204    0.401   39.150   56.525
  228.250  219.665    0.224    0.393   40.974   56.207
  228.500  219.631    0.256    0.397   44.493   55.892
  228.750  219.601    0.316    0.469   47.874   55.867
  229.000  218.086    0.318    0.480   52.475   56.149
  229.250  218.547    0.315    0.468   57.514   56.425
  229.500  219.009    0.314    0.475   46.487   58.185
  229.750  218.971    0.298    0.501   34.900   59.653
  230.000  218.442    0.240    0.482   27.949   60.821
  230.250  217.422    0.130    0.424   21.176   62.286
  230.500  216.893    0.150    0.393   14.903   65.533
  230.750  217.845    0.201    0.433    8.882   69.372
  231.000  218.306    0.229    0.489    7.946   72.917
  231.250  216.782    0.236    0.470   10.095   72.008
  231.500  214.273    0.258    0.454   14.730   63.372
  231.750  212.754    0.289    0.431   18.543   54.140
  232.000  210.248    0.279    0.419   21.881   52.040
  232.250  212.690    0.264    0.398   26.059   57.070
  232.500  218.103    0.242    0.399   29.636   58.533
  232.750  216.583    0.256    0.421   28.282   57.324
  233.000  216.545    0.273    0.414   28.004   56.712
  233.250  216.507    0.307    0.420   35.907   56.689
  233.500  217.963    0.328    0.416   42.374   35.572
  233.750  218.424    0.331    0.423   50.933   34.962
  234.000  219.376    0.333    0.428   71.621   34.645
  234.250  218.356    0.337    0.420   96.170   34.622
  234.500  217.831    0.338    0.422  105.406   34.899
  234.750  218.784    0.339    0.419  106.328   35.173
  235.000  219.736    0.339    0.413  104.321   35.155
  235.250  220.197    0.338    0.410   94.187   36.029
  235.500  220.662    0.334    0.411   66.287   47.889
  235.750  220.133    0.321    0.421   47.083   55.297
  236.000  220.095    0.262    0.442   34.377   65.375
  236.250  220.066    0.053    0.417   29.642   68.925
  236.500  219.532    0.065    0.401   24.404   77.519
  236.750  218.500    0.135    0.374   22.865   85.520
  237.000  218.969    0.166    0.436   20.454   89.656
  237.250  219.930    0.201    0.409   18.813   91.416
  237.500  221.872    0.188    0.392   17.624   93.180
  237.750  222.338    0.188    0.384   16.820   94.945
  238.000  221.309    0.185    0.369   16.199   97.004
  238.250  221.280    0.180    0.360   15.748   99.061
  238.500  221.242    0.176    0.384   15.452  100.823
  238.750  221.212    0.177    0.393   15.441  102.882
  239.000  221.673    0.181    0.411   15.719  100.488
  239.250  221.631    0.186    0.399   16.604   94.820
  239.500  222.092    0.198    0.393   17.540   90.938
  239.750  222.549    0.213    0.383   18.875   91.210
  240.000  220.539    0.237    0.392   20.879   93.569
  240.250  217.043    0.236    0.407   21.852   96.225
  240.500  215.524    0.221    0.397   21.637   99.766
  240.750  217.966    0.209    0.403   20.460   99.746
  241.000  220.403    0.200    0.410   17.319   99.431
  241.250  219.878    0.197    0.421   16.992  102.382
  241.500  221.326    0.187    0.426   17.458  106.520
  241.750  222.781    0.178    0.432   18.103  109.171
  242.000  221.757    0.176    0.412   18.771  106.480
  242.250  221.228    0.178    0.395   19.289  104.083
  242.500  220.695    0.184    0.390   20.563  101.089
  242.750  217.195    0.217    0.396   22.124   97.804
  243.000  215.177    0.214    0.368   23.807   92.733
  243.250  215.638    0.224    0.364   26.579   86.172
  243.500  214.119    0.219    0.388   30.509   88.231
  243.750  213.594    0.189    0.399   35.343   93.855
  244.000  216.526    0.169    0.357   38.737   95.023
  244.250  217.483    0.183    0.333   40.918   94.411
  244.500  216.950    0.197    0.304   43.620   94.688
  244.750  215.930    0.200    0.307   45.656  106.550
  245.000  215.405    0.207    0.318   47.338  137.725
  245.250  216.852    0.218    0.297   48.641  149.887
  245.500  216.323    0.232    0.271   49.522  132.337
  245.750  215.794    0.239    0.241   51.350  118.652
  246.000  216.259    0.267    0.214   52.275   59.509
  246.250  216.221    0.260    0.185   51.768   56.221
  246.500  216.192    0.239    0.228   48.950   76.104
  246.750  216.154    0.227    0.296   42.988   98.961
  247.000  215.625    0.210    0.348   38.105  123.598
  247.250  216.086    0.182    0.354   35.372  131.004
  247.500  216.048    0.172    0.376   33.447  102.168
  247.750  215.514    0.184    0.384   32.213   87.586
  248.000  214.990    0.183    0.382   31.608   75.982
  248.250  215.946    0.183    0.365   31.296   73.880
  248.500  216.407    0.183    0.351   30.988   82.774
  248.750  216.378    0.187    0.380   30.408   90.478
  249.000  217.325    0.196    0.379   29.555   95.210
  249.250  219.276    0.190    0.378   28.206   98.453
  249.500  221.223    0.197    0.397   27.169   99.626
  249.750  223.169    0.228    0.425   26.408   99.895
  250.000  223.635    0.204    0.443   25.913   98.397
  250.250  222.602    0.179    0.410   24.959   92.136
  250.500  221.587    0.164    0.394   24.488   93.601
  250.750  220.067    0.204    0.390   24.247   95.662
  251.000  218.548    0.237    0.422   25.142   90.592
  251.250  216.525    0.226    0.386   27.055   87.299
  251.500  217.477    0.199    0.363   28.055   93.222
  251.750  218.929    0.173    0.354   28.041   99.443
  252.000  219.894    0.162    0.374   27.006  104.176
  252.250  219.860    0.168    0.384   25.771  106.826
  252.500  220.321    0.199    0.375   24.598  109.777
  252.750  220.778    0.203    0.371   22.830  113.321
  253.000  221.235    0.180    0.383   21.389  115.975
  253.250  221.209    0.169    0.378   19.673  115.063
  253.500  220.185    0.160    0.386   18.776  114.451
  253.750  220.151    0.149    0.452   17.753  115.914
  254.000  220.608    0.146    0.451   16.941  117.082
  254.250  221.569    0.167    0.439   16.470  118.250
  254.500  222.525    0.198    0.437   16.461  119.415
  254.750  223.973    0.227    0.444   16.910  118.503
  255.000  223.943    0.235    0.444   17.218  115.510
  255.250  221.429    0.212    0.456   18.017  111.633
  255.500  219.411    0.191    0.484   18.685  104.483
  255.750  219.377    0.179    0.480   19.198   99.115
