~VERSION INFORMATION
 VERS.                 2.0:   CWLS LOG ASCII STANDARD -VERSION 2.0
 WRAP.                  NO:   ONE LINE PER DEPTH STEP
~WELL INFORMATION BLOCK
#MNEM.UNIT           DATA                    DESCRIPTION OF MNEMONIC
#---------    -------------------            -------------------------------
# Generated from Intellog Unique Number	CS_77_79/WELL/889
WELL.         KANDEX HOMESTEAD THORNBURY     : Well_name    - WELL
LOC .         00/07-01-079-13W4/0            : Location     - LOCATION
UWI .         00/07-01-079-13W4/0            : Uwi          - UNIQUE WELL ID
ENTR.         JHS                            : Entered      - ENTERED BY
SRVC.         SCHLUMBERGER                   : Scn          - SERVICE COMPANY
STRT.M        259.08                         : top_depth    - START DEPTH
STOP.M        493.58                         : bot_depth    - STOP DEPTH
STEP.M        0.25                           : increment    - STEP LENGTH
 NULL. -999.2500:NULL Value
~CURVE INFORMATION BLOCK
#MNEM UNIT       ERCB CURVE CODE    CURVE DESCRIPTION
#-----------   ------------------   ----------------------------------
DEPT.M        00 001 00 00         : DEPTH        - DEPTH
RHOB.KG/M3    00 350 00 00         : DENS         - BULK DENSITY
GR  .API      00 310 00 00         : GR           - GAMMA RAY
DPHI.V/V      00 890 00 00         : PHID         - DENSITY POROSITY (SANDSTONE)
NPHI.V/V      00 330 00 00         : PHIN         - NEUTRON POROSITY (SANDSTONE)
ILD .OHMM     00 120 00 00         : RESD         - DEEP RESISTIVITY (DIL)
~PARAMETER INFORMATION
#MNEM.UNIT           DATA             DESCRIPTION OF MNEMONIC
#---------         -----------     ------------------------------
GL  .M        679.399              : gl           - GROUND LEVEL ELEVATION
EREF.M        683.057              : kb           - ELEVATION OF DEPTH REFERENCE
DATM.M        683.057              : datum        - DATUM ELEVATION
TDD .M        499.872              : tdd          - TOTAL DEPTH DRILLER
RUN .         ONE                  : Run          - RUN NUMBER
ENG .         BILL                 : Engineer     - RECORDING ENGINEER
WIT .         JIM                  : Witness      - WITNESSED BY
MUD .         GEL                  : Mud_type     - MUD TYPE
MATR.         SANDSTONE            : Logunit      - NEUTRON MATRIX
TMAX.C        21.6667              : BHT          - MAXIMUM RECORDED TEMPERATURE
BHTD.M        499.872              : BHTDEP       - MAXIMUM RECORDED TEMPERATURE
MATR.         1                    : LOGUNIT      - NEUTRON MATRIX
RMT .C        25                   : MDTP         - TEMPERATURE OF MUD
NEUT.         1                    : NEUTRON      - NEUTRON TYPE
RESI.         0                    : RESIST       - RESISTIVITY TYPE
RMC .OHMM     0.25                 : RMC          - RESISTIVITY OF MUD CAKE
RMF .OHMM     0.25                 : RMF          - RESISTIVITY OF MUD FILTRATE
SUFT.C        15                   : SUFT         - SURFACE TEMPERATURE
~A  DEPTH     DENS       GR     PHID     PHIN     RESD
# ...
  332.080    0.000   37.748    0.335    0.445   16.395
  332.330   -0.000   37.402    0.330    0.450   16.398
  332.580   -0.000   36.355    0.352    0.449   16.335
  332.830    0.000   35.963    0.338    0.443   16.107
  333.080    0.000   36.909    0.324    0.438   16.126
  333.330    0.000   38.404    0.343    0.432   16.174
  333.580   -0.000   38.497    0.344    0.430   16.448
  333.830   -0.000   36.847    0.342    0.435   16.449
  334.080   -0.000   35.951    0.331    0.442   16.454
  334.330    0.000   36.414    0.331    0.444   16.462
  334.580    0.000   37.125    0.340    0.433   16.470
  334.830    0.000   35.359    0.338    0.433   16.477
  335.080   -0.000   34.093    0.332    0.434   16.485
  335.330   -0.000   35.176    0.333    0.431   16.493
  335.580    0.000   36.633    0.345    0.427   16.503
  335.830    0.000   36.266    0.334    0.424   16.517
  336.080    0.000   35.974    0.345    0.422   16.580
  336.330   -0.000   34.904    0.346    0.415   16.846
  336.580   -0.000   35.444    0.332    0.410   16.846
  336.830   -0.000   36.770    0.338    0.411   16.855
  337.080    0.000   37.798    0.329    0.416   16.861
  337.330    0.000   38.863    0.331    0.419   16.898
  337.580    0.000   39.192    0.344    0.419   16.550
  337.830   -0.000   39.358    0.337    0.416   16.577
  338.080   -0.000   39.232    0.343    0.419   16.579
  338.330    0.000   39.178    0.343    0.424   16.587
  338.580    0.000   41.062    0.338    0.429   16.596
  338.830    0.000   41.448    0.335    0.429   16.603
  339.080   -0.000   39.820    0.329    0.420   16.611
  339.330   -0.000   41.552    0.338    0.423   16.621
  339.580   -0.000   42.325    0.339    0.438   16.640
  339.830    0.000   42.936    0.340    0.444   16.365
  340.080    0.000   41.720    0.355    0.431   16.343
  340.330    0.000   40.494    0.358    0.431   16.341
  340.580   -0.000   41.421    0.351    0.445   16.349
  340.830   -0.000   43.701    0.336    0.447   16.357
  341.080   -0.000   43.521    0.344    0.446   16.366
  341.330    0.000   42.924    0.324    0.451   16.373
  341.580    0.000   41.939    0.327    0.442   16.380
  341.830   -0.000   40.531    0.330    0.425   16.389
  342.080   -0.000   41.477    0.335    0.426   16.397
  342.330   -0.000   44.434    0.337    0.424   16.415
  342.580    0.000   44.856    0.334    0.418   16.369
  342.830    0.000   42.563    0.321    0.413   17.035
  343.080    0.000   41.087    0.325    0.395   18.258
  343.330   -0.000   40.032    0.290    0.369   19.466
  343.580   -0.000   40.033    0.249    0.308   24.823
  343.830   -0.000   39.340    0.099    0.211   31.102
  344.080    0.000   38.919    0.005    0.144   41.679
  344.330    0.000   38.832    0.000    0.123   50.108
  344.580    0.000   38.159    0.000    0.116   56.696
  344.830   -0.000   38.202   -0.000    0.117   60.833
  345.080   -0.000   38.346   -0.000    0.120   62.424
  345.330    0.000   38.776    0.000    0.127   62.283
  345.580    0.000   39.362   -0.000    0.131   64.233
  345.830    0.000   40.877   -0.000    0.144   66.229
  346.080   -0.000   41.189    0.000    0.150   69.287
  346.330   -0.000   42.856    0.000    0.166   74.765
  346.580   -0.000   43.770    0.000    0.190   76.745
  346.830    0.000   45.737    0.009    0.219   72.827
  347.080    0.000   47.819    0.026    0.252   56.207
  347.330    0.000   50.538    0.159    0.305   30.663
  347.580   -0.000   54.067    0.215    0.356   23.394
  347.830   -0.000   55.292    0.266    0.411   20.035
  348.080    0.000   55.960    0.329    0.442   17.894
  348.330    0.000   55.307    0.323    0.436   16.286
  348.580    0.000   55.465    0.323    0.429   16.224
  348.830   -0.000   56.545    0.333    0.431   15.991
  349.080   -0.000   55.986    0.342    0.438   16.003
  349.330   -0.000   55.679    0.345    0.445   16.012
  349.580    0.000   57.202    0.328    0.451   16.019
  349.830    0.000   58.703    0.322    0.454   15.998
  350.080    0.000   57.172    0.324    0.452   16.354
  350.330   -0.000   55.683    0.332    0.441   16.343
  350.580   -0.000   55.412    0.328    0.436   16.353
  350.830   -0.000   56.056    0.329    0.444   16.361
  351.080    0.000   56.412    0.306    0.451   16.367
  351.330    0.000   57.463    0.305    0.452   16.375
  351.580   -0.000   58.470    0.323    0.450   16.387
  351.830   -0.000   59.282    0.323    0.449   16.425
  352.080   -0.000   57.649    0.332    0.455   16.068
  352.330    0.000   55.206    0.338    0.464   16.108
  352.580    0.000   51.651    0.335    0.475   16.142
  352.830    0.000   52.193    0.328    0.469   15.800
  353.080   -0.000   55.988    0.340    0.452   15.831
  353.330   -0.000   57.042    0.343    0.448   15.834
  353.580   -0.000   57.359    0.326    0.450   15.844
  353.830    0.000   57.297    0.329    0.446   15.841
  354.080    0.000   57.969    0.333    0.451   15.760
  354.330   -0.000   59.194    0.319    0.461   15.572
  354.580   -0.000   60.246    0.308    0.457   15.088
  354.830   -0.000   61.624    0.324    0.445   14.519
  355.080    0.000   64.567    0.310    0.444   12.761
  355.330    0.000   67.970    0.293    0.449   11.903
  355.580    0.000   69.894    0.271    0.464   10.905
  355.830   -0.000   70.833    0.259    0.463   10.772
  356.080   -0.000   71.526    0.262    0.450   10.768
  356.330   -0.000   71.438    0.258    0.457   10.536
  356.580    0.000   70.430    0.276    0.468    9.820
  356.830    0.000   69.661    0.289    0.463    8.613
  357.080    0.000   69.050    0.283    0.451    6.581
  357.330   -0.000   68.914    0.288    0.445    5.625
  357.580   -0.000   71.390    0.304    0.464    6.123
  357.830    0.000   73.259    0.318    0.478    6.971
  358.080    0.000   75.456    0.296    0.482    7.719
  358.330    0.000   78.637    0.294    0.488    8.364
  358.580   -0.000   80.988    0.296    0.507    8.276
  358.830   -0.000   86.237    0.278    0.520    5.948
  359.080   -0.000   91.512    0.251    0.526    4.286
  359.330    0.000   96.158    0.242    0.541    3.426
  359.580    0.000   98.074    0.248    0.565    2.928
  359.830    0.000   99.040    0.244    0.597    2.645
  360.080   -0.000   99.225    0.241    0.593    2.396
  360.330   -0.000   95.743    0.247    0.584    2.255
  360.580    0.000   95.372    0.257    0.585    2.206
  360.830    0.000   97.518    0.264    0.590    2.242
  361.080    0.000   94.953    0.275    0.589    2.424
  361.330   -0.000   94.185    0.264    0.560    2.800
  361.580   -0.000   94.208    0.257    0.526    3.176
  361.830   -0.000   94.240    0.250    0.465    4.277
  362.080    0.000   93.695    0.238    0.455    5.634
  362.330    0.000   93.587    0.249    0.454    6.654
  362.580    0.000   94.295    0.235    0.460    6.941
  362.830   -0.000   93.387    0.226    0.460    6.976
  363.080   -0.000   91.516    0.220    0.460    6.488
  363.330   -0.000   91.241    0.225    0.465    6.323
  363.580    0.000   92.924    0.235    0.472    6.196
  363.830    0.000   94.049    0.233    0.477    6.351
  364.080   -0.000   95.479    0.220    0.481    6.228
  364.330   -0.000   95.791    0.211    0.491    5.861
  364.580   -0.000   95.474    0.219    0.506    5.515
  364.830    0.000   93.851    0.225    0.507    5.189
  365.080    0.000   91.465    0.232    0.516    4.880
  365.330    0.000   89.834    0.225    0.512    4.717
  365.580   -0.000   87.740    0.226    0.505    4.797
  365.830   -0.000   85.810    0.227    0.502    4.929
  366.080   -0.000   84.540    0.236    0.509    5.196
  366.330    0.000   84.413    0.249    0.508    5.430
  366.580    0.000   84.533    0.261    0.497    5.827
  366.830    0.000   88.891    0.284    0.491    5.802
  367.080   -0.000   93.005    0.281    0.500    5.528
  367.330   -0.000  103.235    0.273    0.523    5.277
  367.580    0.000  110.624    0.284    0.539    5.679
  367.830    0.000  127.484    0.278    0.532    5.671
  368.080    0.000  111.548    0.249    0.535    4.879
  368.330   -0.000   98.098    0.253    0.551    4.117
