~VERSION INFORMATION
 VERS.                 2.0:   CWLS LOG ASCII STANDARD -VERSION 2.0
 WRAP.                  NO:   ONE LINE PER DEPTH STEP
~WELL INFORMATION BLOCK
#MNEM.UNIT           DATA                    DESCRIPTION OF MNEMONIC
#---------    -------------------            -------------------------------
# Generated from Intellog Unique Number	CS_69_70/WELL/2586
WELL.         08-16-069-07W4                 : Well_name    - WELL
LOC .         00/08-16-069-07W4/0            : Location     - LOCATION
UWI .         00/08-16-069-07W4/0            : Uwi          - UNIQUE WELL ID
ENTR.         TIM                            : Entered      - ENTERED BY
SRVC.         SCHLUMBERGER                   : Scn          - SERVICE COMPANY
STRT.M        285                            : top_depth    - START DEPTH
STOP.M        510                            : bot_depth    - STOP DEPTH
STEP.M        0.25                           : increment    - STEP LENGTH
 NULL. -999.2500:NULL Value
~CURVE INFORMATION BLOCK
#MNEM UNIT       ERCB CURVE CODE    CURVE DESCRIPTION
#-----------   ------------------   ----------------------------------
DEPT.M        00 001 00 00         : DEPTH        - DEPTH
ILD .OHMM     00 120 00 00         : RESD         - DEEP RESISTIVITY (DIL)
DPHI.V/V      00 890 00 00         : PHID         - DENSITY POROSITY (SANDSTONE)
NPHI.V/V      00 330 00 00         : PHIN         - NEUTRON POROSITY (SANDSTONE)
CALI.MM       00 280 01 00         : CAL          - CALIPER
GR  .API      00 310 00 00         : GR           - GAMMA RAY
~PARAMETER INFORMATION
#MNEM.UNIT           DATA             DESCRIPTION OF MNEMONIC
#---------         -----------     ------------------------------
GL  .M        623                  : gl           - GROUND LEVEL ELEVATION
EREF.M        627.1                : kb           - ELEVATION OF DEPTH REFERENCE
DATM.M        627.1                : datum        - DATUM ELEVATION
TDD .M        514                  : tdd          - TOTAL DEPTH DRILLER
RUN .         ONE                  : Run          - RUN NUMBER
ENG .         BILL                 : Engineer     - RECORDING ENGINEER
WIT .         JIM                  : Witness      - WITNESSED BY
MUD .         GEL                  : Mud_type     - MUD TYPE
MATR.         SANDSTONE            : Logunit      - NEUTRON MATRIX
TMAX.C        24                   : BHT          - MAXIMUM RECORDED TEMPERATURE
BHTD.M        514                  : BHTDEP       - MAXIMUM RECORDED TEMPERATURE
RMT .C        8                    : MDTP         - TEMPERATURE OF MUD
MUDD.KG/M     1000                 : MWT          - MUD DENSITY
NEUT.         1                    : NEUTRON      - NEUTRON TYPE
RESI.         0                    : RESIST       - RESISTIVITY TYPE
RM  .OHMM     6.6                  : RM           - RESISTIVITY OF MUD
RMC .OHMM     2.9                  : RMC          - RESISTIVITY OF MUD CAKE
RMF .OHMM     6.7                  : RMF          - RESISTIVITY OF MUD FILTRATE
SUFT.C        4                    : SUFT         - SURFACE TEMPERATURE
~A  DEPTH     RESD     PHID     PHIN      CAL       GR
# ...
  467.500    9.840    0.233    0.318  166.018   68.230
  467.750    9.162    0.201    0.316  167.062   70.674
  468.000    9.002    0.187    0.312  169.134   70.695
  468.250    8.537    0.212    0.304  170.169   73.150
  468.500    8.390    0.218    0.310  171.205   76.194
  468.750    8.401    0.226    0.326  173.268   79.855
  469.000    8.415    0.232    0.340  174.321   82.905
  469.250    8.582    0.229    0.334  175.357   85.955
  469.500    8.750    0.219    0.328  176.392  106.569
  469.750    8.452    0.211    0.323  178.464   95.685
  470.000    8.153    0.200    0.338  179.508   84.801
  470.250    7.870    0.194    0.339  179.534   78.763
  470.500    8.331    0.227    0.320  179.586   75.149
  470.750    8.491    0.229    0.313  179.603   80.022
  471.000    9.153    0.223    0.330  179.638   85.495
  471.250   10.424    0.216    0.330  179.681   93.397
  471.500   11.868    0.209    0.325  179.716   94.018
  471.750   14.012    0.219    0.342  179.742   83.134
  472.000   15.663    0.262    0.360  179.777   71.644
  472.250   16.270    0.298    0.360  179.820   63.789
  472.500   14.594    0.298    0.356  179.855   57.752
  472.750   12.619    0.272    0.352  179.898   60.802
  473.000   11.114    0.266    0.346  179.924   67.487
  473.250   10.153    0.255    0.343  179.967   74.777
  473.500    9.622    0.244    0.338  181.020   82.073
  473.750    8.797    0.231    0.341  181.038   88.758
  474.000    8.340    0.220    0.351  181.081   98.472
  474.250    8.348    0.214    0.363  180.106  105.157
  474.500    8.359    0.223    0.370  180.149   97.908
  474.750    8.525    0.230    0.363  179.157   95.505
  475.000    8.695    0.223    0.357  178.191   97.949
  475.250    8.864    0.209    0.357  177.215  107.674
  475.500    9.041    0.200    0.362  176.240  109.512
  475.750    9.391    0.213    0.375  173.255  102.863
  476.000    9.939    0.225    0.384  171.270   95.620
  476.250   10.522    0.248    0.386  169.285   92.000
  476.500   10.926    0.265    0.383  167.292   92.627
  476.750   11.346    0.259    0.378  165.316  107.193
  477.000   12.003    0.243    0.373  163.331   94.486
  477.250   12.704    0.238    0.372  162.356   87.843
  477.500   13.942    0.246    0.377  161.381   82.411
  477.750   15.297    0.256    0.382  160.406   70.926
  478.000   17.744    0.271    0.378  158.412   58.836
  478.250   19.474    0.295    0.372  157.455   56.428
  478.500   19.861    0.315    0.374  156.462   52.203
  478.750   16.861    0.339    0.377  156.505   43.742
  479.000   14.849    0.347    0.372  156.540   33.464
  479.250   12.606    0.342    0.367  156.575   37.120
  479.500   10.900    0.331    0.353  156.618   41.987
  479.750    9.603    0.313    0.338  156.653   46.249
  480.000    8.770    0.284    0.351  156.687   52.934
  480.250    8.161    0.272    0.377  156.713   59.623
  480.500    7.458    0.284    0.383  156.757   57.832
  480.750    7.066    0.303    0.381  156.783   55.424
  481.000    6.460    0.310    0.385  157.844   49.387
  481.250    6.233    0.311    0.391  157.862   43.349
  481.500    5.905    0.317    0.391  157.905   37.918
  481.750    5.498    0.325    0.379  157.957   33.698
  482.000    5.402    0.333    0.367  158.000   30.089
  482.250    5.409    0.339    0.355  158.018   31.321
  482.500    5.420    0.337    0.350  158.044   33.765
  482.750    5.426    0.327    0.352  158.096   36.810
  483.000    5.532    0.315    0.362  158.122   41.077
  483.250    5.752    0.316    0.371  158.148   39.280
  483.500    5.864    0.324    0.382  159.201   36.277
  483.750    5.872    0.334    0.378  159.235   33.264
  484.000    5.670    0.339    0.371  159.270   31.467
  484.250    5.471    0.345    0.362  159.313   29.064
  484.500    5.091    0.346    0.360  159.339   27.884
  484.750    5.003    0.342    0.365  160.401   27.894
  485.000    4.659    0.341    0.369  160.427   28.526
  485.250    4.577    0.345    0.367  160.453   29.759
  485.500    4.341    0.338    0.364  160.505   31.602
  485.750    4.187    0.334    0.354  160.531   32.218
  486.000    4.043    0.325    0.350  160.557   34.662
  486.250    3.904    0.325    0.353  161.619   37.712
  486.500    3.835    0.331    0.355  161.645   34.714
  486.750    3.702    0.337    0.360  161.679   32.307
  487.000    3.642    0.338    0.362  161.714   29.904
  487.250    3.580    0.336    0.367  161.757   28.724
  487.500    3.519    0.332    0.371  161.792   29.340
  487.750    3.460    0.331    0.368  160.817   30.583
  488.000    3.402    0.336    0.371  160.852   31.199
  488.250    3.345    0.340    0.373  160.886   31.826
  488.500    3.351    0.345    0.377  160.912   30.635
  488.750    3.415    0.346    0.374  159.937   29.444
  489.000    3.483    0.346    0.372  159.998   28.859
  489.250    3.553    0.345    0.366  160.024   29.485
  489.500    3.558    0.344    0.363  160.050   29.506
  489.750    3.630    0.344    0.368  160.085   31.355
  490.000    3.634    0.344    0.362  160.136   33.193
  490.250    3.708    0.343    0.353  160.154   41.690
  490.500    3.711    0.340    0.340  160.197   56.857
  490.750    3.787    0.333    0.340  160.232   67.782
  491.000    3.790    0.323    0.355  160.266   78.713
  491.250    3.796    0.316    0.365  160.292   88.427
  491.500    3.800    0.323    0.367  160.327   83.602
  491.750    3.806    0.326    0.359  160.362   71.506
  492.000    3.812    0.324    0.365  160.405   66.685
  492.250    3.816    0.323    0.353  160.431   69.134
  492.500    3.824    0.330    0.331  160.474   71.568
  492.750    3.828    0.334    0.334  160.509   80.676
  493.000    3.834    0.335    0.341  161.562   95.242
  493.250    3.908    0.339    0.352  161.597  100.715
  493.500    3.914    0.240    0.371  161.631   95.284
  493.750    3.991    0.175    0.359  161.666   92.886
  494.000    4.070    0.185    0.337  161.701   93.508
  494.250    4.152    0.194    0.349  162.736   95.957
  494.500    4.235    0.234    0.355  162.780   88.703
  494.750    4.319    0.247    0.340  163.833   85.089
  495.000    4.571    0.236    0.331  163.850   96.014
  495.250    4.746    0.218    0.353  163.885  109.974
  495.500    4.934    0.190    0.378  163.937  116.053
  495.750    4.937    0.179    0.395  164.972  108.804
  496.000    4.945    0.173    0.378  165.007  105.190
  496.250    5.043    0.154    0.374  165.050  111.880
  496.500    5.144    0.161    0.385  165.076  117.348
  496.750    5.152    0.201    0.391  165.120  118.586
  497.000    5.255    0.233    0.375  165.154   94.974
  497.250    5.262    0.254    0.367  165.189   81.061
  497.500    5.364    0.267    0.364  164.214   72.600
  497.750    5.475    0.249    0.362  163.239   65.957
  498.000    5.685    0.211    0.214  163.274   62.343
  498.250    6.237    0.187    0.205  163.308   56.911
  498.500    6.974    0.153    0.214  163.352   41.181
  498.750    7.515    0.153    0.225  163.395   41.201
  499.000    7.525    0.157    0.235  163.412   44.857
  499.250    6.875    0.162    0.250  163.447   50.336
  499.500    6.169    0.164    0.275  163.490   52.774
  499.750    5.531    0.164    0.316  163.525   53.401
  500.000    4.873    0.163    0.332  163.551   55.250
  500.250    4.533    0.163    0.346  162.576   54.665
  500.500    4.069    0.163    0.353  162.611   49.839
  500.750    3.925    0.160    0.339  161.635   46.219
  501.000    3.858    0.153    0.329  161.670   44.423
  501.250    3.935    0.124    0.317  164.751   80.187
  501.500    4.015    0.102    0.340  166.797   97.176
  501.750    4.170    0.108    0.367  168.851  111.737
  502.000    4.494    0.136    0.390  170.905  122.057
  502.250    4.934    0.158    0.372  172.959  126.318
  502.500    5.218    0.143    0.358  174.003  102.712
  502.750    5.833    0.126    0.342  174.047   68.807
  503.000    6.520    0.097    0.328  172.062   54.293
  503.250    8.136    0.036    0.276  169.067   54.925
  503.500   12.201    0.011    0.183  167.091   55.541
  503.750   14.414    0.001    0.178  166.099   57.384
