~VERSION INFORMATION
 VERS.                 2.0:   CWLS LOG ASCII STANDARD -VERSION 2.0
 WRAP.                  NO:   ONE LINE PER DEPTH STEP
~WELL INFORMATION BLOCK
#MNEM.UNIT           DATA                    DESCRIPTION OF MNEMONIC
#---------    -------------------            -------------------------------
# Generated from Intellog Unique Number	CS_73_76/WELL/2172
WELL.         BOW VALLEY INDUSTRIES LTD      : Well_name    - WELL
LOC .         00/06-34-074-16W4/0            : Location     - LOCATION
UWI .         00/06-34-074-16W4/0            : Uwi          - UNIQUE WELL ID
ENTR.         SP                             : Entered      - ENTERED BY
SRVC.         SCHLUMBERGER                   : Scn          - SERVICE COMPANY
STRT.M        316.992                        : top_depth    - START DEPTH
STOP.M        517.992                        : bot_depth    - STOP DEPTH
STEP.M        0.25                           : increment    - STEP LENGTH
 NULL. -999.2500:NULL Value
~CURVE INFORMATION BLOCK
#MNEM UNIT       ERCB CURVE CODE    CURVE DESCRIPTION
#-----------   ------------------   ----------------------------------
DEPT.M        00 001 00 00         : DEPTH        - DEPTH
GR  .API      00 310 00 00         : GR           - GAMMA RAY
DPHI.V/V      00 890 00 00         : PHID         - DENSITY POROSITY (SANDSTONE)
NPHI.V/V      00 330 00 00         : PHIN         - NEUTRON POROSITY (SANDSTONE)
ILD .OHMM     00 120 00 00         : RESD         - DEEP RESISTIVITY (DIL)
~PARAMETER INFORMATION
#MNEM.UNIT           DATA             DESCRIPTION OF MNEMONIC
#---------         -----------     ------------------------------
GL  .M        666.902              : gl           - GROUND LEVEL ELEVATION
EREF.M        669.95               : kb           - ELEVATION OF DEPTH REFERENCE
DATM.M        666.902              : datum        - DATUM ELEVATION
TDD .M        521.513              : tdd          - TOTAL DEPTH DRILLER
RUN .         ONE                  : Run          - RUN NUMBER
ENG .         BILL                 : Engineer     - RECORDING ENGINEER
WIT .         JIM                  : Witness      - WITNESSED BY
MUD .         GEL                  : Mud_type     - MUD TYPE
MATR.         SANDSTONE            : Logunit      - NEUTRON MATRIX
TMAX.C        28.8889              : BHT          - MAXIMUM RECORDED TEMPERATURE
BHTD.M        521.513              : BHTDEP       - MAXIMUM RECORDED TEMPERATURE
MATR.         1                    : LOGUNIT      - NEUTRON MATRIX
RMT .C        25                   : MDTP         - TEMPERATURE OF MUD
NEUT.         1                    : NEUTRON      - NEUTRON TYPE
RESI.         0                    : RESIST       - RESISTIVITY TYPE
RMC .OHMM     0.25                 : RMC          - RESISTIVITY OF MUD CAKE
RMF .OHMM     0.25                 : RMF          - RESISTIVITY OF MUD FILTRATE
SUFT.C        15                   : SUFT         - SURFACE TEMPERATURE
~A  DEPTH       GR     PHID     PHIN     RESD
  316.992  126.786    1.034    0.526    3.435
  317.242  129.383    0.239    0.532    3.453
  317.492  130.712    0.263    0.542    3.424
  317.742  128.602    0.260    0.544    3.546
  317.992  130.497    0.248    0.550    3.655
  318.242  134.609    0.256    0.557    3.768
  318.492  127.282    0.239    0.532    3.819
  318.742  122.582    0.222    0.512    3.783
  318.992  123.417    0.219    0.523    3.747
  319.242  125.867    0.224    0.526    3.684
  319.492  121.056    0.234    0.520    3.650
  319.742  117.894    0.227    0.524    3.532
  319.992  119.826    0.216    0.538    3.425
  320.242  117.663    0.205    0.543    3.334
  320.492  115.466    0.231    0.551    3.337
  320.742  112.518    0.214    0.531    3.327
  320.992  116.253    0.225    0.548    3.397
  321.242  116.737    0.232    0.556    3.442
  321.492  115.556    0.234    0.528    3.626
  321.742  112.157    0.224    0.514    3.637
  321.992  112.205    0.229    0.523    3.523
  322.242  113.675    0.225    0.533    3.434
  322.492  111.325    0.242    0.512    3.512
  322.742  113.519    0.230    0.525    3.848
  322.992  112.409    0.223    0.548    4.210
  323.242  108.183    0.228    0.567    5.246
  323.492   93.246    0.265    0.562    6.059
  323.742   82.658    0.413    0.535    8.289
  323.992   71.742    0.416    0.485   11.052
  324.242   62.424    0.474    0.490   12.466
  324.492   49.171    0.608    0.525   11.610
  324.742   39.433    0.607    0.615   10.418
  324.992   51.623    0.600    0.633    9.755
  325.242   60.228    0.547    0.629    9.375
  325.492   62.931    0.332    0.510    9.214
  325.742   65.932    0.327    0.458    9.227
  325.992   70.217    0.302    0.458    9.034
  326.242   69.973    0.306    0.463    8.915
  326.492   65.952    0.318    0.440    8.865
  326.742   65.264    0.328    0.454    8.852
  326.992   66.169    0.336    0.472    8.828
  327.242   64.413    0.309    0.482    9.018
  327.492   69.786    0.314    0.444    8.996
  327.742   73.102    0.334    0.445    8.990
  327.992   79.242    0.316    0.455    8.983
  328.242   83.607    0.302    0.468    8.976
  328.492   82.785    0.309    0.454    8.970
  328.742   85.764    0.321    0.462    8.961
  328.992   82.020    0.292    0.477    8.956
  329.242   78.897    0.313    0.432    8.950
  329.492   83.124    0.337    0.446    8.943
  329.742   85.991    0.327    0.458    8.936
  329.992   92.791    0.299    0.467    8.927
  330.242   99.467    0.282    0.459    8.921
  330.492  105.673    0.248    0.473    8.995
  330.742  109.318    0.256    0.484    9.247
  330.992  105.001    0.261    0.467    9.383
  331.242   99.448    0.281    0.471    9.749
  331.492  103.265    0.301    0.477   10.120
  331.742  103.662    0.302    0.464   10.102
  331.992  103.491    0.288    0.456   10.079
  332.242  105.865    0.271    0.456   10.284
  332.492  111.442    0.250    0.463   10.270
  332.742  111.307    0.249    0.455   10.322
  332.992  114.549    0.263    0.436   10.445
  333.242  110.867    0.267    0.446   10.433
  333.492  101.141    0.257    0.462   10.394
  333.742   91.355    0.286    0.460   10.061
  333.992   82.967    0.262    0.434    9.759
  334.242   77.890    0.221    0.412    9.485
  334.492   79.757    0.204    0.397    9.336
  334.742   83.360    0.228    0.414    9.311
  334.992   69.685    0.249    0.436    9.309
  335.242   53.964    0.316    0.428    9.468
  335.492   54.052    0.301    0.400    9.441
  335.742   53.757    0.299    0.406    9.625
  335.992   53.201    0.320    0.409    9.593
  336.242   49.823    0.310    0.399    9.801
  336.492   40.326    0.326    0.394    9.778
  336.742   34.617    0.333    0.393    9.876
  336.992   33.529    0.323    0.387    9.905
  337.242   32.495    0.312    0.385    9.750
  337.492   33.946    0.307    0.394    9.762
  337.742   33.756    0.319    0.399    9.535
  337.992   31.774    0.312    0.398    9.159
  338.242   32.173    0.319    0.374    7.989
  338.492   41.002    0.326    0.368    6.812
  338.742   47.789    0.311    0.381    6.370
  338.992   62.343    0.286    0.377    5.676
  339.242   75.073    0.260    0.373    5.186
  339.492   94.765    0.217    0.473    4.981
  339.742  111.696    0.182    0.528    4.692
  339.992  131.218    0.167    0.544    4.555
  340.242  132.362    0.191    0.528    4.409
  340.492  129.956    0.175    0.518    4.377
  340.742  133.617    0.125    0.538    4.373
  340.992  136.649    0.139    0.572    4.370
  341.242  134.914    0.153    0.590    4.368
  341.492  133.855    0.148    0.549    4.305
  341.742  137.854    0.170    0.531    4.154
  341.992  131.605    0.175    0.537    3.822
  342.242  139.545    0.161    0.568    3.640
  342.492  144.695    0.178    0.587    3.536
  342.742  129.602    0.185    0.554    3.741
  342.992  122.231    0.127    0.537    4.270
  343.242  133.224    0.183    0.551    4.865
  343.492  141.809    0.244    0.517    5.877
  343.742  140.624    0.238    0.504    6.654
  343.992  141.694    0.221    0.468    8.245
  344.242  131.352    0.228    0.443    9.164
  344.492  126.557    0.242    0.438    9.394
  344.742  124.176    0.230    0.468    9.172
  344.992  126.490    0.243    0.466    8.631
  345.242  130.628    0.248    0.480    7.898
  345.492  134.529    0.229    0.486    7.354
  345.742  130.580    0.241    0.474    6.906
  345.992  126.880    0.252    0.480    6.660
  346.242  122.374    0.245    0.470    6.565
  346.492  117.653    0.233    0.454    6.806
  346.742  125.863    0.222    0.464    7.392
  346.992  124.272    0.216    0.495    7.923
  347.242  123.057    0.234    0.515    9.376
  347.492  123.521    0.234    0.469   10.845
  347.742  120.814    0.243    0.450   11.315
  347.992  112.365    0.281    0.461   11.621
  348.242  100.091    0.309    0.472   11.128
  348.492   94.039    0.294    0.456   10.431
  348.742   98.610    0.288    0.445    9.232
  348.992   98.691    0.287    0.449    8.601
  349.242  104.947    0.274    0.454    7.827
  349.492  108.879    0.271    0.455    7.524
  349.742  108.206    0.260    0.450    7.673
  349.992  111.307    0.250    0.449    7.583
  350.242  118.802    0.254    0.464    7.658
  350.492  122.908    0.255    0.476    7.653
  350.742  128.020    0.246    0.456    7.985
  350.992  130.605    0.238    0.442    8.578
  351.242  137.346    0.243    0.470    9.124
  351.492  136.963    0.245    0.455    9.865
  351.742  129.607    0.259    0.473   10.241
  351.992  120.023    0.308    0.477   10.225
  352.242   73.574    0.310    0.449   10.177
  352.492   77.181    0.314    0.435   10.026
  352.742   81.764    0.318    0.436   10.020
  352.992   83.201    0.318    0.436   10.008
  353.242   78.964    0.311    0.450   10.164
  353.492   82.306    0.299    0.457   10.490
  353.742   89.531    0.287    0.451   10.574
  353.992   94.037    0.281    0.446   10.903
  354.242   90.707    0.272    0.459   11.161
  354.492   81.090    0.297    0.502   11.134
  354.742   75.972    0.319    0.497   11.150
  354.992   78.198    0.311    0.472   10.916
  355.242   77.801    0.319    0.462   10.526
  355.492   75.239    0.328    0.468   10.017
  355.742   71.684    0.325    0.469    9.488
  355.992   74.042    0.332    0.484    8.774
  356.242   76.669    0.334    0.477    8.329
  356.492   78.227    0.338    0.462    7.912
  356.742   75.734    0.328    0.448    7.562
  356.992   75.167    0.329    0.466    7.362
  357.242   81.045    0.328    0.475    7.363
  357.492   84.797    0.311    0.484    7.452
  357.742   82.854    0.293    0.499    7.671
  357.992   85.493    0.278    0.506    8.061
  358.242   84.883    0.284    0.501    8.281
  358.492   94.709    0.290    0.498    8.725
  358.742  102.925    0.279    0.489    8.967
  358.992  110.627    0.269    0.483    9.143
  359.242  113.787    0.251    0.465    9.101
  359.492  112.910    0.247    0.465    8.956
  359.742  102.385    0.264    0.450    9.018
  359.992   97.440    0.271    0.439    9.297
  360.242   99.801    0.268    0.446    9.007
