~VERSION INFORMATION
 VERS.                 2.0:   CWLS LOG ASCII STANDARD -VERSION 2.0
 WRAP.                  NO:   ONE LINE PER DEPTH STEP
~WELL INFORMATION BLOCK
#MNEM.UNIT           DATA                    DESCRIPTION OF MNEMONIC
#---------    -------------------            -------------------------------
# Generated from Intellog Unique Number	CS_77_79/WELL/855
WELL.         CWWE HARDY                     : Well_name    - WELL
LOC .         00/05-15-078-04W4/0            : Location     - LOCATION
UWI .         00/05-15-078-04W4/0            : Uwi          - UNIQUE WELL ID
ENTR.         JHS                            : Entered      - ENTERED BY
SRVC.         SCHLUMBERGER                   : Scn          - SERVICE COMPANY
STRT.M        140                            : top_depth    - START DEPTH
STOP.M        405                            : bot_depth    - STOP DEPTH
STEP.M        0.25                           : increment    - STEP LENGTH
 NULL. -999.2500:NULL Value
~CURVE INFORMATION BLOCK
#MNEM UNIT       ERCB CURVE CODE    CURVE DESCRIPTION
#-----------   ------------------   ----------------------------------
DEPT.M        00 001 00 00         : DEPTH        - DEPTH
DPHI.V/V      00 890 00 00         : PHID         - DENSITY POROSITY (LIMESTONE)
NPHI.V/V      00 330 00 00         : PHIN         - NEUTRON POROSITY (LIMESTONE)
GR  .API      00 310 00 00         : GR           - GAMMA RAY
ILD .OHMM     00 120 00 00         : RESD         - DEEP RESISTIVITY (DIL)
RHOB.KG/M3    00 350 00 00         : DENS         - BULK DENSITY
~PARAMETER INFORMATION
#MNEM.UNIT           DATA             DESCRIPTION OF MNEMONIC
#---------         -----------     ------------------------------
GL  .M        562.55               : gl           - GROUND LEVEL ELEVATION
EREF.M        566.5                : kb           - ELEVATION OF DEPTH REFERENCE
DATM.M        566.5                : datum        - DATUM ELEVATION
TDD .M        420                  : tdd          - TOTAL DEPTH DRILLER
RUN .         ONE                  : Run          - RUN NUMBER
ENG .         BILL                 : Engineer     - RECORDING ENGINEER
WIT .         JIM                  : Witness      - WITNESSED BY
MUD .         GEL                  : Mud_type     - MUD TYPE
MATR.         LIMESTONE            : Logunit      - NEUTRON MATRIX
TMAX.C        23                   : BHT          - MAXIMUM RECORDED TEMPERATURE
BHTD.M        420                  : BHTDEP       - MAXIMUM RECORDED TEMPERATURE
MATR.         1                    : LOGUNIT      - NEUTRON MATRIX
RMT .C        25                   : MDTP         - TEMPERATURE OF MUD
NEUT.         1                    : NEUTRON      - NEUTRON TYPE
RESI.         0                    : RESIST       - RESISTIVITY TYPE
RMC .OHMM     0.25                 : RMC          - RESISTIVITY OF MUD CAKE
RMF .OHMM     0.25                 : RMF          - RESISTIVITY OF MUD FILTRATE
SUFT.C        15                   : SUFT         - SURFACE TEMPERATURE
~A  DEPTH     PHID     PHIN       GR     RESD     DENS
  140.000    0.251    0.481  116.865    3.410    0.000
  140.250    0.263    0.468  118.782    3.288    0.000
  140.500    0.255    0.470  120.686    3.292    0.000
  140.750    0.248    0.482  120.734    3.295    0.000
  141.000    0.245    0.495  118.889    3.361    0.000
  141.250    0.244    0.506  116.424    3.429    0.000
  141.500    0.238    0.521  116.462    3.432    0.000
  141.750    0.233    0.529  118.998    3.501    0.000
  142.000    0.233    0.532  122.160    3.505    0.000
  142.250    0.241    0.540  121.574    3.575    0.000
  142.500    0.250    0.533  115.985    3.579    0.000
  142.750    0.254    0.513  113.525    3.584    0.000
  143.000    0.242    0.510  113.565    3.520    0.000
  143.250    0.244    0.537  111.720    3.394    0.000
  143.500    0.261    0.556  113.014    3.334    0.000
  143.750    0.277    0.559  111.174    3.214    0.000
  144.000    0.282    0.544  108.712    3.157    0.000
  144.250    0.284    0.521  106.873    3.101    0.000
  144.500    0.278    0.500  105.035    2.990    0.000
  144.750    0.273    0.485  103.826    2.993    0.000
  145.000    0.271    0.495  105.113    2.939    0.000
  145.250    0.271    0.505  108.277    2.942    0.000
  145.500    0.274    0.512  111.442    2.892    0.000
  145.750    0.277    0.525  111.471    2.894    0.000
  146.000    0.280    0.572  108.386    2.844    0.000
  146.250    0.280    0.576  106.544    2.845    0.000
  146.500    0.283    0.541  106.578    2.848    0.000
  146.750    0.277    0.517  105.994    2.852    0.000
  147.000    0.275    0.499  107.277    2.856    0.000
  147.250    0.281    0.494  109.816    2.804    0.000
  147.500    0.256    0.502  104.228    2.862    0.000
  147.750    0.231    0.519   94.264    2.864    0.000
  148.000    0.203    0.541  100.558    2.868    0.000
  148.250    0.208    0.556   98.720    2.871    0.000
  148.500    0.261    0.557   96.879    2.873    0.000
  148.750    0.268    0.536  101.914    2.823    0.000
  149.000    0.268    0.515  106.955    2.773    0.000
  149.250    0.259    0.510  106.365    2.776    0.000
  149.500    0.257    0.534  101.400    2.779    0.000
  149.750    0.276    0.542  102.074    2.730    0.000
  150.000    0.287    0.519  104.603    2.732    0.000
  150.250    0.285    0.527  103.395    2.735    0.000
  150.500    0.272    0.541  104.679    2.738    0.000
  150.750    0.261    0.538  104.708    2.741    0.000
  151.000    0.249    0.526  103.498    2.745    0.000
  151.250    0.244    0.521  106.034    2.799    0.000
  151.500    0.245    0.527  108.569    2.855    0.000
  151.750    0.246    0.532  109.857    3.025    0.000
  152.000    0.243    0.513  107.394    3.144    0.000
  152.250    0.240    0.490  106.197    3.208    0.000
  152.500    0.241    0.467  108.102    3.272    0.000
  152.750    0.256    0.470  110.012    3.276    0.000
  153.000    0.260    0.551  110.052    3.343    0.000
  153.250    0.250    0.557  110.708    3.347    0.000
  153.500    0.247    0.512  113.242    3.349    0.000
  153.750    0.245    0.477  115.153    3.353    0.000
  154.000    0.237    0.453  108.945    3.486    0.000
  154.250    0.227    0.433  107.740    3.556    0.000
  154.500    0.219    0.444  109.650    3.560    0.000
  154.750    0.220    0.493  110.939    3.631    0.000
  155.000    0.238    0.477  111.588    3.635    0.000
  155.250    0.245    0.465  104.750    3.639    0.000
  155.500    0.236    0.472  104.164    3.643    0.000
  155.750    0.242    0.487  109.832    3.578    0.000
  156.000    0.247    0.493  113.619    3.582    0.000
  156.250    0.247    0.484  113.023    3.586    0.000
  156.500    0.216    0.456   81.188    3.728    0.000
  156.750    0.179    0.410   51.229    4.024    0.000
  157.000    0.132    0.359   36.272    4.597    0.000
  157.250    0.089    0.300   34.436    5.771    0.000
  157.500    0.162    0.284   57.591    6.847    0.000
  157.750    0.271    0.334   86.378    7.119    0.000
  158.000    0.265    0.447  107.039    6.862    0.000
  158.250    0.227    0.475  110.827    6.133    0.000
  158.500    0.209    0.459  108.359    5.181    0.000
  158.750    0.211    0.432  103.405    4.631    0.000
  159.000    0.227    0.456   99.066    4.381    0.000
  159.250    0.230    0.452   86.601    4.555    0.000
  159.500    0.240    0.424   71.637    5.107    0.000
  159.750    0.254    0.393   66.677    5.725    0.000
  160.000    0.263    0.374   72.341    6.417    0.000
  160.250    0.262    0.368   84.249    7.471    0.000
  160.500    0.246    0.368   94.283    8.066    0.000
  160.750    0.226    0.377   97.455    7.924    0.000
  161.000    0.207    0.393   99.355    7.357    0.000
  161.250    0.200    0.409  103.770    7.089    0.000
  161.500    0.209    0.449  106.310    6.339    0.000
  161.750    0.221    0.462  107.602    6.109    0.000
  162.000    0.224    0.439  106.378    6.001    0.000
  162.250    0.213    0.411  102.047    6.007    0.000
  162.500    0.205    0.401   97.081    6.129    0.000
  162.750    0.208    0.409  102.119    6.254    0.000
  163.000    0.224    0.429  107.776    6.501    0.000
  163.250    0.239    0.423  102.817    6.756    0.000
  163.500    0.241    0.419   95.350    7.434    0.000
  163.750    0.217    0.418   90.388    8.335    0.000
  164.000    0.199    0.388   86.063    9.522    0.000
  164.250    0.218    0.360   83.588   11.297    0.000
  164.500    0.274    0.357   80.510   12.662    0.000
  164.750    0.258    0.357   79.919   13.929    0.000
  165.000    0.222    0.346   79.330   15.037    0.000
  165.250    0.205    0.342   84.988   15.933    0.000
  165.500    0.209    0.347   93.779   16.252    0.000
  165.750    0.284    0.364   97.564   16.581    0.000
  166.000    0.297    0.378  100.101   16.598    0.000
  166.250    0.296    0.379   97.644   16.932    0.000
  166.500    0.282    0.384   93.928   16.633    0.000
  166.750    0.276    0.391   91.459   16.341    0.000
  167.000    0.276    0.391   99.004   16.051    0.000
  167.250    0.272    0.391  104.032   15.476    0.000
  167.500    0.259    0.387  107.200   15.486    0.000
  167.750    0.240    0.377  108.489   15.217    0.000
  168.000    0.230    0.368  105.404   14.946    0.000
  168.250    0.250    0.355  101.681   14.692    0.000
  168.500    0.256    0.339  101.722   14.425    0.000
  168.750    0.245    0.341  108.631   14.445    0.000
  169.000    0.234    0.373  113.665   14.185    0.000
  169.250    0.227    0.378  113.708   13.938    0.000
  169.500    0.215    0.352  108.741   13.692    0.000
  169.750    0.215    0.337   91.906   13.702    0.000
  170.000    0.265    0.342   88.191   13.719    0.000
  170.250    0.281    0.364   95.112   13.735    0.000
  170.500    0.286    0.381   98.889   13.745    0.000
  170.750    0.245    0.390  105.180   12.060    0.000
  171.000    0.228    0.417  110.224   10.982    0.000
  171.250    0.218    0.428  111.506    9.456    0.000
  171.500    0.197    0.438  107.166    8.776    0.000
  171.750    0.160    0.444   92.829    8.146    0.000
  172.000    0.126    0.421   93.487    7.852    0.000
  172.250    0.125    0.423  105.405    7.570    0.000
  172.500    0.165    0.440  110.446    7.436    0.000
  172.750    0.235    0.430  111.722    8.029    0.000
  173.000    0.234    0.404  101.135    8.666    0.000
  173.250    0.256    0.398   69.927   10.282    0.000
  173.500    0.316    0.399   58.715   12.199    0.000
  173.750    0.328    0.390   58.130   14.200    0.000
  174.000    0.327    0.381   65.664   17.833    0.000
  174.250    0.328    0.378   71.332   19.988    0.000
  174.500    0.336    0.365   71.371   22.408    0.000
  174.750    0.337    0.357   68.274   23.306    0.000
  175.000    0.326    0.358   66.452   23.318    0.000
  175.250    0.312    0.364   71.470   22.910    0.000
  175.500    0.301    0.356   81.507   22.087    0.000
  175.750    0.292    0.346   92.798   20.895    0.000
  176.000    0.299    0.350   97.211   19.765    0.000
  176.250    0.315    0.404   95.997   19.056    0.000
