~VERSION INFORMATION
 VERS.                 2.0:   CWLS LOG ASCII STANDARD -VERSION 2.0
 WRAP.                  NO:   ONE LINE PER DEPTH STEP
~WELL INFORMATION BLOCK
#MNEM.UNIT           DATA                    DESCRIPTION OF MNEMONIC
#---------    -------------------            -------------------------------
# Generated from Intellog Unique Number	CW_82_90/WELL/3069
WELL.         GULF LIVOCK EV                 : Well_name    - WELL
LOC .         00/08-05-086-22W4/0            : Location     - LOCATION
UWI .         00/08-05-086-22W4/0            : Uwi          - UNIQUE WELL ID
ENTR.         MAX                            : Entered      - ENTERED BY
SRVC.         SCHLUMBERGER                   : Scn          - SERVICE COMPANY
STRT.M        167.64                         : top_depth    - START DEPTH
STOP.M        371.89                         : bot_depth    - STOP DEPTH
STEP.M        0.25                           : increment    - STEP LENGTH
 NULL. -999.2500:NULL Value
~CURVE INFORMATION BLOCK
#MNEM UNIT       ERCB CURVE CODE    CURVE DESCRIPTION
#-----------   ------------------   ----------------------------------
DEPT.M        00 001 00 00         : DEPTH        - DEPTH
ILD .OHMM     00 120 00 00         : RESD         - DEEP RESISTIVITY (DIL)
NPHI.V/V      00 330 00 00         : PHIN         - NEUTRON POROSITY (SANDSTONE)
DPHI.V/V      00 890 00 00         : PHID         - DENSITY POROSITY (SANDSTONE)
CALI.MM       00 280 01 00         : CAL          - CALIPER
GR  .API      00 310 00 00         : GR           - GAMMA RAY
~PARAMETER INFORMATION
#MNEM.UNIT           DATA             DESCRIPTION OF MNEMONIC
#---------         -----------     ------------------------------
GL  .M        575.767              : gl           - GROUND LEVEL ELEVATION
EREF.M        577.291              : kb           - ELEVATION OF DEPTH REFERENCE
DATM.M        575.767              : datum        - DATUM ELEVATION
TDD .M        374.904              : tdd          - TOTAL DEPTH DRILLER
RUN .         ONE                  : Run          - RUN NUMBER
ENG .         BILL                 : Engineer     - RECORDING ENGINEER
WIT .         JIM                  : Witness      - WITNESSED BY
MUD .         GEL                  : Mud_type     - MUD TYPE
MATR.         SANDSTONE            : Logunit      - NEUTRON MATRIX
TMAX.C        21.1111              : BHT          - MAXIMUM RECORDED TEMPERATURE
BHTD.M        374.904              : BHTDEP       - MAXIMUM RECORDED TEMPERATURE
MATR.         1                    : LOGUNIT      - NEUTRON MATRIX
RMT .C        16.6667              : MDTP         - TEMPERATURE OF MUD
NEUT.         1                    : NEUTRON      - NEUTRON TYPE
RESI.         0                    : RESIST       - RESISTIVITY TYPE
RMC .OHMM     6.2                  : RMC          - RESISTIVITY OF MUD CAKE
RMF .OHMM     6.2                  : RMF          - RESISTIVITY OF MUD FILTRATE
SUFT.C        -23.3333             : SUFT         - SURFACE TEMPERATURE
~A  DEPTH     RESD     PHIN     PHID      CAL       GR
  167.640    3.522    0.579    0.225  170.059   84.173
  167.890    3.746    0.587    0.212  175.402   78.272
  168.140    4.130    0.598    0.215  185.184   77.331
  168.390    4.432    0.596    0.259  178.655   79.894
  168.640    4.758    0.595    0.259  166.178   78.668
  168.890    5.341    0.591    0.255  162.098   78.025
  169.140    6.159    0.584    0.232  163.013   78.551
  169.390    7.844    0.562    0.236  161.913   75.572
  169.640    9.897    0.521    0.252  158.834   69.949
  169.890   12.948    0.364    0.235  160.727   63.179
  170.140   22.180    0.382    0.195  161.605   47.617
  170.390   26.514    0.482    0.251  158.032   49.611
  170.640   26.245    0.539    0.328  159.924   50.721
  170.890   25.065    0.553    0.350  161.297   48.604
  171.140   24.362    0.537    0.354  161.681   49.722
  171.390   24.556    0.522    0.348  163.079   52.577
  171.640   24.303    0.518    0.346  162.486   49.883
  171.890   23.207    0.514    0.347  161.880   49.240
  172.140   21.570    0.509    0.332  162.289   49.774
  172.390   19.510    0.499    0.329  162.178   50.585
  172.640   19.142    0.483    0.324  162.574   51.403
  172.890   19.466    0.481    0.319  163.947   52.520
  173.140   19.974    0.500    0.319  164.343   53.901
  173.390   20.678    0.503    0.324  163.750   53.565
  173.640   21.798    0.493    0.336  162.662   51.754
  173.890   22.979    0.495    0.329  162.057   48.461
  174.140   24.003    0.498    0.332  162.453   45.788
  174.390   24.852    0.498    0.334  163.344   42.795
  174.640   25.963    0.500    0.338  162.751   43.029
  174.890   27.366    0.523    0.341  161.651   42.970
  175.140   28.590    0.525    0.339  161.552   40.575
  175.390   30.406    0.489    0.337  161.936   38.764
  175.640   31.766    0.481    0.336  161.343   38.414
  175.890   33.186    0.478    0.338  160.762   37.764
  176.140   34.053    0.473    0.343  160.639   35.662
  176.390   33.708    0.472    0.342  161.023   34.720
  176.640   33.361    0.475    0.338  160.937   36.115
  176.890   33.326    0.481    0.335  161.840   36.648
  177.140   32.988    0.494    0.333  161.741   37.174
  177.390   32.639    0.497    0.327  160.641   37.693
  177.640   32.605    0.497    0.325  161.037   38.212
  177.890   32.269    0.506    0.327  162.905   38.745
  178.140   32.240    0.516    0.332  162.819   38.979
  178.390   32.197    0.501    0.330  162.213   39.199
  178.640   31.870    0.494    0.330  161.126   39.447
  178.890   31.832    0.493    0.326  160.520   39.374
  179.140   32.067    0.492    0.325  160.409   39.024
  179.390   32.038    0.494    0.326  160.311   38.382
  179.640   32.284    0.500    0.322  160.225   38.915
  179.890   32.240    0.534    0.327  160.126   39.426
  180.140   31.918    0.544    0.331  159.014   38.207
  180.390   31.880    0.544    0.330  158.433   38.149
  180.640   32.978    0.542    0.331  157.828   38.953
  180.890   31.218    0.535    0.331  157.234   39.187
  181.140   31.472    0.515    0.330  157.631   38.836
  181.390   31.723    0.498    0.330  158.991   38.486
  181.640   31.680    0.490    0.327  158.905   38.428
  181.890   31.642    0.487    0.334  159.301   38.063
  182.140   31.889    0.483    0.336  160.674   38.012
  182.390   31.846    0.479    0.336  162.567   37.669
  182.640   31.241    0.485    0.331  160.477   37.589
  182.890   26.541    0.480    0.323  160.391   37.823
  183.140   19.524    0.462    0.319  158.772   38.072
  183.390   15.573    0.459    0.314  155.718   39.766
  183.640   13.110    0.496    0.312  158.105   42.629
  183.890   11.650    0.529    0.305  160.962   46.062
  184.140   11.124    0.556    0.291  160.851   49.516
  184.390   11.109    0.594    0.271  162.731   53.847
  184.640   12.138    0.594    0.269  163.115   64.305
  184.890   14.001    0.560    0.298  162.040   64.525
  185.140   19.156    0.536    0.313  159.938   60.099
  185.390   25.746    0.501    0.313  159.332   47.465
  185.640   20.535    0.483    0.313  159.259   44.778
  185.890   15.380    0.479    0.311  159.655   45.874
  186.140   11.834    0.486    0.304  160.533   48.452
  186.390    8.175    0.508    0.284  160.435   56.581
  186.640    7.199    0.525    0.251  160.336   61.196
  186.890    7.123    0.558    0.237  159.743   68.441
  187.140    7.377    0.556    0.235  159.632   68.376
  187.390    8.980    0.530    0.232  163.009   67.733
  187.640    9.724    0.513    0.221  163.887   67.967
  187.890   10.532    0.510    0.237  163.294   64.688
  188.140   11.611    0.502    0.256  162.701   62.008
  188.390   11.809    0.518    0.276  161.613   62.819
  188.640   11.174    0.581    0.270  161.008   65.390
  188.890   11.672    0.575    0.262  160.909   68.246
  189.140   12.416    0.532    0.266  160.811   64.397
  189.390   13.088    0.534    0.261  161.207   60.527
  189.640   13.795    0.534    0.275  162.085   58.432
  189.890   13.290    0.476    0.268  160.503   52.224
  190.140   12.809    0.457    0.258  160.380   52.451
  190.390   10.978    0.463    0.246  160.294   55.614
  190.640    9.756    0.473    0.249  161.184   61.113
  190.890    8.513    0.487    0.242  162.075   68.642
  191.140    7.983    0.500    0.246  162.471   71.812
  191.390    7.901    0.517    0.258  162.373   76.121
  191.640    7.752    0.522    0.261  162.757   72.857
  191.890    7.269    0.522    0.253  163.623   71.331
  192.140    7.003    0.517    0.239  163.042   75.370
  192.390    7.059    0.515    0.238  161.942   73.551
  192.640    7.373    0.532    0.250  159.370   67.651
  192.890    7.915    0.458    0.263  158.789   62.327
  193.140    9.295    0.420    0.271  159.680   53.791
  193.390   10.527    0.442    0.261  159.557   48.467
  193.640   12.362    0.478    0.270  159.965   45.196
  193.890   14.781    0.478    0.307  161.833   44.247
  194.140   17.829    0.468    0.303  162.724   44.488
  194.390   18.795    0.467    0.309  162.638   44.422
  194.640   18.604    0.469    0.310  162.539   44.079
  194.890   18.413    0.472    0.308  162.911   43.422
  195.140   18.557    0.479    0.306  162.800   43.065
  195.390   18.702    0.498    0.302  163.221   42.729
  195.640   19.019    0.484    0.295  163.122   42.956
  195.890   19.335    0.476    0.308  161.021   43.190
  196.140   19.665    0.467    0.304  160.922   43.424
  196.390   19.998    0.482    0.276  160.836   43.651
  196.640   20.151    0.508    0.278  160.230   44.176
  196.890   20.677    0.506    0.298  159.625   44.118
  197.140   21.409    0.493    0.309  160.021   44.352
  197.390   22.565    0.480    0.308  160.430   43.995
  197.640   23.360    0.464    0.298  160.307   41.885
  197.890   23.335    0.454    0.296  159.231   40.950
  198.140   23.304    0.445    0.303  159.120   42.068
  198.390   23.071    0.442    0.319  160.011   44.054
  198.640   22.837    0.450    0.331  162.386   43.697
  198.890   22.602    0.455    0.328  164.254   44.508
  199.140   22.370    0.457    0.311  163.178   45.333
  199.390   22.143    0.450    0.313  162.585   46.144
  199.640   22.116    0.451    0.310  163.970   46.663
  199.890   21.892    0.449    0.303  162.870   47.481
  200.140   21.473    0.455    0.297  162.760   48.007
  200.390   21.258    0.475    0.313  162.673   47.949
  200.640   20.848    0.463    0.322  163.057   47.898
  200.890   20.640    0.457    0.316  163.441   48.125
  201.140   20.425    0.465    0.311  162.860   48.643
  201.390   20.400    0.480    0.302  156.319   48.585
  201.640   20.379    0.481    0.318  155.726   47.943
  201.890   20.333    0.460    0.325  161.068   46.125
  202.140   20.327    0.450    0.319  162.924   46.651
  202.390   20.299    0.451    0.317  162.343   48.345
  202.640   20.455    0.470    0.317  158.770   50.332
  202.890   21.182    0.483    0.316  155.703   50.566
  203.140   22.123    0.496    0.313  154.121   49.624
  203.390   22.100    0.504    0.311  154.010   48.105
  203.640   22.885    0.498    0.310  153.417   49.216
  203.890   24.784    0.501    0.309  153.813   51.786
