~VERSION INFORMATION
 VERS.                 2.0:   CWLS LOG ASCII STANDARD -VERSION 2.0
 WRAP.                  NO:   ONE LINE PER DEPTH STEP
~WELL INFORMATION BLOCK
#MNEM.UNIT           DATA                    DESCRIPTION OF MNEMONIC
#---------    -------------------            -------------------------------
# Generated from Intellog Unique Number	CS_73_76/WELL/785
WELL.         AMOCO KIRBY                    : Well_name    - WELL
LOC .         00/09-25-073-05W4/0            : Location     - LOCATION
UWI .         00/09-25-073-05W4/0            : Uwi          - UNIQUE WELL ID
ENTR.         SP                             : Entered      - ENTERED BY
SRVC.         SCHLUMBERGER                   : Scn          - SERVICE COMPANY
STRT.M        285                            : top_depth    - START DEPTH
STOP.M        500                            : bot_depth    - STOP DEPTH
STEP.M        0.25                           : increment    - STEP LENGTH
 NULL. -999.2500:NULL Value
~CURVE INFORMATION BLOCK
#MNEM UNIT       ERCB CURVE CODE    CURVE DESCRIPTION
#-----------   ------------------   ----------------------------------
DEPT.M        00 001 00 00         : DEPTH        - DEPTH
ILD .OHMM     00 120 00 00         : RESD         - DEEP RESISTIVITY (DIL)
DPHI.V/V      00 890 00 00         : PHID         - DENSITY POROSITY (LIMESTONE)
NPHI.V/V      00 330 00 00         : PHIN         - NEUTRON POROSITY (LIMESTONE)
GR  .API      00 310 00 00         : GR           - GAMMA RAY
~PARAMETER INFORMATION
#MNEM.UNIT           DATA             DESCRIPTION OF MNEMONIC
#---------         -----------     ------------------------------
GL  .M        682.7                : gl           - GROUND LEVEL ELEVATION
EREF.M        686.9                : kb           - ELEVATION OF DEPTH REFERENCE
DATM.M        682.7                : datum        - DATUM ELEVATION
TDD .M        845.3                : tdd          - TOTAL DEPTH DRILLER
RUN .         ONE                  : Run          - RUN NUMBER
ENG .         BILL                 : Engineer     - RECORDING ENGINEER
WIT .         JIM                  : Witness      - WITNESSED BY
MUD .         GEL                  : Mud_type     - MUD TYPE
MATR.         LIMESTONE            : Logunit      - NEUTRON MATRIX
TMAX.C        18                   : BHT          - MAXIMUM RECORDED TEMPERATURE
BHTD.M        845.3                : BHTDEP       - MAXIMUM RECORDED TEMPERATURE
MATR.         1                    : LOGUNIT      - NEUTRON MATRIX
RMT .C        25                   : MDTP         - TEMPERATURE OF MUD
NEUT.         1                    : NEUTRON      - NEUTRON TYPE
RESI.         0                    : RESIST       - RESISTIVITY TYPE
RMC .OHMM     0.25                 : RMC          - RESISTIVITY OF MUD CAKE
RMF .OHMM     0.25                 : RMF          - RESISTIVITY OF MUD FILTRATE
SUFT.C        15                   : SUFT         - SURFACE TEMPERATURE
~A  DEPTH     RESD     PHID     PHIN       GR
# ...
  328.500    2.402    0.310    0.408   83.604
  328.750    1.998    0.308    0.407   87.815
  329.000    1.756    0.302    0.436   89.017
  329.250    1.461    0.275    0.455   89.014
  329.500    1.517    0.257    0.457   88.405
  329.750    1.664    0.243    0.462   89.005
  330.000    1.860    0.245    0.475   89.603
  330.250    2.157    0.215    0.491   87.792
  330.500    2.456    0.181    0.502   87.788
  330.750    2.797    0.157    0.472   93.808
  331.000    2.957    0.234    0.443   93.199
  331.250    2.748    0.245    0.445   90.786
  331.500    2.328    0.252    0.458   87.771
  331.750    2.124    0.258    0.473   82.947
  332.000    2.048    0.233    0.479   78.727
  332.250    2.087    0.248    0.487   73.301
  332.500    1.904    0.259    0.448   79.922
  332.750    1.613    0.269    0.477   86.543
  333.000    1.803    0.265    0.448   89.553
  333.250    1.942    0.275    0.438   94.367
  333.500    2.016    0.264    0.467   96.772
  333.750    2.093    0.268    0.481   97.974
  334.000    2.094    0.282    0.497   90.137
  334.250    2.174    0.287    0.471   84.109
  334.500    2.256    0.277    0.460   79.287
  334.750    2.257    0.271    0.449   74.464
  335.000    2.177    0.273    0.441   70.242
  335.250    1.810    0.258    0.426   67.227
  335.500    1.592    0.264    0.402   64.211
  335.750    1.714    0.259    0.400   64.808
  336.000    1.813    0.255    0.406   66.010
  336.250    1.654    0.276    0.408   62.993
  336.500    1.481    0.283    0.413   59.975
  336.750    1.351    0.297    0.419   58.769
  337.000    1.279    0.298    0.423   63.582
  337.250    1.256    0.289    0.411   65.989
  337.500    1.353    0.274    0.401   62.370
  337.750    1.458    0.286    0.391   58.148
  338.000    1.458    0.292    0.385   56.337
  338.250    1.459    0.293    0.385   56.333
  338.500    1.236    0.311    0.394   57.533
  338.750    1.148    0.323    0.407   58.734
  339.000    1.128    0.320    0.418   60.536
  339.250    1.171    0.320    0.407   62.340
  339.500    1.150    0.317    0.399   62.939
  339.750    1.069    0.317    0.383   63.537
  340.000    1.050    0.296    0.375   64.135
  340.250    1.070    0.287    0.409   67.143
  340.500    1.131    0.278    0.431   69.549
  340.750    1.174    0.266    0.448   68.940
  341.000    1.242    0.274    0.456   64.720
  341.250    1.289    0.290    0.438   58.693
  341.500    1.468    0.308    0.424   50.858
  341.750    1.640    0.321    0.408   44.829
  342.000    1.735    0.326    0.412   41.210
  342.250    1.417    0.304    0.411   38.194
  342.500    1.222    0.291    0.384   36.986
  342.750    1.017    0.303    0.399   35.777
  343.000    0.910    0.305    0.422   33.965
  343.250    0.862    0.316    0.431   33.962
  343.500    0.911    0.326    0.420   35.163
  343.750    0.879    0.304    0.420   36.363
  344.000    0.802    0.305    0.414   37.563
  344.250    0.817    0.305    0.402   39.365
  344.500    0.880    0.310    0.422   40.565
  344.750    0.930    0.303    0.443   41.165
  345.000    0.914    0.302    0.457   43.571
  345.250    0.881    0.305    0.422   49.589
  345.500    0.932    0.307    0.404   53.801
  345.750    0.950    0.313    0.411   56.810
  346.000    0.933    0.316    0.407   60.420
  346.250    0.899    0.309    0.408   62.826
  346.500    0.969    0.303    0.422   65.231
  346.750    1.063    0.298    0.387   67.636
  347.000    1.124    0.290    0.390   64.620
  347.250    1.257    0.296    0.400   60.399
  347.500    1.353    0.279    0.411   59.793
  347.750    1.485    0.248    0.424   60.391
  348.000    1.630    0.267    0.435   62.796
  348.250    1.692    0.286    0.421   65.201
  348.500    1.381    0.293    0.425   64.595
  348.750    1.260    0.297    0.435   66.999
  349.000    1.261    0.286    0.443   70.007
  349.250    1.409    0.278    0.449   68.196
  349.500    1.546    0.268    0.449   63.372
  349.750    1.605    0.284    0.434   62.165
  350.000    1.464    0.295    0.434   63.365
  350.250    1.287    0.296    0.457   66.371
  350.500    1.336    0.286    0.478   67.574
  350.750    1.521    0.308    0.492   72.389
  351.000    1.764    0.322    0.457   66.963
  351.250    1.832    0.285    0.409   63.345
  351.500    1.552    0.282    0.416   66.954
  351.750    1.390    0.290    0.440   68.757
  352.000    1.470    0.296    0.462   62.126
  352.250    1.613    0.296    0.476   57.906
  352.500    1.674    0.333    0.404   53.685
  352.750    1.584    0.327    0.393   50.669
  353.000    1.318    0.331    0.399   47.653
  353.250    1.202    0.337    0.400   45.842
  353.500    1.097    0.342    0.405   48.246
  353.750    0.946    0.353    0.422   47.640
  354.000    0.863    0.363    0.434   49.443
  354.250    0.832    0.348    0.426   51.247
  354.500    0.818    0.335    0.430   53.048
  354.750    0.803    0.325    0.430   52.443
  355.000    0.774    0.333    0.409   49.425
  355.250    0.760    0.333    0.406   47.012
  355.500    0.733    0.324    0.414   46.406
  355.750    0.720    0.325    0.410   44.592
  356.000    0.694    0.337    0.410   44.591
  356.250    0.669    0.347    0.423   45.791
  356.500    0.670    0.349    0.439   46.992
  356.750    0.900    0.349    0.445   47.590
  357.000    1.064    0.336    0.451   46.983
  357.250    1.125    0.324    0.456   46.376
  357.500    0.919    0.311    0.464   45.168
  357.750    0.823    0.305    0.444   45.163
  358.000    0.870    0.300    0.428   47.569
  358.250    0.887    0.305    0.457   50.577
  358.500    0.809    0.313    0.459   52.379
  358.750    0.752    0.323    0.434   51.772
  359.000    0.752    0.320    0.440   51.769
  359.250    0.780    0.318    0.431   52.367
  359.500    0.810    0.323    0.407   53.567
  359.750    0.811    0.337    0.413   54.164
  360.000    0.842    0.352    0.431   54.162
  360.250    0.907    0.348    0.440   54.157
  360.500    0.976    0.341    0.447   54.153
  360.750    0.812    0.358    0.449   54.147
  361.000    0.741    0.370    0.444   54.746
  361.250    0.769    0.348    0.433   54.141
  361.500    0.813    0.338    0.428   54.136
  361.750    0.844    0.340    0.449   54.133
  362.000    0.845    0.346    0.457   53.525
  362.250    0.830    0.348    0.444   53.521
  362.500    0.800    0.349    0.428   52.914
  362.750    0.771    0.346    0.437   51.706
  363.000    0.786    0.347    0.448   50.498
  363.250    0.786    0.353    0.457   48.686
  363.500    0.801    0.361    0.450   47.477
  363.750    0.787    0.349    0.437   46.870
  364.000    0.773    0.339    0.429   48.071
  364.250    0.759    0.333    0.430   47.464
  364.500    0.760    0.333    0.434   46.255
  364.750    0.760    0.337    0.449   46.251
  365.000    0.789    0.312    0.431   47.452
  365.250    0.834    0.300    0.446   48.652
  365.500    0.916    0.297    0.458   49.853
  365.750    0.986    0.310    0.449   51.053
  366.000    1.024    0.324    0.454   52.856
  366.250    1.043    0.339    0.456   54.056
  366.500    1.044    0.307    0.463   55.258
  366.750    1.025    0.301    0.476   57.661
  367.000    0.935    0.307    0.492   59.466
  367.250    0.885    0.312    0.502   62.474
  367.500    0.869    0.315    0.514   66.083
  367.750    0.903    0.318    0.495   67.284
  368.000    0.937    0.323    0.478   68.485
  368.250    0.973    0.333    0.461   69.083
  368.500    0.991    0.316    0.448   70.885
  368.750    1.029    0.304    0.432   72.688
  369.000    1.088    0.297    0.422   73.889
  369.250    1.216    0.301    0.421   74.488
  369.500    1.310    0.304    0.426   73.881
  369.750    1.360    0.288    0.432   72.671
  370.000    1.412    0.276    0.449   71.463
  370.250    1.439    0.293    0.435   70.856
  370.500    1.467    0.304    0.430   72.057
  370.750    1.440    0.305    0.430   73.860
  371.000    1.389    0.315    0.431   76.265
  371.250    1.390    0.317    0.430   78.670
  371.500    1.442    0.282    0.454   79.268
  371.750    1.583    0.270    0.471   79.867
