~VERSION INFORMATION
 VERS.                 2.0:   CWLS LOG ASCII STANDARD -VERSION 2.0
 WRAP.                  NO:   ONE LINE PER DEPTH STEP
~WELL INFORMATION BLOCK
#MNEM.UNIT           DATA                    DESCRIPTION OF MNEMONIC
#---------    -------------------            -------------------------------
# Generated from Intellog Unique Number	CS_73_76/WELL/774
WELL.         BOW VALLEY INDUSTRIES LTD.     : Well_name    - WELL
LOC .         00/07-33-073-16W4/0            : Location     - LOCATION
UWI .         00/07-33-073-16W4/0            : Uwi          - UNIQUE WELL ID
ENTR.         SP                             : Entered      - ENTERED BY
SRVC.         SCHLUMBERGER                   : Scn          - SERVICE COMPANY
STRT.M        245                            : top_depth    - START DEPTH
STOP.M        461                            : bot_depth    - STOP DEPTH
STEP.M        0.25                           : increment    - STEP LENGTH
 NULL. -999.2500:NULL Value
~CURVE INFORMATION BLOCK
#MNEM UNIT       ERCB CURVE CODE    CURVE DESCRIPTION
#-----------   ------------------   ----------------------------------
DEPT.M        00 001 00 00         : DEPTH        - DEPTH
ILD .OHMM     00 120 00 00         : RESD         - DEEP RESISTIVITY (DIL)
DPHI.V/V      00 890 00 00         : PHID         - DENSITY POROSITY (LIMESTONE)
NPHI.V/V      00 330 00 00         : PHIN         - NEUTRON POROSITY (LIMESTONE)
GR  .API      00 310 00 00         : GR           - GAMMA RAY
~PARAMETER INFORMATION
#MNEM.UNIT           DATA             DESCRIPTION OF MNEMONIC
#---------         -----------     ------------------------------
GL  .M        586.26               : gl           - GROUND LEVEL ELEVATION
EREF.M        589.81               : kb           - ELEVATION OF DEPTH REFERENCE
DATM.M        586.26               : datum        - DATUM ELEVATION
TDD .M        463                  : tdd          - TOTAL DEPTH DRILLER
RUN .         ONE                  : Run          - RUN NUMBER
ENG .         BILL                 : Engineer     - RECORDING ENGINEER
WIT .         JIM                  : Witness      - WITNESSED BY
MUD .         GEL                  : Mud_type     - MUD TYPE
MATR.         LIMESTONE            : Logunit      - NEUTRON MATRIX
TMAX.C        23                   : BHT          - MAXIMUM RECORDED TEMPERATURE
BHTD.M        463                  : BHTDEP       - MAXIMUM RECORDED TEMPERATURE
MATR.         1                    : LOGUNIT      - NEUTRON MATRIX
RMT .C        25                   : MDTP         - TEMPERATURE OF MUD
NEUT.         1                    : NEUTRON      - NEUTRON TYPE
RESI.         0                    : RESIST       - RESISTIVITY TYPE
RMC .OHMM     0.25                 : RMC          - RESISTIVITY OF MUD CAKE
RMF .OHMM     0.25                 : RMF          - RESISTIVITY OF MUD FILTRATE
SUFT.C        15                   : SUFT         - SURFACE TEMPERATURE
~A  DEPTH     RESD     PHID     PHIN       GR
  245.000    3.027    0.222    0.503   96.346
  245.250    2.972    0.218    0.513  100.010
  245.500    2.917    0.230    0.503  103.673
  245.750    2.973    0.244    0.509  106.121
  246.000    3.030    0.241    0.523  106.735
  246.250    3.089    0.234    0.535  107.348
  246.500    3.207    0.231    0.526  106.744
  246.750    3.331    0.230    0.507  106.750
  247.000    3.460    0.230    0.511  104.927
  247.250    3.526    0.225    0.490  104.932
  247.500    3.593    0.219    0.457  105.547
  247.750    3.732    0.207    0.446  108.603
  248.000    3.876    0.204    0.464  106.779
  248.250    4.025    0.210    0.481  104.954
  248.500    4.102    0.209    0.491  105.572
  248.750    4.181    0.204    0.466  105.576
  249.000    4.104    0.203    0.457  104.972
  249.250    4.030    0.207    0.455  103.149
  249.500    4.030    0.214    0.458  100.715
  249.750    3.956    0.219    0.471  101.940
  250.000    3.884    0.215    0.488  104.994
  250.250    3.885    0.213    0.498  107.439
  250.500    3.813    0.213    0.501  108.054
  250.750    3.744    0.216    0.515  108.060
  251.000    3.675    0.227    0.532  108.675
  251.250    3.676    0.220    0.521  107.464
  251.500    3.677    0.216    0.514  106.857
  251.750    3.678    0.225    0.514  105.034
  252.000    3.679    0.223    0.512  103.820
  252.250    3.749    0.225    0.507  102.607
  252.500    3.968    0.235    0.491  100.784
  252.750    4.044    0.223    0.472   99.568
  253.000    4.122    0.216    0.459  100.794
  253.250    3.753    0.213    0.493  102.628
  253.500    3.684    0.240    0.502  104.463
  253.750    4.364    0.264    0.481  102.640
  254.000    4.794    0.338    0.460   91.669
  254.250    6.355    0.379    0.470   68.504
  254.500    8.268    0.439    0.564   57.534
  254.750   11.168    0.454    0.488   49.612
  255.000   13.731    0.422    0.439   52.668
  255.250   17.204    0.424    0.220   55.111
  255.500   18.551    0.413    0.197   63.046
  255.750   15.970    0.395    0.242   70.369
  256.000   12.752    0.363    0.296   75.251
  256.250   10.772    0.333    0.323   80.134
  256.500    9.100    0.315    0.361   77.093
  256.750    8.287    0.303    0.377   75.267
  257.000    7.835    0.303    0.385   71.006
  257.250    7.986    0.304    0.397   67.352
  257.500    8.140    0.312    0.405   66.749
  257.750    8.142    0.320    0.401   71.633
  258.000    8.143    0.319    0.399   76.515
  258.250    8.301    0.293    0.417   81.400
  258.500    8.302    0.285    0.426   85.675
  258.750    8.304    0.268    0.428   88.727
  259.000    8.625    0.260    0.405   93.001
  259.250    8.790    0.265    0.396   97.276
  259.500    8.959    0.271    0.397   93.012
  259.750    9.132    0.281    0.392   86.921
  260.000    9.308    0.285    0.391   85.097
  260.250    9.486    0.288    0.405   90.591
  260.500    9.488    0.292    0.421   91.815
  260.750    9.490    0.289    0.432   89.992
  261.000    9.673    0.282    0.419   91.827
  261.250    9.858    0.272    0.407   96.712
  261.500   10.047    0.266    0.403   99.766
  261.750   10.050    0.261    0.401  100.382
  262.000   10.245    0.265    0.401   96.728
  262.250   10.057    0.280    0.411   93.075
  262.500   10.059    0.245    0.414   92.470
  262.750   10.061    0.217    0.403   87.600
  263.000   10.254    0.185    0.380   89.433
  263.250   10.452    0.166    0.324   87.610
  263.500   10.654    0.162    0.338   79.688
  263.750   10.858    0.171    0.358   71.766
  264.000   11.065    0.194    0.363   65.066
  264.250   11.931    0.215    0.364   61.412
  264.500   11.071    0.238    0.368   60.197
  264.750    9.531    0.249    0.354   62.643
  265.000    8.203    0.249    0.359   69.358
  265.250    7.332    0.242    0.370   71.801
  265.500    7.063    0.227    0.381   78.516
  265.750    6.554    0.208    0.386   84.008
  266.000    6.314    0.196    0.396   93.771
  266.250    5.860    0.226    0.409  102.313
  266.500    6.085    0.222    0.421  107.805
  266.750    5.973    0.205    0.439  116.347
  267.000    5.648    0.191    0.459  117.573
  267.250    5.440    0.185    0.454  121.237
  267.500    5.144    0.181    0.453  124.901
  267.750    4.864    0.172    0.481  126.127
  268.000    4.685    0.159    0.499  128.573
  268.250    4.514    0.151    0.502  129.798
  268.500    4.515    0.167    0.506  130.412
  268.750    4.602    0.183    0.522  129.808
  269.000    4.690    0.194    0.544  127.987
  269.250    4.691    0.163    0.528  125.550
  269.500    4.782    0.143    0.494  120.068
  269.750    4.783    0.137    0.478  116.415
  270.000    4.439    0.163    0.490  128.008
  270.250    4.118    0.196    0.530  131.060
  270.500    4.043    0.208    0.550  134.725
  270.750    4.199    0.213    0.555  129.856
  271.000    4.700    0.218    0.522  128.030
  271.250    5.262    0.228    0.479  123.158
  271.500    6.003    0.238    0.447  117.675
  271.750    7.381    0.245    0.429  114.632
  272.000    8.263    0.234    0.410  116.468
  272.250    9.079    0.229    0.414  118.300
  272.500    9.253    0.231    0.427  120.746
  272.750    8.915    0.225    0.420  120.142
  273.000    8.588    0.213    0.413  121.367
  273.250    7.676    0.211    0.431  123.812
  273.500    6.860    0.203    0.444  121.987
  273.750    6.608    0.197    0.452  116.506
  274.000    6.018    0.186    0.459  114.072
  274.250    5.798    0.175    0.487  116.517
  274.500    5.799    0.169    0.487  111.034
  274.750    6.372    0.217    0.503   93.357
  275.000    6.870    0.248    0.507   84.216
  275.250    7.986    0.269    0.452   80.563
  275.500    8.610    0.279    0.394   86.059
  275.750   10.199    0.286    0.444   88.502
  276.000   10.792    0.291    0.466   90.337
  276.250   11.857    0.302    0.460   89.732
  276.500   12.084    0.296    0.453   93.398
  276.750   12.087    0.277    0.445   95.842
  277.000   11.646    0.253    0.437   98.897
  277.250   11.011    0.242    0.420   99.510
  277.500    9.841    0.223    0.393  101.955
  277.750    9.480    0.221    0.383  108.060
  278.000    9.133    0.229    0.428  111.113
  278.250    8.966    0.243    0.455  116.609
  278.500    8.968    0.250    0.459  120.882
  278.750    8.804    0.236    0.443  125.154
  279.000    8.642    0.227    0.438  128.818
  279.250    8.645    0.220    0.452  117.241
  279.500    8.812    0.226    0.455  106.878
  279.750    8.981    0.205    0.438   85.542
  280.000    9.153    0.178    0.415   79.453
  280.250    9.506    0.211    0.402   81.895
  280.500    9.872    0.240    0.390   88.002
  280.750   10.252    0.258    0.379   89.836
  281.000   10.254    0.252    0.367   92.890
  281.250   10.451    0.247    0.361   96.554
  281.500   10.453    0.238    0.364  100.217
  281.750   10.262    0.220    0.367  103.881
  282.000    9.703    0.211    0.372  109.377
  282.250    9.347    0.200    0.378  111.209
  282.500    8.199    0.197    0.395  113.654
  282.750    7.751    0.221    0.453  110.610
  283.000    6.799    0.246    0.478   97.810
  283.250    6.428    0.260    0.468   87.451
  283.500    7.473    0.269    0.451   86.236
  283.750    7.907    0.285    0.449   80.756
  284.000    8.367    0.288    0.455   77.711
  284.250    8.528    0.295    0.456   77.717
  284.500    8.529    0.287    0.446   83.822
  284.750    8.693    0.287    0.437   89.317
  285.000    8.377    0.279    0.427   94.202
  285.250    8.379    0.271    0.438   98.476
  285.500    8.224    0.266    0.434  101.530
  285.750    8.075    0.263    0.422  103.972
  286.000    8.077    0.272    0.418  100.927
  286.250    8.079    0.266    0.423  103.374
  286.500    8.234    0.250    0.424  104.598
  286.750    8.713    0.239    0.438  105.822
  287.000    8.552    0.239    0.430  107.657
  287.250    8.239    0.230    0.443  104.004
  287.500    7.790    0.227    0.462   96.692
  287.750    7.365    0.250    0.458   91.820
  288.000    6.964    0.272    0.438   88.777
  288.250    7.232    0.258    0.436   90.005
