~VERSION INFORMATION
 VERS.                 2.0:   CWLS LOG ASCII STANDARD -VERSION 2.0
 WRAP.                  NO:   ONE LINE PER DEPTH STEP
~WELL INFORMATION BLOCK
#MNEM.UNIT           DATA                    DESCRIPTION OF MNEMONIC
#---------    -------------------            -------------------------------
# Generated from Intellog Unique Number	CW_82_90/WELL/620
WELL.         ANDEX WABASCA 07-27            : Well_name    - WELL
LOC .         00/07-27-082-21W4/0            : Location     - LOCATION
UWI .         00/07-27-082-21W4/0            : Uwi          - UNIQUE WELL ID
ENTR.         JAYE                           : Entered      - ENTERED BY
SRVC.         SCHLUMBERGER                   : Scn          - SERVICE COMPANY
DATE.         13 FEB 74                      : Date         - LOG DATE
STRT.M        228.6                          : top_depth    - START DEPTH
STOP.M        460.35                         : bot_depth    - STOP DEPTH
STEP.M        0.25                           : increment    - STEP LENGTH
 NULL. -999.2500:NULL Value
~CURVE INFORMATION BLOCK
#MNEM UNIT       ERCB CURVE CODE    CURVE DESCRIPTION
#-----------   ------------------   ----------------------------------
DEPT.M        00 001 00 00         : DEPTH        - DEPTH
CALI.MM       00 280 01 00         : CAL          - CALIPER
GR  .API      00 310 00 00         : GR           - GAMMA RAY
NPHI.V/V      00 330 00 00         : PHIN         - NEUTRON POROSITY (SANDSTONE)
DPHI.V/V      00 890 00 00         : PHID         - DENSITY POROSITY (SANDSTONE)
ILD .OHMM     00 120 00 00         : RESD         - DEEP RESISTIVITY (DIL)
~PARAMETER INFORMATION
#MNEM.UNIT           DATA             DESCRIPTION OF MNEMONIC
#---------         -----------     ------------------------------
GL  .M        623.621              : gl           - GROUND LEVEL ELEVATION
EREF.M        627.278              : kb           - ELEVATION OF DEPTH REFERENCE
DATM.M        623.621              : datum        - DATUM ELEVATION
TDD .M        467.868              : tdd          - TOTAL DEPTH DRILLER
RUN .         ONE                  : Run          - RUN NUMBER
ENG .         WOON                 : Engineer     - RECORDING ENGINEER
WIT .         McARTHUR             : Witness      - WITNESSED BY
BASE.         EDMONTON             : Branch       - HOME BASE OF LOGGING UNIT
MUD .         GEL                  : Mud_type     - MUD TYPE
MATR.         SANDSTONE            : Logunit      - NEUTRON MATRIX
TMAX.C        30.5556              : BHT          - MAXIMUM RECORDED TEMPERATURE
BHTD.M        467.868              : BHTDEP       - MAXIMUM RECORDED TEMPERATURE
RMT .C        15.5556              : MDTP         - TEMPERATURE OF MUD
MUDD.KG/M     9500                 : MWT          - MUD DENSITY
NEUT.         1                    : NEUTRON      - NEUTRON TYPE
RESI.         0                    : RESIST       - RESISTIVITY TYPE
RM  .OHMM     0.25                 : RM           - RESISTIVITY OF MUD
RMC .OHMM     0.25                 : RMC          - RESISTIVITY OF MUD CAKE
RMF .OHMM     2.23                 : RMF          - RESISTIVITY OF MUD FILTRATE
SUFT.C        4                    : SUFT         - SURFACE TEMPERATURE
~A  DEPTH      CAL       GR     PHIN     PHID     RESD
# ...
  301.600  161.065   46.164    0.263    0.146   21.389
  301.850  164.374   44.830    0.241    0.119   23.380
  302.100  164.487   42.829    0.236    0.079   25.700
  302.350  161.304   41.739    0.241    0.093   27.423
  302.600  159.461   40.649    0.254    0.097   28.562
  302.850  158.644   40.047    0.279    0.105   29.093
  303.100  158.139   40.601    0.313    0.144   28.712
  303.350  157.944   41.398    0.346    0.173   27.507
  303.600  157.645   42.195    0.363    0.178   26.061
  303.850  155.287   43.540    0.387    0.187   23.922
  304.100  151.484   44.702    0.423    0.219   21.435
  304.350  149.742   46.230    0.465    0.266   18.783
  304.600  150.579   47.088    0.485    0.317   17.696
  304.850  151.205   47.703    0.497    0.326   16.304
  305.100  149.669   47.039    0.499    0.334   15.591
  305.350  146.282   46.255    0.498    0.328   15.273
  305.600  147.324   45.774    0.499    0.313   15.412
  305.850  150.116   45.110    0.511    0.314   15.554
  306.100  153.421   44.630    0.519    0.331   15.494
  306.350  155.701   44.879    0.511    0.343   15.463
  306.600  156.020   44.764    0.492    0.337   15.576
  306.850  156.134   45.501    0.486    0.334   15.807
  307.100  155.529   46.723    0.495    0.335   15.982
  307.350  155.329   46.669    0.503    0.336   16.128
  307.600  155.340   45.458    0.498    0.333   16.186
  307.850  154.938   44.978    0.483    0.328   16.153
  308.100  154.846   44.375    0.474    0.336   16.120
  308.350  154.136   43.469    0.478    0.330   16.238
  308.600  153.423   43.413    0.486    0.330   16.206
  308.850  151.991   43.785    0.481    0.335   16.294
  309.100  150.043   44.096    0.470    0.337   16.322
  309.350  147.374   45.441    0.471    0.341   16.138
  309.600  145.839   47.272    0.490    0.346   16.016
  309.850  148.014   49.287    0.499    0.346   15.864
  310.100  151.115   50.449    0.500    0.335   15.922
  310.350  155.043   51.368    0.499    0.342   15.831
  310.600  157.114   49.974    0.496    0.329   15.799
  310.850  156.917   49.008    0.485    0.320   15.797
  311.100  156.309   49.137    0.484    0.325   15.765
  311.350  154.980   49.749    0.489    0.335   15.646
  311.600  154.786   51.095    0.512    0.314   15.557
  311.850  155.207   52.501    0.507    0.300   15.439
  312.100  155.322   53.543    0.500    0.297   15.379
  312.350  155.229   53.791    0.499    0.317   15.292
  312.600  153.899   54.040    0.488    0.320   15.007
  312.850  152.260   54.472    0.472    0.316   14.867
  313.100  150.212   54.783    0.468    0.302   14.700
  313.350  148.780   55.580    0.465    0.315   14.399
  313.600  147.861   56.318    0.476    0.335   14.291
  313.850  148.801   56.383    0.472    0.331   13.947
  314.100  150.357   55.842    0.497    0.331   13.740
  314.350  152.736   56.457    0.508    0.335   13.335
  314.600  155.219   57.133    0.514    0.325   12.728
  314.850  155.745   57.503    0.511    0.324   12.562
  315.100  154.623   58.301    0.514    0.331   12.700
  315.350  153.705   59.220    0.520    0.341   12.793
  315.600  152.478   60.018    0.508    0.351   12.839
  315.850  151.871   60.023    0.481    0.344   12.861
  316.100  151.369   60.760    0.480    0.344   12.883
  316.350  150.862   61.739    0.496    0.341   12.881
  316.600  150.874   62.414    0.501    0.352   12.855
  316.850  151.192   62.482    0.498    0.360   12.876
  317.100  151.820   62.366    0.498    0.352   12.875
  317.350  153.378   60.972    0.506    0.341   12.873
  317.600  154.626   60.187    0.502    0.338   12.894
  317.850  155.045   60.194    0.496    0.326   12.916
  318.100  155.262   60.689    0.493    0.354   12.915
  318.350  154.449   60.997    0.497    0.361   12.912
  318.600  153.841   61.614    0.502    0.335   12.863
  318.850  152.926   62.107    0.512    0.330   12.694
  319.100  151.800   62.476    0.507    0.331   12.528
  319.350  150.058   63.334    0.493    0.351   12.434
  319.600  148.320   63.949    0.497    0.346   12.294
  319.850  147.608   64.016    0.513    0.335   12.247
  320.100  147.722   63.170    0.507    0.337   12.132
  320.350  149.071   63.237    0.492    0.328   12.017
  320.600  150.317   63.913    0.498    0.322   11.993
  320.850  150.535   64.893    0.510    0.316   11.902
  321.100  151.575   65.872    0.507    0.314   11.923
  321.350  154.471   66.730    0.507    0.334   11.965
  321.600  157.469   66.432    0.511    0.330   12.008
  321.850  157.790   65.100    0.509    0.331   11.962
  322.100  157.800   66.020    0.512    0.330   11.962
  322.350  157.500   67.060    0.505    0.332   11.962
  322.600  156.996   68.587    0.497    0.331   12.339
  322.850  157.110   71.454    0.502    0.330   12.453
  323.100  157.532   74.989    0.511    0.328   12.591
  323.350  158.471   79.741    0.510    0.327   12.107
  323.600  159.716   83.094    0.503    0.317    9.941
  323.850  160.037   85.595    0.503    0.248    8.472
  324.100  158.398   89.254    0.507    0.226    7.060
  324.350  156.452   90.172    0.507    0.226    5.884
  324.600  155.740   87.561    0.527    0.221    4.804
  324.850  156.989   85.437    0.548    0.218    4.234
  325.100  157.099   85.080    0.535    0.234    3.772
  325.350  157.213   85.512    0.535    0.233    3.561
  325.600  158.462   86.978    0.536    0.224    3.501
  325.850  161.357   87.837    0.533    0.199    3.527
  326.100  161.472   88.024    0.526    0.206    3.646
  326.350  160.554   86.752    0.536    0.192    4.098
  326.600  160.563   84.507    0.528    0.196    4.497
  326.850  158.926   81.835    0.465    0.201    5.082
  327.100  157.391   79.593    0.447    0.206    5.984
  327.350  156.475   78.562    0.450    0.216    7.450
  327.600  155.865   75.404    0.455    0.216    8.595
  327.850  155.154   71.090    0.458    0.242   10.063
  328.100  154.443   67.688    0.484    0.244   11.502
  328.350  154.146   66.478    0.480    0.247   11.629
  328.600  154.053   67.822    0.462    0.267   11.204
  328.850  153.960   78.477    0.450    0.251   10.693
  329.100  153.765   82.682    0.453    0.232   10.340
  329.350  153.980   84.879    0.484    0.228    9.491
  329.600  154.712   85.494    0.487    0.220    9.229
  329.850  155.959   85.137    0.487    0.237    9.331
  330.100  156.279   85.325    0.484    0.227    9.647
  330.350  156.703   85.329    0.480    0.229    9.899
  330.600  156.917   85.885    0.475    0.225   10.159
  330.850  157.652   86.438    0.463    0.217   10.367
  331.100  158.175   86.688    0.442    0.226   10.540
  331.350  158.599   86.269    0.432    0.217   10.716
  331.600  158.917   85.665    0.436    0.218   10.855
  331.850  158.414   84.393    0.442    0.218   10.954
  332.100  158.011   81.174    0.461    0.217   11.014
  332.350  156.167   79.841    0.460    0.216   11.074
  332.600  152.056   83.256    0.450    0.245   10.668
  332.850  149.595   84.419    0.453    0.247    9.866
  333.100  149.602   83.451    0.469    0.240    9.504
  333.350  150.851   77.310    0.477    0.225    9.521
  333.600  153.129   66.728    0.480    0.270    9.806
  333.850  155.404   65.091    0.485    0.274   10.290
  334.100  156.240   66.376    0.478    0.269   10.540
  334.350  155.736   68.268    0.472    0.271   10.877
  334.600  154.714   74.785    0.460    0.259   11.328
  334.850  153.180   77.226    0.447    0.244   11.390
  335.100  149.996   75.467    0.444    0.227   11.262
  335.350  148.152   73.283    0.443    0.247   10.992
  335.600  147.029   73.290    0.454    0.258   10.808
  335.850  146.215   73.237    0.464    0.278   10.607
  336.100  146.946   73.242    0.472    0.275   10.430
  336.350  148.504   72.455    0.468    0.271   10.293
  336.600  149.440   70.332    0.447    0.250   10.330
  336.850  151.099   70.339    0.447    0.249   10.348
  337.100  153.169   71.622    0.451    0.246   10.308
  337.350  154.523   75.645    0.459    0.231   10.230
  337.600  154.428   77.720    0.480    0.222   10.115
  337.850  151.966   78.881    0.479    0.240    9.600
