~VERSION INFORMATION
 VERS.                 2.0:   CWLS LOG ASCII STANDARD -VERSION 2.0
 WRAP.                  NO:   ONE LINE PER DEPTH STEP
~WELL INFORMATION BLOCK
#MNEM.UNIT           DATA                    DESCRIPTION OF MNEMONIC
#---------    -------------------            -------------------------------
# Generated from Intellog Unique Number	CW_76_78/WELL/620
WELL.         PACIFIC MARTENCK 07-16         : Well_name    - WELL
LOC .         00/07-16-077-04W5/0            : Location     - LOCATION
UWI .         00/07-16-077-04W5/0            : Uwi          - UNIQUE WELL ID
ENTR.         JAYE                           : Entered      - ENTERED BY
SRVC.         SCHLUMBERGER                   : Scn          - SERVICE COMPANY
DATE.         14 FEB 78                      : Date         - LOG DATE
STRT.M        405.384                        : top_depth    - START DEPTH
STOP.M        637.134                        : bot_depth    - STOP DEPTH
STEP.M        0.25                           : increment    - STEP LENGTH
 NULL. -999.2500:NULL Value
~CURVE INFORMATION BLOCK
#MNEM UNIT       ERCB CURVE CODE    CURVE DESCRIPTION
#-----------   ------------------   ----------------------------------
DEPT.M        00 001 00 00         : DEPTH        - DEPTH
ILD .OHMM     00 120 00 00         : RESD         - DEEP RESISTIVITY (DIL)
DPHI.V/V      00 890 00 00         : PHID         - DENSITY POROSITY (SANDSTONE)
NPHI.V/V      00 330 00 00         : PHIN         - NEUTRON POROSITY (SANDSTONE)
GR  .API      00 310 00 00         : GR           - GAMMA RAY
CALI.MM       00 280 01 00         : CAL          - CALIPER
~PARAMETER INFORMATION
#MNEM.UNIT           DATA             DESCRIPTION OF MNEMONIC
#---------         -----------     ------------------------------
GL  .M        690.982              : gl           - GROUND LEVEL ELEVATION
EREF.M        694.334              : kb           - ELEVATION OF DEPTH REFERENCE
DATM.M        690.982              : datum        - DATUM ELEVATION
TDD .M        648.614              : tdd          - TOTAL DEPTH DRILLER
RUN .         ONE                  : Run          - RUN NUMBER
ENG .         DALV                 : Engineer     - RECORDING ENGINEER
WIT .         MEZEL                : Witness      - WITNESSED BY
BASE.         EDM                  : Branch       - HOME BASE OF LOGGING UNIT
MUD .         GEL CHEM             : Mud_type     - MUD TYPE
MATR.         SANDSTONE            : Logunit      - NEUTRON MATRIX
TMAX.C        0                    : BHT          - MAXIMUM RECORDED TEMPERATURE
BHTD.M        648                  : BHTDEP       - MAXIMUM RECORDED TEMPERATURE
RMT .C        14.4444              : MDTP         - TEMPERATURE OF MUD
MUDD.KG/M     1116                 : MWT          - MUD DENSITY
NEUT.         1                    : NEUTRON      - NEUTRON TYPE
RESI.         0                    : RESIST       - RESISTIVITY TYPE
RM  .OHMM     3.94                 : RM           - RESISTIVITY OF MUD
RMC .OHMM     0                    : RMC          - RESISTIVITY OF MUD CAKE
RMF .OHMM     0                    : RMF          - RESISTIVITY OF MUD FILTRATE
SUFT.C        -17                  : SUFT         - SURFACE TEMPERATURE
~A  DEPTH     RESD     PHID     PHIN       GR      CAL
# ...
  478.384    5.394    0.247    0.478   87.764  163.692
  478.634    5.443    0.256    0.486   88.700  163.490
  478.884    5.483    0.261    0.471   88.829  163.287
  479.134    5.470    0.260    0.472   87.654  163.295
  479.384    5.438    0.253    0.474   88.715  163.723
  479.634    5.386    0.247    0.461   91.946  163.731
  479.884    5.294    0.239    0.456   96.295  163.740
  480.134    5.164    0.232    0.462   99.465  163.748
  480.384    5.038    0.219    0.472  102.821  163.756
  480.634    4.933    0.224    0.463  105.060  163.763
  480.884    4.840    0.223    0.460  106.368  163.981
  481.134    4.767    0.229    0.468  104.077  164.305
  481.384    4.685    0.228    0.468  104.205  164.523
  481.634    4.623    0.228    0.462  105.513  164.636
  481.884    4.604    0.212    0.469  107.504  164.749
  482.134    4.594    0.216    0.480  110.736  164.651
  482.384    4.618    0.220    0.471  111.982  164.135
  482.634    4.634    0.217    0.463  112.359  163.827
  482.884    4.598    0.206    0.459  107.771  163.835
  483.134    4.519    0.202    0.464  106.721  163.843
  483.384    4.426    0.207    0.476  107.594  164.482
  483.634    4.408    0.201    0.474  107.785  164.804
  483.884    4.414    0.197    0.476  107.107  165.024
  484.134    4.421    0.191    0.500  106.678  165.346
  484.384    4.503    0.204    0.495  106.435  165.354
  484.634    4.570    0.232    0.482  105.135  165.468
  484.884    4.699    0.249    0.476  101.789  165.370
  485.134    4.904    0.263    0.498   96.828  165.167
  485.384    5.176    0.266    0.498   86.282  164.860
  485.634    5.393    0.248    0.488   86.535  162.346
  485.884    5.660    0.231    0.478   86.106  161.619
  486.134    5.997    0.189    0.469   85.552  161.416
  486.384    6.318    0.159    0.452   87.667  163.632
  486.634    6.963    0.134    0.427   89.285  164.690
  486.884    7.602    0.163    0.397   88.173  165.118
  487.134    8.070    0.135    0.441   87.371  165.127
  487.384    8.112    0.096    0.461   84.458  165.134
  487.634    7.826    0.107    0.313   75.898  165.142
  487.884    7.083    0.151    0.287   73.421  164.730
  488.134    6.435    0.197    0.328   73.487  164.002
  488.384    5.705    0.279    0.368   76.595  163.274
  488.634    5.183    0.285    0.417   79.889  161.601
  488.884    4.991    0.278    0.470   79.025  160.663
  489.134    4.851    0.272    0.481   79.650  160.251
  489.384    4.849    0.274    0.491   83.069  160.154
  489.634    4.884    0.269    0.473   87.107  160.478
  489.884    4.937    0.244    0.456   90.836  161.011
  490.134    4.992    0.228    0.457   93.819  162.174
  490.384    5.047    0.225    0.474   97.052  163.548
  490.634    5.073    0.242    0.483   96.373  164.399
  490.884    5.072    0.255    0.476   94.392  164.720
  491.134    5.051    0.260    0.476   93.280  164.413
  491.384    5.040    0.254    0.481   94.339  163.685
  491.634    5.038    0.233    0.485   97.944  163.168
  491.884    5.065    0.207    0.478   98.942  162.966
  492.134    5.054    0.190    0.460   99.256  164.445
  492.384    5.052    0.202    0.447   99.695  165.295
  492.634    5.088    0.208    0.440   99.701  165.618
  492.884    5.115    0.204    0.442   99.953  165.626
  493.134    5.171    0.201    0.462  100.827  165.633
  493.384    5.228    0.201    0.477   99.714  165.642
  493.634    5.256    0.202    0.474   99.595  165.649
  493.884    5.274    0.207    0.466  100.779  165.972
  494.134    5.252    0.204    0.459  103.514  166.296
  494.384    5.211    0.200    0.453  106.001  166.093
  494.634    5.180    0.209    0.459  106.441  165.050
  494.884    5.188    0.212    0.464  105.204  164.217
  495.134    5.236    0.205    0.466  105.333  164.226
  495.384    5.444    0.197    0.466  103.041  164.759
  495.634    5.811    0.195    0.468  102.550  166.659
  495.884    6.123    0.194    0.471  104.913  167.509
  496.134    6.585    0.188    0.475  108.641  168.041
  496.384    6.951    0.200    0.480  112.432  168.364
  496.634    7.476    0.212    0.489  107.844  167.636
  496.884    7.995    0.229    0.503   96.987  166.068
  497.134    8.439    0.240    0.505   82.159  165.130
  497.384    8.841    0.244    0.500   83.653  164.507
  497.634    9.176    0.249    0.498   83.162  163.884
  497.884    9.417    0.257    0.496   80.932  163.578
  498.134    9.774    0.247    0.490   78.578  162.850
  498.384   10.163    0.232    0.476   76.225  162.753
  498.634   10.332    0.215    0.441   75.361  162.760
  498.884   10.080    0.190    0.385   75.117  163.610
  499.134    9.525    0.160    0.364   75.184  164.563
  499.384    8.884    0.216    0.359   75.251  165.201
  499.634    8.056    0.262    0.381   74.821  165.315
  499.884    7.089    0.291    0.420   75.198  164.377
  500.134    6.404    0.283    0.467   78.741  162.913
  500.384    5.731    0.279    0.475   79.800  162.081
  500.634    5.487    0.279    0.473   79.867  161.353
  500.884    5.324    0.273    0.465   80.865  161.151
  501.134    5.126    0.266    0.457   83.600  161.369
  501.384    5.057    0.261    0.454   88.694  160.641
  501.634    4.971    0.249    0.464   93.849  161.175
  501.884    4.777    0.237    0.477   90.006  162.654
  502.134    4.557    0.239    0.473   82.688  164.028
  502.384    4.413    0.260    0.468   81.328  165.612
  502.634    4.170    0.263    0.463   81.457  166.987
  502.884    3.846    0.240    0.464   83.074  168.256
  503.134    3.620    0.209    0.471   89.285  169.209
  503.384    3.558    0.182    0.476   98.041  169.953
  503.634    3.680    0.169    0.471   97.735  170.486
  503.884    3.884    0.163    0.468   98.609  170.599
  504.134    4.162    0.168    0.467   99.048  170.397
  504.384    4.510    0.182    0.469   98.928  170.090
  504.634    4.778    0.200    0.469   98.499  169.888
  504.884    4.987    0.207    0.464   97.324  169.897
  505.134    5.176    0.211    0.452   96.025  169.694
  505.384    5.351    0.212    0.434   97.085  169.491
  505.634    5.502    0.212    0.426   99.200  169.079
  505.884    5.594    0.203    0.437  100.881  168.352
  506.134    5.645    0.195    0.446  101.940  167.939
  506.384    5.549    0.189    0.458  101.511  168.369
  506.634    5.403    0.194    0.465  100.833  169.006
  506.884    5.281    0.189    0.466  100.154  169.750
  507.134    5.162    0.178    0.457   97.801  169.863
  507.384    5.112    0.190    0.445   94.889  169.555
  507.634    5.081    0.202    0.441   93.032  168.722
  507.884    5.051    0.218    0.439   92.850  167.575
  508.134    5.031    0.240    0.447   93.165  166.741
  508.384    5.020    0.242    0.472   94.536  166.118
  508.634    5.027    0.218    0.476   92.430  166.128
  508.884    5.035    0.232    0.465   86.104  166.241
  509.134    5.033    0.251    0.460   85.240  165.723
  509.384    5.032    0.264    0.469   85.742  164.049
  509.634    5.021    0.253    0.483   87.049  163.426
  509.884    5.028    0.256    0.487   89.599  163.224
  510.134    5.017    0.247    0.471   93.389  163.337
  510.384    4.978    0.223    0.468   97.862  163.766
  510.634    4.976    0.200    0.479  100.908  164.300
  510.884    4.956    0.205    0.470  102.836  164.727
  511.134    4.964    0.195    0.467  102.966  165.050
  511.384    5.009    0.215    0.468   99.991  165.794
  511.634    5.073    0.205    0.462   97.017  166.538
  511.884    5.139    0.197    0.440   96.897  166.966
  512.134    5.244    0.192    0.437   97.585  166.975
  512.384    5.598    0.198    0.450   96.100  165.931
  512.634    6.146    0.211    0.468   92.195  164.573
  512.884    6.723    0.223    0.475   87.731  163.425
  513.134    7.204    0.232    0.469   85.005  162.593
  513.384    7.379    0.253    0.459   84.948  162.286
  513.634    7.145    0.257    0.456   87.931  162.188
  513.884    6.854    0.251    0.466   90.356  162.195
  514.134    6.737    0.251    0.473   89.927  162.519
  514.384    6.760    0.255    0.468   87.573  162.947
  514.634    6.873    0.263    0.459   84.165  162.956
