~VERSION INFORMATION
 VERS.                 2.0:   CWLS LOG ASCII STANDARD -VERSION 2.0
 WRAP.                  NO:   ONE LINE PER DEPTH STEP
~WELL INFORMATION BLOCK
#MNEM.UNIT           DATA                    DESCRIPTION OF MNEMONIC
#---------    -------------------            -------------------------------
# Generated from Intellog Unique Number	CW_82_90/WELL/199
WELL.         SHELL FINA RUBIN 03-25         : Well_name    - WELL
LOC .         00/03-25-083-02W5/0            : Location     - LOCATION
UWI .         00/03-25-083-02W5/0            : Uwi          - UNIQUE WELL ID
ENTR.         JAYE                           : Entered      - ENTERED BY
SRVC.         SCHLUMBERGER                   : Scn          - SERVICE COMPANY
DATE.         9 JAN 79                       : Date         - LOG DATE
STRT.M        225                            : top_depth    - START DEPTH
STOP.M        485                            : bot_depth    - STOP DEPTH
STEP.M        0.25                           : increment    - STEP LENGTH
 NULL. -999.2500:NULL Value
~CURVE INFORMATION BLOCK
#MNEM UNIT       ERCB CURVE CODE    CURVE DESCRIPTION
#-----------   ------------------   ----------------------------------
DEPT.M        00 001 00 00         : DEPTH        - DEPTH
CALI.MM       00 280 01 00         : CAL          - CALIPER
GR  .API      00 310 00 00         : GR           - GAMMA RAY
NPHI.V/V      00 330 00 00         : PHIN         - NEUTRON POROSITY (SANDSTONE)
DPHI.V/V      00 890 00 00         : PHID         - DENSITY POROSITY (SANDSTONE)
ILD .OHMM     00 120 00 00         : RESD         - DEEP RESISTIVITY (DIL)
~PARAMETER INFORMATION
#MNEM.UNIT           DATA             DESCRIPTION OF MNEMONIC
#---------         -----------     ------------------------------
GL  .M        613.4                : gl           - GROUND LEVEL ELEVATION
EREF.M        618                  : kb           - ELEVATION OF DEPTH REFERENCE
DATM.M        613.4                : datum        - DATUM ELEVATION
TDD .M        413.2                : tdd          - TOTAL DEPTH DRILLER
RUN .         ONE                  : Run          - RUN NUMBER
WIT .         CRAIG                : Witness      - WITNESSED BY
BASE.         EDMONTON             : Branch       - HOME BASE OF LOGGING UNIT
MUD .         GEL                  : Mud_type     - MUD TYPE
MATR.         SANDSTONE            : Logunit      - NEUTRON MATRIX
TMAX.C        0                    : BHT          - MAXIMUM RECORDED TEMPERATURE
BHTD.M        413.2                : BHTDEP       - MAXIMUM RECORDED TEMPERATURE
RMT .C        15                   : MDTP         - TEMPERATURE OF MUD
MUDD.KG/M     1050                 : MWT          - MUD DENSITY
NEUT.         1                    : NEUTRON      - NEUTRON TYPE
RESI.         0                    : RESIST       - RESISTIVITY TYPE
RM  .OHMM     2.26                 : RM           - RESISTIVITY OF MUD
RMC .OHMM     0                    : RMC          - RESISTIVITY OF MUD CAKE
RMF .OHMM     3.6                  : RMF          - RESISTIVITY OF MUD FILTRATE
SUFT.C        0                    : SUFT         - SURFACE TEMPERATURE
~A  DEPTH      CAL       GR     PHIN     PHID     RESD
# ...
  261.500  309.966   78.425    0.554    0.245    3.927
  261.750  309.718   80.918    0.543    0.233    3.898
  262.000  309.781   79.910    0.533    0.202    3.872
  262.250  309.959   79.884    0.520    0.198    3.830
  262.500  309.823   83.070    0.520    0.227    3.796
  262.750  309.770   85.021    0.539    0.247    3.846
  263.000  309.625   85.858    0.549    0.263    3.989
  263.250  309.378   85.647    0.523    0.254    4.137
  263.500  308.107   80.752    0.504    0.242    4.212
  263.750  306.329   81.222    0.491    0.228    4.173
  264.000  304.653   81.261    0.493    0.245    4.070
  264.250  303.887   81.666    0.510    0.251    4.027
  264.500  302.938   81.831    0.516    0.236    4.108
  264.750  302.267   78.783    0.541    0.239    4.391
  265.000  301.527   78.328    0.545    0.238    5.002
  265.250  300.763   73.742    0.506    0.255    5.988
  265.500  300.208   61.020    0.490    0.279    7.031
  265.750  299.850   53.724    0.482    0.296    8.084
  266.000  299.507   49.075    0.483    0.309    9.077
  266.250  299.262   46.957    0.490    0.322    9.993
  266.500  299.531   47.301    0.531    0.336   10.607
  266.750  300.528   47.955    0.543    0.342   10.719
  267.000  301.087   47.753    0.558    0.340   10.329
  267.250  301.877   49.203    0.572    0.336    9.694
  267.500  302.239   54.237    0.566    0.326    8.950
  267.750  302.307   59.513    0.550    0.307    8.315
  268.000  302.360   64.674    0.541    0.295    7.741
  268.250  302.533   67.298    0.531    0.280    6.853
  268.500  302.588   69.987    0.534    0.271    6.113
  268.750  304.202   72.676    0.553    0.271    5.441
  269.000  305.900   77.149    0.584    0.256    4.826
  269.250  307.701   82.492    0.575    0.255    4.419
  269.500  308.590   84.930    0.563    0.241    4.199
  269.750  308.955   87.618    0.554    0.243    4.040
  270.000  310.046   90.246    0.552    0.243    3.736
  270.250  312.053   93.306    0.579    0.233    3.392
  270.500  315.292   96.425    0.595    0.224    2.980
  270.750  317.727   98.074    0.630    0.247    2.627
  271.000  318.797   98.903    0.623    0.266    2.391
  271.250  318.872  100.553    0.629    0.271    2.235
  271.500  317.798  101.384    0.627    0.271    2.157
  271.750  313.451  100.746    0.621    0.280    2.140
  272.000  301.824   97.207    0.632    0.291    2.137
  272.250  303.631   88.862    0.655    0.300    2.124
  272.500  311.894   86.928    0.677    0.278    2.099
  272.750  311.750   84.746    0.676    0.237    2.073
  273.000  310.693   82.933    0.652    0.207    2.054
  273.250  313.003   85.317    0.625    0.227    2.043
  273.500  312.457   87.325    0.597    0.260    2.039
  273.750  314.063   87.120    0.600    0.285    2.043
  274.000  315.959   86.111    0.625    0.269    2.055
  274.250  314.485   84.787    0.636    0.309    2.067
  274.500  311.679   84.891    0.628    0.336    2.082
  274.750  311.742   86.408    0.633    0.314    2.109
  275.000  308.315   87.305    0.636    0.309    2.132
  275.250  306.342   89.756    0.635    0.298    2.147
  275.500  308.029   90.530    0.636    0.260    2.179
  275.750  305.221   90.321    0.645    0.270    2.210
  276.000  300.987   88.816    0.646    0.262    2.249
  276.250  300.132   88.854    0.633    0.247    2.288
  276.500  300.797   90.123    0.619    0.250    2.346
  276.750  301.694   92.196    0.610    0.261    2.422
  277.000  302.791   92.418    0.600    0.239    2.477
  277.250  303.559   93.326    0.596    0.248    2.500
  277.500  304.753   96.504    0.630    0.250    2.580
  277.750  305.321   93.641    0.660    0.251    2.727
  278.000  302.919   84.002    0.652    0.248    3.058
  278.250  303.800   77.443    0.625    0.239    4.825
  278.500  306.536   63.181    0.600    0.208    8.544
  278.750  307.921   52.000    0.502    0.176   11.668
  279.000  308.716   40.569    0.391    0.160   13.062
  279.250  308.769   37.098    0.387    0.195   12.245
  279.500  307.288   40.214    0.396    0.226   10.118
  279.750  305.917   49.625    0.424    0.250    8.558
  280.000  304.542   57.306    0.490    0.253    8.204
  280.250  300.611   63.261    0.512    0.268    8.506
  280.500  299.745   60.650    0.516    0.287    9.071
  280.750  302.986   57.177    0.507    0.308    9.821
  281.000  302.949   54.681    0.488    0.324   10.136
  281.250  303.213   53.733    0.489    0.338    9.655
  281.500  303.899   56.610    0.526    0.332    8.716
  281.750  304.263   59.912    0.532    0.312    7.726
  282.000  307.510   62.600    0.520    0.293    7.170
  282.250  308.287   64.242    0.522    0.274    7.145
  282.500  304.863   64.220    0.531    0.259    7.397
  282.750  302.167   63.825    0.547    0.262    7.557
  283.000  304.274   62.940    0.561    0.298    7.465
  283.250  305.767   62.178    0.582    0.327    7.068
  283.500  306.236   62.397    0.597    0.309    6.731
  283.750  306.307   64.781    0.590    0.296    6.947
  284.000  306.158   65.619    0.593    0.280    7.757
  284.250  305.407   64.300    0.567    0.320    8.900
  284.500  304.550   63.910    0.551    0.326    9.755
  284.750  303.383   62.587    0.553    0.311   10.136
  285.000  302.716   62.071    0.553    0.278   10.175
  285.250  301.547   63.345    0.535    0.286   10.066
  285.500  300.588   65.601    0.525    0.314    9.837
  285.750  300.240   67.917    0.545    0.326    9.431
  286.000  300.008   67.898    0.548    0.324    8.782
  286.250  300.165   68.240    0.555    0.327    7.742
  286.500  301.158   69.392    0.566    0.309    6.406
  286.750  302.647   71.029    0.561    0.284    5.259
  287.000  303.835   74.522    0.553    0.260    4.210
  287.250  304.930   78.936    0.553    0.249    3.288
  287.500  304.994   82.611    0.561    0.262    2.794
  287.750  305.460   83.327    0.576    0.269    2.629
  288.000  306.655   84.663    0.616    0.265    2.589
  288.250  305.888   88.272    0.625    0.269    2.588
  288.500  303.799   87.630    0.620    0.285    2.597
  288.750  300.576   86.195    0.631    0.285    2.594
  289.000  295.205   85.676    0.624    0.292    2.608
  289.250  288.706   85.710    0.606    0.302    2.708
  289.500  283.746   87.294    0.595    0.308    2.887
  289.750  284.018   88.006    0.583    0.303    3.082
  290.000  287.161   86.939    0.577    0.251    3.290
  290.250  291.417   87.470    0.631    0.250    3.532
  290.500  298.363   87.814    0.619    0.246    3.819
  290.750  301.385   87.480    0.607    0.242    4.066
  291.000  304.530   85.544    0.600    0.228    4.201
  291.250  305.624   84.227    0.592    0.222    4.320
  291.500  305.688   83.405    0.586    0.225    4.467
  291.750  304.614   81.471    0.579    0.258    4.791
  292.000  301.494   79.350    0.567    0.283    5.573
  292.250  295.711   78.462    0.556    0.310    6.558
  292.500  286.340   79.612    0.551    0.391    7.570
  292.750  252.158   82.052    0.547    0.403    8.138
  293.000  215.826   83.447    0.538    0.377    8.163
  293.250  212.613   84.347    0.529    0.364    7.616
  293.500  216.776   85.986    0.528    0.350    6.295
  293.750  230.166   88.614    0.534    0.329    5.003
  294.000  252.065   90.746    0.546    0.271    3.848
  294.250  292.109   93.069    0.595    0.258    3.184
  294.500  297.505   94.401    0.612    0.267    2.797
  294.750  298.489   94.628    0.606    0.288    2.636
  295.000  297.941   94.045    0.598    0.281    2.563
  295.250  296.772   93.589    0.590    0.276    2.546
  295.500  296.326   96.894    0.586    0.284    2.610
  295.750  296.499   95.082    0.592    0.272    2.729
  296.000  296.751   89.019    0.623    0.256    2.931
  296.250  296.711   86.590    0.636    0.265    3.309
  296.500  296.266   86.626    0.630    0.272    3.770
  296.750  296.226   84.448    0.607    0.268    4.254
  297.000  294.544   79.491    0.601    0.274    4.794
  297.250  294.200   69.479    0.594    0.288    5.529
  297.500  297.132   57.498    0.577    0.301    6.638
  297.750  300.370   51.246    0.538    0.313    8.054
