~VERSION INFORMATION
 VERS.                 2.0:   CWLS LOG ASCII STANDARD -VERSION 2.0
 WRAP.                  NO:   ONE LINE PER DEPTH STEP
~WELL INFORMATION BLOCK
#MNEM.UNIT           DATA                    DESCRIPTION OF MNEMONIC
#---------    -------------------            -------------------------------
# Generated from Intellog Unique Number	CS_73_76/WELL/2016
WELL.         09-29-073-07W4                 : Well_name    - WELL
LOC .         AA/09-29-073-07W4/0            : Location     - LOCATION
UWI .         AA/09-29-073-07W4/0            : Uwi          - UNIQUE WELL ID
ENTR.         TIM                            : Entered      - ENTERED BY
SRVC.         SCHLUMBERGER                   : Scn          - SERVICE COMPANY
STRT.M        360                            : top_depth    - START DEPTH
STOP.M        595                            : bot_depth    - STOP DEPTH
STEP.M        0.25                           : increment    - STEP LENGTH
 NULL. -999.2500:NULL Value
~CURVE INFORMATION BLOCK
#MNEM UNIT       ERCB CURVE CODE    CURVE DESCRIPTION
#-----------   ------------------   ----------------------------------
DEPT.M        00 001 00 00         : DEPTH        - DEPTH
NPHI.V/V      00 330 00 00         : PHIN         - NEUTRON POROSITY (SANDSTONE)
DPHI.V/V      00 890 00 00         : PHID         - DENSITY POROSITY (SANDSTONE)
GR  .API      00 310 00 00         : GR           - GAMMA RAY
ILD .OHMM     00 120 00 00         : RESD         - DEEP RESISTIVITY (DIL)
CALI.MM       00 280 01 00         : CAL          - CALIPER
~PARAMETER INFORMATION
#MNEM.UNIT           DATA             DESCRIPTION OF MNEMONIC
#---------         -----------     ------------------------------
GL  .M        727.6                : gl           - GROUND LEVEL ELEVATION
EREF.M        731.5                : kb           - ELEVATION OF DEPTH REFERENCE
DATM.M        731.5                : datum        - DATUM ELEVATION
TDD .M        602                  : tdd          - TOTAL DEPTH DRILLER
RUN .         ONE                  : Run          - RUN NUMBER
ENG .         BILL                 : Engineer     - RECORDING ENGINEER
WIT .         JIM                  : Witness      - WITNESSED BY
MUD .         GEL                  : Mud_type     - MUD TYPE
MATR.         SANDSTONE            : Logunit      - NEUTRON MATRIX
TMAX.C        23                   : BHT          - MAXIMUM RECORDED TEMPERATURE
BHTD.M        602                  : BHTDEP       - MAXIMUM RECORDED TEMPERATURE
RMT .C        22                   : MDTP         - TEMPERATURE OF MUD
MUDD.KG/M     1090                 : MWT          - MUD DENSITY
NEUT.         1                    : NEUTRON      - NEUTRON TYPE
RESI.         0                    : RESIST       - RESISTIVITY TYPE
RM  .OHMM     6.09                 : RM           - RESISTIVITY OF MUD
RMC .OHMM     7.05                 : RMC          - RESISTIVITY OF MUD CAKE
RMF .OHMM     7.05                 : RMF          - RESISTIVITY OF MUD FILTRATE
SUFT.C        4                    : SUFT         - SURFACE TEMPERATURE
~A  DEPTH     PHIN     PHID       GR     RESD      CAL
  360.000    0.515    0.217   87.780    3.349  258.095
  360.250    0.502    0.221   88.383    3.351  258.083
  360.500    0.497    0.227   88.989    3.354  258.071
  360.750    0.495    0.227   88.982    3.356  258.066
  361.000    0.502    0.222   88.367    3.358  258.056
  361.250    0.509    0.217   88.359    3.360  258.047
  361.500    0.514    0.213   87.747    3.301  258.037
  361.750    0.520    0.217   86.521    3.302  258.025
  362.000    0.510    0.224   84.077    3.305  258.016
  362.250    0.487    0.217   80.413    3.306  256.992
  362.500    0.496    0.160   77.361    3.564  253.935
  362.750    0.522    0.107   73.085    4.065  247.827
  363.000    0.455    0.127   74.299    5.087  245.785
  363.250    0.389    0.209   79.170    9.602  244.757
  363.500    0.396    0.250   83.431   12.951  242.716
  363.750    0.406    0.282   86.473   13.205  241.690
  364.000    0.419    0.288   88.906   12.494  241.681
  364.250    0.425    0.273   90.121   12.043  241.671
  364.500    0.435    0.248   93.771   11.610  241.661
  364.750    0.424    0.233   94.984   11.402  241.654
  365.000    0.411    0.225   94.979   11.624  242.656
  365.250    0.397    0.229   93.754   12.533  242.649
  365.500    0.398    0.250   90.091   13.015  242.641
  365.750    0.407    0.261   85.819   14.297  240.600
  366.000    0.419    0.275   76.669   15.132  238.556
  366.250    0.401    0.289   65.691   16.013  236.514
  366.500    0.375    0.305   51.055   16.633  234.475
  366.750    0.378    0.316   45.563   17.276  233.450
  367.000    0.372    0.306   41.899   17.612  233.440
  367.250    0.366    0.310   38.235   17.958  233.430
  367.500    0.368    0.315   38.839   18.302  233.416
  367.750    0.363    0.320   40.661   18.313  233.411
  368.000    0.359    0.322   45.534   17.656  233.399
  368.250    0.351    0.314   51.014   16.705  233.392
  368.500    0.357    0.301   60.153   15.224  233.380
  368.750    0.376    0.287   67.462   13.370  233.373
  369.000    0.405    0.272   72.333   12.648  233.358
  369.250    0.425    0.253   76.594   11.530  233.351
  369.500    0.412    0.233   77.197   10.511  233.344
  369.750    0.402    0.231   77.801   10.129  233.332
  370.000    0.401    0.246   80.233    9.948  234.334
  370.250    0.410    0.243   82.666   10.729  234.326
  370.500    0.404    0.249   83.878   11.357  234.322
  370.750    0.383    0.258   83.266   11.795  235.326
  371.000    0.388    0.257   81.431   12.021  235.314
  371.250    0.404    0.244   78.985   12.255  235.309
  371.500    0.416    0.231   75.932   12.973  235.299
  371.750    0.428    0.237   73.489   12.976  235.287
  372.000    0.428    0.264   72.261   12.985  235.278
  372.250    0.424    0.289   72.255   14.002  235.268
  372.500    0.420    0.286   72.861   14.546  234.240
  372.750    0.420    0.281   72.855   14.824  234.231
  373.000    0.423    0.285   71.630   15.115  233.207
  373.250    0.424    0.290   67.965   14.570  232.179
  373.500    0.410    0.299   65.522   13.529  231.154
  373.750    0.395    0.315   64.906   12.331  228.099
  374.000    0.399    0.320   69.778   10.238  230.121
  374.250    0.391    0.294   73.430    9.161  236.207
  374.500    0.367    0.271   75.861    9.515  240.262
  374.750    0.365    0.242   74.027   10.452  242.282
  375.000    0.399    0.225   71.582   11.698  243.286
  375.250    0.437    0.248   69.140   13.090  242.260
  375.500    0.455    0.257   67.915   14.381  240.223
  375.750    0.416    0.247   66.690   14.935  236.150
  376.000    0.352    0.234   64.855   15.805  233.092
  376.250    0.355    0.239   62.411   16.730  231.051
  376.500    0.361    0.253   58.137   17.377  231.036
  376.750    0.363    0.265   55.083   17.386  231.029
  377.000    0.360    0.275   52.031   17.077  232.038
  377.250    0.363    0.280   48.366   16.158  232.026
  377.500    0.365    0.287   47.143   14.727  233.030
  377.750    0.366    0.298   46.526   13.175  234.039
  378.000    0.368    0.302   45.912   11.785  234.029
  378.250    0.371    0.292   48.342   10.545  235.038
  378.500    0.370    0.278   49.558    9.610  236.044
  378.750    0.365    0.264   56.867    8.598  236.032
  379.000    0.358    0.238   73.930    6.264  238.052
  379.250    0.363    0.202   84.897    6.039  238.043
  379.500    0.401    0.176   92.207    5.607  240.063
  379.750    0.449    0.167   97.078    5.207  241.071
  380.000    0.463    0.174  100.729    4.573  242.080
  380.250    0.467    0.194  105.600    4.326  243.089
  380.500    0.487    0.210  109.862    3.943  246.120
  380.750    0.499    0.213  109.246    3.801  247.131
  381.000    0.503    0.213  107.412    3.664  248.140
  381.250    0.509    0.213  106.797    3.532  249.142
  381.500    0.515    0.211  108.620    3.535  250.146
  381.750    0.525    0.207  113.489    3.671  251.155
  382.000    0.516    0.205  114.703    4.109  251.147
  382.250    0.508    0.209  112.869    4.513  252.154
  382.500    0.517    0.234  104.936    5.443  252.142
  382.750    0.525    0.232  100.055    7.205  251.116
  383.000    0.459    0.217   90.905    8.852  249.075
  383.250    0.412    0.217   82.975   10.677  245.001
  383.500    0.401    0.237   70.168   11.092  242.962
  383.750    0.402    0.251   67.723   11.097  242.950
  384.000    0.404    0.254   68.937   11.102  242.940
  384.250    0.417    0.257   71.979   10.705  242.928
  384.500    0.420    0.261   71.362   10.318  242.916
  384.750    0.423    0.260   72.577    9.762  241.896
  385.000    0.424    0.244   77.448    9.236  241.888
  385.250    0.425    0.220   82.929    9.070  241.879
  385.500    0.428    0.200   90.238    8.743  240.853
  385.750    0.434    0.174   89.623    9.971  239.828
  386.000    0.436    0.131   95.713   11.157  238.800
  386.250    0.437    0.142  101.803   13.457  236.756
  386.500    0.437    0.171  108.503   15.344  235.735
  386.750    0.422    0.237  112.763   17.178  233.691
  387.000    0.411    0.281  108.491   17.507  231.647
  387.250    0.417    0.339   99.342   17.853  230.624
  387.500    0.416    0.333   84.096   17.859  229.601
  387.750    0.403    0.326   71.898   18.206  229.586
  388.000    0.393    0.316   63.358   18.218  229.579
  388.250    0.382    0.307   59.695   18.232  229.572
  388.500    0.383    0.305   54.813   18.246  229.557
  388.750    0.389    0.320   56.023   18.252  229.553
  389.000    0.407    0.331   57.239   18.266  228.525
  389.250    0.421    0.342   65.768   17.937  228.517
  389.500    0.412    0.344   73.077   17.948  228.505
  389.750    0.416    0.344   80.387   17.630  228.496
  390.000    0.419    0.340   93.792   17.314  228.481
  390.250    0.413    0.334   96.223   17.002  228.477
  390.500    0.408    0.328   93.171   16.390  228.467
  390.750    0.413    0.328   88.287   16.104  228.455
  391.000    0.423    0.334   87.670   15.809  228.443
  391.250    0.434    0.337   86.445   15.526  228.438
  391.500    0.445    0.336   85.222   15.253  228.429
  391.750    0.450    0.332   82.778   15.258  227.403
  392.000    0.441    0.316   80.334   14.990  227.391
  392.250    0.443    0.293   76.669   14.997  227.382
  392.500    0.446    0.271   79.103   15.289  228.388
  392.750    0.448    0.275   84.583   15.589  228.381
  393.000    0.445    0.283   83.359   15.890  229.385
  393.250    0.446    0.288   76.647   16.504  229.375
  393.500    0.454    0.292   69.326   17.145  230.384
  393.750    0.442    0.304   63.225   17.806  230.370
  394.000    0.404    0.318   56.513   18.158  231.381
  394.250    0.404    0.328   49.192   18.512  231.369
  394.500    0.406    0.320   44.918   18.866  232.375
  394.750    0.388    0.301   45.522   18.881  232.363
  395.000    0.370    0.276   47.345   18.895  233.374
  395.250    0.389    0.286   49.778   18.904  233.360
  395.500    0.389    0.316   52.821   18.223  234.366
  395.750    0.374    0.319   56.473   17.894  234.359
  396.000    0.375    0.318   58.904   17.577  235.368
  396.250    0.386    0.314   61.338   16.946  235.351
