~VERSION INFORMATION
 VERS.                 2.0:   CWLS LOG ASCII STANDARD -VERSION 2.0
 WRAP.                  NO:   ONE LINE PER DEPTH STEP
~WELL INFORMATION BLOCK
#MNEM.UNIT           DATA                    DESCRIPTION OF MNEMONIC
#---------    -------------------            -------------------------------
# Generated from Intellog Unique Number	CS_73_76/WELL/1085
WELL.         BOW VALLEY EXPLORATION         : Well_name    - WELL
LOC .         00/06-30-075-14W4/0            : Location     - LOCATION
UWI .         00/06-30-075-14W4/0            : Uwi          - UNIQUE WELL ID
ENTR.         SP                             : Entered      - ENTERED BY
SRVC.         SCHLUMBERGER                   : Scn          - SERVICE COMPANY
STRT.M        377.952                        : top_depth    - START DEPTH
STOP.M        584.952                        : bot_depth    - STOP DEPTH
STEP.M        0.25                           : increment    - STEP LENGTH
 NULL. -999.2500:NULL Value
~CURVE INFORMATION BLOCK
#MNEM UNIT       ERCB CURVE CODE    CURVE DESCRIPTION
#-----------   ------------------   ----------------------------------
DEPT.M        00 001 00 00         : DEPTH        - DEPTH
GR  .API      00 310 00 00         : GR           - GAMMA RAY
DPHI.V/V      00 890 00 00         : PHID         - DENSITY POROSITY (SANDSTONE)
NPHI.V/V      00 330 00 00         : PHIN         - NEUTRON POROSITY (SANDSTONE)
ILD .OHMM     00 120 00 00         : RESD         - DEEP RESISTIVITY (DIL)
~PARAMETER INFORMATION
#MNEM.UNIT           DATA             DESCRIPTION OF MNEMONIC
#---------         -----------     ------------------------------
GL  .M        751.759              : gl           - GROUND LEVEL ELEVATION
EREF.M        754.38               : kb           - ELEVATION OF DEPTH REFERENCE
DATM.M        751.759              : datum        - DATUM ELEVATION
TDD .M        584.606              : tdd          - TOTAL DEPTH DRILLER
RUN .         ONE                  : Run          - RUN NUMBER
ENG .         BILL                 : Engineer     - RECORDING ENGINEER
WIT .         JIM                  : Witness      - WITNESSED BY
MUD .         GEL                  : Mud_type     - MUD TYPE
MATR.         SANDSTONE            : Logunit      - NEUTRON MATRIX
TMAX.C        22.2222              : BHT          - MAXIMUM RECORDED TEMPERATURE
BHTD.M        584.606              : BHTDEP       - MAXIMUM RECORDED TEMPERATURE
MATR.         1                    : LOGUNIT      - NEUTRON MATRIX
RMT .C        25                   : MDTP         - TEMPERATURE OF MUD
NEUT.         1                    : NEUTRON      - NEUTRON TYPE
RESI.         0                    : RESIST       - RESISTIVITY TYPE
RMC .OHMM     0.25                 : RMC          - RESISTIVITY OF MUD CAKE
RMF .OHMM     0.25                 : RMF          - RESISTIVITY OF MUD FILTRATE
SUFT.C        15                   : SUFT         - SURFACE TEMPERATURE
~A  DEPTH       GR     PHID     PHIN     RESD
# ...
  464.952   83.545    0.334    0.486    7.468
  465.202   83.817    0.341    0.499    7.427
  465.452   84.845    0.348    0.498    7.043
  465.702   83.843    0.350    0.489    6.541
  465.952   82.537    0.353    0.492    5.907
  466.202   81.176    0.351    0.492    5.172
  466.452   82.998    0.347    0.481    4.188
  466.702   86.262    0.338    0.477    3.260
  466.952   91.284    0.323    0.483    2.511
  467.202   97.100    0.304    0.493    1.981
  467.452  102.435    0.278    0.504    1.528
  467.702  102.584    0.242    0.517    1.264
  467.952  105.977    0.240    0.528    1.058
  468.202  107.121    0.255    0.541    0.943
  468.452  109.133    0.250    0.552    1.080
  468.702  109.313    0.250    0.562    1.140
  468.952  106.175    0.253    0.541    1.392
  469.202  103.706    0.254    0.517    1.842
  469.452  101.252    0.264    0.509    2.301
  469.702   99.728    0.258    0.515    2.906
  469.952  100.143    0.250    0.513    3.324
  470.202  100.082    0.235    0.509    3.677
  470.452   97.468    0.234    0.503    3.952
  470.702   93.511    0.254    0.498    4.315
  470.952   89.444    0.278    0.484    4.825
  471.202   85.701    0.300    0.465    5.270
  471.452   79.492    0.310    0.456    5.729
  471.702   75.653    0.328    0.444    6.087
  471.952   76.335    0.338    0.457    6.488
  472.202   77.436    0.349    0.473    6.727
  472.452   78.756    0.344    0.480    7.007
  472.702   80.753    0.339    0.478    7.045
  472.952   82.714    0.330    0.477    6.744
  473.202   84.671    0.320    0.476    5.846
  473.452   86.336    0.324    0.472    4.702
  473.702   92.106    0.310    0.484    3.499
  473.952   99.623    0.309    0.498    2.696
  474.202  110.719    0.303    0.526    2.103
  474.452  121.500    0.289    0.550    1.888
  474.702  119.458    0.277    0.564    1.692
  474.952  116.537    0.283    0.573    1.657
  475.202  111.442    0.300    0.574    1.826
  475.452  108.777    0.304    0.574    2.082
  475.702  110.351    0.293    0.577    2.363
  475.952  110.975    0.288    0.581    2.776
  476.202  104.060    0.293    0.544    3.465
  476.452   97.263    0.285    0.503    4.104
  476.702   90.281    0.302    0.491    4.774
  476.952   83.611    0.321    0.487    5.512
  477.202   83.800    0.323    0.486    5.743
  477.452   86.222    0.328    0.490    5.476
  477.702   88.237    0.323    0.495    5.199
  477.952   90.224    0.320    0.499    5.058
  478.202   91.784    0.310    0.494    5.149
  478.452   90.276    0.320    0.481    5.232
  478.702   83.869    0.334    0.477    5.459
  478.952   81.619    0.352    0.474    5.707
  479.202   78.582    0.353    0.475    5.904
  479.452   76.236    0.344    0.477    6.091
  479.702   75.496    0.336    0.478    6.100
  479.952   77.217    0.309    0.458    5.950
  480.202   81.353    0.300    0.443    5.787
  480.452   85.442    0.313    0.437    5.546
  480.702   87.923    0.307    0.457    5.550
  480.952   89.994    0.315    0.472    5.463
  481.202   90.235    0.324    0.478    5.450
  481.452   91.262    0.325    0.484    5.691
  481.702   92.315    0.270    0.466    5.928
  481.952   92.641    0.251    0.451    6.505
  482.202   90.379    0.248    0.444    7.493
  482.452   81.059    0.237    0.441    9.126
  482.702   74.509    0.212    0.325   10.420
  482.952   68.519    0.146    0.222   12.864
  483.202   65.840    0.065    0.194   15.331
  483.452   63.622    0.028    0.188   17.638
  483.702   64.702    0.032    0.190   15.891
  483.952   67.315    0.060    0.210   12.482
  484.202   70.118    0.098    0.243    9.850
  484.452   74.731    0.196    0.330    7.856
  484.702   79.369    0.261    0.406    6.776
  484.952   83.509    0.308    0.444    5.994
  485.202   86.931    0.333    0.470    5.534
  485.452   89.035    0.327    0.467    5.353
  485.702   89.353    0.327    0.462    5.298
  485.952   90.694    0.307    0.460    5.131
  486.202   92.713    0.290    0.459    5.092
  486.452   94.099    0.284    0.461    4.939
  486.702   94.887    0.289    0.469    4.738
  486.952   98.007    0.291    0.490    4.754
  487.202   98.901    0.284    0.501    4.799
  487.452   98.111    0.284    0.490    5.403
  487.702   95.696    0.288    0.487    6.096
  487.952   92.651    0.288    0.479    6.965
  488.202   92.787    0.256    0.475    7.877
  488.452   94.146    0.206    0.339    8.890
  488.702   95.021    0.141    0.312    9.533
  488.952   97.569    0.132    0.316    8.993
  489.202   94.893    0.185    0.359    8.111
  489.452   81.464    0.251    0.419    7.190
  489.702   73.550    0.306    0.465    6.566
  489.952   69.157    0.334    0.449    6.080
  490.202   66.569    0.327    0.445    5.934
  490.452   67.981    0.317    0.447    5.927
  490.702   70.637    0.333    0.449    5.831
  490.952   68.804    0.338    0.446    5.836
  491.202   68.266    0.337    0.439    5.838
  491.452   67.311    0.329    0.433    5.902
  491.702   65.733    0.323    0.433    6.226
  491.952   66.485    0.318    0.437    6.403
  492.202   67.056    0.323    0.436    6.818
  492.452   67.827    0.325    0.442    7.087
  492.702   69.400    0.307    0.447    7.408
  492.952   70.493    0.289    0.443    7.631
  493.202   69.893    0.283    0.442    7.845
  493.452   69.460    0.312    0.429    7.855
  493.702   69.722    0.325    0.424    7.417
  493.952   70.808    0.309    0.415    6.985
  494.202   71.901    0.297    0.407    6.384
  494.452   71.776    0.248    0.420    5.909
  494.702   73.119    0.147    0.432    5.637
  494.952   75.103    0.210    0.443    5.378
  495.202   76.026    0.317    0.440    5.253
  495.452   77.191    0.338    0.436    5.162
  495.702   79.411    0.335    0.438    5.095
  495.952   80.955    0.331    0.451    5.175
  496.202   80.797    0.337    0.458    5.166
  496.452   81.686    0.333    0.452    5.217
  496.702   83.338    0.326    0.441    5.261
  496.952   85.316    0.319    0.441    5.262
  497.202   87.896    0.331    0.449    5.220
  497.452   90.572    0.329    0.456    5.166
  497.702   92.433    0.318    0.457    5.071
  497.952   90.992    0.315    0.465    5.047
  498.202   89.792    0.322    0.462    4.990
  498.452   89.846    0.330    0.463    4.999
  498.702   89.955    0.333    0.478    4.887
  498.952   90.424    0.335    0.490    4.991
  499.202   89.539    0.328    0.482    4.993
  499.452   86.965    0.311    0.481    4.995
  499.702   84.511    0.292    0.490    5.005
  499.952   83.466    0.282    0.495    4.916
  500.202   84.131    0.276    0.487    4.718
  500.452   87.769    0.283    0.465    4.454
  500.702   90.665    0.264    0.444    4.156
  500.952   95.963    0.247    0.454    3.791
  501.202   99.406    0.250    0.465    3.561
  501.452  103.239    0.238    0.478    3.297
  501.702  106.535    0.223    0.488    3.172
  501.952  109.591    0.223    0.484    3.136
  502.202  110.870    0.230    0.480    3.117
  502.452  112.426    0.241    0.483    3.117
  502.702  114.101    0.234    0.478    3.139
  502.952  114.945    0.238    0.486    3.317
  503.202  113.341    0.247    0.496    3.524
  503.452  112.438    0.250    0.481    3.780
  503.702  109.321    0.175    0.458    3.968
  503.952  106.198    0.210    0.447    4.222
  504.202  107.893    0.243    0.440    4.495
  504.452  106.498    0.253    0.432    4.585
  504.702  105.232    0.250    0.436    4.675
  504.952  103.497    0.218    0.440    4.653
  505.202  102.408    0.154    0.443    4.509
  505.452  100.983    0.039    0.446    4.371
  505.702  101.769    0.066    0.451    4.348
  505.952  101.340    0.226    0.463    4.343
  506.202   96.809    0.222    0.476    4.474
  506.452   93.000    0.210    0.479    4.619
  506.702   90.106    0.203    0.469    4.767
  506.952   85.698    0.200    0.470    4.894
  507.202   81.761    0.210    0.454    5.039
  507.452   78.201    0.117    0.443    5.109
  507.702   75.515    0.055    0.434    5.159
  507.952   72.308    0.072    0.441    5.230
  508.202   69.885    0.341    0.446    5.140
