~VERSION INFORMATION
 VERS.                 2.0:   CWLS LOG ASCII STANDARD -VERSION 2.0
 WRAP.                  NO:   ONE LINE PER DEPTH STEP
~WELL INFORMATION BLOCK
#MNEM.UNIT           DATA                    DESCRIPTION OF MNEMONIC
#---------    -------------------            -------------------------------
# Generated from Intellog Unique Number	CW_82_90/WELL/3062
WELL.         CHEVRON WABASCA NORTH          : Well_name    - WELL
LOC .         00/07-04-087-25W4/0            : Location     - LOCATION
UWI .         00/07-04-087-25W4/0            : Uwi          - UNIQUE WELL ID
ENTR.         MAX                            : Entered      - ENTERED BY
SRVC.         SCHLUMBERGER                   : Scn          - SERVICE COMPANY
STRT.M        228.6                          : top_depth    - START DEPTH
STOP.M        441.85                         : bot_depth    - STOP DEPTH
STEP.M        0.25                           : increment    - STEP LENGTH
 NULL. -999.2500:NULL Value
~CURVE INFORMATION BLOCK
#MNEM UNIT       ERCB CURVE CODE    CURVE DESCRIPTION
#-----------   ------------------   ----------------------------------
DEPT.M        00 001 00 00         : DEPTH        - DEPTH
ILD .OHMM     00 120 00 00         : RESD         - DEEP RESISTIVITY (DIL)
NPHI.V/V      00 330 00 00         : PHIN         - NEUTRON POROSITY (SANDSTONE)
DPHI.V/V      00 890 00 00         : PHID         - DENSITY POROSITY (SANDSTONE)
CALI.MM       00 280 01 00         : CAL          - CALIPER
GR  .API      00 310 00 00         : GR           - GAMMA RAY
~PARAMETER INFORMATION
#MNEM.UNIT           DATA             DESCRIPTION OF MNEMONIC
#---------         -----------     ------------------------------
GL  .M        629.412              : gl           - GROUND LEVEL ELEVATION
EREF.M        632.46               : kb           - ELEVATION OF DEPTH REFERENCE
DATM.M        629.412              : datum        - DATUM ELEVATION
TDD .M        445.313              : tdd          - TOTAL DEPTH DRILLER
RUN .         ONE                  : Run          - RUN NUMBER
ENG .         BILL                 : Engineer     - RECORDING ENGINEER
WIT .         JIM                  : Witness      - WITNESSED BY
MUD .         GEL                  : Mud_type     - MUD TYPE
MATR.         SANDSTONE            : Logunit      - NEUTRON MATRIX
TMAX.C        26.1111              : BHT          - MAXIMUM RECORDED TEMPERATURE
BHTD.M        445.313              : BHTDEP       - MAXIMUM RECORDED TEMPERATURE
MATR.         1                    : LOGUNIT      - NEUTRON MATRIX
RMT .C        10                   : MDTP         - TEMPERATURE OF MUD
NEUT.         1                    : NEUTRON      - NEUTRON TYPE
RESI.         0                    : RESIST       - RESISTIVITY TYPE
RMC .OHMM     5.34                 : RMC          - RESISTIVITY OF MUD CAKE
RMF .OHMM     7.18                 : RMF          - RESISTIVITY OF MUD FILTRATE
SUFT.C        -20.5556             : SUFT         - SURFACE TEMPERATURE
~A  DEPTH     RESD     PHIN     PHID      CAL       GR
# ...
  301.600    6.888    0.452    0.225  115.497   74.037
  301.850    7.081    0.447    0.209  115.511   75.219
  302.100    7.213    0.441    0.199  116.267   75.222
  302.350    7.416    0.435    0.190  117.026   73.462
  302.600    7.555    0.449    0.193  117.039   71.992
  302.850    7.697    0.457    0.186  114.805   71.114
  303.100    7.914    0.454    0.145  114.068   71.118
  303.350    7.989    0.446    0.140  113.331   73.184
  303.600    8.065    0.444    0.229  111.849   73.483
  303.850    7.783    0.441    0.237  111.860   73.487
  304.100    7.375    0.437    0.244  111.121   75.258
  304.350    6.801    0.439    0.244  111.135   79.091
  304.600    6.049    0.453    0.230  111.146   82.629
  304.850    5.004    0.465    0.207  111.157   84.401
  305.100    4.254    0.475    0.210  112.666   86.467
  305.350    3.958    0.490    0.196  114.172   88.238
  305.600    3.854    0.515    0.208  116.428   90.009
  305.850    3.857    0.528    0.187  119.428   89.130
  306.100    3.556    0.512    0.216  122.432   86.191
  306.350    3.192    0.503    0.203  117.956   84.427
  306.600    2.970    0.547    0.200  120.210   85.609
  306.850    2.666    0.576    0.215  132.189   89.737
  307.100    2.619    0.584    0.225  141.177   95.043
  307.350    2.620    0.580    0.226  118.002   97.402
  307.600    2.694    0.563    0.249  118.014   99.468
  307.850    2.795    0.550    0.263  115.779   99.767
  308.100    3.033    0.539    0.238  114.296   98.004
  308.350    3.476    0.528    0.197  113.559   94.769
  308.600    4.206    0.519    0.184  112.076   88.590
  308.850    5.473    0.493    0.177  112.084   79.466
  309.100    6.271    0.471    0.161  111.348   69.458
  309.350    6.162    0.441    0.137  110.612   61.217
  309.600    5.481    0.456    0.226  109.875   61.221
  309.850    4.744    0.477    0.222  109.886   68.882
  310.100    4.455    0.503    0.194  111.395   78.604
  310.350    4.377    0.514    0.187  113.648   82.731
  310.600    4.419    0.515    0.184  114.407   83.620
  310.850    4.584    0.514    0.215  115.167   83.035
  311.100    4.976    0.511    0.233  115.180   80.094
  311.350    5.352    0.508    0.244  114.442   78.332
  311.600    5.757    0.503    0.252  114.452   76.275
  311.850    6.193    0.495    0.269  113.718   75.397
  312.100    6.367    0.483    0.280  113.729   75.106
  312.350    6.370    0.470    0.289  112.990   75.405
  312.600    6.091    0.453    0.284  112.253   74.232
  312.850    5.720    0.464    0.272  111.520   72.470
  313.100    5.671    0.471    0.242  111.528   73.357
  313.350    5.991    0.478    0.217  111.539   75.423
  313.600    6.329    0.484    0.184  111.550   73.955
  313.850    6.448    0.490    0.165  111.563   72.487
  314.100    6.935    0.496    0.235  111.575   74.848
  314.350    7.805    0.510    0.268  111.587   76.324
  314.600    7.951    0.516    0.275  111.595   75.151
  314.850    7.884    0.502    0.274  111.608   68.677
  315.100    7.539    0.491    0.257  110.871   66.914
  315.350    7.341    0.473    0.221  110.134   67.802
  315.600    7.278    0.463    0.166  110.147   68.984
  315.850    7.217    0.479    0.229  110.158   68.990
  316.100    6.963    0.503    0.261  107.176   68.993
  316.350    6.598    0.489    0.271  107.936   71.354
  316.600    6.140    0.461    0.279  107.947   76.659
  316.850    5.126    0.457    0.240  107.958   83.141
  317.100    4.600    0.483    0.231  108.718  101.404
  317.350    4.128    0.526    0.217  109.476  101.408
  317.600    3.912    0.564    0.207  110.236  101.118
  317.850    3.674    0.581    0.213  110.248   99.356
  318.100    3.545    0.566    0.200  110.258   99.066
  318.350    3.579    0.551    0.201  110.269   99.070
  318.600    3.850    0.540    0.204  110.285   94.069
  318.850    4.255    0.539    0.213  110.292   89.656
  319.100    4.577    0.535    0.225  110.303   84.065
  319.350    4.663    0.526    0.246  110.317   82.893
  319.600    4.499    0.514    0.260  111.824   84.074
  319.850    4.149    0.504    0.226  114.080   89.084
  320.100    3.690    0.492    0.204  114.088   96.451
  320.350    3.343    0.507    0.166  114.103  100.578
  320.600    3.167    0.541    0.158  114.861  103.528
  320.850    3.056    0.572    0.156  114.870  103.238
  321.100    3.086    0.578    0.174  115.629  100.592
  321.350    3.319    0.562    0.204  115.643   97.062
  321.600    3.735    0.545    0.210  116.400   92.060
  321.850    4.204    0.533    0.229  114.915   84.703
  322.100    5.133    0.515    0.243  111.937   79.701
  322.350    6.617    0.491    0.255  111.947   76.761
  322.600    7.935    0.491    0.280  111.959   72.937
  322.850    8.691    0.487    0.289  111.970   71.763
  323.100    8.935    0.476    0.289  111.234   70.885
  323.350    8.940    0.474    0.296  110.497   70.300
  323.600    9.025    0.468    0.295  109.759   70.304
  323.850    8.949    0.455    0.286  109.023   71.193
  324.100    8.953    0.453    0.277  109.035   70.902
  324.350    8.876    0.459    0.269  109.045   70.023
  324.600    8.804    0.469    0.267  108.309   69.439
  324.850    8.726    0.467    0.256  106.824   68.855
  325.100    8.651    0.461    0.250  105.339   69.154
  325.350    8.659    0.459    0.240  103.107   70.335
  325.600    8.660    0.465    0.227  102.370   72.107
  325.850    8.823    0.467    0.217  102.380   72.701
  326.100    9.665    0.465    0.198  103.888   73.000
  326.350   10.585    0.449    0.181  105.395   73.888
  326.600   13.160    0.378    0.154  106.903   71.535
  326.850   19.434    0.299    0.131  108.412   64.767
  327.100   31.994    0.204    0.080  111.416   60.060
  327.350   56.622    0.181   -0.001  113.668   57.709
  327.600   51.749    0.178   -0.001  115.176   56.830
  327.850   27.471    0.196   -0.001  114.441   58.306
  328.100   17.478    0.230    0.003  113.702   63.906
  328.350   12.737    0.388    0.090  112.965   71.567
  328.600   10.071    0.422    0.197  111.480   78.639
  328.850    7.610    0.453    0.303  107.755   82.473
  329.100    6.127    0.471    0.287  107.015   83.359
  329.350    4.888    0.473    0.262  106.278   85.425
  329.600    4.044    0.468    0.214  106.291   90.731
  329.850    3.662    0.469    0.179  107.798   95.447
  330.100    3.566    0.484    0.165  110.052   98.101
  330.350    3.633    0.495    0.158  112.307  100.167
  330.600    3.908    0.498    0.193  112.320   99.583
  330.850    4.280    0.500    0.198  112.332   93.992
  331.100    4.688    0.499    0.192  113.089   90.168
  331.350    5.089    0.492    0.176  113.100   87.522
  331.600    5.676    0.485    0.185  113.114   85.465
  331.850    5.888    0.478    0.201  112.377   83.114
  332.100    5.891    0.472    0.216  112.388   82.824
  332.350    5.335    0.472    0.214  111.651   86.362
  332.600    4.788    0.473    0.176  110.914   91.078
  332.850    4.578    0.501    0.162  110.179   93.438
  333.100    4.707    0.532    0.164  109.441   90.498
  333.350    5.018    0.518    0.183  109.451   83.731
  333.600    6.071    0.485    0.189  109.464   81.674
  333.850    6.471    0.469    0.205  108.726   78.438
  334.100    7.153    0.473    0.256  108.738   74.909
  334.350    8.124    0.476    0.283  108.750   75.207
  334.600    8.427    0.479    0.286  109.511   74.623
  334.850    8.280    0.491    0.262  109.520   71.683
  335.100    7.918    0.486    0.251  109.534   73.455
  335.350    7.171    0.477    0.237  109.545   75.814
  335.600    6.095    0.463    0.225  109.554   80.825
  335.850    4.442    0.460    0.225  109.564   85.541
  336.100    4.096    0.465    0.230  109.576   92.907
  336.350    3.514    0.483    0.225  110.337   95.563
  336.600    3.126    0.511    0.212  111.845   96.156
  336.850    3.043    0.525    0.201  112.602   94.688
  337.100    2.990    0.519    0.206  112.612   89.981
  337.350    2.758    0.516    0.215  112.624   86.451
  337.600    2.685    0.519    0.219  113.385   87.045
  337.850    2.686    0.528    0.219  113.394   93.528
