~VERSION INFORMATION
 VERS.                 2.0:   CWLS LOG ASCII STANDARD -VERSION 2.0
 WRAP.                  NO:   ONE LINE PER DEPTH STEP
~WELL INFORMATION BLOCK
#MNEM.UNIT           DATA                    DESCRIPTION OF MNEMONIC
#---------    -------------------            -------------------------------
# Generated from Intellog Unique Number	CS_71_72/WELL/822
WELL.         MAYNARD ET AL TWEEDIE          : Well_name    - WELL
LOC .         00/07-29-072-12W4/0            : Location     - LOCATION
UWI .         00/07-29-072-12W4/0            : Uwi          - UNIQUE WELL ID
ENTR.         SP                             : Entered      - ENTERED BY
SRVC.         SCHLUMBERGER                   : Scn          - SERVICE COMPANY
STRT.M        275                            : top_depth    - START DEPTH
STOP.M        510                            : bot_depth    - STOP DEPTH
STEP.M        0.25                           : increment    - STEP LENGTH
 NULL. -999.2500:NULL Value
~CURVE INFORMATION BLOCK
#MNEM UNIT       ERCB CURVE CODE    CURVE DESCRIPTION
#-----------   ------------------   ----------------------------------
DEPT.M        00 001 00 00         : DEPTH        - DEPTH
GR  .API      00 310 00 00         : GR           - GAMMA RAY
NPHI.V/V      00 330 00 00         : PHIN         - NEUTRON POROSITY (LIMESTONE)
DPHI.V/V      00 890 00 00         : PHID         - DENSITY POROSITY (LIMESTONE)
ILD .OHMM     00 120 00 00         : RESD         - DEEP RESISTIVITY (DIL)
~PARAMETER INFORMATION
#MNEM.UNIT           DATA             DESCRIPTION OF MNEMONIC
#---------         -----------     ------------------------------
GL  .M        622.95               : gl           - GROUND LEVEL ELEVATION
EREF.M        626.55               : kb           - ELEVATION OF DEPTH REFERENCE
DATM.M        622.95               : datum        - DATUM ELEVATION
TDD .M        521                  : tdd          - TOTAL DEPTH DRILLER
RUN .         ONE                  : Run          - RUN NUMBER
ENG .         BILL                 : Engineer     - RECORDING ENGINEER
WIT .         JIM                  : Witness      - WITNESSED BY
MUD .         GEL                  : Mud_type     - MUD TYPE
MATR.         LIMESTONE            : Logunit      - NEUTRON MATRIX
TMAX.C        25                   : BHT          - MAXIMUM RECORDED TEMPERATURE
BHTD.M        521                  : BHTDEP       - MAXIMUM RECORDED TEMPERATURE
MATR.         1                    : LOGUNIT      - NEUTRON MATRIX
RMT .C        25                   : MDTP         - TEMPERATURE OF MUD
NEUT.         1                    : NEUTRON      - NEUTRON TYPE
RESI.         0                    : RESIST       - RESISTIVITY TYPE
RMC .OHMM     0.25                 : RMC          - RESISTIVITY OF MUD CAKE
RMF .OHMM     0.25                 : RMF          - RESISTIVITY OF MUD FILTRATE
SUFT.C        15                   : SUFT         - SURFACE TEMPERATURE
~A  DEPTH       GR     PHIN     PHID     RESD
# ...
  405.500   95.453    0.518    0.260    4.996
  405.750   93.023    0.492    0.277    4.831
  406.000   89.376    0.465    0.288    4.746
  406.250   87.553    0.442    0.284    4.745
  406.500   82.084    0.430    0.293    4.905
  406.750   79.653    0.425    0.296    5.067
  407.000   79.044    0.424    0.302    5.229
  407.250   79.042    0.427    0.291    5.471
  407.500   79.039    0.437    0.287    5.795
  407.750   79.645    0.446    0.288    5.957
  408.000   80.250    0.461    0.275    6.199
  408.250   82.677    0.464    0.273    6.279
  408.500   83.283    0.466    0.277    6.521
  408.750   85.103    0.455    0.284    6.601
  409.000   86.315    0.453    0.291    6.599
  409.250   86.920    0.457    0.292    6.679
  409.500   87.525    0.449    0.276    6.757
  409.750   88.130    0.444    0.260    6.755
  410.000   88.735    0.430    0.256    6.753
  410.250   87.519    0.421    0.249    6.752
  410.500   85.088    0.415    0.245    6.749
  410.750   83.264    0.415    0.243    6.827
  411.000   86.905    0.422    0.249    6.825
  411.250   89.940    0.428    0.253    6.905
  411.500   91.759    0.432    0.253    6.903
  411.750   91.757    0.435    0.243    6.901
  412.000   91.755    0.438    0.242    6.899
  412.250   91.752    0.442    0.250    6.897
  412.500   92.965    0.453    0.240    6.813
  412.750   94.178    0.465    0.238    6.812
  413.000   95.390    0.470    0.243    6.563
  413.250   97.817    0.474    0.251    6.397
  413.500   99.637    0.475    0.249    6.232
  413.750  102.064    0.476    0.256    6.067
  414.000   99.633    0.476    0.263    5.902
  414.250   96.593    0.474    0.264    5.819
  414.500   95.985    0.474    0.259    5.654
  414.750   95.983    0.474    0.251    5.405
  415.000   97.803    0.491    0.248    5.240
  415.250  102.051    0.512    0.253    5.075
  415.500   99.621    0.523    0.255    4.910
  415.750  100.833    0.535    0.264    4.580
  416.000   99.008    0.552    0.277    4.416
  416.250   94.148    0.523    0.290    4.250
  416.500   87.466    0.472    0.298    4.085
  416.750   78.962    0.446    0.285    4.002
  417.000   76.531    0.443    0.254    4.081
  417.250   83.815    0.453    0.234    4.569
  417.500   87.458    0.444    0.220    5.056
  417.750   93.528    0.440    0.227    5.625
  418.000   94.741    0.437    0.247    6.031
  418.250   97.167    0.448    0.263    6.193
  418.500  100.809    0.479    0.276    6.272
  418.750  103.236    0.491    0.281    6.106
  419.000  103.234    0.475    0.275    6.023
  419.250  102.017    0.455    0.270    5.858
  419.500   99.586    0.441    0.265    5.774
  419.750  101.406    0.444    0.260    5.771
  420.000  100.796    0.452    0.238    5.768
  420.250   97.151    0.453    0.215    5.849
  420.500   91.683    0.426    0.195    6.010
  420.750   85.001    0.405    0.174    6.334
  421.000   81.355    0.398    0.146    6.903
  421.250   78.924    0.405    0.153    7.391
  421.500   84.994    0.414    0.199    7.960
  421.750   91.672    0.422    0.212    8.121
  422.000   97.743    0.429    0.225    8.283
  422.250   98.956    0.422    0.230    8.117
  422.500  101.990    0.416    0.231    7.870
  422.750  103.810    0.413    0.232    7.214
  423.000  105.021    0.420    0.231    6.968
  423.250  104.412    0.427    0.230    6.556
  423.500  103.803    0.436    0.231    6.392
  423.750  103.194    0.454    0.237    6.144
  424.000   98.941    0.462    0.241    6.061
  424.250   96.510    0.469    0.245    5.978
  424.500   91.042    0.452    0.253    5.729
  424.750   86.788    0.442    0.265    5.646
  425.000   84.965    0.431    0.269    5.562
  425.250   81.926    0.437    0.259    5.561
  425.500   83.139    0.437    0.233    5.477
  425.750   87.994    0.424    0.188    5.475
  426.000   89.208    0.415    0.167    5.554
  426.250   89.205    0.403    0.152    5.633
  426.500   87.382    0.398    0.141    5.713
  426.750   91.022    0.408    0.130    5.874
  427.000   94.057    0.435    0.171    6.035
  427.250   97.092    0.449    0.192    6.115
  427.500  100.733    0.460    0.204    6.113
  427.750   99.516    0.454    0.222    5.947
  428.000   95.870    0.455    0.228    5.537
  428.250   93.439    0.491    0.231    5.127
  428.500   91.008    0.517    0.238    4.553
  428.750   90.399    0.535    0.246    3.980
  429.000   92.218    0.551    0.243    3.488
  429.250   99.503    0.558    0.238    3.159
  429.500  101.931    0.572    0.227    2.912
  429.750  108.609    0.575    0.210    2.747
  430.000  111.643    0.572    0.200    2.581
  430.250  112.249    0.572    0.203    2.416
  430.500  110.425    0.565    0.226    2.331
  430.750  102.527    0.546    0.238    2.330
  431.000   98.274    0.532    0.237    2.409
  431.250   96.451    0.459    0.231    2.651
  431.500   95.234    0.443    0.226    2.813
  431.750   95.231    0.432    0.219    3.219
  432.000   94.622    0.441    0.217    3.544
  432.250   93.405    0.452    0.219    4.031
  432.500   91.581    0.462    0.226    4.519
  432.750   91.579    0.455    0.236    4.843
  433.000   92.792    0.429    0.224    4.922
  433.250   95.219    0.411    0.205    4.921
  433.500   94.002    0.398    0.184    5.082
  433.750   91.570    0.391    0.173    5.405
  434.000   90.354    0.394    0.176    5.893
  434.250   89.744    0.413    0.183    6.055
  434.500   90.350    0.430    0.194    6.216
  434.750   92.777    0.448    0.206    6.295
  435.000   92.774    0.462    0.206    6.130
  435.250   92.165    0.458    0.219    5.964
  435.500   89.126    0.443    0.221    5.718
  435.750   84.266    0.430    0.210    5.470
  436.000   81.836    0.415    0.203    5.468
  436.250   78.190    0.394    0.209    6.119
  436.500   76.366    0.372    0.204    6.851
  436.750   79.400    0.354    0.211    7.257
  437.000   84.256    0.398    0.224    7.745
  437.250   88.505    0.459    0.226    7.824
  437.500   97.612    0.479    0.218    7.169
  437.750  103.075    0.486    0.209    6.433
  438.000  107.324    0.495    0.208    5.288
  438.250  109.751    0.492    0.210    4.469
  438.500  111.571    0.490    0.213    3.895
  438.750  109.747    0.487    0.221    3.730
  439.000  112.781    0.485    0.229    3.319
  439.250  113.387    0.484    0.229    3.236
  439.500  110.956    0.489    0.221    3.152
  439.750  110.953    0.502    0.206    3.069
  440.000  113.987    0.517    0.191    3.065
  440.250  114.593    0.529    0.181    3.145
  440.500  115.197    0.531    0.173    3.061
  440.750  113.981    0.515    0.189    3.140
  441.000  112.158    0.482    0.197    3.139
  441.250  107.905    0.467    0.202    3.299
  441.500  103.651    0.459    0.200    3.461
  441.750  104.256    0.452    0.195    3.540
  442.000  101.824    0.446    0.182    3.702
  442.250  100.001    0.441    0.173    3.863
  442.500   97.570    0.441    0.166    4.024
  442.750   99.389    0.454    0.159    4.184
  443.000  101.817    0.474    0.165    4.183
  443.250  107.280    0.503    0.182    4.181
  443.500  109.100    0.522    0.192    4.015
  443.750  109.704    0.515    0.199    3.851
  444.000  108.487    0.478    0.200    3.521
  444.250  107.271    0.447    0.186    3.438
  444.500  103.019    0.403    0.166    3.354
  444.750   95.121    0.382    0.158    3.597
  445.000   92.083    0.381    0.153    6.285
  445.250   92.688    0.394    0.150    7.343
  445.500   94.508    0.405    0.158    7.993
  445.750   93.291    0.386    0.159    9.295
  446.000   85.394    0.335    0.156   10.027
  446.250   79.927    0.311    0.166   11.738
  446.500   72.030    0.300    0.173   13.857
  446.750   69.599    0.319    0.193   18.915
  447.000   66.560    0.339    0.226   20.298
  447.250   64.736    0.350    0.227   20.541
  447.500   63.519    0.361    0.223   20.619
  447.750   65.339    0.372    0.212   20.453
  448.000   67.159    0.380    0.201   20.042
  448.250   68.978    0.371    0.191   19.222
  448.500   70.191    0.346    0.207   18.322
  448.750   70.189    0.319    0.221   17.992
