~VERSION INFORMATION
 VERS.                 2.0:   CWLS LOG ASCII STANDARD -VERSION 2.0
 WRAP.                  NO:   ONE LINE PER DEPTH STEP
~WELL INFORMATION BLOCK
#MNEM.UNIT           DATA                    DESCRIPTION OF MNEMONIC
#---------    -------------------            -------------------------------
# Generated from Intellog Unique Number	CX_WELLS/WELL/2567
WELL.         SIEBENS COWFAR                 : Well_name    - WELL
LOC .         00/06-34-080-03W4/0            : Location     - LOCATION
UWI .         00/06-34-080-03W400            : Uwi          - UNIQUE WELL ID
ENTR.         T                              : Entered      - ENTERED BY
SRVC.         SCHLUMBERGER                   : Scn          - SERVICE COMPANY
STRT.F        300                            : top_depth    - START DEPTH
STOP.F        970.112                        : bot_depth    - STOP DEPTH
STEP.F        0.82                           : increment    - STEP LENGTH
 NULL. -999.2500:NULL Value
~CURVE INFORMATION BLOCK
#MNEM UNIT       ERCB CURVE CODE    CURVE DESCRIPTION
#-----------   ------------------   ----------------------------------
DEPT.F        00 001 00 00         : DEPTH        - DEPTH
GR  .API      00 310 00 00         : GR           - GAMMA RAY
NPHI.V/V      00 330 00 00         : PHIN         - NEUTRON POROSITY (SANDSTONE)
DPHI.V/V      00 890 00 00         : PHID         - DENSITY POROSITY (SANDSTONE)
ILD .OHMM     00 120 00 00         : RESD         - DEEP RESISTIVITY (DIL)
~PARAMETER INFORMATION
#MNEM.UNIT           DATA             DESCRIPTION OF MNEMONIC
#---------         -----------     ------------------------------
GL  .F        1635                 : gl           - GROUND LEVEL ELEVATION
EREF.F        1647                 : kb           - ELEVATION OF DEPTH REFERENCE
DATM.F        1647                 : datum        - DATUM ELEVATION
TDD .F        1018                 : tdd          - TOTAL DEPTH DRILLER
RUN .         ONE                  : Run          - RUN NUMBER
ENG .         BILL                 : Engineer     - RECORDING ENGINEER
WIT .         JIM                  : Witness      - WITNESSED BY
MUD .         GEL                  : Mud_type     - MUD TYPE
MATR.         SANDSTONE            : Logunit      - NEUTRON MATRIX
TMAX.F        71.6                 : BHT          - MAXIMUM RECORDED TEMPERATURE
BHTD.F        1018                 : BHTDEP       - MAXIMUM RECORDED TEMPERATURE
MATR.         1                    : LOGUNIT      - NEUTRON MATRIX
RMT .F        77                   : MDTP         - TEMPERATURE OF MUD
NEUT.         1                    : NEUTRON      - NEUTRON TYPE
RESI.         6.29                 : RESIST       - RESISTIVITY TYPE
RMC .OHMM     7.15                 : RMC          - RESISTIVITY OF MUD CAKE
RMF .OHMM     7.15                 : RMF          - RESISTIVITY OF MUD FILTRATE
SUFT.F        32                   : SUFT         - SURFACE TEMPERATURE
~A  DEPTH       GR     PHIN     PHID     RESD
# ...
  442.717   59.100    0.454    0.312   23.282
  443.537   63.124    0.456    0.297   24.122
  444.357   66.576    0.457    0.285   24.991
  445.177   69.443    0.458    0.274   24.974
  445.997   71.732    0.459    0.261   24.938
  446.818   74.014    0.463    0.263   24.885
  447.638   75.725    0.464    0.275   24.850
  448.458   76.857    0.463    0.296   24.358
  449.278   78.561    0.456    0.313   23.884
  450.098   79.694    0.452    0.313   23.394
  450.919   80.253    0.452    0.302   22.516
  451.739   81.379    0.460    0.293   21.656
  452.559   82.511    0.462    0.287   21.234
  453.379   83.644    0.467    0.293   20.040
  454.199   85.354    0.470    0.299   19.649
  455.020   87.058    0.467    0.303   18.912
  455.840   85.871    0.461    0.305   18.531
  456.660   84.689    0.447    0.303   18.491
  457.480   85.815    0.445    0.302   18.819
  458.301   86.960    0.449    0.304   19.151
  459.121   86.357    0.455    0.304   20.973
  459.941   83.428    0.470    0.296   21.351
  460.761   82.240    0.485    0.279   21.721
  461.581   81.058    0.515    0.258   22.090
  462.402   79.889    0.483    0.255   21.652
  463.222   76.966    0.488    0.277   20.825
  464.042   75.785    0.514    0.271   20.419
  464.862   78.068    0.522    0.254   20.015
  465.682   79.784    0.509    0.243   19.618
  466.503   80.338    0.469    0.247   18.173
  467.323   80.301    0.446    0.255   18.154
  468.143   79.704    0.443    0.269   17.788
  468.963   78.516    0.442    0.281   18.103
  469.783   77.920    0.442    0.291   18.755
  470.604   77.310    0.443    0.293   19.445
  471.424   76.701    0.448    0.292   20.153
  472.244   75.520    0.452    0.292   21.264
  473.064   73.754    0.453    0.294   22.047
  473.885   71.421    0.456    0.300   23.262
  474.705   69.083    0.459    0.311   23.682
  475.525   64.998    0.459    0.316   24.535
  476.345   64.401    0.458    0.329   25.438
  477.165   64.376    0.457    0.332   25.860
  477.986   66.659    0.460    0.340   25.833
  478.806   68.369    0.465    0.347   25.787
  479.626   70.086    0.476    0.355   25.760
  480.446   71.218    0.472    0.353   25.240
  481.266   72.922    0.472    0.352   24.732
  482.087   74.626    0.484    0.349   24.714
  482.907   75.765    0.494    0.346   24.216
  483.727   78.047    0.487    0.341   23.728
  484.547   79.186    0.481    0.335   21.988
  485.367   82.047    0.483    0.328   20.390
  486.188   84.914    0.488    0.319   19.264
  487.008   88.932    0.487    0.306   17.529
  487.828   91.221    0.487    0.293   16.243
  488.648   91.775    0.488    0.274   15.335
  489.469   92.328    0.488    0.274   14.482
  490.289   92.304    0.491    0.273   13.677
  491.109   92.285    0.494    0.262   12.917
  491.929   89.350    0.498    0.243   12.199
  492.749   87.596    0.500    0.222   11.096
  493.570   89.307    0.494    0.206   10.283
  494.390   92.174    0.496    0.224   10.086
  495.210   94.451    0.520    0.248    9.518
  496.030   94.438    0.524    0.259    9.502
  496.850   93.829    0.532    0.253    9.492
  497.671   93.226    0.538    0.250    9.475
  498.491   90.888    0.531    0.266    9.468
  499.311   88.549    0.510    0.277    9.110
  500.131   87.368    0.507    0.282    8.600
  500.951   89.072    0.507    0.284    8.424
  501.772   91.361    0.503    0.281    8.260
  502.592   91.909    0.508    0.281    8.251
  503.412   91.884    0.517    0.286    8.236
  504.232   91.865    0.523    0.284    8.228
  505.052   91.835    0.489    0.279    7.913
  505.873   92.967    0.493    0.261    7.754
  506.693   94.677    0.515    0.247    7.600
  507.513   95.803    0.519    0.253    7.592
  508.333   96.363    0.516    0.259    7.579
  509.154   96.332    0.514    0.263    7.568
  509.974   96.301    0.514    0.265    7.557
  510.794   96.289    0.513    0.264    7.688
  511.614   96.830    0.512    0.259    7.821
  512.434   97.384    0.512    0.253    7.957
  513.255   97.366    0.517    0.251    8.092
  514.075   98.498    0.513    0.246    8.232
  514.895   98.467    0.515    0.244    8.217
  515.715   98.442    0.519    0.244    8.209
  516.535   94.941    0.531    0.249    8.345
  517.356   90.874    0.529    0.252    8.339
  518.176   84.481    0.505    0.258    8.805
  518.996   80.407    0.488    0.271    9.290
  519.816   77.484    0.471    0.271    9.455
  520.636   76.303    0.464    0.257    9.622
  521.457   77.429    0.463    0.257   10.156
  522.277   79.145    0.463    0.260   10.522
  523.097   82.579    0.465    0.263   10.901
  523.917   83.717    0.467    0.267   10.894
  524.738   84.849    0.477    0.267   10.481
  525.558   84.831    0.515    0.259    9.713
  526.378   84.793    0.507    0.261    9.004
  527.198   84.190    0.498    0.262    8.663
  528.018   80.689    0.489    0.267    8.485
  528.839   79.520    0.487    0.277    8.476
  529.659   81.803    0.484    0.285    8.464
  530.479   86.978    0.511    0.273    8.452
  531.299   89.845    0.543    0.250    7.977
  532.119   92.718    0.552    0.250    7.821
  532.940   94.429    0.561    0.256    7.528
  533.760   90.927    0.563    0.265    6.976
  534.580   79.335    0.539    0.277    6.838
  535.400   75.834    0.524    0.284    6.956
  536.220   72.923    0.466    0.292    7.207
  537.041   64.210    0.457    0.307    7.750
  537.861   62.457    0.446    0.313    8.188
  538.681   60.684    0.445    0.317    9.313
  539.501   60.094    0.443    0.325   10.792
  540.322   59.472    0.442    0.313   11.609
  541.142   59.454    0.449    0.316   12.027
  541.962   59.423    0.451    0.320   12.006
  542.782   59.983    0.453    0.322   11.993
  543.602   60.536    0.453    0.325   11.968
  544.423   61.084    0.450    0.326   11.955
  545.243   61.059    0.447    0.326   12.158
  546.063   61.613    0.443    0.324   12.149
  546.883   61.588    0.439    0.319   12.132
  547.703   62.142    0.435    0.316   11.892
  548.524   63.268    0.441    0.313   11.656
  549.344   63.822    0.446    0.312   11.421
  550.164   66.104    0.458    0.310   11.401
  550.984   68.406    0.473    0.308   11.389
  551.804   74.165    0.494    0.302   11.373
  552.625   81.081    0.509    0.297   11.143
  553.445   88.569    0.522    0.291   11.124
  554.265   92.593    0.530    0.270   10.702
  555.085   94.304    0.533    0.246    9.383
  555.906   93.116    0.533    0.248    8.384
  556.726   92.519    0.533    0.254    6.821
  557.546   89.012    0.533    0.255    5.980
  558.366   87.824    0.530    0.256    5.647
  559.186   87.233    0.527    0.258    5.961
  560.007   87.202    0.519    0.261    6.294
  560.827   86.599    0.505    0.257    6.525
  561.647   85.406    0.492    0.250    7.019
  562.467   85.393    0.476    0.247    7.550
  563.287   84.212    0.469    0.246    8.424
  564.108   83.603    0.469    0.243    8.734
  564.928   83.578    0.478    0.239    9.391
  565.748   83.547    0.502    0.234    9.919
  566.568   84.101    0.495    0.238   10.088
  567.388   85.227    0.485    0.244   10.266
  568.209   85.793    0.478    0.251   10.063
  569.029   86.925    0.484    0.252    9.503
  569.849   88.038    0.502    0.256    8.172
  570.669   88.026    0.511    0.260    7.297
  571.490   87.995    0.515    0.265    7.023
  572.310   86.820    0.490    0.269    6.759
  573.130   85.048    0.484    0.276    6.623
  573.950   84.451    0.472    0.281    7.122
  574.770   82.691    0.462    0.284    7.522
  575.591   80.925    0.459    0.289    8.553
  576.411   80.328    0.458    0.291    9.373
  577.231   78.562    0.458    0.296   10.464
  578.051   78.525    0.460    0.300   11.053
  578.871   78.513    0.460    0.301   11.666
  579.692   78.482    0.458    0.302   12.095
  580.512   77.879    0.464    0.304   13.002
  581.332   77.269    0.466    0.305   13.232
  582.152   76.672    0.470    0.306   13.714
  582.972   76.635    0.468    0.307   14.203
  583.793   76.038    0.461    0.306   14.188
  584.613   75.429    0.461    0.306   14.173
