~VERSION INFORMATION
 VERS.                 2.0:   CWLS LOG ASCII STANDARD -VERSION 2.0
 WRAP.                  NO:   ONE LINE PER DEPTH STEP
~WELL INFORMATION BLOCK
#MNEM.UNIT           DATA                    DESCRIPTION OF MNEMONIC
#---------    -------------------            -------------------------------
# Generated from Intellog Unique Number	CN_94_101/WELL/2864
WELL.         NORTHSTAR ENERGY CORP.         : Well_name    - WELL
LOC .         00/03-12-095-16W4/0            : Location     - LOCATION
UWI .         00/03-12-095-16W400            : Uwi          - UNIQUE WELL ID
ENTR.         JOETTE                         : Entered      - ENTERED BY
SRVC.         SCHLUMBERGER                   : Scn          - SERVICE COMPANY
DATE.         07/09/92                       : Date         - LOG DATE
STRT.M        170                            : top_depth    - START DEPTH
STOP.M        305                            : bot_depth    - STOP DEPTH
STEP.M        0.25                           : increment    - STEP LENGTH
 NULL. -999.2500:NULL Value
~CURVE INFORMATION BLOCK
#MNEM UNIT       ERCB CURVE CODE    CURVE DESCRIPTION
#-----------   ------------------   ----------------------------------
DEPT.M        00 001 00 00         : DEPTH        - DEPTH
CALI.MM       00 280 01 00         : CAL          - CALIPER
GR  .API      00 310 00 00         : GR           - GAMMA RAY
NPHI.V/V      00 330 00 00         : PHIN         - NEUTRON POROSITY (SANDSTONE)
DPHI.V/V      00 890 00 00         : PHID         - DENSITY POROSITY (SANDSTONE)
ILD .OHMM     00 120 00 00         : RESD         - DEEP RESISTIVITY (DIL)
~PARAMETER INFORMATION
#MNEM.UNIT           DATA             DESCRIPTION OF MNEMONIC
#---------         -----------     ------------------------------
GL  .M        559.3                : gl           - GROUND LEVEL ELEVATION
EREF.M        562.9                : kb           - ELEVATION OF DEPTH REFERENCE
DATM.M        562.9                : datum        - DATUM ELEVATION
TDD .M        320                  : tdd          - TOTAL DEPTH DRILLER
RUN .         ONE                  : Run          - RUN NUMBER
ENG .         JO                   : Engineer     - RECORDING ENGINEER
WIT .         TIM                  : Witness      - WITNESSED BY
MUD .         GEL                  : Mud_type     - MUD TYPE
MATR.         SANDSTONE            : Logunit      - NEUTRON MATRIX
TMAX.C        21                   : BHT          - MAXIMUM RECORDED TEMPERATURE
BHTD.M        320                  : BHTDEP       - MAXIMUM RECORDED TEMPERATURE
RMT .C        15                   : MDTP         - TEMPERATURE OF MUD
MUDD.KG/M     1030                 : MWT          - MUD DENSITY
NEUT.         1                    : NEUTRON      - NEUTRON TYPE
RESI.         0                    : RESIST       - RESISTIVITY TYPE
RM  .OHMM     0.33                 : RM           - RESISTIVITY OF MUD
RMC .OHMM     0.58                 : RMC          - RESISTIVITY OF MUD CAKE
RMF .OHMM     0.32                 : RMF          - RESISTIVITY OF MUD FILTRATE
SUFT.C        4                    : SUFT         - SURFACE TEMPERATURE
~A  DEPTH      CAL       GR     PHIN     PHID     RESD
# ...
  206.500  159.397  101.267    0.417    0.227    7.383
  206.750  159.453  103.628    0.422    0.241    8.087
  207.000  161.456   97.821    0.426    0.240    9.187
  207.250  162.512   92.597    0.418    0.240    9.884
  207.500  163.528   91.462    0.407    0.243   10.438
  207.750  164.543   86.823    0.404    0.236   11.229
  208.000  165.572   85.104    0.401    0.226   11.440
  208.250  167.588   86.890    0.419    0.220   11.241
  208.500  168.603   90.419    0.439    0.224   10.275
  208.750  169.632   95.134    0.447    0.232    9.912
  209.000  171.635   95.743    0.438    0.241    9.392
  209.250  173.651   91.696    0.428    0.248    9.228
  209.500  173.693   89.969    0.427    0.253    9.235
  209.750  173.790   91.754    0.422    0.255    9.407
  210.000  172.844   95.876    0.420    0.259    9.583
  210.250  171.927   91.829    0.423    0.263    9.588
  210.500  170.035   88.934    0.418    0.268    9.950
  210.750  169.117   86.631    0.404    0.267   10.321
  211.000  167.212   84.912    0.392    0.259   10.708
  211.250  166.294   82.617    0.394    0.255   10.713
  211.500  165.404   80.898    0.403    0.247   10.152
  211.750  164.472   78.003    0.417    0.246    9.794
  212.000  165.501   72.779    0.426    0.249    9.622
  212.250  166.544   71.069    0.438    0.235    9.628
  212.500  167.546   75.775    0.426    0.219    9.810
  212.750  167.615   78.720    0.419    0.208    9.992
  213.000  166.683   77.586    0.426    0.196   10.368
  213.250  163.832   75.283    0.408    0.206   10.564
  213.500  161.927   75.900    0.382    0.242   10.761
  213.750  161.996   84.111    0.385    0.275   10.767
  214.000  163.025   83.560    0.408    0.269   10.579
  214.250  165.028   82.433    0.427    0.266   10.026
  214.500  165.084   84.210    0.422    0.273    9.671
  214.750  163.192   86.580    0.421    0.243    9.332
  215.000  162.247   87.206    0.429    0.238    9.339
  215.250  161.356   86.063    0.438    0.236    9.342
  215.500  161.398   86.680    0.439    0.245    9.517
  215.750  162.441   89.642    0.426    0.248    9.876
  216.000  162.469   92.012    0.413    0.238    9.880
  216.250  161.579   92.629    0.406    0.232    9.885
  216.500  161.620   90.335    0.412    0.230    9.712
  216.750  159.729   88.015    0.421    0.236    9.542
  217.000  160.744   81.624    0.421    0.240    9.207
  217.250  163.734   79.905    0.415    0.237    8.884
  217.500  165.723   83.442    0.420    0.231    8.730
  217.750  168.713   86.980    0.454    0.226    8.733
  218.000  168.768   88.766    0.462    0.225    8.582
  218.250  168.824   89.383    0.461    0.232    8.131
  218.500  170.826   87.665    0.450    0.237    7.705
  218.750  170.882   84.777    0.429    0.209    7.570
  219.000  166.070   86.563    0.409    0.114    7.998
  219.250  162.232   90.685    0.411    0.184    8.149
  219.500  164.234   93.647    0.431    0.218    7.446
  219.750  168.170   91.336    0.462    0.256    6.804
  220.000  171.146   86.696    0.469    0.254    6.106
  220.250  168.295   82.650    0.441    0.242    5.785
  220.500  164.443   85.595    0.437    0.244    6.224
  220.750  163.525   90.893    0.440    0.255    7.330
  221.000  164.568   94.431    0.479    0.282    6.344
  221.250  167.544   96.801    0.490    0.283    5.107
  221.500  171.493   98.002    0.519    0.274    4.340
  221.750  173.496   98.036    0.493    0.274    3.825
  222.000  170.617   96.901    0.485    0.271    3.759
  222.250  163.858   96.342    0.480    0.235    4.269
  222.500  159.074   93.463    0.472    0.230    5.120
  222.750  159.102   90.568    0.461    0.242    5.922
  223.000  161.132   84.760    0.443    0.250    6.487
  223.250  162.147   80.129    0.429    0.259    7.369
  223.500  164.136   83.075    0.425    0.250    7.645
  223.750  167.126   86.621    0.436    0.237    7.510
  224.000  169.115   88.398    0.445    0.234    7.246
  224.250  173.092   90.768    0.453    0.231    6.992
  224.500  174.093   94.305    0.440    0.229    7.387
  224.750  172.216   95.507    0.411    0.216    8.700
  225.000  167.390   80.938    0.360    0.171   10.062
  225.250  165.512   72.210    0.310    0.160   11.429
  225.500  166.555   89.182    0.326    0.189   11.435
  225.750  167.557   92.144    0.355    0.203   10.641
  226.000  168.600   94.506    0.382    0.206   10.084
  226.250  170.616   98.043    0.408    0.205    9.730
  226.500  170.644   98.077    0.422    0.209   10.279
  226.750  167.779   91.685    0.424    0.226   10.662
  227.000  162.967   85.294    0.411    0.239   11.264
  227.250  161.104   82.999    0.397    0.227   11.901
  227.500  161.145   85.953    0.389    0.209   12.348
  227.750  161.201   87.730    0.397    0.211   12.579
  228.000  162.216   89.516    0.406    0.216   12.361
  228.250  162.272   87.797    0.417    0.220   12.142
  228.500  162.327   85.502    0.410    0.225   11.933
  228.750  162.383   86.695    0.401    0.225   11.936
  229.000  163.412   90.241    0.401    0.211   11.728
  229.250  163.481   90.275    0.407    0.206   11.734
  229.500  163.551   89.724    0.409    0.200   11.531
  229.750  163.578   90.925    0.407    0.198   11.535
  230.000  163.648   93.295    0.403    0.194   11.970
  230.250  164.677   95.656    0.398    0.197   12.195
  230.500  164.733   96.274    0.403    0.206   12.650
  230.750  165.748   92.219    0.421    0.204   13.122
  231.000  165.803   87.588    0.404    0.196   13.371
  231.250  165.873   86.453    0.391    0.177   13.377
  231.500  165.914   85.302    0.374    0.150   13.141
  231.750  165.984   84.759    0.360    0.189   12.453
  232.000  166.026   85.961    0.367    0.216   12.461
  232.250  165.135   83.073    0.384    0.263   12.694
  232.500  165.177   79.611    0.376    0.276   13.168
  232.750  164.245   78.468    0.369    0.269   13.912
  233.000  164.301   80.837    0.383    0.223   15.240
  233.250  164.356   84.951    0.398    0.194   16.392
  233.500  164.412   89.073    0.394    0.199   17.635
  233.750  165.441   92.043    0.338    0.181   17.969
  234.000  165.511   80.962    0.309    0.140   17.974
  234.250  165.552   57.048    0.239    0.070   17.343
  234.500  166.581   60.586    0.286    0.125   15.564
  234.750  166.637   67.628    0.319    0.202   12.530
  235.000  166.706   74.671    0.362    0.242   11.659
  235.250  166.762   79.961    0.403    0.239   11.049
  235.500  166.804   84.091    0.417    0.244   10.661
  235.750  166.859   80.620    0.410    0.253   10.474
  236.000  166.929   75.972    0.405    0.267   10.480
  236.250  166.011   75.438    0.400    0.273   10.485
  236.500  166.052   77.207    0.411    0.278   10.880
  236.750  166.136   80.745    0.423    0.268   11.082
  237.000  165.204   83.115    0.389    0.229   12.140
  237.250  165.246   77.307    0.363    0.197   13.542
  237.500  165.301   59.234    0.351    0.143   15.661
  237.750  165.371   52.834    0.303    0.006   20.939
  238.000  165.412   45.858    0.264   -0.019   26.042
  238.250  165.468   42.971    0.261    0.012   24.231
  238.500  165.537   51.182    0.290    0.045   13.825
  238.750  165.593   70.498    0.329    0.099   11.966
  239.000  165.649   82.797    0.385    0.188   10.544
  239.250  165.718   96.849    0.421    0.210    8.963
  239.500  165.760   93.386    0.439    0.198    8.647
  239.750  164.856   92.835    0.452    0.198    8.343
  240.000  164.897   94.621    0.463    0.192    8.051
  240.250  163.966   97.574    0.456    0.184    8.054
  240.500  164.035   97.608    0.437    0.196    8.058
  240.750  165.050   95.889    0.425    0.215    8.064
  241.000  165.106   97.090    0.419    0.227    8.214
  241.250  166.135  100.044    0.428    0.226    8.522
  241.500  166.190  102.998    0.440    0.226    9.168
  241.750  167.233  104.199    0.449    0.221    9.510
  242.000  167.275  102.480    0.420    0.133   10.049
  242.250  167.331   99.001    0.395    0.101   10.052
  242.500  167.386   92.609    0.383    0.103   10.241
  242.750  168.415   88.562    0.378    0.118   10.248
