~VERSION INFORMATION
 VERS.                 2.0:   CWLS LOG ASCII STANDARD -VERSION 2.0
 WRAP.                  NO:   ONE LINE PER DEPTH STEP
~WELL INFORMATION BLOCK
#MNEM.UNIT           DATA                    DESCRIPTION OF MNEMONIC
#---------    -------------------            -------------------------------
# Generated from Intellog Unique Number	CW_79_81/WELL/2449
WELL.         06-01-080-24W4                 : Well_name    - WELL
LOC .         00/06-01-080-24W4/0            : Location     - LOCATION
UWI .         00/06-01-080-24W4/0            : Uwi          - UNIQUE WELL ID
ENTR.         MAX                            : Entered      - ENTERED BY
SRVC.         COMPUTALOG                     : Scn          - SERVICE COMPANY
STRT.M        225                            : top_depth    - START DEPTH
STOP.M        454.75                         : bot_depth    - STOP DEPTH
STEP.M        0.25                           : increment    - STEP LENGTH
 NULL. -999.2500:NULL Value
~CURVE INFORMATION BLOCK
#MNEM UNIT       ERCB CURVE CODE    CURVE DESCRIPTION
#-----------   ------------------   ----------------------------------
DEPT.M        00 001 00 00         : DEPTH        - DEPTH
ILD .OHMM     00 120 00 00         : RESD         - DEEP RESISTIVITY (DIL)
NPHI.V/V      00 330 00 00         : PHIN         - NEUTRON POROSITY (SANDSTONE)
DPHI.V/V      00 890 00 00         : PHID         - DENSITY POROSITY (SANDSTONE)
GR  .API      00 310 00 00         : GR           - GAMMA RAY
CALI.MM       00 280 01 00         : CAL          - CALIPER
~PARAMETER INFORMATION
#MNEM.UNIT           DATA             DESCRIPTION OF MNEMONIC
#---------         -----------     ------------------------------
GL  .M        547.6                : gl           - GROUND LEVEL ELEVATION
EREF.M        552.6                : kb           - ELEVATION OF DEPTH REFERENCE
DATM.M        547.6                : datum        - DATUM ELEVATION
TDD .M        580.4                : tdd          - TOTAL DEPTH DRILLER
RUN .         ONE                  : Run          - RUN NUMBER
ENG .         BILL                 : Engineer     - RECORDING ENGINEER
WIT .         JIM                  : Witness      - WITNESSED BY
MUD .         GEL                  : Mud_type     - MUD TYPE
MATR.         SANDSTONE            : Logunit      - NEUTRON MATRIX
TMAX.C        22                   : BHT          - MAXIMUM RECORDED TEMPERATURE
BHTD.M        580.4                : BHTDEP       - MAXIMUM RECORDED TEMPERATURE
MATR.         1                    : LOGUNIT      - NEUTRON MATRIX
RMT .C        15.6                 : MDTP         - TEMPERATURE OF MUD
NEUT.         1                    : NEUTRON      - NEUTRON TYPE
RESI.         0                    : RESIST       - RESISTIVITY TYPE
RMC .OHMM     6                    : RMC          - RESISTIVITY OF MUD CAKE
RMF .OHMM     6                    : RMF          - RESISTIVITY OF MUD FILTRATE
SUFT.C        -20                  : SUFT         - SURFACE TEMPERATURE
~A  DEPTH     RESD     PHIN     PHID       GR      CAL
# ...
  261.500   17.341    0.399    0.317   68.916  214.107
  261.750   17.416    0.390    0.308   73.270  214.546
  262.000   16.576    0.387    0.302   77.443  215.089
  262.250   15.020    0.396    0.291   75.410  216.112
  262.500   14.145    0.404    0.282   75.932  216.989
  262.750   14.466    0.406    0.273   75.237  217.026
  263.000   15.520    0.411    0.267   75.441  216.769
  263.250   16.951    0.409    0.271   77.149  216.207
  263.500   18.523    0.402    0.281   77.777  215.641
  263.750   20.609    0.400    0.295   70.852  215.694
  264.000   22.612    0.409    0.309   67.368  215.733
  264.250   23.801    0.412    0.316   61.859  215.373
  264.500   24.659    0.410    0.317   54.187  215.016
  264.750   25.040    0.406    0.315   48.077  214.855
  265.000   25.008    0.405    0.314   45.398  214.890
  265.250   24.917    0.408    0.318   46.355  214.940
  265.500   25.313    0.410    0.324   47.382  214.987
  265.750   25.887    0.406    0.321   46.683  215.032
  266.000   26.332    0.404    0.317   45.621  215.369
  266.250   26.539    0.403    0.312   44.803  215.804
  266.500   26.601    0.405    0.306   45.130  216.244
  266.750   26.937    0.412    0.293   48.556  216.698
  267.000   27.576    0.420    0.273   52.340  216.736
  267.250   27.996    0.428    0.277   57.172  216.781
  267.500   28.266    0.432    0.286   59.119  216.820
  267.750   28.592    0.432    0.297   58.903  216.861
  268.000   28.924    0.427    0.305   56.643  216.904
  268.250   28.986    0.418    0.312   51.360  216.950
  268.500   29.224    0.414    0.315   48.883  216.993
  268.750   29.240    0.408    0.322   47.224  217.030
  269.000   29.255    0.402    0.328   46.466  216.772
  269.250   29.057    0.400    0.331   45.888  216.615
  269.500   28.652    0.405    0.333   45.731  216.656
  269.750   28.214    0.422    0.340   47.402  216.704
  270.000   28.014    0.425    0.342   48.430  216.738
  270.250   27.421    0.422    0.346   47.738  216.779
  270.500   26.988    0.415    0.351   47.399  216.820
  270.750   26.610    0.403    0.354   47.662  216.861
  271.000   26.239    0.392    0.352   47.747  216.902
  271.250   25.836    0.390    0.347   45.752  217.036
  271.500   25.653    0.382    0.342   45.274  217.501
  271.750   25.670    0.376    0.339   46.982  217.537
  272.000   25.683    0.388    0.338   47.249  217.577
  272.250   25.696    0.401    0.339   47.273  217.616
  272.500   25.711    0.409    0.341   47.897  217.655
  272.750   25.736    0.402    0.340   49.610  217.709
  273.000   25.739    0.379    0.337   49.636  217.752
  273.250   25.941    0.372    0.335   49.420  217.789
  273.500   26.003    0.380    0.334   49.926  218.129
  273.750   25.923    0.393    0.334   51.031  218.371
  274.000   25.749    0.401    0.335   51.716  218.413
  274.250   25.577    0.393    0.338   50.114  218.383
  274.500   25.591    0.393    0.339   50.388  218.008
  274.750   25.604    0.400    0.340   52.342  217.640
  275.000   25.759    0.394    0.343   53.203  216.978
  275.250   26.056    0.380    0.346   52.745  216.821
  275.500   26.454    0.367    0.349   51.449  217.465
  275.750   26.945    0.381    0.351   50.617  218.712
  276.000   27.371    0.402    0.348   51.143  218.750
  276.250   27.788    0.389    0.334   51.406  219.200
  276.500   28.061    0.370    0.303   51.313  219.338
  276.750   28.281    0.349    0.265   50.737  219.377
  277.000   28.345    0.328    0.236   50.156  219.218
  277.250   27.737    0.311    0.226   50.517  218.292
  277.500   26.720    0.317    0.185   49.791  217.504
  277.750   25.582    0.335    0.271   50.537  217.545
  278.000   26.020    0.355    0.314   51.281  217.583
  278.250   28.602    0.384    0.333   51.784  217.421
  278.500   33.969    0.412    0.341   52.289  217.262
  278.750   42.652    0.405    0.337   53.376  217.880
  279.000   46.794    0.366    0.318   52.650  218.762
  279.250   54.414    0.336    0.256   50.751  219.605
  279.500   61.783    0.239    0.131   49.029  220.444
  279.750   65.947    0.167    0.052   47.127  221.285
  280.000   65.103    0.148    0.040   45.347  221.827
  280.250   59.153    0.153    0.042   44.904  221.391
  280.500   52.867    0.174    0.075   46.182  221.007
  280.750   43.895    0.194    0.085   45.730  221.057
  281.000   35.428    0.205    0.092   46.173  221.094
  281.250   29.670    0.217    0.140   48.002  220.734
  281.500   26.108    0.239    0.217   50.494  219.878
  281.750   23.884    0.290    0.262   52.073  218.472
  282.000   23.537    0.360    0.317   53.847  217.266
  282.250   23.207    0.403    0.312   55.315  216.898
  282.500   23.009    0.423    0.310   55.700  216.239
  282.750   22.685    0.428    0.310   55.605  215.478
  283.000   22.287    0.425    0.312   55.570  214.816
  283.250   22.072    0.423    0.316   56.032  214.635
  283.500   21.752    0.420    0.319   55.805  215.508
  283.750   20.981    0.414    0.318   53.903  215.942
  284.000   20.463    0.412    0.315   55.071  216.382
  284.250   20.178    0.409    0.316   57.381  216.826
  284.500   20.116    0.404    0.321   58.907  217.169
  284.750   20.367    0.392    0.322   58.287  217.216
  285.000   20.851    0.397    0.323   61.066  217.263
  285.250   21.477    0.401    0.323   63.255  217.304
  285.500   22.485    0.402    0.324   64.542  217.342
  285.750   23.594    0.395    0.324   65.650  217.381
  286.000   24.794    0.380    0.318   65.615  217.422
  286.250   26.751    0.352    0.287   60.189  217.471
  286.500   28.019    0.321    0.235   52.199  217.514
  286.750   28.446    0.274    0.188   48.373  217.952
  287.000   27.478    0.263    0.129   43.468  219.595
  287.250   25.326    0.294    0.148   42.651  221.043
  287.500   22.634    0.346    0.233   47.484  221.490
  287.750   19.761    0.381    0.271   56.933  220.565
  288.000   18.474    0.400    0.302   61.969  219.764
  288.250   17.948    0.416    0.317   61.274  219.809
  288.500   17.634    0.423    0.325   59.678  219.851
  288.750   17.451    0.429    0.329   58.019  219.692
  289.000   17.365    0.437    0.329   56.959  219.331
  289.250   17.404    0.442    0.325   56.886  218.892
  289.500   17.544    0.436    0.322   56.411  218.512
  289.750   17.555    0.417    0.315   56.433  219.363
  290.000   17.566    0.407    0.316   56.097  219.904
  290.250   17.576    0.401    0.322   56.482  220.144
  290.500   17.552    0.402    0.325   57.469  220.284
  290.750   17.436    0.413    0.311   57.791  220.896
  291.000   17.444    0.422    0.316   58.062  221.770
  291.250   17.327    0.418    0.326   57.365  221.815
  291.500   17.310    0.416    0.323   56.849  221.553
  291.750   17.319    0.418    0.321   56.272  221.194
  292.000   17.323    0.423    0.324   55.816  220.837
  292.250   17.308    0.420    0.328   56.038  220.486
  292.500   17.187    0.407    0.326   55.808  220.528
  292.750   17.448    0.405    0.327   53.430  220.164
  293.000   17.906    0.404    0.328   52.135  220.101
  293.250   18.447    0.408    0.330   52.159  221.944
  293.500   19.006    0.414    0.334   53.084  223.990
  293.750   19.643    0.413    0.332   54.085  221.404
  294.000   19.955    0.405    0.331   55.361  222.278
  294.250   19.967    0.394    0.333   53.461  221.521
  294.500   19.760    0.396    0.335   53.003  221.059
  294.750   19.413    0.403    0.336   53.630  220.896
  295.000   19.073    0.406    0.337   54.980  221.034
  295.250   18.915    0.404    0.341   56.688  221.568
  295.500   18.783    0.402    0.340   56.714  222.028
  295.750   18.656    0.405    0.334   56.979  221.668
  296.000   18.429    0.408    0.332   57.244  222.210
  296.250   18.172    0.416    0.333   56.065  222.852
  296.500   17.680    0.422    0.332   54.464  222.892
  296.750   16.236    0.407    0.327   56.037  221.569
  297.000   14.727    0.398    0.319   56.564  220.781
  297.250   12.893    0.401    0.308   56.834  221.219
  297.500   11.630    0.402    0.289   60.525  221.666
  297.750   10.123    0.404    0.262   64.396  222.306
