~VERSION INFORMATION
 VERS.                 2.0:   CWLS LOG ASCII STANDARD -VERSION 2.0
 WRAP.                  NO:   ONE LINE PER DEPTH STEP
~WELL INFORMATION BLOCK
#MNEM.UNIT           DATA                    DESCRIPTION OF MNEMONIC
#---------    -------------------            -------------------------------
# Generated from Intellog Unique Number	CS_77_79/WELL/845
WELL.         CANADIAN OCCIDENTAL            : Well_name    - WELL
LOC .         00/03-28-077-02W4/0            : Location     - LOCATION
UWI .         00/03-28-077-02W4/0            : Uwi          - UNIQUE WELL ID
ENTR.         SP                             : Entered      - ENTERED BY
SRVC.         SCHLUMBERGER                   : Scn          - SERVICE COMPANY
STRT.M        204.12                         : top_depth    - START DEPTH
STOP.M        463.12                         : bot_depth    - STOP DEPTH
STEP.M        0.25                           : increment    - STEP LENGTH
 NULL. -999.2500:NULL Value
~CURVE INFORMATION BLOCK
#MNEM UNIT       ERCB CURVE CODE    CURVE DESCRIPTION
#-----------   ------------------   ----------------------------------
DEPT.M        00 001 00 00         : DEPTH        - DEPTH
GR  .API      00 310 00 00         : GR           - GAMMA RAY
DPHI.V/V      00 890 00 00         : PHID         - DENSITY POROSITY (SANDSTONE)
NPHI.V/V      00 330 00 00         : PHIN         - NEUTRON POROSITY (SANDSTONE)
ILD .OHMM     00 120 00 00         : RESD         - DEEP RESISTIVITY (DIL)
~PARAMETER INFORMATION
#MNEM.UNIT           DATA             DESCRIPTION OF MNEMONIC
#---------         -----------     ------------------------------
GL  .M        592.531              : gl           - GROUND LEVEL ELEVATION
EREF.M        595.884              : kb           - ELEVATION OF DEPTH REFERENCE
DATM.M        592.531              : datum        - DATUM ELEVATION
TDD .M        472.44               : tdd          - TOTAL DEPTH DRILLER
RUN .         ONE                  : Run          - RUN NUMBER
ENG .         BILL                 : Engineer     - RECORDING ENGINEER
WIT .         JIM                  : Witness      - WITNESSED BY
MUD .         GEL                  : Mud_type     - MUD TYPE
MATR.         SANDSTONE            : Logunit      - NEUTRON MATRIX
TMAX.C        23.8889              : BHT          - MAXIMUM RECORDED TEMPERATURE
BHTD.M        472.44               : BHTDEP       - MAXIMUM RECORDED TEMPERATURE
MATR.         1                    : LOGUNIT      - NEUTRON MATRIX
RMT .C        25                   : MDTP         - TEMPERATURE OF MUD
NEUT.         1                    : NEUTRON      - NEUTRON TYPE
RESI.         0                    : RESIST       - RESISTIVITY TYPE
RMC .OHMM     0.25                 : RMC          - RESISTIVITY OF MUD CAKE
RMF .OHMM     0.25                 : RMF          - RESISTIVITY OF MUD FILTRATE
SUFT.C        15                   : SUFT         - SURFACE TEMPERATURE
~A  DEPTH       GR     PHID     PHIN     RESD
# ...
  421.620   32.670    0.280    0.345    2.019
  421.870   36.043    0.302    0.362    2.079
  422.120   41.444    0.255    0.353    2.141
  422.370   47.255    0.234    0.370    2.208
  422.620   53.980    0.235    0.388    2.227
  422.870   52.501    0.261    0.393    2.129
  423.120   44.872    0.305    0.383    2.047
  423.370   41.167    0.297    0.374    1.921
  423.620   38.143    0.306    0.385    1.808
  423.870   35.868    0.318    0.396    1.704
  424.120   33.493    0.313    0.403    1.685
  424.370   30.488    0.315    0.401    1.617
  424.620   33.681    0.330    0.387    1.592
  424.870   36.101    0.329    0.376    1.593
  425.120   36.764    0.315    0.378    1.571
  425.370   35.018    0.311    0.384    1.588
  425.620   35.538    0.326    0.379    1.585
  425.870   35.500    0.337    0.385    1.620
  426.120   33.840    0.327    0.393    1.616
  426.370   31.516    0.324    0.385    1.643
  426.620   32.550    0.332    0.389    1.675
  426.870   34.938    0.323    0.383    1.701
  427.120   38.848    0.319    0.377    1.756
  427.370   42.705    0.309    0.370    1.770
  427.620   44.214    0.299    0.366    1.826
  427.870   40.773    0.293    0.375    1.864
  428.120   36.571    0.303    0.374    1.902
  428.370   39.617    0.315    0.356    1.961
  428.620   50.915    0.288    0.341    2.049
  428.870   57.411    0.269    0.343    2.156
  429.120   62.199    0.253    0.322    2.362
  429.370   76.328    0.242    0.299    2.485
  429.620  105.684    0.240    0.277    2.681
  429.870  108.992    0.217    0.278    2.651
  430.120   70.757    0.215    0.294    2.562
  430.370   60.552    0.258    0.319    2.402
  430.620   45.681    0.276    0.316    2.287
  430.870   33.697    0.275    0.303    2.130
  431.120   31.471    0.279    0.312    2.004
  431.370   32.416    0.273    0.329    1.895
  431.620   35.040    0.284    0.338    1.881
  431.870   34.043    0.285    0.348    1.879
  432.120   33.260    0.284    0.355    1.875
  432.370   34.325    0.281    0.340    1.912
  432.620   33.959    0.280    0.335    1.936
  432.870   33.136    0.276    0.340    1.955
  433.120   35.388    0.285    0.343    1.979
  433.370   37.440    0.285    0.343    2.015
  433.620   36.379    0.279    0.322    2.054
  433.870   33.230    0.278    0.310    2.084
  434.120   31.604    0.275    0.302    2.086
  434.370   30.080    0.268    0.318    2.086
  434.620   32.141    0.282    0.310    2.088
  434.870   33.368    0.274    0.320    2.041
  435.120   32.999    0.287    0.305    2.044
  435.370   32.039    0.285    0.316    2.047
  435.620   31.198    0.288    0.331    2.001
  435.870   31.235    0.296    0.340    2.003
  436.120   32.607    0.279    0.343    2.026
  436.370   33.734    0.272    0.332    2.038
  436.620   35.337    0.258    0.315    2.035
  436.870   34.680    0.272    0.313    2.077
  437.120   34.058    0.282    0.319    2.074
  437.370   32.521    0.277    0.331    2.037
  437.620   30.810    0.279    0.349    2.015
  437.870   30.635    0.299    0.361    1.994
  438.120   31.621    0.298    0.350    1.989
  438.370   33.849    0.290    0.333    2.046
  438.620   37.859    0.273    0.322    2.106
  438.870   43.085    0.241    0.279    2.356
  439.120   50.904    0.215    0.278    2.514
  439.370   59.099    0.217    0.318    2.857
  439.620   69.661    0.205    0.370    3.409
  439.870   75.353    0.176    0.423    4.144
  440.120   68.352    0.199    0.464    4.515
  440.370   60.826    0.228    0.433    4.350
  440.620   54.357    0.217    0.406    4.392
  440.870   59.255    0.206    0.384    4.304
  441.120   77.535    0.246    0.404    4.154
  441.370   76.592    0.304    0.465    3.822
  441.620   79.020    0.409    0.507    3.526
  441.870   94.251    0.444    0.555    2.995
  442.120  102.492    0.288    0.550    2.748
  442.370  106.297    0.262    0.550    2.662
  442.620  106.018    0.220    0.564    2.644
  442.870  104.350    0.218    0.569    2.689
  443.120  103.280    0.199    0.570    2.769
  443.370  102.991    0.203    0.564    2.852
  443.620  101.954    0.203    0.559    2.943
  443.870  101.176    0.198    0.567    2.972
  444.120  101.151    0.198    0.573    3.003
  444.370   99.162    0.216    0.569    3.054
  444.620   96.418    0.219    0.571    3.031
  444.870   95.850    0.213    0.577    2.995
  445.120   96.771    0.233    0.572    3.044
  445.370   98.429    0.229    0.572    3.105
  445.620   99.975    0.221    0.577    3.155
  445.870  100.938    0.219    0.574    3.217
  446.120  101.836    0.230    0.572    3.211
  446.370  101.818    0.222    0.574    3.210
  446.620  100.841    0.216    0.572    3.209
  446.870   99.805    0.211    0.572    3.211
  447.120   98.252    0.226    0.559    3.317
  447.370   97.040    0.242    0.556    3.337
  447.620   95.733    0.251    0.567    3.517
  447.870   93.960    0.257    0.572    3.895
  448.120   90.304    0.254    0.550    4.313
  448.370   90.355    0.177    0.488    5.557
  448.620   91.437    0.132    0.423    7.071
  448.870   75.632    0.116    0.383    7.664
  449.120   66.135    0.096    0.346    5.868
  449.370   54.256    0.064    0.345    6.876
  449.620   48.455    0.086    0.354    5.824
  449.870   42.871    0.203    0.339    5.115
  450.120   37.287    0.216    0.353    4.207
  450.370   30.948    0.252    0.370    3.709
  450.620   23.830    0.274    0.362    3.221
  450.870   22.900    0.258    0.348    3.048
  451.120   24.928    0.174    0.353    3.117
  451.370   25.955    0.115    0.370    2.997
  451.620   24.916    0.109    0.384    2.887
  451.870   26.013    0.265    0.379    2.888
  452.120   27.845    0.297    0.377    2.766
  452.370   34.790    0.297    0.372    2.754
  452.620   54.986    0.242    0.385    3.131
  452.870   97.149    0.205    0.405    3.705
  453.120   92.823    0.179    0.443    4.466
  453.370   81.706    0.155    0.456    4.948
  453.620   69.718    0.153    0.410    5.357
  453.870   56.469    0.176    0.382    5.267
  454.120   44.904    0.233    0.366    5.053
  454.370   49.127    0.235    0.342    4.650
  454.620   68.911    0.234    0.330    4.297
  454.870   90.468    0.198    0.393    4.532
  455.120  103.258    0.150    0.429    5.045
  455.370  103.520    0.153    0.421    5.729
  455.620  101.932    0.137    0.397    6.402
  455.870   98.290    0.128    0.370    6.718
  456.120   84.932    0.128    0.383    6.790
  456.370   64.687    0.155    0.375    6.684
  456.620   54.686    0.188    0.356    6.270
  456.870   49.123    0.216    0.354    5.899
  457.120   44.885    0.244    0.371    5.575
  457.370   49.484    0.256    0.387    5.529
  457.620   57.239    0.251    0.414    5.584
  457.870   76.833    0.226    0.417    5.673
  458.120   85.265    0.158    0.418    5.517
  458.370   81.014    0.168    0.440    5.612
  458.620   74.275    0.184    0.388    5.721
  458.870   74.262    0.102    0.372    5.902
  459.120   77.061    0.086    0.383    6.533
  459.370   77.392    0.075    0.348    7.034
  459.620   75.472    0.007    0.320    8.099
  459.870   61.384    0.001    0.147    9.227
  460.120   50.916    0.000    0.141   10.986
  460.370   42.343   -0.000    0.132   14.122
  460.620   36.106   -0.000    0.121   21.517
  460.870   33.659   -0.000    0.117   29.363
  461.120   36.628    0.000    0.128   32.454
  461.370   42.824    0.000    0.124   32.524
  461.620   45.536   -0.000    0.132   31.510
  461.870   48.114   -0.000    0.143   30.972
  462.120   49.659   -0.000    0.168   29.660
  462.370   46.351    0.000    0.174   29.277
  462.620   46.265    0.000    0.161   28.324
  462.870   46.273    0.000    0.167   28.064
  463.120   47.260   -0.000    0.175   27.141
