~VERSION INFORMATION
 VERS.                 2.0:   CWLS LOG ASCII STANDARD -VERSION 2.0
 WRAP.                  NO:   ONE LINE PER DEPTH STEP
~WELL INFORMATION BLOCK
#MNEM.UNIT           DATA                    DESCRIPTION OF MNEMONIC
#---------    -------------------            -------------------------------
# Generated from Intellog Unique Number	CN_91_93/WELL/2699
WELL.         07-14-091-18W4                 : Well_name    - WELL
LOC .         00/07-14-091-18W4/0            : Location     - LOCATION
UWI .         00/07-14-091-18W400            : Uwi          - UNIQUE WELL ID
ENTR.         JOETTE                         : Entered      - ENTERED BY
SRVC.         SCHLUMBERGER                   : Scn          - SERVICE COMPANY
DATE.         02/09/92                       : Date         - LOG DATE
STRT.M        100                            : top_depth    - START DEPTH
STOP.M        240                            : bot_depth    - STOP DEPTH
STEP.M        0.25                           : increment    - STEP LENGTH
 NULL. -999.2500:NULL Value
~CURVE INFORMATION BLOCK
#MNEM UNIT       ERCB CURVE CODE    CURVE DESCRIPTION
#-----------   ------------------   ----------------------------------
DEPT.M        00 001 00 00         : DEPTH        - DEPTH
GR  .API      00 310 00 00         : GR           - GAMMA RAY
CALI.MM       00 280 01 00         : CAL          - CALIPER
NPHI.V/V      00 330 00 00         : PHIN         - NEUTRON POROSITY (SANDSTONE)
DPHI.V/V      00 890 00 00         : PHID         - DENSITY POROSITY (SANDSTONE)
ILD .OHMM     00 120 00 00         : RESD         - DEEP RESISTIVITY (DIL)
~PARAMETER INFORMATION
#MNEM.UNIT           DATA             DESCRIPTION OF MNEMONIC
#---------         -----------     ------------------------------
GL  .M        507.02               : gl           - GROUND LEVEL ELEVATION
EREF.M        509.87               : kb           - ELEVATION OF DEPTH REFERENCE
DATM.M        509.87               : datum        - DATUM ELEVATION
TDD .M        248                  : tdd          - TOTAL DEPTH DRILLER
RUN .         ONE                  : Run          - RUN NUMBER
ENG .         JO                   : Engineer     - RECORDING ENGINEER
WIT .         TIM                  : Witness      - WITNESSED BY
MUD .         GEL                  : Mud_type     - MUD TYPE
MATR.         SANDSTONE            : Logunit      - NEUTRON MATRIX
TMAX.C        17                   : BHT          - MAXIMUM RECORDED TEMPERATURE
BHTD.M        248                  : BHTDEP       - MAXIMUM RECORDED TEMPERATURE
RMT .C        6                    : MDTP         - TEMPERATURE OF MUD
MUDD.KG/M     1050                 : MWT          - MUD DENSITY
NEUT.         1                    : NEUTRON      - NEUTRON TYPE
RESI.         0                    : RESIST       - RESISTIVITY TYPE
RM  .OHMM     7.92                 : RM           - RESISTIVITY OF MUD
RMC .OHMM     7.3                  : RMC          - RESISTIVITY OF MUD CAKE
RMF .OHMM     7.14                 : RMF          - RESISTIVITY OF MUD FILTRATE
SUFT.C        4                    : SUFT         - SURFACE TEMPERATURE
~A  DEPTH       GR      CAL     PHIN     PHID     RESD
# ...
  136.500   67.037  230.711    0.393    0.200   10.559
  136.750   70.667  230.246    0.375    0.209    9.109
  137.000   79.714  229.773    0.427    0.262    7.787
  137.250   89.665  229.305    0.479    0.256    8.637
  137.500   93.900  229.338    0.497    0.271   12.324
  137.750   85.793  229.371    0.512    0.270   15.011
  138.000   75.583  228.902    0.513    0.272   15.895
  138.250   68.983  228.434    0.479    0.307   15.475
  138.500   64.790  226.970    0.471    0.300   14.122
  138.750   62.107  226.506    0.468    0.285   13.244
  139.000   61.222  226.033    0.465    0.285   11.007
  139.250   65.454  225.561    0.456    0.296    9.146
  139.500   72.996  226.095    0.483    0.255    8.115
  139.750   81.741  227.131    0.508    0.206    7.612
  140.000   89.283  228.676    0.490    0.224    7.275
  140.250   94.721  229.215    0.497    0.253    7.085
  140.500   90.830  229.244    0.493    0.231    7.027
  140.750   92.055  229.244    0.509    0.223    6.971
  141.000   92.978  228.816    0.515    0.264    6.982
  141.250   89.986  228.340    0.499    0.265    7.121
  141.500   90.006  228.381    0.475    0.246    7.974
  141.750   93.037  228.414    0.454    0.260   10.366
  142.000   94.260  228.442    0.447    0.271   12.048
  142.250   93.979  228.475    0.453    0.245   15.812
  142.500   89.488  228.011    0.458    0.222   16.585
  142.750   84.390  227.033    0.453    0.207   19.097
  143.000   81.401  225.064    0.441    0.195   28.284
  143.250   68.784  223.095    0.437    0.213   32.880
  143.500   66.396  222.125    0.392    0.119   36.817
  143.750   57.991  222.158    0.310    0.034   40.090
  144.000   54.701  222.191    0.268    0.047   39.043
  144.250   56.827  223.227    0.275    0.073   30.967
  144.500   62.564  223.765    0.324    0.111   20.198
  144.750   72.515  224.801    0.374    0.133   17.754
  145.000   77.349  225.837    0.375    0.185   15.747
  145.250   80.079  227.370    0.361    0.156   11.922
  145.500   81.909  228.907    0.346    0.125    9.111
  145.750   88.243  230.449    0.416    0.156    7.431
  146.000  107.224  231.986    0.451    0.211    6.295
  146.250  100.624  233.026    0.480    0.236    6.070
  146.500  100.343  234.058    0.494    0.240    6.080
  146.750  101.265  235.595    0.488    0.223    6.086
  147.000  107.601  236.631    0.497    0.210    6.095
  147.250  113.646  237.166    0.513    0.195    6.047
  147.500  113.059  238.210    0.506    0.197    6.168
  147.750  109.167  238.748    0.507    0.195    6.532
  148.000  104.072  239.279    0.507    0.176    6.853
  148.250   98.977  240.314    0.498    0.158    7.190
  148.500   94.485  240.849    0.499    0.157    7.616
  148.750   90.591  240.886    0.503    0.169    7.912
  149.000   93.921  239.414    0.477    0.185    8.780
  149.250  103.571  236.438    0.472    0.163   10.016
  149.500   97.573  233.964    0.487    0.196   11.216
  149.750   87.062  230.992    0.421    0.171   12.211
  150.000   86.786  229.015    0.425    0.224   13.425
  150.250   87.402  228.551    0.441    0.232   14.082
  150.500   88.024  227.585    0.428    0.236   14.773
  150.750   88.049  226.109    0.422    0.234   15.503
  151.000   88.063  224.633    0.412    0.231   15.664
  151.250   87.782  222.665    0.404    0.245   16.280
  151.500   85.999  221.690    0.399    0.234   19.643
  151.750   78.798  221.723    0.392    0.220   24.147
  152.000   71.897  221.760    0.403    0.213   25.804
  152.250   66.802  221.793    0.367    0.193   25.607
  152.500   61.408  221.822    0.342    0.042   24.015
  152.750   63.531  222.866    0.210    0.032   21.106
  153.000   71.675  224.905    0.359    0.099   17.709
  153.250   86.742  226.944    0.396    0.171   15.417
  153.500   93.985  229.484    0.426    0.212   13.807
  153.750   96.710  231.527    0.426    0.205   13.194
  154.000   97.031  232.066    0.420    0.183   12.849
  154.250   95.549  233.093    0.426    0.208   12.864
  154.500   91.657  234.133    0.416    0.222   13.498
  154.750   91.980  235.165    0.432    0.215   14.162
  155.000   92.303  235.198    0.446    0.204   14.855
  155.250   90.212  233.726    0.453    0.192   15.437
  155.500   91.134  231.753    0.444    0.159   16.047
  155.750   96.873  237.812    0.428    0.130   16.375
  156.000  102.911  242.864    0.449    0.198   16.392
  156.250   97.818  242.893    0.432    0.213   16.113
  156.500   93.924  235.901    0.431    0.236   16.438
  156.750   91.238  229.916    0.398    0.265   17.403
  157.000   89.453  228.950    0.391    0.253   19.313
  157.250   88.871  229.489    0.391    0.221   20.069
  157.500   89.191  229.518    0.407    0.217   20.291
  157.750   88.912  229.551    0.418    0.211   20.291
  158.000   86.523  229.583    0.405    0.160   20.159
  158.250   86.848  229.616    0.387    0.161   19.810
  158.500   87.768  229.649    0.396    0.196   19.107
  158.750   87.788  229.686    0.409    0.237   18.436
  159.000   86.903  230.225    0.393    0.242   17.620
  159.250   85.719  230.258    0.391    0.252   17.154
  159.500   85.741  230.792    0.376    0.224   16.857
  159.750   87.867  231.322    0.379    0.216   17.038
  160.000   91.798  232.367    0.388    0.206   17.714
  160.250   94.827  232.897    0.397    0.233   18.068
  160.500   95.752  233.431    0.401    0.225   18.261
  160.750   96.075  232.967    0.395    0.230   18.282
  161.000   96.694  231.997    0.414    0.222   18.140
  161.250   97.619  230.521    0.421    0.231   17.663
  161.500   92.523  230.061    0.392    0.229   17.040
  161.750   88.027  231.590    0.375    0.192   15.982
  162.000   87.746  234.636    0.385    0.158   15.418
  162.250   94.992  236.675    0.413    0.189   15.015
  162.500   98.021  238.722    0.434    0.211   14.621
  162.750   98.943  238.746    0.456    0.196   14.775
  163.000   95.651  238.278    0.426    0.160   16.094
  163.250   90.555  236.811    0.401    0.162   16.572
  163.500   88.171  236.342    0.382    0.142   16.594
  163.750   89.091  236.375    0.406    0.170   16.462
  164.000   95.431  236.408    0.426    0.190   15.878
  164.250   96.354  237.444    0.431    0.232   14.759
  164.500   93.064  237.982    0.407    0.195   12.612
  164.750   90.077  237.514    0.384    0.156    8.381
  165.000   99.422  236.544    0.370    0.126    6.901
  165.250  106.668  235.578    0.472    0.236    6.238
  165.500  103.977  235.105    0.519    0.258    6.245
  165.750   99.784  235.648    0.515    0.244    8.667
  166.000   92.285  236.174    0.472    0.219   11.691
  166.250   90.196  234.711    0.450    0.203   14.639
  166.500   91.118  233.736    0.438    0.174   15.217
  166.750   93.851  233.276    0.434    0.152   15.096
  167.000   97.180  233.810    0.421    0.136   13.648
  167.250  100.206  234.341    0.438    0.169   12.921
  167.500  102.034  234.871    0.477    0.197   12.816
  167.750  102.956  235.410    0.476    0.200   13.831
  168.000  102.675  235.952    0.473    0.195   15.060
  168.250   99.087  234.974    0.480    0.198   18.681
  168.500   91.281  230.995    0.446    0.180   20.727
  168.750   84.980  225.014    0.420    0.152   25.235
  169.000   82.595  222.042    0.408    0.154   25.748
  169.250   83.219  221.566    0.418    0.190   24.605
  169.500   85.944  220.596    0.426    0.194   23.082
  169.750   90.176  220.131    0.410    0.203   22.271
  170.000   93.812  219.157    0.405    0.236   22.097
  170.250   94.433  218.191    0.407    0.238   22.123
  170.500   94.450  217.221    0.420    0.242   22.997
  170.750   90.260  216.757    0.426    0.241   27.739
  171.000   85.463  216.790    0.434    0.244   29.648
  171.250   80.970  216.818    0.442    0.246   33.198
  171.500   74.972  216.358    0.442    0.209   39.318
  171.750   69.879  215.889    0.394    0.235   45.282
  172.000   68.093  215.421    0.379    0.209   50.226
  172.250   63.299  215.454    0.368    0.160   51.255
  172.500   61.812  214.985    0.386    0.180   47.653
  172.750   61.831  215.018    0.426    0.227   45.100
