~VERSION INFORMATION
 VERS.                 2.0:   CWLS LOG ASCII STANDARD -VERSION 2.0
 WRAP.                  NO:   ONE LINE PER DEPTH STEP
~WELL INFORMATION BLOCK
#MNEM.UNIT           DATA                    DESCRIPTION OF MNEMONIC
#---------    -------------------            -------------------------------
# Generated from Intellog Unique Number	CW_73_75/WELL/529
WELL.         CZAR ET AL CHERPETA 06-06      : Well_name    - WELL
LOC .         00/06-06-074-19W4/0            : Location     - LOCATION
UWI .         00/06-06-074-19W4/0            : Uwi          - UNIQUE WELL ID
ENTR.         JAYE                           : Entered      - ENTERED BY
SRVC.         SCHLUMBERGER                   : Scn          - SERVICE COMPANY
DATE.         32 JAN 80                      : Date         - LOG DATE
STRT.M        370                            : top_depth    - START DEPTH
STOP.M        570                            : bot_depth    - STOP DEPTH
STEP.M        0.25                           : increment    - STEP LENGTH
 NULL. -999.2500:NULL Value
~CURVE INFORMATION BLOCK
#MNEM UNIT       ERCB CURVE CODE    CURVE DESCRIPTION
#-----------   ------------------   ----------------------------------
DEPT.M        00 001 00 00         : DEPTH        - DEPTH
GR  .API      00 310 00 00         : GR           - GAMMA RAY
CALI.MM       00 280 01 00         : CAL          - CALIPER
DPHI.V/V      00 890 00 00         : PHID         - DENSITY POROSITY (SANDSTONE)
NPHI.V/V      00 330 00 00         : PHIN         - NEUTRON POROSITY (SANDSTONE)
ILD .OHMM     00 120 00 00         : RESD         - DEEP RESISTIVITY (DIL)
~PARAMETER INFORMATION
#MNEM.UNIT           DATA             DESCRIPTION OF MNEMONIC
#---------         -----------     ------------------------------
GL  .M        687.19               : gl           - GROUND LEVEL ELEVATION
EREF.M        690.09               : kb           - ELEVATION OF DEPTH REFERENCE
DATM.M        687.19               : datum        - DATUM ELEVATION
TDD .M        605                  : tdd          - TOTAL DEPTH DRILLER
RUN .         ONE                  : Run          - RUN NUMBER
ENG .         SARK                 : Engineer     - RECORDING ENGINEER
WIT .         EARLE                : Witness      - WITNESSED BY
BASE.         EDMONTON             : Branch       - HOME BASE OF LOGGING UNIT
MUD .         GEL CHEM             : Mud_type     - MUD TYPE
MATR.         SANDSTONE            : Logunit      - NEUTRON MATRIX
TMAX.C        25                   : BHT          - MAXIMUM RECORDED TEMPERATURE
BHTD.M        604.5                : BHTDEP       - MAXIMUM RECORDED TEMPERATURE
RMT .C        20                   : MDTP         - TEMPERATURE OF MUD
MUDD.KG/M     1110                 : MWT          - MUD DENSITY
NEUT.         1                    : NEUTRON      - NEUTRON TYPE
RESI.         0                    : RESIST       - RESISTIVITY TYPE
RM  .OHMM     2.68                 : RM           - RESISTIVITY OF MUD
RMC .OHMM     0                    : RMC          - RESISTIVITY OF MUD CAKE
RMF .OHMM     3.14                 : RMF          - RESISTIVITY OF MUD FILTRATE
SUFT.C        4.5                  : SUFT         - SURFACE TEMPERATURE
~A  DEPTH       GR      CAL     PHID     PHIN     RESD
# ...
  406.500   76.590  189.999    0.339    0.479   18.759
  406.750   70.378  189.986    0.336    0.474   17.075
  407.000   69.388  189.668    0.346    0.460   13.487
  407.250   72.944  188.937    0.350    0.448    8.533
  407.500   77.051  188.310    0.374    0.456    6.186
  407.750   79.193  188.093    0.394    0.486    4.217
  408.000   76.667  197.807    0.412    0.513    3.325
  408.250   74.387  220.417    0.432    0.535    2.711
  408.500   79.354  268.826    0.502    0.548    2.495
  408.750   84.998  274.341    0.511    0.562    2.617
  409.000   90.272  255.902    0.466    0.577    3.018
  409.250   92.108  235.210    0.438    0.556    3.982
  409.500   89.705  198.550    0.394    0.519    7.120
  409.750   84.169  180.520    0.360    0.471    9.340
  410.000   81.520  169.349    0.316    0.467    9.560
  410.250   86.058  171.281    0.325    0.461    9.394
  410.500   89.306  177.104    0.299    0.449    9.009
  410.750   89.605  177.500    0.282    0.442    8.339
  411.000   86.834  178.920    0.287    0.435    7.533
  411.250   82.772  184.334    0.311    0.432    6.705
  411.500   83.194  190.361    0.335    0.460    6.001
  411.750   86.073  195.160    0.364    0.498    5.842
  412.000   84.776  199.037    0.414    0.517    6.504
  412.250   77.828  193.598    0.351    0.536    7.845
  412.500   61.482  200.036    0.326    0.476   10.083
  412.750   52.016  194.086    0.356    0.448   12.073
  413.000   45.006  192.332    0.324    0.407   13.217
  413.250   44.937  192.421    0.305    0.392   13.156
  413.500   47.939  193.432    0.289    0.402   12.926
  413.750   48.300  194.546    0.291    0.414   13.431
  414.000   47.985  195.760    0.302    0.422   14.486
  414.250   47.855  196.874    0.297    0.423   15.889
  414.500   49.321  197.987    0.299    0.429   17.073
  414.750   49.620  198.999    0.312    0.432   17.774
  415.000   48.876  199.703    0.309    0.433   18.229
  415.250   49.298  199.896    0.317    0.432   18.452
  415.500   51.870  200.395    0.327    0.430   18.924
  415.750   52.600  200.996    0.325    0.428   19.701
  416.000   49.030  200.984    0.328    0.423   20.892
  416.250   47.609  200.868    0.324    0.420   21.589
  416.500   47.541  201.368    0.335    0.430   21.491
  416.750   49.498  202.380    0.330    0.442   21.193
  417.000   50.597  203.901    0.343    0.455   21.097
  417.250   49.975  204.606    0.338    0.468   21.157
  417.500   48.739  204.492    0.330    0.458   21.298
  417.750   47.932  203.865    0.330    0.461   22.049
  418.000   47.065  203.136    0.328    0.462   23.297
  418.250   45.522  202.304    0.321    0.461   24.028
  418.500   44.778  200.550    0.339    0.468   24.051
  418.750   44.278  199.412    0.346    0.477   23.676
  419.000   43.840  197.557    0.344    0.480   23.393
  419.250   44.018  196.111    0.341    0.472   22.983
  419.500   46.037  194.256    0.343    0.459   22.837
  419.750   48.548  192.708    0.347    0.455   22.775
  420.000   53.515  191.569    0.353    0.441   22.670
  420.250   56.272  188.383    0.354    0.434   22.566
  420.500   57.001  182.022    0.334    0.427   22.421
  420.750   58.037  177.404    0.329    0.419   22.276
  421.000   58.582  170.430    0.327    0.416   22.094
  421.250   57.961  170.827    0.315    0.441   21.707
  421.500   55.742  170.916    0.342    0.452   21.488
  421.750   53.953  168.140    0.355    0.446   21.192
  422.000   52.042  166.285    0.348    0.427   20.822
  422.250   49.332  164.634    0.338    0.410   20.457
  422.500   45.208  164.724    0.339    0.427   20.324
  422.750   42.561  167.270    0.336    0.443   20.424
  423.000   42.859  173.195    0.346    0.450   20.751
  423.250   44.510  175.844    0.344    0.430   20.965
  423.500   47.512  175.523    0.333    0.421   20.716
  423.750   48.856  174.693    0.351    0.411   20.015
  424.000   48.910  173.758    0.354    0.417   19.411
  424.250   49.639  173.131    0.365    0.429   18.544
  424.500   50.553  173.528    0.356    0.428   17.817
  424.750   50.976  175.051    0.346    0.407   16.927
  425.000   51.029  176.881    0.336    0.391   16.144
  425.250   51.636  177.893    0.334    0.398   15.281
  425.500   51.690  178.493    0.348    0.411   14.196
  425.750   49.410  177.969    0.342    0.412   12.921
  426.000   47.314  176.626    0.335    0.410   11.630
  426.250   45.586  175.692    0.350    0.416   10.645
  426.500   44.412  176.191    0.340    0.411    9.762
  426.750   45.019  177.714    0.355    0.408    8.901
  427.000   46.608  180.057    0.354    0.409    8.409
  427.250   47.460  183.216    0.350    0.415    8.187
  427.500   48.067  183.306    0.365    0.411    7.953
  427.750   48.981  180.018    0.366    0.405    7.800
  428.000   50.693  175.091    0.361    0.400    7.721
  428.250   50.931  173.850    0.345    0.397    7.685
  428.500   51.415  174.452    0.364    0.411    7.636
  428.750   52.021  174.747    0.343    0.419    7.630
  429.000   52.751  174.118    0.365    0.413    7.581
  429.250   53.357  174.721    0.356    0.413    7.519
  429.500   54.210  179.623    0.360    0.410    7.498
  429.750   56.290  178.484    0.365    0.415    7.492
  430.000   59.845  172.022    0.382    0.433    7.500
  430.250   63.093  174.364    0.374    0.445    7.549
  430.500   62.164  168.823    0.368    0.429    7.585
  430.750   57.672  170.346    0.365    0.431    7.551
  431.000   56.559  172.586    0.358    0.433    7.516
  431.250   57.228  173.596    0.348    0.430    7.496
  431.500   58.694  172.866    0.352    0.435    7.447
  431.750   60.406  172.342    0.354    0.429    7.345
  432.000   62.548  172.226    0.354    0.430    7.229
  432.250   62.234  172.419    0.363    0.436    7.143
  432.500   59.524  172.918    0.368    0.437    7.084
  432.750   55.032  173.110    0.366    0.432    7.104
  433.000   52.936  172.892    0.365    0.423    7.165
  433.250   53.359  173.085    0.368    0.415    7.226
  433.500   56.544  173.176    0.370    0.407    7.261
  433.750   58.011  173.368    0.366    0.409    7.214
  434.000   56.898  173.559    0.354    0.420    7.222
  434.250   55.601  173.853    0.348    0.429    7.175
  434.500   56.944  173.637    0.352    0.436    7.128
  434.750   57.429  173.009    0.344    0.438    7.070
  435.000   56.868  171.870    0.344    0.433    6.998
  435.250   57.966  171.142    0.350    0.427    6.941
  435.500   57.651  170.618    0.361    0.424    6.870
  435.750   55.739  169.683    0.363    0.430    6.801
  436.000   53.521  168.954    0.351    0.421    6.770
  436.250   53.513  168.224    0.346    0.411    6.739
  436.500   54.857  168.313    0.349    0.414    6.721
  436.750   54.296  168.915    0.349    0.428    6.727
  437.000   52.200  168.392    0.344    0.441    6.913
  437.250   50.842  166.332    0.342    0.452    7.277
  437.500   48.869  165.603    0.338    0.442    7.981
  437.750   46.282  165.590    0.307    0.393    8.755
  438.000   40.071  166.191    0.191    0.330    9.251
  438.250   33.061  166.997    0.106    0.207    9.260
  438.500   34.097  168.008    0.125    0.255    9.081
  438.750   37.714  168.609    0.170    0.311    8.628
  439.000   40.961  169.212    0.311    0.342    7.971
  439.250   43.349  169.709    0.349    0.373    7.602
  439.500   44.938  169.903    0.370    0.406    7.345
  439.750   43.211  169.789    0.355    0.437    6.710
  440.000   40.685  169.571    0.363    0.434    6.818
  440.250   39.818  169.456    0.357    0.425    6.914
  440.500   39.933  170.160    0.360    0.432    7.064
  440.750   39.618  174.242    0.353    0.439    7.205
  441.000   39.058  178.732    0.357    0.435    7.403
  441.250   38.497  177.083    0.355    0.430    7.706
  441.500   38.428  174.817    0.353    0.427    8.038
  441.750   38.359  174.498    0.335    0.419    8.213
  442.000   38.536  176.634    0.330    0.419    8.298
  442.250   38.652  179.080    0.323    0.427    8.138
  442.500   39.811  181.729    0.334    0.449    7.863
  442.750   40.847  182.842    0.327    0.463    7.597
