~VERSION INFORMATION
 VERS.                 2.0:   CWLS LOG ASCII STANDARD -VERSION 2.0
 WRAP.                  NO:   ONE LINE PER DEPTH STEP
~WELL INFORMATION BLOCK
#MNEM.UNIT           DATA                    DESCRIPTION OF MNEMONIC
#---------    -------------------            -------------------------------
# Generated from Intellog Unique Number	CC_80_83/WELL/1043
WELL.         01-25-083-02W4                 : Well_name    - WELL
LOC .         00/01-25-083-02W4/0            : Location     - LOCATION
UWI .         00/01-25-083-02W400            : Uwi          - UNIQUE WELL ID
ENTR.         DW                             : Entered      - ENTERED BY
SRVC.         SCHLUMBERGER                   : Scn          - SERVICE COMPANY
STRT.M        90                             : top_depth    - START DEPTH
STOP.M        304.75                         : bot_depth    - STOP DEPTH
STEP.M        0.25                           : increment    - STEP LENGTH
 NULL. -999.2500:NULL Value
~CURVE INFORMATION BLOCK
#MNEM UNIT       ERCB CURVE CODE    CURVE DESCRIPTION
#-----------   ------------------   ----------------------------------
DEPT.M        00 001 00 00         : DEPTH        - DEPTH
GR  .API      00 310 00 00         : GR           - GAMMA RAY
DPHI.V/V      00 890 00 00         : PHID         - DENSITY POROSITY (LIMESTONE)
NPHI.V/V      00 330 00 00         : PHIN         - NEUTRON POROSITY (LIMESTONE)
ILD .OHMM     00 120 00 00         : RESD         - DEEP RESISTIVITY (DIL)
~PARAMETER INFORMATION
#MNEM.UNIT           DATA             DESCRIPTION OF MNEMONIC
#---------         -----------     ------------------------------
GL  .M        477.33               : gl           - GROUND LEVEL ELEVATION
EREF.M        480.33               : kb           - ELEVATION OF DEPTH REFERENCE
DATM.M        480.33               : datum        - DATUM ELEVATION
TDD .M        318                  : tdd          - TOTAL DEPTH DRILLER
RUN .         ONE                  : Run          - RUN NUMBER
ENG .         BILL                 : Engineer     - RECORDING ENGINEER
WIT .         JIM                  : Witness      - WITNESSED BY
MUD .         GEL                  : Mud_type     - MUD TYPE
MATR.         LIMESTONE            : Logunit      - NEUTRON MATRIX
TMAX.C        28                   : BHT          - MAXIMUM RECORDED TEMPERATURE
BHTD.M        318                  : BHTDEP       - MAXIMUM RECORDED TEMPERATURE
MATR.         1                    : LOGUNIT      - NEUTRON MATRIX
RMT .C        25                   : MDTP         - TEMPERATURE OF MUD
NEUT.         1                    : NEUTRON      - NEUTRON TYPE
RESI.         0                    : RESIST       - RESISTIVITY TYPE
RMC .OHMM     0.25                 : RMC          - RESISTIVITY OF MUD CAKE
RMF .OHMM     0.25                 : RMF          - RESISTIVITY OF MUD FILTRATE
SUFT.C        15                   : SUFT         - SURFACE TEMPERATURE
~A  DEPTH       GR     PHID     PHIN     RESD
# ...
  133.500   63.326    0.339    0.389    8.769
  133.750   66.067    0.341    0.397    6.880
  134.000   66.287    0.341    0.407    5.003
  134.250   64.979    0.348    0.405    3.885
  134.500   63.112    0.355    0.398    3.552
  134.750   61.316    0.349    0.405    3.362
  135.000   61.554    0.341    0.421    3.270
  135.250   63.616    0.342    0.427    3.272
  135.500   64.978    0.347    0.431    3.213
  135.750   65.554    0.352    0.420    3.024
  136.000   66.112    0.348    0.398    2.907
  136.250   67.502    0.338    0.387    2.924
  136.500   69.547    0.330    0.391    3.036
  136.750   69.644    0.327    0.407    3.564
  137.000   69.258    0.323    0.432    3.858
  137.250   68.129    0.323    0.455    4.139
  137.500   66.424    0.296    0.325    4.386
  137.750   59.166    0.172    0.129    4.411
  138.000   45.812    0.000    0.145    4.408
  138.250   45.678   -0.007    0.159    4.231
  138.500   48.572    0.014    0.163    3.864
  138.750   51.323    0.078    0.168    3.602
  139.000   55.727    0.188    0.219    3.476
  139.250   59.859    0.284    0.333    3.389
  139.500   61.722    0.340    0.419    3.398
  139.750   64.206    0.348    0.408    3.557
  140.000   66.811    0.367    0.395    4.348
  140.250   66.751    0.394    0.418    5.266
  140.500   64.491    0.397    0.438    6.017
  140.750   63.775    0.374    0.429    6.609
  141.000   66.049    0.354    0.407    6.896
  141.250   67.714    0.344    0.398    7.119
  141.500   67.808    0.332    0.386    7.275
  141.750   63.559    0.327    0.392    7.259
  142.000   61.495    0.331    0.412    7.071
  142.250   64.808    0.335    0.420    6.870
  142.500   65.511    0.338    0.411    6.772
  142.750   64.170    0.342    0.409    6.662
  143.000   61.673    0.343    0.410    6.640
  143.250   62.097    0.340    0.411    6.652
  143.500   64.594    0.335    0.412    6.645
  143.750   65.621    0.330    0.406    6.655
  144.000   63.756    0.328    0.391    6.774
  144.250   57.577    0.330    0.381    7.171
  144.500   54.069    0.334    0.374    7.944
  144.750   55.363    0.333    0.359    8.848
  145.000   65.785    0.320    0.378    9.512
  145.250   83.648    0.297    0.455    9.617
  145.500   97.909    0.278    0.525    8.965
  145.750  106.684    0.279    0.552    7.784
  146.000  110.100    0.284    0.573    7.081
  146.250  113.865    0.281    0.567    6.624
  146.500  106.122    0.273    0.517    6.370
  146.750   91.055    0.256    0.472    6.416
  147.000   94.931    0.223    0.482    6.412
  147.250  103.327    0.212    0.505    6.506
  147.500  108.520    0.214    0.501    6.627
  147.750  110.469    0.224    0.486    6.665
  148.000  107.885    0.234    0.492    6.654
  148.250  102.808    0.242    0.505    6.657
  148.500  101.735    0.250    0.491    6.657
  148.750  103.672    0.239    0.483    6.660
  149.000  105.982    0.244    0.482    6.646
  149.250  107.183    0.261    0.487    6.718
  149.500  107.087    0.265    0.494    6.805
  149.750  105.640    0.257    0.501    6.769
  150.000  104.231    0.256    0.514    6.660
  150.250  106.294    0.275    0.524    6.562
  150.500  107.295    0.289    0.505    6.439
  150.750  109.469    0.284    0.489    6.456
  151.000  101.701    0.287    0.484    6.591
  151.250   83.691    0.318    0.472    6.669
  151.500   73.828    0.347    0.452    6.663
  151.750   64.436    0.357    0.419    6.660
  152.000   58.837    0.355    0.404    6.673
  152.250   57.697    0.349    0.408    6.616
  152.500   59.707    0.347    0.421    6.489
  152.750   62.733    0.348    0.422    6.420
  153.000   64.094    0.347    0.404    6.422
  153.250   65.341    0.343    0.399    6.310
  153.500   68.689    0.340    0.401    6.417
  153.750   64.162    0.338    0.410    6.784
  154.000   57.919    0.336    0.421    7.217
  154.250   59.023    0.336    0.426    7.710
  154.500   61.090    0.342    0.423    8.490
  154.750   64.138    0.354    0.420    9.607
  155.000   66.233    0.351    0.415   10.949
  155.250   61.597    0.343    0.411   12.960
  155.500   56.187    0.343    0.404   15.046
  155.750   56.503    0.350    0.403   16.111
  156.000   58.100    0.355    0.422   15.714
  156.250   60.212    0.353    0.441   13.607
  156.500   61.257    0.351    0.457   10.790
  156.750   60.636    0.354    0.449    9.008
  157.000   59.739    0.359    0.430    8.195
  157.250   60.219    0.359    0.421    7.471
  157.500   61.826    0.354    0.422    6.928
  157.750   62.903    0.351    0.427    6.594
  158.000   63.399    0.341    0.425    6.448
  158.250   61.651    0.335    0.413    6.431
  158.500   57.806    0.336    0.403    6.415
  158.750   54.824    0.345    0.409    6.461
  159.000   55.172    0.364    0.429    6.675
  159.250   57.763    0.368    0.418    6.694
  159.500   59.285    0.359    0.409    6.586
  159.750   59.561    0.350    0.417    6.544
  160.000   59.354    0.346    0.430    6.555
  160.250   58.730    0.344    0.427    6.558
  160.500   58.287    0.342    0.398    6.555
  160.750   59.294    0.342    0.387    6.451
  161.000   60.183    0.352    0.392    6.426
  161.250   61.981    0.351    0.398    6.438
  161.500   60.472    0.341    0.407    6.435
  161.750   55.997    0.336    0.422    6.436
  162.000   57.112    0.333    0.439    6.436
  162.250   61.304    0.333    0.437    6.436
  162.500   63.159    0.335    0.361    6.440
  162.750   60.680    0.347    0.220    6.429
  163.000   57.353    0.356    0.247    6.465
  163.250   57.576    0.380    0.391    6.586
  163.500   60.232    0.366    0.301    6.683
  163.750   58.504    0.115    0.173    6.602
  164.000   49.718   -0.001    0.124    6.337
  164.250   43.548    0.031    0.111    6.017
  164.500   43.715    0.067    0.114    5.808
  164.750   47.151    0.137    0.189    5.759
  165.000   52.343    0.292    0.318    5.868
  165.250   56.508    0.358    0.361    6.235
  165.500   59.941    0.349    0.391    6.649
  165.750   61.636    0.334    0.415    7.046
  166.000   61.173    0.340    0.421    7.234
  166.250   60.262    0.352    0.433    7.203
  166.500   60.354    0.354    0.446    7.206
  166.750   60.331    0.346    0.426    7.100
  167.000   60.766    0.338    0.413    6.985
  167.250   61.130    0.338    0.415    6.878
  167.500   60.770    0.343    0.412    6.780
  167.750   60.420    0.342    0.415    6.659
  168.000   61.022    0.339    0.437    6.567
  168.250   61.593    0.336    0.423    6.775
  168.500   61.644    0.334    0.410    6.898
  168.750   61.861    0.331    0.412    7.081
  169.000   62.651    0.338    0.414    7.241
  169.250   63.720    0.352    0.418    7.198
  169.500   64.134    0.352    0.430    7.079
  169.750   62.687    0.350    0.416    6.772
  170.000   61.250    0.349    0.405    6.378
  170.250   61.510    0.348    0.405    5.951
  170.500   62.922    0.344    0.407    5.189
  170.750   64.516    0.336    0.398    4.322
  171.000   66.020    0.332    0.383    4.051
  171.250   66.543    0.330    0.391    3.985
  171.500   67.188    0.336    0.420    3.935
  171.750   66.825    0.348    0.426    3.837
  172.000   65.593    0.355    0.412    3.713
  172.250   64.703    0.349    0.409    3.602
  172.500   65.457    0.341    0.411    3.491
  172.750   69.690    0.339    0.408    3.383
  173.000   70.899    0.336    0.409    3.309
  173.250   69.297    0.335    0.424    3.324
  173.500   66.942    0.337    0.431    3.387
  173.750   64.465    0.336    0.412    3.439
  174.000   62.486    0.333    0.388    3.557
  174.250   61.193    0.330    0.383    3.799
  174.500   62.857    0.330    0.381    3.881
  174.750   64.325    0.331    0.390    4.006
  175.000   65.876    0.333    0.404    4.191
  175.250   69.342    0.332    0.408    4.315
  175.500   72.290    0.330    0.406    4.617
  175.750   72.667    0.328    0.411    5.312
  176.000   69.501    0.326    0.416    6.013
  176.250   64.111    0.324    0.417    6.923
  176.500   60.412    0.327    0.417    7.420
  176.750   62.246    0.333    0.415    7.175
