~VERSION INFORMATION
 VERS.                 2.0:   CWLS LOG ASCII STANDARD -VERSION 2.0
 WRAP.                  NO:   ONE LINE PER DEPTH STEP
~WELL INFORMATION BLOCK
#MNEM.UNIT           DATA                    DESCRIPTION OF MNEMONIC
#---------    -------------------            -------------------------------
# Generated from Intellog Unique Number	CW_79_81/WELL/2459
WELL.         07-20-081-22W4                 : Well_name    - WELL
LOC .         00/07-20-081-22W4/0            : Location     - LOCATION
UWI .         00/07-20-081-22W4/0            : Uwi          - UNIQUE WELL ID
ENTR.         MAX                            : Entered      - ENTERED BY
SRVC.         SCHLUMBERGER                   : Scn          - SERVICE COMPANY
STRT.M        225                            : top_depth    - START DEPTH
STOP.M        439.75                         : bot_depth    - STOP DEPTH
STEP.M        0.25                           : increment    - STEP LENGTH
 NULL. -999.2500:NULL Value
~CURVE INFORMATION BLOCK
#MNEM UNIT       ERCB CURVE CODE    CURVE DESCRIPTION
#-----------   ------------------   ----------------------------------
DEPT.M        00 001 00 00         : DEPTH        - DEPTH
ILD .OHMM     00 120 00 00         : RESD         - DEEP RESISTIVITY (DIL)
NPHI.V/V      00 330 00 00         : PHIN         - NEUTRON POROSITY (SANDSTONE)
DPHI.V/V      00 890 00 00         : PHID         - DENSITY POROSITY (SANDSTONE)
GR  .API      00 310 00 00         : GR           - GAMMA RAY
CALI.MM       00 280 01 00         : CAL          - CALIPER
~PARAMETER INFORMATION
#MNEM.UNIT           DATA             DESCRIPTION OF MNEMONIC
#---------         -----------     ------------------------------
GL  .M        606.19               : gl           - GROUND LEVEL ELEVATION
EREF.M        609.8                : kb           - ELEVATION OF DEPTH REFERENCE
DATM.M        606.19               : datum        - DATUM ELEVATION
TDD .M        449                  : tdd          - TOTAL DEPTH DRILLER
RUN .         ONE                  : Run          - RUN NUMBER
ENG .         BILL                 : Engineer     - RECORDING ENGINEER
WIT .         JIM                  : Witness      - WITNESSED BY
MUD .         GEL                  : Mud_type     - MUD TYPE
MATR.         SANDSTONE            : Logunit      - NEUTRON MATRIX
TMAX.C        28                   : BHT          - MAXIMUM RECORDED TEMPERATURE
BHTD.M        449                  : BHTDEP       - MAXIMUM RECORDED TEMPERATURE
MATR.         1                    : LOGUNIT      - NEUTRON MATRIX
RMT .C        16                   : MDTP         - TEMPERATURE OF MUD
NEUT.         1                    : NEUTRON      - NEUTRON TYPE
RESI.         0                    : RESIST       - RESISTIVITY TYPE
RMC .OHMM     5                    : RMC          - RESISTIVITY OF MUD CAKE
RMF .OHMM     5                    : RMF          - RESISTIVITY OF MUD FILTRATE
SUFT.C        -20                  : SUFT         - SURFACE TEMPERATURE
~A  DEPTH     RESD     PHIN     PHID       GR      CAL
# ...
  407.500    9.721    0.412    0.216  106.294  169.389
  407.750    9.858    0.447    0.252  106.655  174.286
  408.000   10.169    0.434    0.284  104.953  173.477
  408.250   10.550    0.408    0.267  100.052  167.254
  408.500   11.066    0.423    0.238   93.925  167.158
  408.750   11.734    0.439    0.226   88.440  169.104
  409.000   12.709    0.433    0.224   84.940  169.884
  409.250   15.027    0.396    0.181   84.386  166.676
  409.500   18.987    0.376    0.115   85.117  164.246
  409.750   22.080    0.382    0.130   86.751  163.858
  410.000   24.427    0.398    0.153   90.137  163.470
  410.250   26.120    0.401    0.189   92.706  163.277
  410.500   27.071    0.388    0.223   93.815  163.279
  410.750   26.490    0.385    0.215   94.555  163.280
  411.000   25.517    0.394    0.215   93.584  163.281
  411.250   24.789    0.385    0.220   82.614  163.283
  411.500   24.757    0.391    0.222   70.942  163.284
  411.750   26.203    0.400    0.239   59.270  163.480
  412.000   30.304    0.409    0.266   47.834  164.259
  412.250   43.448    0.413    0.287   35.715  165.639
  412.500   69.931    0.396    0.314   32.312  162.804
  412.750  106.303    0.388    0.315   31.846  160.860
  413.000  135.857    0.380    0.315   31.730  160.375
  413.250  144.675    0.373    0.314   31.964  160.376
  413.500  138.143    0.374    0.312   32.315  160.475
  413.750  123.043    0.387    0.313   32.462  160.865
  414.000  110.773    0.376    0.333   33.192  160.867
  414.250   96.238    0.375    0.333   35.294  160.868
  414.500   85.167    0.386    0.326   38.796  160.578
  414.750   75.191    0.395    0.320   41.832  160.385
  415.000   66.020    0.396    0.316   43.700  160.386
  415.250   57.227    0.397    0.312   45.160  160.388
  415.500   53.483    0.402    0.312   46.620  160.389
  415.750   51.584    0.406    0.313   49.422  160.391
  416.000   50.309    0.405    0.315   52.049  160.684
  416.250   48.508    0.394    0.317   55.551  161.269
  416.500   46.029    0.376    0.309   60.104  161.951
  416.750   42.050    0.358    0.268   66.369  162.504
  417.000   36.214    0.334    0.225   73.178  163.316
  417.250   31.459    0.355    0.257   78.081  166.818
  417.500   21.894    0.385    0.279   80.533  174.698
  417.750   16.026    0.404    0.317   82.168  186.372
  418.000   13.044    0.409    0.363   82.986  198.628
  418.250   11.313    0.417    0.382   81.256  207.821
  418.500    9.392    0.436    0.398   80.770  218.766
  418.750    7.619    0.444    0.367   82.172  223.046
  419.000    7.001    0.456    0.339   87.775  236.956
  419.250    6.906    0.469    0.328   91.978  228.398
  419.500    7.209    0.471    0.329   91.162  200.486
  419.750    8.313    0.435    0.296   81.456  186.919
  420.000    9.861    0.404    0.187   70.271  163.819
  420.250   11.957    0.336    0.153   72.372  161.875
  420.500   14.468    0.339    0.162   79.726  160.807
  420.750   16.838    0.367    0.190   85.797  160.225
  421.000   17.450    0.392    0.222   88.949  160.420
  421.250   14.062    0.408    0.271   93.035  164.150
  421.500   10.937    0.421    0.344   95.954  173.068
  421.750    9.865    0.442    0.337   93.854  178.516
  422.000    9.792    0.452    0.331   89.303  178.712
  422.250   10.299    0.443    0.321   83.701  176.185
  422.500   11.441    0.423    0.306   76.233  172.782
  422.750   14.620    0.404    0.281   63.180  168.779
  423.000   19.689    0.396    0.270   59.776  164.322
  423.250   24.041    0.398    0.269   63.745  161.601
  423.500   29.299    0.391    0.249   66.839  161.505
  423.750   32.953    0.379    0.228   68.124  161.895
  424.000   33.272    0.368    0.216   68.242  161.702
  424.250   32.084    0.367    0.224   70.042  160.844
  424.500   30.904    0.371    0.240   73.204  160.441
  424.750   28.937    0.373    0.251   76.006  160.442
  425.000   25.433    0.380    0.245   78.983  160.735
  425.250   21.714    0.394    0.233   82.369  161.125
  425.500   18.854    0.412    0.226   84.879  161.613
  425.750   17.232    0.421    0.241   83.665  162.231
  426.000   16.350    0.414    0.253   83.422  161.422
  426.250   15.538    0.410    0.265   87.624  161.812
  426.500   14.684    0.404    0.279   96.904  162.203
  426.750   13.216    0.417    0.296  107.060  164.150
  427.000   11.166    0.446    0.305  113.539  168.333
  427.250    8.567    0.461    0.285  110.321  173.182
  427.500    7.010    0.453    0.273  104.728  166.293
  427.750    6.135    0.464    0.257  104.029  164.739
  428.000    5.597    0.485    0.244  105.781  164.643
  428.250    5.386    0.500    0.227  108.349  165.033
  428.500    5.437    0.500    0.206  110.101  165.812
  428.750    5.727    0.479    0.193  109.499  167.030
  429.000    6.187    0.461    0.212  109.986  163.384
  429.250    6.607    0.446    0.231  109.754  163.385
  429.500    6.834    0.432    0.249  108.470  164.554
  429.750    6.812    0.448    0.292  107.187  166.890
  430.000    6.595    0.488    0.353  106.604  168.837
  430.250    6.268    0.512    0.381  107.413  166.472
  430.500    6.038    0.527    0.342  109.116  162.420
  430.750    5.997    0.528    0.309  110.284  162.422
  431.000    5.989    0.524    0.318  111.977  163.007
  431.250    5.948    0.522    0.343  112.795  163.591
  431.500    5.929    0.526    0.357  112.037  164.273
  431.750    6.216    0.545    0.316  110.044  166.318
  432.000    6.820    0.549    0.246  111.747  168.751
  432.250    7.495    0.508    0.280  115.249  166.807
  432.500    8.112    0.471    0.285  116.476  164.280
  432.750    8.762    0.444    0.282  117.527  162.919
  433.000    9.505    0.440    0.287  117.820  162.726
  433.250   10.525    0.473    0.315  112.870  161.950
  433.500   11.729    0.488    0.329  106.792  161.951
  433.750   13.354    0.469    0.318  100.257  161.952
  434.000   16.558    0.440    0.308   96.172  162.537
  434.250   21.345    0.426    0.301   94.772  162.928
  434.500   27.255    0.431    0.302   94.948  162.832
  434.750   34.227    0.433    0.315   93.519  162.444
  435.000   37.550    0.427    0.317   89.872  162.446
  435.250   40.683    0.423    0.319   86.839  162.447
  435.500   41.793    0.421    0.322   85.906  162.157
  435.750   41.043    0.421    0.321   86.840  161.769
  436.000   39.001    0.420    0.312   89.817  161.479
  436.250   34.351    0.420    0.295   96.345  161.642
  436.500   27.105    0.421    0.276  100.966  162.455
  436.750   21.324    0.421    0.283  104.001  162.845
  437.000   16.518    0.425    0.258  109.138  162.943
  437.250   14.283    0.424    0.217  114.041  163.139
  437.500   13.760    0.416    0.179  116.085  163.530
  437.750   14.418    0.407    0.159  110.114  164.002
  438.000   16.446    0.401    0.139   98.928  164.408
  438.250   20.640    0.414    0.117   72.320  165.577
  438.500   25.009    0.406    0.084   70.567  165.870
  438.750   28.372    0.351    0.056   77.922  165.093
  439.000   29.287    0.279    0.040   85.800  163.733
  439.250   23.717    0.278    0.034   93.340  162.794
  439.500   14.383    0.325    0.031   96.016  161.985
  439.750   14.602    0.345    0.028   92.982  161.597
