~VERSION INFORMATION
 VERS.                 2.0:   CWLS LOG ASCII STANDARD -VERSION 2.0
 WRAP.                  NO:   ONE LINE PER DEPTH STEP
~WELL INFORMATION BLOCK
#MNEM.UNIT           DATA                    DESCRIPTION OF MNEMONIC
#---------    -------------------            -------------------------------
# Generated from Intellog Unique Number	CN_91_93/WELL/3031
WELL.         PARAMOUNT RESOURCES LTD.       : Well_name    - WELL
LOC .         00/04-24-092-20W4/0            : Location     - LOCATION
UWI .         00/04-24-092-20W4/0            : Uwi          - UNIQUE WELL ID
ENTR.         JOETTE                         : Entered      - ENTERED BY
SRVC.         COMPUTALOG                     : Scn          - SERVICE COMPANY
DATE.         04/09/92                       : Date         - LOG DATE
STRT.M        110                            : top_depth    - START DEPTH
STOP.M        243                            : bot_depth    - STOP DEPTH
STEP.M        0.25                           : increment    - STEP LENGTH
 NULL. -999.2500:NULL Value
~CURVE INFORMATION BLOCK
#MNEM UNIT       ERCB CURVE CODE    CURVE DESCRIPTION
#-----------   ------------------   ----------------------------------
DEPT.M        00 001 00 00         : DEPTH        - DEPTH
CALI.MM       00 280 01 00         : CAL          - CALIPER
GR  .API      00 310 00 00         : GR           - GAMMA RAY
NPHI.V/V      00 330 00 00         : PHIN         - NEUTRON POROSITY (SANDSTONE)
DPHI.V/V      00 890 00 00         : PHID         - DENSITY POROSITY (SANDSTONE)
ILD .OHMM     00 120 00 00         : RESD         - DEEP RESISTIVITY (DIL)
~PARAMETER INFORMATION
#MNEM.UNIT           DATA             DESCRIPTION OF MNEMONIC
#---------         -----------     ------------------------------
GL  .M        520.2                : gl           - GROUND LEVEL ELEVATION
EREF.M        523.6                : kb           - ELEVATION OF DEPTH REFERENCE
DATM.M        523.6                : datum        - DATUM ELEVATION
TDD .M        241.3                : tdd          - TOTAL DEPTH DRILLER
RUN .         ONE                  : Run          - RUN NUMBER
ENG .         JO                   : Engineer     - RECORDING ENGINEER
WIT .         TIM                  : Witness      - WITNESSED BY
MUD .         GEL                  : Mud_type     - MUD TYPE
MATR.         SANDSTONE            : Logunit      - NEUTRON MATRIX
TMAX.C        17                   : BHT          - MAXIMUM RECORDED TEMPERATURE
BHTD.M        241.3                : BHTDEP       - MAXIMUM RECORDED TEMPERATURE
RMT .C        17.8                 : MDTP         - TEMPERATURE OF MUD
MUDD.KG/M     1080                 : MWT          - MUD DENSITY
NEUT.         1                    : NEUTRON      - NEUTRON TYPE
RESI.         0                    : RESIST       - RESISTIVITY TYPE
RM  .OHMM     1.9                  : RM           - RESISTIVITY OF MUD
RMC .OHMM     1.9                  : RMC          - RESISTIVITY OF MUD CAKE
RMF .OHMM     1.4                  : RMF          - RESISTIVITY OF MUD FILTRATE
SUFT.C        4                    : SUFT         - SURFACE TEMPERATURE
~A  DEPTH      CAL       GR     PHIN     PHID     RESD
# ...
  183.000  162.290  100.601    0.335    0.141   14.798
  183.250  160.274   94.414    0.310    0.142   17.276
  183.500  160.344   91.314    0.302    0.122   20.561
  183.750  160.438   82.610    0.289    0.076   20.981
  184.000  161.622   87.046    0.280    0.081   19.444
  184.250  162.735   95.876    0.302    0.115   18.360
  184.500  162.805  102.815    0.338    0.150   16.691
  184.750  162.922  109.129    0.369    0.188   16.070
  185.000  163.016  110.464    0.374    0.213   14.896
  185.250  162.090  110.521    0.358    0.211   14.341
  185.500  163.227  111.202    0.344    0.182   13.549
  185.750  164.340  115.639    0.334    0.172   13.562
  186.000  166.543  120.686    0.333    0.171   13.570
  186.250  167.679  122.620    0.339    0.176   13.581
  186.500  168.816  118.296    0.343    0.166   13.589
  186.750  166.847  114.626    0.350    0.144   13.869
  187.000  165.875  113.403    0.354    0.133   13.874
  187.250  164.926  112.847    0.360    0.140   13.885
  187.500  163.953  113.515    0.365    0.172   13.896
  187.750  165.090  118.605    0.378    0.195   13.384
  188.000  168.312  120.539    0.389    0.185   12.885
  188.250  172.600  119.343    0.385    0.181   12.649
  188.500  174.780  115.631    0.366    0.162   14.768
  188.750  173.831  110.682    0.351    0.077   15.664
  189.000  169.776  108.250    0.361    0.075   15.081
  189.250  167.761  110.794    0.357    0.181   14.522
  189.500  164.726  111.490    0.347    0.216   13.459
  189.750  164.820  109.670    0.342    0.224   12.468
  190.000  165.956  110.977    0.349    0.223   10.492
  190.250  167.093  114.774    0.380    0.220    8.663
  190.500  166.191  119.835    0.408    0.216    8.182
  190.750  165.218  121.769    0.432    0.201    8.675
  191.000  164.246  114.317    0.440    0.186    9.745
  191.250  164.386  111.258    0.425    0.184   11.379
  191.500  164.456  112.566    0.409    0.180   11.832
  191.750  164.574  113.248    0.397    0.170   12.309
  192.000  164.644  112.678    0.389    0.166   12.316
  192.250  164.714  111.483    0.388    0.171   12.330
  192.500  164.831  109.037    0.388    0.158   12.337
  192.750  164.925  102.822    0.393    0.135   12.344
  193.000  165.019  101.627    0.402    0.087   12.359
  193.250  165.136  106.703    0.415    0.111   12.368
  193.500  165.230  111.139    0.413    0.158   12.375
  193.750  165.323  115.575    0.421    0.179   12.151
  194.000  166.460  119.385    0.424    0.182   12.158
  194.250  166.554  120.707    0.408    0.180   12.648
  194.500  166.624  115.118    0.389    0.149   13.937
  194.750  166.718  107.666    0.358    0.083   15.653
  195.000  166.835  102.744    0.323    0.083   17.590
  195.250  166.928  104.024    0.302    0.135   18.288
  195.500  166.999  107.834    0.297    0.138   18.658
  195.750  167.092  108.530    0.319    0.116   17.288
  196.000  167.210  112.341    0.338    0.147   15.716
  196.250  166.260  114.914    0.350    0.170   16.664
  196.500  164.339  113.705    0.342    0.169   17.668
  196.750  164.409  113.761    0.320    0.144   18.380
  197.000  164.456  110.063    0.302    0.084   18.398
  197.250  164.573  103.236    0.313    0.115   18.405
  197.500  164.643  108.924    0.322    0.161   18.067
  197.750  164.737  113.986    0.331    0.157   17.737
  198.000  163.788  114.668    0.330    0.138   17.419
  198.250  163.882  112.235    0.330    0.117   17.425
  198.500  163.975  112.306    0.339    0.100   17.785
  198.750  163.026  112.334    0.352    0.108   18.141
  199.000  163.120  113.641    0.357    0.129   18.159
  199.250  163.214  114.977    0.351    0.141   18.519
  199.500  163.307  111.891    0.337    0.156   18.897
  199.750  163.425  108.193    0.328    0.156   18.915
  200.000  163.542  105.120    0.318    0.150   18.933
  200.250  163.612  103.314    0.318    0.153   19.309
  200.500  163.753  103.342    0.322    0.174   19.324
  200.750  162.757  104.677    0.329    0.195   19.346
  201.000  159.722  105.359    0.323    0.196   19.734
  201.250  153.558   96.002    0.298    0.167   20.924
  201.500  149.481   76.661    0.280    0.101   23.052
  201.750  151.660   71.100    0.267    0.060   28.517
  202.000  153.840   72.408    0.279    0.098   27.990
  202.250  156.019   78.081    0.312    0.126   24.017
  202.500  159.241   86.897    0.339    0.135   21.829
  202.750  161.467   98.856    0.357    0.140   19.462
  203.000  161.514  105.169    0.376    0.093   16.694
  203.250  162.651  100.220    0.386    0.024   14.321
  203.500  162.791  100.276    0.389    0.077   13.270
  203.750  162.862  105.338    0.390    0.118   12.781
  204.000  161.913  115.420    0.398    0.153   11.845
  204.250  160.987  115.490    0.393    0.170   10.563
  204.500  161.057  114.295    0.384    0.169   10.168
  204.750  160.108  116.228    0.376    0.150    9.606
  205.000  160.225  114.393    0.382    0.124    9.799
  205.250  160.319  110.069    0.393    0.084   10.391
  205.500  159.346  108.263    0.407    0.084   11.020
  205.750  159.464  107.067    0.402    0.097   11.461
  206.000  159.557  109.001    0.398    0.107   11.689
  206.250  159.651  112.186    0.407    0.121   11.930
  206.500  159.745  115.996    0.421    0.142   12.166
  206.750  159.815  117.304    0.427    0.175   12.178
  207.000  159.909  117.360    0.418    0.179   12.185
  207.250  160.026  119.293    0.409    0.171   12.195
  207.500  160.120  118.724    0.400    0.154   12.204
  207.750  160.213  118.154    0.399    0.167   11.983
  208.000  160.377  123.230    0.412    0.164   11.768
  208.250  160.448  123.286    0.422    0.144   11.773
  208.500  160.494  120.214    0.411    0.139   11.557
  208.750  160.612  121.522    0.406    0.137   10.919
  209.000  160.705  119.701    0.407    0.091   10.512
  209.250  160.776  111.609    0.408    0.023   10.125
  209.500  161.912  100.402    0.405    0.078    9.942
  209.750  162.006  109.219    0.395    0.119    9.945
  210.000  163.166  115.532    0.392    0.151    9.955
  210.250  163.236  124.988    0.395    0.158   10.155
  210.500  164.373  125.684    0.383    0.171   10.166
  210.750  164.490  124.488    0.374    0.163   10.170
  211.000  164.607  123.905    0.366    0.152    9.984
  211.250  165.720  123.961    0.376    0.139    9.433
  211.500  165.837  125.269    0.381    0.129    9.260
  211.750  165.931  130.331    0.386    0.123    9.820
  212.000  166.001  137.284    0.387    0.132   10.614
  212.250  165.052  141.720    0.397    0.149   11.694
  212.500  165.146  143.667    0.405    0.162   13.394
  212.750  164.197  139.330    0.405    0.176   15.046
  213.000  162.252  113.092    0.388    0.208   16.899
  213.250  160.213   78.095    0.338    0.233   23.466
  213.500  155.116   61.869    0.137    0.286   27.933
  213.750  151.038   41.277    0.075    0.369   35.899
  214.000  150.089   41.347    0.117    0.359   52.805
  214.250  150.183   43.906    0.159    0.346   79.181
  214.500  150.300   44.588    0.215    0.337   83.971
  214.750  151.390   45.256    0.246    0.336   84.052
  215.000  153.592   47.203    0.263    0.337   84.117
  215.250  154.729   49.137    0.256    0.347   84.182
  215.500  155.842   50.444    0.253    0.344   84.247
  215.750  155.959   51.126    0.255    0.338   81.127
  216.000  157.096   51.182    0.254    0.334   78.123
  216.250  157.213   52.490    0.250    0.329   69.653
  216.500  157.283   51.921    0.246    0.329   63.296
  216.750  157.424   49.474    0.253    0.329   54.301
  217.000  157.494   47.041    0.277    0.329   37.700
  217.250  157.588   46.472    0.317    0.324   34.925
  217.500  157.658   47.140    0.341    0.316   29.962
  217.750  157.752   49.713    0.363    0.304   25.705
  218.000  157.869   51.646    0.373    0.300   25.234
  218.250  159.029   52.314    0.378    0.301   27.806
  218.500  159.076   52.385    0.381    0.302   31.235
  218.750  159.193   52.441    0.385    0.297   36.465
  219.000  159.287   52.497    0.392    0.291   43.399
  219.250  159.380   50.690    0.408    0.290   51.661
