~VERSION INFORMATION
 VERS.                 2.0:   CWLS LOG ASCII STANDARD -VERSION 2.0
 WRAP.                  NO:   ONE LINE PER DEPTH STEP
~WELL INFORMATION BLOCK
#MNEM.UNIT           DATA                    DESCRIPTION OF MNEMONIC
#---------    -------------------            -------------------------------
# Generated from Intellog Unique Number	CS_77_79/WELL/917
WELL.         ICGR GRAHAM                    : Well_name    - WELL
LOC .         00/08-09-079-05W4/0            : Location     - LOCATION
UWI .         00/08-09-079-05W4/0            : Uwi          - UNIQUE WELL ID
ENTR.         JHS                            : Entered      - ENTERED BY
SRVC.         SCHLUMBERGER                   : Scn          - SERVICE COMPANY
STRT.M        95                             : top_depth    - START DEPTH
STOP.M        330                            : bot_depth    - STOP DEPTH
STEP.M        0.25                           : increment    - STEP LENGTH
 NULL. -999.2500:NULL Value
~CURVE INFORMATION BLOCK
#MNEM UNIT       ERCB CURVE CODE    CURVE DESCRIPTION
#-----------   ------------------   ----------------------------------
DEPT.M        00 001 00 00         : DEPTH        - DEPTH
DPHI.V/V      00 890 00 00         : PHID         - DENSITY POROSITY (LIMESTONE)
NPHI.V/V      00 330 00 00         : PHIN         - NEUTRON POROSITY (LIMESTONE)
GR  .API      00 310 00 00         : GR           - GAMMA RAY
ILD .OHMM     00 120 00 00         : RESD         - DEEP RESISTIVITY (DIL)
RHOB.KG/M3    00 350 00 00         : DENS         - BULK DENSITY
~PARAMETER INFORMATION
#MNEM.UNIT           DATA             DESCRIPTION OF MNEMONIC
#---------         -----------     ------------------------------
GL  .M        510.2                : gl           - GROUND LEVEL ELEVATION
EREF.M        513.2                : kb           - ELEVATION OF DEPTH REFERENCE
DATM.M        513.2                : datum        - DATUM ELEVATION
TDD .M        339                  : tdd          - TOTAL DEPTH DRILLER
RUN .         ONE                  : Run          - RUN NUMBER
ENG .         BILL                 : Engineer     - RECORDING ENGINEER
WIT .         JIM                  : Witness      - WITNESSED BY
MUD .         GEL                  : Mud_type     - MUD TYPE
MATR.         LIMESTONE            : Logunit      - NEUTRON MATRIX
TMAX.C        24                   : BHT          - MAXIMUM RECORDED TEMPERATURE
BHTD.M        339                  : BHTDEP       - MAXIMUM RECORDED TEMPERATURE
MATR.         1                    : LOGUNIT      - NEUTRON MATRIX
RMT .C        25                   : MDTP         - TEMPERATURE OF MUD
NEUT.         1                    : NEUTRON      - NEUTRON TYPE
RESI.         0                    : RESIST       - RESISTIVITY TYPE
RMC .OHMM     0.25                 : RMC          - RESISTIVITY OF MUD CAKE
RMF .OHMM     0.25                 : RMF          - RESISTIVITY OF MUD FILTRATE
SUFT.C        15                   : SUFT         - SURFACE TEMPERATURE
~A  DEPTH     PHID     PHIN       GR     RESD     DENS
# ...
  168.000    0.297    0.463   72.457   11.213    0.000
  168.250    0.321    0.468   69.436   10.812    0.000
  168.500    0.316    0.452   66.426   10.619    0.000
  168.750    0.311    0.452   65.249   10.436    0.000
  169.000    0.322    0.461   64.073   10.250    0.000
  169.250    0.326    0.461   64.715   10.263    0.000
  169.500    0.329    0.453   69.029   10.275    0.000
  169.750    0.339    0.457   66.626   10.288    0.000
  170.000    0.339    0.461   63.618   10.297    0.000
  170.250    0.329    0.452   66.092   10.311    0.000
  170.500    0.314    0.434   71.620   10.322    0.000
  170.750    0.298    0.439   73.488   10.531    0.000
  171.000    0.290    0.453   73.545   10.543    0.000
  171.250    0.294    0.460   75.404   10.552    0.000
  171.500    0.298    0.463   76.048   10.763    0.000
  171.750    0.298    0.453   72.426   10.577    0.000
  172.000    0.304    0.442   70.033   10.589    0.000
  172.250    0.307    0.446   71.897   10.402    0.000
  172.500    0.299    0.469   72.547   10.220    0.000
  172.750    0.295    0.477   72.582   10.040    0.000
  173.000    0.290    0.454   76.280    9.867    0.000
  173.250    0.288    0.455   72.660    9.691    0.000
  173.500    0.308    0.477   62.950    8.998    0.000
  173.750    0.331    0.471   59.939    7.895    0.000
  174.000    0.297    0.462   70.341    6.308    0.000
  174.250    0.268    0.478   86.842    5.133    0.000
  174.500    0.252    0.519  102.126    4.339    0.000
  174.750    0.252    0.553  103.993    3.954    0.000
  175.000    0.250    0.539  104.032    3.813    0.000
  175.250    0.244    0.525  105.913    3.816    0.000
  175.500    0.249    0.519  104.126    3.969    0.000
  175.750    0.251    0.534  100.508    4.048    0.000
  176.000    0.250    0.531   99.320    4.453    0.000
  176.250    0.252    0.519   98.746    4.714    0.000
  176.500    0.256    0.504   93.910    5.284    0.000
  176.750    0.261    0.501   87.845    5.923    0.000
  177.000    0.259    0.503   87.284    6.042    0.000
  177.250    0.253    0.496   90.981    5.404    0.000
  177.500    0.252    0.518   95.893    4.653    0.000
  177.750    0.248    0.539  100.815    4.161    0.000
  178.000    0.238    0.569  102.072    3.721    0.000
  178.250    0.233    0.546  100.886    3.588    0.000
  178.500    0.235    0.518   98.484    3.659    0.000
  178.750    0.245    0.535   99.746    3.734    0.000
  179.000    0.254    0.572   93.083    3.956    0.000
  179.250    0.258    0.554   93.127    4.189    0.000
  179.500    0.243    0.543   97.431    4.355    0.000
  179.750    0.238    0.553   95.633    4.278    0.000
  180.000    0.241    0.551   92.624    4.048    0.000
  180.250    0.250    0.541   96.944    3.902    0.000
  180.500    0.253    0.533  100.034    3.693    0.000
  180.750    0.253    0.526  102.504    3.429    0.000
  181.000    0.255    0.528  102.537    3.701    0.000
  181.250    0.265    0.576  105.015    4.072    0.000
  181.500    0.276    0.565  103.225    4.478    0.000
  181.750    0.293    0.477   95.946    5.114    0.000
  182.000    0.293    0.448   78.304    5.624    0.000
  182.250    0.254    0.439   79.569    6.303    0.000
  182.500    0.236    0.463   82.650    6.678    0.000
  182.750    0.239    0.485   88.186    6.561    0.000
  183.000    0.243    0.469   90.064    6.568    0.000
  183.250    0.242    0.482   90.087    6.701    0.000
  183.500    0.255    0.494   85.859    6.708    0.000
  183.750    0.260    0.471   81.019    6.346    0.000
  184.000    0.257    0.480   85.936    5.674    0.000
  184.250    0.241    0.500   89.032    4.980    0.000
  184.500    0.237    0.506   87.851    4.539    0.000
  184.750    0.245    0.512   89.711    4.215    0.000
  185.000    0.242    0.533   94.018    4.063    0.000
  185.250    0.245    0.541   98.335    4.067    0.000
  185.500    0.256    0.534   93.492    4.473    0.000
  185.750    0.266    0.485   81.945    5.405    0.000
  186.000    0.285    0.468   74.672    6.913    0.000
  186.250    0.303    0.467   71.052    8.044    0.000
  186.500    0.318    0.473   70.474    9.906    0.000
  186.750    0.315    0.474   71.130   10.893    0.000
  187.000    0.303    0.474   69.947   10.909    0.000
  187.250    0.296    0.480   67.556   10.515    0.000
  187.500    0.293    0.486   68.191    9.951    0.000
  187.750    0.295    0.493   70.672    9.966    0.000
  188.000    0.304    0.472   73.773    9.971    0.000
  188.250    0.300    0.454   74.421   10.565    0.000
  188.500    0.303    0.451   73.226   10.777    0.000
  188.750    0.312    0.459   72.046   10.789    0.000
  189.000    0.312    0.474   71.489   10.402    0.000
  189.250    0.293    0.480   74.575    9.842    0.000
  189.500    0.281    0.462   80.097    9.489    0.000
  189.750    0.269    0.474   81.964    9.150    0.000
  190.000    0.270    0.491   80.182    8.658    0.000
  190.250    0.274    0.506   81.439    8.346    0.000
  190.500    0.265    0.501   85.745    8.047    0.000
  190.750    0.254    0.479   87.003    7.760    0.000
  191.000    0.246    0.465   82.770    7.625    0.000
  191.250    0.262    0.455   80.371    7.490    0.000
  191.500    0.273    0.449   86.508    7.500    0.000
  191.750    0.271    0.450   88.373    7.365    0.000
  192.000    0.264    0.468   81.710    7.374    0.000
  192.250    0.258    0.482   78.088    7.245    0.000
  192.500    0.256    0.483   80.570    7.118    0.000
  192.750    0.258    0.483   84.878    7.127    0.000
  193.000    0.257    0.488   86.140    7.001    0.000
  193.250    0.251    0.501   89.224    7.010    0.000
  193.500    0.239    0.514   86.220    6.883    0.000
  193.750    0.225    0.505   85.030    6.763    0.000
  194.000    0.225    0.509   84.461    6.772    0.000
  194.250    0.233    0.497   88.769    6.907    0.000
  194.500    0.253    0.479   91.853    6.915    0.000
  194.750    0.260    0.497   90.674    6.925    0.000
  195.000    0.243    0.502   87.662    7.063    0.000
  195.250    0.240    0.495   87.095    7.206    0.000
  195.500    0.255    0.497   85.310    7.351    0.000
  195.750    0.257    0.498   83.519    6.827    0.000
  196.000    0.247    0.476   84.163    6.337    0.000
  196.250    0.237    0.470   90.308    5.061    0.000
  196.500    0.237    0.520   95.825    4.278    0.000
  196.750    0.258    0.583  100.756    3.898    0.000
  197.000    0.263    0.601   98.356    3.688    0.000
  197.250    0.268    0.547   91.065    3.693    0.000
  197.500    0.282    0.514   80.131    3.985    0.000
  197.750    0.321    0.502   73.472    5.704    0.000
  198.000    0.333    0.521   71.680    7.574    0.000
  198.250    0.336    0.501   69.888    9.504    0.000
  198.500    0.336    0.490   66.266   10.856    0.000
  198.750    0.337    0.478   64.471   11.498    0.000
  199.000    0.337    0.463   66.345   11.736    0.000
  199.250    0.334    0.475   66.994   11.742    0.000
  199.500    0.327    0.495   62.760   11.756    0.000
  199.750    0.318    0.482   60.975   11.339    0.000
  200.000    0.311    0.484   63.452   10.932    0.000
  200.250    0.313    0.472   68.990   10.148    0.000
  200.500    0.315    0.455   72.686    9.075    0.000
  200.750    0.307    0.461   75.157    8.587    0.000
  201.000    0.275    0.475   80.686    7.974    0.000
  201.250    0.268    0.494   83.168    7.687    0.000
  201.500    0.267    0.504   81.379    7.552    0.000
  201.750    0.259    0.498   81.405    7.419    0.000
  202.000    0.253    0.499   85.714    7.426    0.000
  202.250    0.253    0.504   86.367    7.436    0.000
  202.500    0.265    0.503   83.356    7.445    0.000
  202.750    0.267    0.511   87.064    7.312    0.000
  203.000    0.250    0.499   89.528    7.053    0.000
  203.250    0.239    0.492   89.581    6.798    0.000
  203.500    0.236    0.486   89.614    6.554    0.000
  203.750    0.240    0.489   90.873    6.203    0.000
  204.000    0.252    0.498   95.789    5.978    0.000
  204.250    0.256    0.516   99.484    5.551    0.000
