~VERSION INFORMATION
 VERS.                 2.0:   CWLS LOG ASCII STANDARD -VERSION 2.0
 WRAP.                  NO:   ONE LINE PER DEPTH STEP
~WELL INFORMATION BLOCK
#MNEM.UNIT           DATA                    DESCRIPTION OF MNEMONIC
#---------    -------------------            -------------------------------
# Generated from Intellog Unique Number	CW_70_72/WELL/993
NULL.         -999.25                        : NULL_VALUE
WELL.         NORCEN ET AL VICTOR 08-01      : Well_name    - WELL              
LOC .         08-01-071-02W5                 : Location     - LOCATION          
UWI .         00/08-01-071-02W5/0            : Uwi          - UNIQUE WELL ID    
ENTR.         JAYE                           : Entered      - ENTERED BY        
SRVC.         COMPUTALOG                     : Scn          - SERVICE COMPANY   
DATE.         7 JUNE 82                      : Date         - LOG DATE          
STRT.M        375                            : top_depth    - START DEPTH       
STOP.M        625                            : bot_depth    - STOP DEPTH        
STEP.M        0.25                           : increment    - STEP LENGTH       
~CURVE INFORMATION BLOCK
#MNEM UNIT       ERCB CURVE CODE    CURVE DESCRIPTION
#-----------   ------------------   ----------------------------------
DEPT.M        00 001 00 00         : DEPTH        - DEPTH                       
DPHI.V/V      00 890 00 00         : PHID         - DENSITY POROSITY (SANDSTONE)
NPHI.V/V      00 330 00 00         : PHIN         - NEUTRON POROSITY (SANDSTONE)
GR  .API      00 310 00 00         : GR           - GAMMA RAY                   
CALI.MM       00 280 01 00         : CAL          - CALIPER                     
ILD .OHMM     00 120 00 00         : RESD         - DEEP RESISTIVITY (DIL)      
~PARAMETER INFORMATION       
#MNEM.UNIT           DATA             DESCRIPTION OF MNEMONIC
#---------         -----------     ------------------------------
GL  .M        593.49               : gl           - GROUND LEVEL ELEVATION      
EREF.M        597.61               : kb           - ELEVATION OF DEPTH REFERENCE
DATM.M        593.49               : datum        - DATUM ELEVATION             
TDD .M        655                  : tdd          - TOTAL DEPTH DRILLER         
RUN .         ONE                  : Run          - RUN NUMBER                  
ENG .         SVRCEK               : Engineer     - RECORDING ENGINEER          
WIT .         BOGNER/MOORE         : Witness      - WITNESSED BY                
BASE.         EDM                  : Branch       - HOME BASE OF LOGGING UNIT   
MUD .         GEL CHEM             : Mud_type     - MUD TYPE                    
MATR.         SANDSTONE            : Logunit      - NEUTRON MATRIX              
TMAX.C        31                   : BHT          - MAXIMUM RECORDED TEMPERATURE
BHTD.M        654.7                : BHTDEP       - MAXIMUM RECORDED TEMPERATURE
RMT .C        15.5                 : MDTP         - TEMPERATURE OF MUD          
MUDD.KG/M     1130                 : MWT          - MUD DENSITY                 
NEUT.         1                    : NEUTRON      - NEUTRON TYPE                
RESI.         0                    : RESIST       - RESISTIVITY TYPE            
RM  .OHMM     2.4                  : RM           - RESISTIVITY OF MUD          
RMC .OHMM     2.1                  : RMC          - RESISTIVITY OF MUD CAKE     
RMF .OHMM     2.05                 : RMF          - RESISTIVITY OF MUD FILTRATE 
SUFT.C        0                    : SUFT         - SURFACE TEMPERATURE         
~A  DEPTH     PHID     PHIN       GR      CAL     RESD
# ...
  411.500    0.235    0.358   84.867  201.780    3.476
  411.750    0.230    0.358   92.348  202.112    3.202
  412.000    0.213    0.366   97.150  202.531    3.023
  412.250    0.204    0.380   97.719  203.276    2.892
  412.500    0.228    0.430   98.038  205.886    2.809
  412.750    0.235    0.395   99.849  215.344    2.812
  413.000    0.234    0.340  103.594  233.518    2.923
  413.250    0.245    0.328  106.965  233.426    3.033
  413.500    0.247    0.343  107.343  221.499    3.268
  413.750    0.239    0.367  103.180  212.272    3.726
  414.000    0.234    0.384   99.700  206.785    4.216
  414.250    0.243    0.352   94.600  203.065    4.535
  414.500    0.249    0.340   85.888  200.689    4.943
  414.750    0.251    0.360   80.667  198.520    5.396
  415.000    0.252    0.369   83.036  197.987    5.578
  415.250    0.244    0.348   86.223  198.513    5.573
  415.500    0.215    0.337   87.911  198.969    5.291
  415.750    0.187    0.362   87.789  199.908    4.921
  416.000    0.188    0.381   90.415  200.961    4.551
  416.250    0.200    0.393   93.471  202.017    4.379
  416.500    0.210    0.391   91.302  203.068    4.375
  416.750    0.226    0.346   87.326  203.908    4.429
  417.000    0.250    0.349   85.403  204.735    4.409
  417.250    0.247    0.371   84.600  205.286    4.397
  417.500    0.233    0.351   88.590  208.392    4.360
  417.750    0.207    0.367   98.125  210.586    4.291
  418.000    0.192    0.412  106.728  211.647    4.168
  418.250    0.195    0.396  102.865  211.559    3.995
  418.500    0.197    0.367  100.636  210.098    3.800
  418.750    0.199    0.345   94.917  208.881    3.528
  419.000    0.201    0.324  101.525  208.272    3.269
  419.250    0.192    0.367  115.979  209.732    2.938
  419.500    0.201    0.403  125.391  213.482    2.790
  419.750    0.206    0.460  120.343  214.428    2.751
  420.000    0.187    0.421  114.194  213.490    2.790
  420.250    0.181    0.400  107.540  212.489    2.857
  420.500    0.209    0.357   99.133  209.677    2.954
  420.750    0.220    0.339   91.861  207.321    3.019
  421.000    0.229    0.315   82.215  202.972    3.033
  421.250    0.244    0.330   71.700  196.752    3.025
  421.500    0.261    0.356   66.478  193.647    3.022
  421.750    0.286    0.390   60.694  193.961    3.019
  422.000    0.284    0.423   55.533  195.139    3.011
  422.250    0.284    0.402   49.063  197.122    2.986
  422.500    0.296    0.357   40.540  199.302    2.956
  422.750    0.304    0.314   32.947  200.453    2.833
  423.000    0.310    0.345   32.208  201.297    2.710
  423.250    0.318    0.369   35.020  201.507    2.633
  423.500    0.314    0.376   38.759  201.417    2.596
  423.750    0.302    0.356   35.531  201.325    2.594
  424.000    0.277    0.296   42.390  201.341    2.646
  424.250    0.233    0.266   63.504  201.150    2.781
  424.500    0.210    0.319   85.931  201.479    2.886
  424.750    0.201    0.337  102.376  202.531    3.063
  425.000    0.198    0.339  104.685  202.743    3.257
  425.250    0.193    0.334  105.125  202.040    3.354
  425.500    0.186    0.325  104.386  201.531    3.493
  425.750    0.174    0.312  105.395  202.457    3.652
  426.000    0.181    0.324  109.819  203.529    3.775
  426.250    0.208    0.319  117.303  207.790    3.801
  426.500    0.208    0.342  112.883  222.955    3.656
  426.750    0.191    0.336  109.472  222.962    3.388
  427.000    0.195    0.320  111.970  208.555    3.034
  427.250    0.211    0.347  116.211  203.687    2.602
  427.500    0.180    0.424  112.168  201.001    2.278
  427.750    0.119    0.440  110.059  200.702    2.063
  428.000    0.175    0.415  112.622  203.201    2.027
  428.250    0.222    0.399  116.982  204.049    2.111
  428.500    0.245    0.399  110.640  205.518    2.228
  428.750    0.251    0.448  103.546  207.085    2.387
  429.000    0.281    0.459   95.463  205.744    2.533
  429.250    0.307    0.392   80.955  206.800    2.653
  429.500    0.327    0.383   67.454  207.434    2.727
  429.750    0.307    0.381   59.493  206.715    2.787
  430.000    0.290    0.373   61.181  206.936    2.816
  430.250    0.284    0.364   63.603  206.118    2.868
  430.500    0.277    0.340   65.928  204.576    2.903
  430.750    0.270    0.350   71.661  205.109    2.923
  431.000    0.283    0.371   75.156  206.667    2.959
  431.250    0.301    0.398   76.348  208.341    2.996
  431.500    0.293    0.442   77.354  211.787    3.056
  431.750    0.274    0.478   80.286  222.483    3.135
  432.000    0.276    0.454   81.160  227.582    3.198
  432.250    0.281    0.405   79.306  226.762    3.281
  432.500    0.292    0.416   78.498  205.607    3.366
  432.750    0.310    0.441   73.338  204.789    3.447
  433.000    0.313    0.477   70.920  206.463    3.477
  433.250    0.311    0.457   72.732  209.785    3.474
  433.500    0.306    0.425   72.800  215.098    3.432
  433.750    0.299    0.442   69.002  216.772    3.352
  434.000    0.288    0.505   68.270  213.980    3.311
  434.250    0.283    0.433   70.022  209.011    3.327
  434.500    0.280    0.379   69.468  206.738    3.388
  434.750    0.278    0.394   66.233  201.044    3.423
  435.000    0.279    0.408   63.376  197.215    3.421
  435.250    0.282    0.448   61.581  192.548    3.360
  435.500    0.282    0.449   60.148  189.131    3.288
  435.750    0.284    0.428   60.787  186.766    3.175
  436.000    0.294    0.404   63.409  184.692    3.143
  436.250    0.301    0.422   62.917  184.090    3.122
  436.500    0.294    0.467   60.123  184.201    3.103
  436.750    0.294    0.437   62.123  184.729    3.059
  437.000    0.301    0.416   66.054  186.294    3.040
  437.250    0.304    0.429   67.986  188.185    3.008
  437.500    0.305    0.412   68.740  192.041    2.972
  437.750    0.297    0.396   71.804  195.882    2.947
  438.000    0.288    0.381   70.505  197.334    2.945
  438.250    0.275    0.399   65.519  197.985    2.948
  438.500    0.259    0.424   63.728  198.517    2.934
  438.750    0.254    0.426   63.360  198.437    2.910
  439.000    0.263    0.428   63.683  198.338    2.880
  439.250    0.270    0.442   64.373  198.439    2.856
  439.500    0.262    0.440   66.124  198.677    2.848
  439.750    0.252    0.432   70.926  199.212    2.894
  440.000    0.232    0.385   66.015  199.843    3.112
  440.250    0.194    0.357   60.041  200.468    3.489
  440.500    0.184    0.331   53.137  199.864    4.062
  440.750    0.191    0.333   47.043  199.254    4.967
  441.000    0.173    0.315   42.942  197.294    6.005
  441.250    0.087    0.184   40.833  195.948    6.681
  441.500    0.054    0.158   39.284  197.106    5.827
  441.750    0.094    0.240   42.529  198.261    4.572
  442.000    0.154    0.407   49.135  199.515    3.508
  442.250    0.236    0.474   53.872  201.700    2.924
  442.500    0.286    0.437   58.612  204.001    2.599
  442.750    0.308    0.364   61.858  205.573    2.431
  443.000    0.223    0.410   63.606  206.318    2.715
  443.250    0.165    0.429   63.183  207.164    3.009
  443.500    0.124    0.210   57.774  208.211    3.611
  443.750    0.086    0.165   51.990  209.762    4.164
  444.000    0.075    0.148   51.559  210.620    4.616
  444.250    0.082    0.154   53.428  210.624    4.350
  444.500    0.136    0.233   54.745  209.811    3.478
  444.750    0.186    0.414   52.575  207.026    2.694
  445.000    0.253    0.489   55.133  202.262    2.376
  445.250    0.276    0.478   61.372  199.786    2.181
  445.500    0.277    0.444   66.113  197.827    2.087
  445.750    0.283    0.409   69.852  196.066    2.073
  446.000    0.294    0.382   73.537  194.724    2.103
  446.250    0.301    0.358   69.311  194.007    2.190
  446.500    0.301    0.360   69.688  194.450    2.302
  446.750    0.296    0.408   73.248  195.497    2.444
  447.000    0.287    0.407   78.732  195.810    2.618
  447.250    0.274    0.397   83.845  196.020    2.758
  447.500    0.257    0.383   89.646  195.843    2.872
  447.750    0.241    0.369   95.819  195.548    2.913
