~VERSION INFORMATION
 VERS.                 2.0:   CWLS LOG ASCII STANDARD -VERSION 2.0
 WRAP.                  NO:   ONE LINE PER DEPTH STEP
~WELL INFORMATION BLOCK
#MNEM.UNIT           DATA                    DESCRIPTION OF MNEMONIC
#---------    -------------------            -------------------------------
# Generated from Intellog Unique Number	CW_76_78/WELL/2796
WELL.         TENN AMOCO A-2 MCMULLEN 07-11  : Well_name    - WELL
LOC .         00/07-11-077-01W5/0            : Location     - LOCATION
UWI .         00/07-11-077-01W5/0            : Uwi          - UNIQUE WELL ID
ENTR.         JJ                             : Entered      - ENTERED BY
SRVC.         WESTERN ATLAS                  : Scn          - SERVICE COMPANY
DATE.         1FEB 71                        : Date         - LOG DATE
STRT.M        557.784                        : top_depth    - START DEPTH
STOP.M        685.784                        : bot_depth    - STOP DEPTH
STEP.M        0.25                           : increment    - STEP LENGTH
 NULL. -999.2500:NULL Value
~CURVE INFORMATION BLOCK
#MNEM UNIT       ERCB CURVE CODE    CURVE DESCRIPTION
#-----------   ------------------   ----------------------------------
DEPT.M        00 001 00 00         : DEPTH        - DEPTH
DELT.US/F     00 520 00 00         : DELT         - SONIC TRAVEL TIME
CALI.MM       00 280 01 00         : CAL          - CALIPER
GR  .API      00 310 00 00         : GR           - GAMMA RAY
ILD .OHMM     00 120 00 00         : RESD         - DEEP RESISTIVITY (DIL)
~PARAMETER INFORMATION
#MNEM.UNIT           DATA             DESCRIPTION OF MNEMONIC
#---------         -----------     ------------------------------
GL  .M        746.455              : gl           - GROUND LEVEL ELEVATION
EREF.M        750.113              : kb           - ELEVATION OF DEPTH REFERENCE
DATM.M        746.455              : datum        - DATUM ELEVATION
TDD .M        690.982              : tdd          - TOTAL DEPTH DRILLER
RUN .         ONE                  : Run          - RUN NUMBER
ENG .         GAU                  : Engineer     - RECORDING ENGINEER
WIT .         FOREMAN-SORENSEN     : Witness      - WITNESSED BY
BASE.         R.D.                 : Branch       - HOME BASE OF LOGGING UNIT
MUD .         MUD                  : Mud_type     - MUD TYPE
MATR.         SANDSTONE            : Logunit      - NEUTRON MATRIX
TMAX.C        23.3333              : BHT          - MAXIMUM RECORDED TEMPERATURE
BHTD.M        688.238              : BHTDEP       - MAXIMUM RECORDED TEMPERATURE
RMT .C        8.33333              : MDTP         - TEMPERATURE OF MUD
MUDD.KG/M     1152                 : MWT          - MUD DENSITY
NEUT.         1                    : NEUTRON      - NEUTRON TYPE
RESI.         0                    : RESIST       - RESISTIVITY TYPE
RM  .OHMM     6                    : RM           - RESISTIVITY OF MUD
RMC .OHMM     6.2                  : RMC          - RESISTIVITY OF MUD CAKE
RMF .OHMM     5                    : RMF          - RESISTIVITY OF MUD FILTRATE
SUFT.C        5                    : SUFT         - SURFACE TEMPERATURE
~A  DEPTH     DELT      CAL       GR     RESD
  557.784  364.022  223.912   64.189    9.988
  558.034  347.347  224.352   64.157   11.507
  558.284  319.565  220.746   62.579   12.128
  558.534  297.925  217.349   62.553   12.610
  558.784  320.240  218.297   65.184   13.174
  559.034  345.495  221.772   68.686   11.493
  559.284  340.838  223.213   73.353    9.275
  559.534  355.381  224.768   77.537    8.251
  559.784  374.691  225.313   77.750    7.701
  560.034  388.386  225.648   78.540    7.271
  560.284  377.063  225.491   78.997    6.842
  560.534  366.723  225.721   74.465    6.512
  560.784  357.622  226.661   73.855    6.202
  561.034  364.196  225.490   77.166    6.189
  561.284  379.458  224.006   75.055    6.414
  561.534  383.223  223.437   77.301    6.618
  561.784  384.838  225.096   81.144    6.884
  562.034  386.515  226.138   81.548    7.388
  562.284  365.331  226.380   79.970    7.572
  562.534  347.870  226.114   76.407    7.758
  562.784  354.575  225.742   74.730    7.845
  563.034  375.976  225.377   77.315    8.051
  563.284  376.673  226.219   77.480    8.138
  563.534  369.272  227.971   75.611    8.182
  563.784  365.069  228.813   74.614    8.229
  564.034  390.912  224.914   76.325    8.119
  564.284  389.906  222.930   77.507    7.947
  564.534  383.093  222.461   75.689    7.734
  564.784  378.436  224.917   75.849    7.347
  565.034  377.763  229.301   77.807    7.312
  565.284  383.160  230.750   78.162    7.598
  565.534  380.848  227.351   80.795    8.001
  565.784  375.866  221.632   81.833    8.167
  566.034  369.316  219.850   81.514    7.994
  566.284  367.921  223.112   80.369    7.388
  566.534  374.363  228.200   79.568    6.898
  566.784  379.373  230.565   81.815    6.585
  567.034  384.119  231.201   84.639    6.453
  567.284  387.363  231.134   88.093    6.559
  567.534  390.348  230.372   92.420    6.805
  567.784  391.761  229.696   85.275    7.507
  568.034  384.948  228.630   76.000    9.340
  568.284  366.376  227.952   68.130   11.194
  568.534  305.352  227.680   63.987   13.664
  568.784  287.042  227.624   62.650   14.524
  569.034  288.323  227.960   63.393   12.388
  569.284  303.784  228.094   66.170   11.381
  569.534  332.433  228.143   69.435    9.938
  569.784  325.948  228.179   71.387    8.754
  570.034  360.543  228.104   73.296    8.026
  570.284  382.725  227.830   74.233    7.758
  570.534  379.506  227.361   75.706    7.764
  570.784  373.276  226.794   76.981    7.749
  571.034  369.143  226.937   76.081    8.096
  571.284  362.719  228.083   77.022    8.100
  571.534  357.931  229.939   79.217    7.750
  571.784  372.339  231.078   82.239    7.520
  572.034  379.308  231.826   84.723    7.566
  572.284  383.661  230.951   86.389    7.991
  572.534  382.010  228.463   80.555    8.852
  572.784  371.406  227.281   77.569    9.572
  573.034  350.811  226.022   74.295   10.493
  573.284  336.028  225.745   70.685   10.916
  573.534  319.417  226.179   70.462   10.110
  573.784  371.124  227.337   77.065    9.600
  574.034  378.939  228.072   80.519    9.269
  574.284  363.700  229.128   77.974   10.052
  574.534  334.614  229.253   71.070   11.289
  574.784  306.769  228.784   67.119   13.420
  575.034  287.802  228.625   64.910   16.247
  575.284  282.166  227.956   66.819   15.797
  575.534  333.809  227.586   69.454   13.661
  575.784  355.080  227.722   69.277   12.258
  576.034  351.857  227.657   68.375   11.489
  576.284  345.566  227.592   70.186   10.960
  576.534  350.897  227.925   70.784   10.831
  576.784  337.293  228.772   71.774   10.855
  577.034  332.961  229.514   72.905   10.922
  577.284  344.498  230.155   78.880   10.949
  577.534  338.011  229.291   79.287   10.876
  577.784  324.794  227.501   75.625   10.666
  578.034  346.329  225.924   75.302   10.553
  578.284  350.748  225.753   73.823   10.401
  578.534  342.236  227.207   71.567   10.347
  578.784  360.958  228.959   71.971   10.276
  579.034  369.231  229.396   74.750   10.283
  579.284  365.488  229.134   79.078   10.269
  579.534  359.718  229.575   78.371   10.375
  579.784  364.592  230.415   78.388   10.542
  580.034  369.406  231.063   79.472   10.610
  580.284  372.977  231.198   79.254   10.675
  580.534  369.036  231.537   79.708   10.581
  580.784  360.981  231.568   79.917   10.033
  581.034  358.478  231.605   77.806    9.285
  581.284  353.296  231.039   76.324    7.864
  581.534  371.887  230.566   77.455    7.155
  581.784  391.462  227.679   80.333    6.745
  582.034  387.258  225.286   86.303    7.031
  582.284  377.239  224.821   88.066    7.612
  582.534  370.626  225.766   82.420    9.466
  582.784  361.396  226.100   73.777   12.153
  583.034  349.421  226.146   65.760   13.868
  583.284  339.994  225.782   64.472   14.947
  583.534  330.763  225.512   64.151   15.808
  583.784  322.707  225.036   60.974   17.543
  584.034  346.329  224.363   62.348   19.655
  584.284  324.557  223.603   62.029   18.034
  584.534  324.080  223.638   62.678   15.757
  584.784  358.738  224.179   66.232   14.076
  585.034  354.996  224.813   68.378   13.289
  585.284  344.522  226.769   69.655   13.256
  585.534  321.575  228.115   70.015   14.494
  585.784  295.819  228.454   68.435   16.407
  586.034  276.530  228.292   67.437   19.293
  586.284  287.676  227.824   67.990   26.468
  586.534  259.309  227.357   67.184   26.535
  586.784  234.533  226.982   67.106   23.326
  587.034  281.147  226.011   67.855   20.115
  587.284  317.243  223.828   67.048   17.262
  587.534  336.488  222.252   69.633   14.788
  587.784  338.035  221.278   70.670   13.902
  588.034  335.070  220.713   68.267   13.690
  588.284  333.746  220.547   70.854   13.954
  588.534  332.223  220.468   71.114   14.717
  588.784  332.134  220.913   70.115   15.578
  589.034  329.566  221.457   68.730   16.239
  589.284  335.423  221.901   67.007   16.843
  589.534  333.766  222.234   68.428   17.028
  589.784  334.529  222.566   68.256   16.895
  590.034  335.093  222.711   68.615   16.783
  590.284  331.026  222.337   67.761   16.692
  590.534  335.119  221.068   68.602   16.481
  590.784  343.847  220.295   69.832   16.289
  591.034  348.202  221.131   69.514   16.077
  591.284  338.514  223.702   68.367   15.787
  591.534  321.510  225.650   66.841   15.554
  591.784  326.259  228.007   69.324   14.986
  592.034  334.465  228.247   72.393   14.297
  592.284  330.526  228.079   72.609   13.053
  592.534  324.822  227.913   70.595   12.722
  592.784  348.770  226.840   69.065   14.120
  593.034  345.874  224.657   66.903   15.357
  593.284  278.252  222.676   64.695   15.982
  593.534  251.256  221.904   67.524   16.008
  593.784  309.756  223.652   71.223   15.557
  594.034  363.094  227.636   74.239   14.373
  594.284  373.392  228.873   78.276   12.672
  594.534  375.006  226.485   75.873   11.190
  594.784  376.223  222.683   76.765   10.502
  595.034  377.313  223.837   76.105   10.628
  595.284  366.709  226.393   73.221   11.230
  595.534  351.080  227.842   72.755   12.429
  595.784  357.720  226.668   73.406   14.303
  596.034  358.482  223.374   72.750   15.103
  596.284  312.870  222.094   72.134   14.118
  596.534  316.180  222.639   74.044   13.390
  596.784  354.041  224.593   76.191   12.424
  597.034  365.382  226.963   76.939   11.657
  597.284  362.292  227.904   77.583   11.327
  597.534  362.858  228.846   79.005   11.233
  597.784  362.571  228.778   76.313   11.240
  598.034  350.012  228.306   76.818   11.327
  598.284  305.773  227.029   78.434   11.532
  598.534  342.717  224.335   78.984   11.719
  598.784  359.680  221.645   77.406   11.685
  599.034  335.623  218.564   76.746   11.197
  599.284  319.991  218.387   75.605   10.689
  599.534  358.893  218.432   73.495   10.397
  599.784  351.364  219.172   73.949   10.165
  600.034  355.847  220.311   77.163   10.056
  600.284  348.120  222.175   77.859   10.059
  600.534  364.884  223.111   77.978   10.126
  600.784  367.016  223.664   78.383   10.251
  601.034  369.086  223.703   79.320   10.359
