~VERSION INFORMATION
 VERS.                 2.0:   CWLS LOG ASCII STANDARD -VERSION 2.0
 WRAP.                  NO:   ONE LINE PER DEPTH STEP
~WELL INFORMATION BLOCK
#MNEM.UNIT           DATA                    DESCRIPTION OF MNEMONIC
#---------    -------------------            -------------------------------
# Generated from Intellog Unique Number	CS_67_68/WELL/778
WELL.         ICG RESOURCES LTD.             : Well_name    - WELL
LOC .         00/07-28-068-09W4/0            : Location     - LOCATION
UWI .         00/07-28-068-09W4/0            : Uwi          - UNIQUE WELL ID
ENTR.         SP                             : Entered      - ENTERED BY
SRVC.         SCHLUMBERGER                   : Scn          - SERVICE COMPANY
STRT.M        515                            : top_depth    - START DEPTH
STOP.M        735                            : bot_depth    - STOP DEPTH
STEP.M        0.25                           : increment    - STEP LENGTH
 NULL. -999.2500:NULL Value
~CURVE INFORMATION BLOCK
#MNEM UNIT       ERCB CURVE CODE    CURVE DESCRIPTION
#-----------   ------------------   ----------------------------------
DEPT.M        00 001 00 00         : DEPTH        - DEPTH
ILD .OHMM     00 120 00 00         : RESD         - DEEP RESISTIVITY (DIL)
DPHI.V/V      00 890 00 00         : PHID         - DENSITY POROSITY (LIMESTONE)
NPHI.V/V      00 330 00 00         : PHIN         - NEUTRON POROSITY (LIMESTONE)
GR  .API      00 310 00 00         : GR           - GAMMA RAY
~PARAMETER INFORMATION
#MNEM.UNIT           DATA             DESCRIPTION OF MNEMONIC
#---------         -----------     ------------------------------
GL  .M        839.1                : gl           - GROUND LEVEL ELEVATION
EREF.M        842.3                : kb           - ELEVATION OF DEPTH REFERENCE
DATM.M        839.1                : datum        - DATUM ELEVATION
TDD .M        739                  : tdd          - TOTAL DEPTH DRILLER
RUN .         ONE                  : Run          - RUN NUMBER
ENG .         BILL                 : Engineer     - RECORDING ENGINEER
WIT .         JIM                  : Witness      - WITNESSED BY
MUD .         GEL                  : Mud_type     - MUD TYPE
MATR.         LIMESTONE            : Logunit      - NEUTRON MATRIX
TMAX.C        23.8                 : BHT          - MAXIMUM RECORDED TEMPERATURE
BHTD.M        739                  : BHTDEP       - MAXIMUM RECORDED TEMPERATURE
MATR.         1                    : LOGUNIT      - NEUTRON MATRIX
RMT .C        25                   : MDTP         - TEMPERATURE OF MUD
NEUT.         1                    : NEUTRON      - NEUTRON TYPE
RESI.         0                    : RESIST       - RESISTIVITY TYPE
RMC .OHMM     0.25                 : RMC          - RESISTIVITY OF MUD CAKE
RMF .OHMM     0.25                 : RMF          - RESISTIVITY OF MUD FILTRATE
SUFT.C        15                   : SUFT         - SURFACE TEMPERATURE
~A  DEPTH     RESD     PHID     PHIN       GR
# ...
  602.000    3.292    0.334    0.481   63.398
  602.250    3.316    0.347    0.474   64.987
  602.500    3.334    0.335    0.468   67.187
  602.750    3.352    0.302    0.472   72.684
  603.000    3.351    0.261    0.490   82.332
  603.250    3.350    0.228    0.503   87.523
  603.500    3.337    0.215    0.508   81.847
  603.750    3.330    0.238    0.488   76.538
  604.000    3.329    0.264    0.479   73.915
  604.250    3.310    0.294    0.466   73.123
  604.500    3.290    0.306    0.465   76.422
  604.750    3.283    0.303    0.481   77.950
  605.000    3.252    0.302    0.474   78.075
  605.250    3.215    0.302    0.457   76.550
  605.500    3.166    0.308    0.486   74.904
  605.750    3.130    0.318    0.511   72.952
  606.000    3.130    0.304    0.524   71.794
  606.250    3.152    0.299    0.506   71.857
  606.500    3.211    0.316    0.473   71.004
  606.750    3.313    0.327    0.455   69.053
  607.000    3.484    0.332    0.472   67.223
  607.250    3.704    0.336    0.477   66.798
  607.500    3.894    0.335    0.479   67.349
  607.750    4.011    0.318    0.475   67.718
  608.000    4.048    0.312    0.457   67.903
  608.250    4.024    0.302    0.439   66.867
  608.500    3.964    0.311    0.425   63.572
  608.750    3.868    0.328    0.419   61.438
  609.000    3.697    0.343    0.418   63.027
  609.250    3.655    0.351    0.428   65.166
  609.500    3.716    0.346    0.446   66.633
  609.750    3.757    0.339    0.454   67.062
  610.000    3.742    0.329    0.440   64.256
  610.250    3.672    0.319    0.431   63.587
  610.500    3.517    0.312    0.422   64.199
  610.750    3.400    0.311    0.424   65.178
  611.000    3.311    0.310    0.441   66.340
  611.250    3.261    0.308    0.455   67.685
  611.500    3.206    0.307    0.464   70.678
  611.750    3.152    0.316    0.463   75.564
  612.000    3.076    0.331    0.459   79.351
  612.250    3.058    0.333    0.459   82.284
  612.500    3.052    0.332    0.460   79.416
  612.750    3.068    0.333    0.461   78.564
  613.000    3.102    0.335    0.461   77.345
  613.250    3.153    0.322    0.467   73.379
  613.500    3.230    0.323    0.480   70.389
  613.750    3.315    0.333    0.485   68.804
  614.000    3.466    0.330    0.485   69.905
  614.250    3.610    0.327    0.482   71.433
  614.500    3.711    0.334    0.474   72.717
  614.750    3.690    0.318    0.460   73.574
  615.000    3.560    0.304    0.447   73.332
  615.250    3.481    0.294    0.442   74.921
  615.500    3.441    0.300    0.458   79.563
  615.750    3.434    0.293    0.465   83.594
  616.000    3.433    0.280    0.467   85.794
  616.250    3.425    0.271    0.458   86.101
  616.500    3.418    0.268    0.453   82.990
  616.750    3.417    0.266    0.448   81.160
  617.000    3.436    0.261    0.457   81.956
  617.250    3.467    0.255    0.478   83.179
  617.500    3.479    0.251    0.465   83.730
  617.750    3.485    0.248    0.443   83.488
  618.000    3.452    0.240    0.437   81.903
  618.250    3.425    0.221    0.456   80.012
  618.500    3.418    0.198    0.442   78.305
  618.750    3.423    0.181    0.433   77.818
  619.000    3.448    0.165    0.456   77.881
  619.250    3.506    0.182    0.472   76.663
  619.500    3.624    0.217    0.482   76.909
  619.750    3.671    0.242    0.480   79.292
  620.000    3.760    0.216    0.469   81.125
  620.250    3.752    0.224    0.458   82.348
  620.500    3.710    0.242    0.445   82.900
  620.750    3.674    0.242    0.438   83.634
  621.000    3.660    0.231    0.433   86.811
  621.250    3.645    0.226    0.448   90.964
  621.500    3.631    0.220    0.460   88.524
  621.750    3.589    0.218    0.454   84.619
  622.000    3.568    0.229    0.445   84.865
  622.250    3.554    0.237    0.438   87.553
  622.500    3.540    0.230    0.445   90.731
  622.750    3.526    0.224    0.449   92.137
  623.000    3.492    0.217    0.454   90.612
  623.250    3.452    0.209    0.461   85.730
  623.500    3.407    0.205    0.457   85.121
  623.750    3.343    0.206    0.449   87.077
  624.000    3.196    0.206    0.445   90.498
  624.250    3.078    0.204    0.452   93.614
  624.500    2.953    0.210    0.457   95.813
  624.750    2.855    0.206    0.452   95.815
  625.000    2.714    0.199    0.447   95.939
  625.250    2.634    0.189    0.466   97.529
  625.500    2.508    0.178    0.485   98.874
  625.750    2.448    0.168    0.506   99.059
  626.000    2.379    0.180    0.498   95.581
  626.250    2.300    0.197    0.484   93.324
  626.500    2.257    0.228    0.489   95.524
  626.750    2.211    0.231    0.500   96.442
  627.000    2.181    0.204    0.506   95.467
  627.250    2.181    0.190    0.518   95.957
  627.500    2.251    0.185    0.529   96.875
  627.750    2.415    0.194    0.507   94.924
  628.000    2.661    0.217    0.493   91.934
  628.250    2.942    0.243    0.524   89.189
  628.500    3.099    0.242    0.551   86.200
  628.750    3.228    0.251    0.559   84.309
  629.000    3.203    0.264    0.527   82.174
  629.250    3.173    0.274    0.482   81.993
  629.500    3.101    0.265    0.447   86.024
  629.750    3.072    0.247    0.432   89.201
  630.000    2.981    0.230    0.451   91.218
  630.250    2.834    0.232    0.464   91.586
  630.500    2.709    0.231    0.465   88.780
  630.750    2.658    0.224    0.459   87.194
  631.000    2.658    0.231    0.456   88.418
  631.250    2.687    0.244    0.477   87.076
  631.500    2.747    0.258    0.494   82.499
  631.750    2.835    0.275    0.508   75.114
  632.000    2.888    0.284    0.522   69.683
  632.250    2.947    0.295    0.532   65.594
  632.500    3.001    0.308    0.476   64.009
  632.750    3.046    0.310    0.437   64.561
  633.000    3.108    0.303    0.421   65.722
  633.250    3.166    0.307    0.408   65.908
  633.500    3.243    0.316    0.406   64.872
  633.750    3.365    0.303    0.414   65.118
  634.000    3.428    0.271    0.427   68.966
  634.250    3.498    0.244    0.448   74.707
  634.500    3.617    0.223    0.489   78.616
  634.750    3.746    0.203    0.481   80.755
  635.000    3.837    0.184    0.454   79.231
  635.250    3.829    0.169    0.434   77.097
  635.500    3.674    0.191    0.446   75.999
  635.750    3.454    0.208    0.468   74.048
  636.000    3.320    0.203    0.493   72.767
  636.250    3.168    0.186    0.426   71.365
  636.500    3.034    0.171    0.393   74.725
  636.750    2.933    0.191    0.441   77.535
  637.000    2.873    0.219    0.458   80.590
  637.250    2.856    0.240    0.464   83.034
  637.500    2.855    0.230    0.457   84.501
  637.750    2.876    0.224    0.464   84.992
  638.000    2.870    0.223    0.457   84.078
  638.250    2.880    0.232    0.468   80.539
  638.500    2.868    0.240    0.481   82.311
  638.750    2.794    0.247    0.482   85.610
  639.000    2.793    0.257    0.472   84.758
  639.250    2.787    0.267    0.465   83.844
  639.500    2.797    0.277    0.495   83.663
  639.750    2.833    0.276    0.509   83.115
  640.000    2.875    0.275    0.492   81.774
  640.250    2.901    0.269    0.485   85.073
  640.500    2.906    0.255    0.502   88.127
  640.750    2.905    0.247    0.489   90.083
  641.000    2.932    0.241    0.498   87.521
  641.250    2.964    0.271    0.496   84.898
  641.500    3.013    0.267    0.485   86.304
  641.750    3.058    0.257    0.484   87.588
  642.000    3.109    0.250    0.487   88.506
  642.250    3.178    0.244    0.478   89.057
  642.500    3.136    0.241    0.470   88.693
  642.750    2.932    0.242    0.464   87.169
  643.000    2.705    0.242    0.464   86.194
  643.250    2.338    0.231    0.474   85.463
  643.500    2.025    0.223    0.481   87.663
  643.750    1.780    0.223    0.471   89.497
  644.000    1.579    0.222    0.461   88.278
  644.250    1.518    0.219    0.455   90.416
  644.500    1.398    0.216    0.477   92.311
  644.750    1.374    0.213    0.493   94.633
  645.000    1.306    0.230    0.517   95.490
  645.250    1.249    0.257    0.545   93.172
