~VERSION INFORMATION
 VERS.                 2.0:   CWLS LOG ASCII STANDARD -VERSION 2.0
 WRAP.                  NO:   ONE LINE PER DEPTH STEP
~WELL INFORMATION BLOCK
#MNEM.UNIT           DATA                    DESCRIPTION OF MNEMONIC
#---------    -------------------            -------------------------------
# Generated from Intellog Unique Number	CS_69_70/WELL/849
NULL.         -999.25                        : NULL_VALUE
WELL.         AMOCO CANADA PETROLEUM         : Well_name    - WELL              
LOC .         00/07-31-070-14W4/0            : Location     - LOCATION          
UWI .         00/07-31-070-14W4/0            : Uwi          - UNIQUE WELL ID    
ENTR.         SP                             : Entered      - ENTERED BY        
SRVC.         SCHLUMBERGER                   : Scn          - SERVICE COMPANY   
STRT.F        1050                           : top_depth    - START DEPTH       
STOP.F        1760.3                         : bot_depth    - STOP DEPTH        
STEP.F        0.82                           : increment    - STEP LENGTH       
~CURVE INFORMATION BLOCK
#MNEM UNIT       ERCB CURVE CODE    CURVE DESCRIPTION
#-----------   ------------------   ----------------------------------
DEPT.F        00 001 00 00         : DEPTH        - DEPTH                       
GR  .API      00 310 00 00         : GR           - GAMMA RAY                   
NPHI.V/V      00 330 00 00         : PHIN         - NEUTRON POROSITY (SANDSTONE)
DPHI.V/V      00 890 00 00         : PHID         - DENSITY POROSITY (SANDSTONE)
ILD .OHMM     00 120 00 00         : RESD         - DEEP RESISTIVITY (DIL)      
~PARAMETER INFORMATION       
#MNEM.UNIT           DATA             DESCRIPTION OF MNEMONIC
#---------         -----------     ------------------------------
GL  .F        2039.71              : gl           - GROUND LEVEL ELEVATION      
EREF.F        2053.71              : kb           - ELEVATION OF DEPTH REFERENCE
DATM.F        2039.71              : datum        - DATUM ELEVATION             
TDD .F        1900                 : tdd          - TOTAL DEPTH DRILLER         
RUN .         ONE                  : Run          - RUN NUMBER                  
ENG .         BILL                 : Engineer     - RECORDING ENGINEER          
WIT .         JIM                  : Witness      - WITNESSED BY                
MUD .         GEL                  : Mud_type     - MUD TYPE                    
MATR.         SANDSTONE            : Logunit      - NEUTRON MATRIX              
TMAX.C        25.5556              : BHT          - MAXIMUM RECORDED TEMPERATURE
BHTD.M        512.369              : BHTDEP       - MAXIMUM RECORDED TEMPERATURE
MATR.         1                    : LOGUNIT      - NEUTRON MATRIX              
RMT .C        25                   : MDTP         - TEMPERATURE OF MUD          
NEUT.         1                    : NEUTRON      - NEUTRON TYPE                
RESI.         0                    : RESIST       - RESISTIVITY TYPE            
RMC .OHMM     0.25                 : RMC          - RESISTIVITY OF MUD CAKE     
RMF .OHMM     0.25                 : RMF          - RESISTIVITY OF MUD FILTRATE 
SUFT.C        15                   : SUFT         - SURFACE TEMPERATURE         
~A  DEPTH       GR     PHIN     PHID     RESD
# ...
 1620.870   74.226    0.368    0.146    7.905
 1621.690   75.993    0.373    0.171    7.290
 1622.510   81.898    0.380    0.181    6.723
 1623.330   87.803    0.392    0.189    6.078
 1624.150   93.117    0.408    0.192    5.718
 1624.970   96.064    0.413    0.190    5.273
 1625.790   99.014    0.414    0.187    5.059
 1626.610  101.963    0.409    0.186    4.857
 1627.430  105.502    0.403    0.186    4.753
 1628.250  107.861    0.393    0.187    4.744
 1629.070  109.630    0.389    0.187    4.741
 1629.890  111.394    0.387    0.188    4.925
 1630.710  111.982    0.393    0.188    5.120
 1631.530  110.201    0.401    0.190    5.427
 1632.350  108.423    0.410    0.196    6.104
 1633.170  103.688    0.410    0.207    6.869
 1633.990  100.135    0.401    0.232    7.284
 1634.810   96.582    0.383    0.238    8.034
 1635.630   91.254    0.387    0.249    8.023
 1636.450   87.701    0.400    0.254    8.015
 1637.270   85.332    0.409    0.224    7.686
 1638.090   83.552    0.407    0.212    7.686
 1638.910   82.953    0.397    0.209    7.511
 1639.730   82.947    0.381    0.206    6.530
 1640.550   83.533    0.367    0.197    6.141
 1641.370   83.527    0.363    0.189    6.012
 1642.190   85.294    0.362    0.181    5.888
 1643.010   88.835    0.362    0.179    5.877
 1643.830   94.147    0.365    0.178    5.754
 1644.650   97.097    0.371    0.173    5.748
 1645.470  103.002    0.375    0.163    5.738
 1646.290  108.907    0.375    0.167    5.730
 1647.110  114.221    0.374    0.172    5.841
 1647.930  117.170    0.368    0.170    5.833
 1648.750  120.710    0.366    0.170    5.825
 1649.570  125.433    0.366    0.214    5.932
 1650.390  131.338    0.372    0.224    6.044
 1651.210  135.469    0.378    0.235    6.155
 1652.030  134.872    0.384    0.236    6.654
 1652.850  118.315    0.386    0.229    7.489
 1653.670  107.668    0.382    0.225    8.772
 1654.490   98.204    0.376    0.225    9.673
 1655.310   92.878    0.377    0.225    9.283
 1656.140   89.325    0.379    0.225    8.561
 1656.960   88.137    0.382    0.226    8.218
 1657.780   86.357    0.387    0.228    8.045
 1658.600   84.576    0.391    0.233    8.029
 1659.420   85.161    0.390    0.235    7.865
 1660.240   85.747    0.385    0.235    7.697
 1661.060   88.105    0.387    0.208    7.389
 1661.880   92.826    0.388    0.193    6.814
 1662.700   95.777    0.390    0.178    6.037
 1663.520   99.317    0.399    0.165    5.570
 1664.340  106.405    0.417    0.148    4.936
 1665.160  109.945    0.440    0.133    4.203
 1665.980  111.712    0.456    0.136    3.726
 1666.800  113.479    0.462    0.161    3.236
 1667.620  114.652    0.467    0.188    3.104
 1668.440  114.056    0.460    0.195    3.226
 1669.260  112.866    0.450    0.219    3.354
 1670.080  112.270    0.440    0.229    3.928
 1670.900  111.082    0.429    0.230    4.786
 1671.720  111.074    0.415    0.225    5.948
 1672.540  111.069    0.400    0.221    6.690
 1673.360  111.651    0.397    0.200    6.815
 1674.180  112.239    0.390    0.171    6.540
 1675.000  113.413    0.389    0.164    6.153
 1675.820  113.408    0.390    0.164    5.905
 1676.640  113.402    0.393    0.166    5.899
 1677.460  113.394    0.398    0.170    5.891
 1678.280  113.388    0.397    0.175    5.878
 1679.100  111.608    0.387    0.178    5.872
 1679.920  109.830    0.382    0.181    5.984
 1680.740  108.051    0.375    0.187    4.612
 1681.560  105.680    0.340    0.215    4.988
 1682.380  104.492    0.313    0.246    5.393
 1683.200  108.623    0.309    0.269    5.834
 1684.020  112.754    0.288    0.285    6.696
 1684.840  118.068    0.272    0.258    7.537
 1685.660  116.289    0.255    0.210    8.651
 1686.480  108.598    0.251    0.188    9.731
 1687.300  100.316    0.257    0.158    9.718
 1688.120   94.397    0.265    0.164    9.510
 1688.940   91.437    0.269    0.195    9.130
 1689.760   89.066    0.275    0.223    8.761
 1690.580   87.285    0.283    0.243    8.580
 1691.400   86.094    0.286    0.282    8.562
 1692.220   85.499    0.290    0.288    8.553
 1693.040   84.903    0.289    0.305    8.544
 1693.860   81.350    0.288    0.323    8.701
 1694.690   76.615    0.284    0.328    8.689
 1695.510   73.061    0.282    0.337    8.010
 1696.330   69.510    0.279    0.350    7.541
 1697.150   65.957    0.276    0.340    6.547
 1697.970   65.359    0.267    0.302    6.161
 1698.790   68.898    0.265    0.308    5.682
 1699.610   68.892    0.272    0.329    5.905
 1700.430   66.523    0.279    0.357    6.516
 1701.250   65.332    0.283    0.342    7.626
 1702.070   71.828    0.281    0.347    8.087
 1702.890   76.553    0.278    0.357    8.076
 1703.710   81.275    0.279    0.289    7.445
 1704.530   85.403    0.274    0.255    6.729
 1705.350   88.945    0.267    0.248    6.459
 1706.170   93.079    0.271    0.267    6.326
 1706.990   89.524    0.278    0.277    6.068
 1707.810   86.559    0.283    0.282    5.824
 1708.630   86.554    0.289    0.273    5.589
 1709.450   87.730    0.285    0.264    5.581
 1710.270   90.680    0.277    0.262    5.575
 1711.090   92.448    0.270    0.259    5.677
 1711.910   96.580    0.261    0.256    5.781
 1712.730  100.711    0.262    0.260    5.777
 1713.550  104.843    0.264    0.263    5.883
 1714.370  110.156    0.266    0.267    5.875
 1715.190  116.061    0.270    0.269    5.987
 1716.010  120.782    0.271    0.273    5.977
 1716.830  123.142    0.273    0.276    5.968
 1717.650  125.498    0.276    0.273    5.960
 1718.470  125.494    0.275    0.266    5.954
 1719.290  124.305    0.266    0.133    6.307
 1720.110  118.388    0.255    0.146    6.427
 1720.930  110.696    0.247    0.168    6.549
 1721.750  113.055    0.255    0.184    6.540
 1722.570  116.594    0.281    0.198    6.529
 1723.390  119.545    0.282    0.212    6.389
 1724.210  123.675    0.275    0.219    6.383
 1725.030  120.711    0.259    0.219    6.376
 1725.850  117.751    0.245    0.219    6.365
 1726.670  114.198    0.238    0.223    6.354
 1727.490  111.238    0.226    0.232    6.475
 1728.310  105.321    0.229    0.236    6.598
 1729.130   88.762    0.236    0.235    6.852
 1729.950   86.984    0.237    0.232    6.847
 1730.770   85.794    0.234    0.231    6.835
 1731.590   84.604    0.230    0.228    6.828
 1732.410   84.599    0.225    0.228    6.680
 1733.230   87.547    0.237    0.236    6.541
 1734.060   89.317    0.256    0.247    6.535
 1734.880   94.039    0.268    0.266    6.528
 1735.700   99.353    0.268    0.307    6.519
 1736.520  100.527    0.263    0.308    6.510
 1737.340  102.886    0.253    0.267    6.245
 1738.160  105.835    0.243    0.241    5.873
 1738.980  108.786    0.236    0.196    5.638
 1739.800  118.237    0.248    0.211    5.407
 1740.620  116.458    0.267    0.217    5.297
 1741.440  118.225    0.282    0.207    5.184
 1742.260  140.680    0.288    0.201    5.176
 1743.080  140.673    0.293    0.210    5.069
 1743.900  138.303    0.295    0.210    5.064
 1744.720  136.524    0.297    0.208    4.957
 1745.540  136.518    0.298    0.208    4.660
 1746.360  137.693    0.301    0.205    4.383
 1747.180  138.277    0.308    0.198    4.207
 1748.000  138.270    0.314    0.185    4.119
 1748.820  136.489    0.303    0.179    4.115
 1749.640  134.713    0.299    0.185    4.109
 1750.460  131.751    0.301    0.195    4.102
 1751.280  129.380    0.307    0.206    4.098
 1752.100  129.372    0.310    0.230    4.173
 1752.920  129.366    0.304    0.236    4.170
 1753.740  126.406    0.300    0.082    4.248
 1754.560  118.123    0.293    0.058    4.593
 1755.380   96.836    0.284    0.058    5.378
 1756.200   74.959    0.194    0.067    6.956
 1757.020   68.451    0.189    0.072   36.235
 1757.840   39.480    0.188    0.070   53.867
 1758.660   29.425    0.192    0.070   58.248
 1759.480   28.235    0.193    0.070   58.167
 1760.300   27.638    0.194    0.070   58.087
