~VERSION INFORMATION
 VERS.                 2.0:   CWLS LOG ASCII STANDARD -VERSION 2.0
 WRAP.                  NO:   ONE LINE PER DEPTH STEP
~WELL INFORMATION BLOCK
#MNEM.UNIT           DATA                    DESCRIPTION OF MNEMONIC
#---------    -------------------            -------------------------------
# Generated from Intellog Unique Number	CS_73_76/WELL/2813
WELL.         TEXACO WINEFRED LAKE 7-17      : Well_name    - WELL
LOC .         07-17-075-03W4                   : Location     - LOCATION
UWI .         00/07-17-075-03W4/0             : Uwi          - UNIQUE WELL ID
ENTR.         ANDERSEN                       : Entered      - ENTERED BY
SRVC.         COMPUTALOG                     : Scn          - SERVICE COMPANY
STRT.M        260                            : top_depth    - START DEPTH
STOP.M        510                            : bot_depth    - STOP DEPTH
STEP.M        0.25                           : increment    - STEP LENGTH
 NULL. -999.2500:NULL Value
~CURVE INFORMATION BLOCK
#MNEM UNIT       ERCB CURVE CODE    CURVE DESCRIPTION
#-----------   ------------------   ----------------------------------
DEPT.M        00 001 00 00         : DEPTH        - DEPTH
GR  .API      00 310 00 00         : GR           - GAMMA RAY
CALI.MM       00 280 01 00         : CAL          - CALIPER
NPHI.V/V      00 330 00 00         : PHIN         - NEUTRON POROSITY (SANDSTONE)
DPHI.V/V      00 890 00 00         : PHID         - DENSITY POROSITY (SANDSTONE)
ILD .OHMM     00 120 00 00         : RESD         - DEEP RESISTIVITY (DIL)
~PARAMETER INFORMATION
#MNEM.UNIT           DATA             DESCRIPTION OF MNEMONIC
#---------         -----------     ------------------------------
GL  .M        624.1                : gl           - GROUND LEVEL ELEVATION
EREF.M        627.7                : kb           - ELEVATION OF DEPTH REFERENCE
DATM.M        627.7                : datum        - DATUM ELEVATION
TDD .M        526                  : tdd          - TOTAL DEPTH DRILLER
RUN .         ONE                  : Run          - RUN NUMBER
ENG .         BILL                 : Engineer     - RECORDING ENGINEER
WIT .         JIM                  : Witness      - WITNESSED BY
MUD .         GEL                  : Mud_type     - MUD TYPE
MATR.         SANDSTONE            : Logunit      - NEUTRON MATRIX
TMAX.C        20                   : BHT          - MAXIMUM RECORDED TEMPERATURE
BHTD.M        526                  : BHTDEP       - MAXIMUM RECORDED TEMPERATURE
RMT .C        18                   : MDTP         - TEMPERATURE OF MUD
MUDD.KG/M     1100                 : MWT          - MUD DENSITY
NEUT.         1                    : NEUTRON      - NEUTRON TYPE
RESI.         0                    : RESIST       - RESISTIVITY TYPE
RM  .OHMM     4.7                  : RM           - RESISTIVITY OF MUD
RMC .OHMM     3.3                  : RMC          - RESISTIVITY OF MUD CAKE
RMF .OHMM     7.3                  : RMF          - RESISTIVITY OF MUD FILTRATE
SUFT.C        15                   : SUFT         - SURFACE TEMPERATURE
~A  DEPTH       GR      CAL     PHIN     PHID     RESD
# ...
  479.000   50.413  197.860    0.375    0.354    3.531
  479.250   57.652  197.867    0.371    0.284    3.542
  479.500   55.248  197.879    0.363    0.272    3.546
  479.750   55.857  197.889    0.353    0.285    3.558
  480.000   56.465  197.896    0.351    0.295    3.564
  480.250   56.471  197.908    0.351    0.295    3.573
  480.500   55.874  198.920    0.351    0.292    3.581
  480.750   53.469  198.932    0.357    0.300    3.523
  481.000   49.254  198.944    0.363    0.305    3.533
  481.250   42.027  198.949    0.370    0.313    3.541
  481.500   32.389  197.957    0.375    0.325    3.484
  481.750   31.191  196.965    0.380    0.343    3.494
  482.000   36.019  196.974    0.382    0.357    3.435
  482.250   39.641  195.979    0.381    0.347    3.443
  482.500   36.031  195.989    0.384    0.331    3.387
  482.750   37.242  195.997    0.386    0.348    3.330
  483.000   39.056  195.002    0.379    0.354    3.278
  483.250   42.075  195.014    0.370    0.345    3.284
  483.500   47.506  195.024    0.357    0.317    3.291
  483.750   51.731  194.031    0.348    0.285    3.363
  484.000   47.518  194.036    0.341    0.298    3.499
  484.250   48.729  194.046    0.339    0.324    3.574
  484.500   53.557  192.046    0.343    0.304    3.516
  484.750   49.946  189.047    0.350    0.288    3.458
  485.000   42.719  189.052    0.354    0.295    3.341
  485.250   38.506  189.064    0.358    0.314    3.289
  485.500   39.117  190.079    0.361    0.356    3.233
  485.750   37.916  191.093    0.357    0.349    3.241
  486.000   31.292  192.107    0.355    0.351    3.247
  486.250   28.284  193.124    0.356    0.352    3.254
  486.500   33.716  193.131    0.361    0.356    3.262
  486.750   32.515  193.146    0.355    0.362    3.333
  487.000   28.904  193.153    0.345    0.362    3.339
  487.250   27.706  193.163    0.338    0.357    3.410
  487.500   31.327  193.173    0.330    0.346    3.482
  487.750   39.771  193.180    0.323    0.334    3.494
  488.000   39.176  193.195    0.309    0.320    3.374
  488.250   33.153  193.202    0.303    0.299    3.317
  488.500   28.337  193.209    0.305    0.293    3.089
  488.750   33.767  193.219    0.314    0.305    3.035
  489.000   40.403  193.231    0.322    0.313    2.932
  489.250   45.835  192.239    0.325    0.327    2.886
  489.500   48.856  192.249    0.339    0.358    2.836
  489.750   48.258  192.258    0.365    0.370    2.844
  490.000   45.853  192.268    0.364    0.369    2.798
  490.250   45.256  191.273    0.358    0.356    2.804
  490.500   45.262  191.281    0.351    0.350    2.811
  490.750   45.270  191.290    0.344    0.339    2.816
  491.000   45.275  191.300    0.339    0.358    2.822
  491.250   45.281  191.310    0.347    0.369    2.829
  491.500   45.286  191.322    0.364    0.381    2.889
  491.750   45.292  191.334    0.372    0.383    2.896
  492.000   45.298  192.344    0.376    0.386    2.902
  492.250   45.905  192.356    0.377    0.384    2.964
  492.500   47.117  192.365    0.366    0.381    3.027
  492.750   49.536  192.375    0.363    0.375    3.213
  493.000   49.542  192.383    0.362    0.368    3.472
  493.250   48.944  192.397    0.354    0.359    3.609
  493.500   47.142  192.407    0.345    0.350    3.901
  493.750   47.147  191.412    0.327    0.325    4.216
  494.000   50.168  191.419    0.323    0.293    4.303
  494.250   54.996  191.429    0.320    0.241    4.392
  494.500   56.208  191.439    0.320    0.233    4.573
  494.750   54.404  191.449    0.322    0.238    4.583
  495.000   48.985  192.463    0.325    0.242    4.346
  495.250   45.978  193.477    0.333    0.258    4.118
  495.500   43.572  193.487    0.337    0.278    3.974
  495.750   39.961  193.499    0.337    0.290    3.700
  496.000   39.967  193.506    0.340    0.294    3.571
  496.250   41.178  193.516    0.344    0.300    3.512
  496.500   39.376  193.528    0.344    0.311    3.391
  496.750   29.135  193.538    0.340    0.327    3.334
  497.000   22.512  193.550    0.335    0.341    3.280
  497.250   22.518  193.560    0.340    0.341    3.229
  497.500   24.332  192.565    0.342    0.335    3.236
  497.750   24.942  191.573    0.342    0.332    3.242
  498.000   23.743  191.578    0.342    0.338    3.255
  498.250   21.940  190.588    0.346    0.342    3.261
  498.500   20.138  190.595    0.348    0.345    3.266
  498.750   19.539  189.600    0.352    0.344    3.272
  499.000   20.149  189.610    0.352    0.340    3.282
  499.250   21.964  189.617    0.353    0.338    3.289
  499.500   23.175  189.629    0.352    0.334    3.297
  499.750   22.578  189.637    0.349    0.328    3.243
  500.000   23.187  189.649    0.347    0.322    3.189
  500.250   22.590  189.659    0.339    0.322    3.196
  500.500   23.198  189.668    0.328    0.323    3.148
  500.750   20.193  189.681    0.322    0.324    3.153
  501.000   17.787  189.690    0.324    0.335    3.161
  501.250   17.191  189.703    0.327    0.348    3.109
  501.500   17.194  189.707    0.334    0.358    3.116
  501.750   17.200  189.717    0.341    0.360    3.068
  502.000   17.809  189.727    0.345    0.355    3.073
  502.250   17.213  190.744    0.348    0.359    3.023
  502.500   17.218  187.740    0.356    0.365    3.032
  502.750   16.018  187.747    0.356    0.366    2.982
  503.000   14.818  186.755    0.354    0.362    2.934
  503.250   13.619  186.764    0.359    0.367    2.941
  503.500   13.022  187.779    0.364    0.374    2.946
  503.750   13.630  187.786    0.366    0.381    2.956
  504.000   14.842  188.800    0.358    0.374    2.960
  504.250   17.260  189.815    0.352    0.368    2.968
  504.500   19.074  189.827    0.354    0.361    3.031
  504.750   19.080  190.841    0.355    0.350    3.098
  505.000   15.471  191.858    0.353    0.337    3.284
  505.250   16.078  192.870    0.358    0.321    3.680
  505.500   20.303  199.914    0.367    0.263    4.205
  505.750   38.994  203.942    0.373    0.216    4.804
  506.000   58.890  207.968    0.377    0.180    5.495
  506.250  107.116  210.991    0.380    0.156    5.612
  506.500  110.137  212.005    0.385    0.147    5.728
  506.750  107.129  212.015    0.386    0.157    5.850
  507.000  105.327  212.025    0.381    0.167    6.087
  507.250  104.127  211.030    0.380    0.169    6.457
  507.500   99.312  210.035    0.381    0.167    6.846
  507.750   95.702  209.040    0.379    0.151    7.394
  508.000   94.501  206.041    0.369    0.143    8.292
  508.250   82.451  202.033    0.354    0.169    9.137
  508.500   71.608  200.033    0.328    0.178    9.501
  508.750   63.780  198.034    0.290    0.143    9.698
  509.000   61.976  199.048    0.260    0.122    9.546
  509.250   60.173  199.055    0.245    0.111    9.385
  509.500   59.576  195.047    0.245    0.098    9.243
  509.750   62.596  192.043    0.251    0.106    9.445
  510.000   82.493  193.060    0.270    0.107    9.456
