~VERSION INFORMATION
 VERS.                 2.0:   CWLS LOG ASCII STANDARD -VERSION 2.0
 WRAP.                  NO:   ONE LINE PER DEPTH STEP
~WELL INFORMATION BLOCK
#MNEM.UNIT           DATA                    DESCRIPTION OF MNEMONIC
#---------    -------------------            -------------------------------
# Generated from Intellog Unique Number	CW_70_72/WELL/619
NULL.         -999.25                        : NULL_VALUE
WELL.         MESA SMITH 06-10               : Well_name    - WELL              
LOC .         06-10-072-25W4                 : Location     - LOCATION          
UWI .         00/06-10-072-25W4/0            : Uwi          - UNIQUE WELL ID    
ENTR.         JAYE                           : Entered      - ENTERED BY        
SRVC.         SCHLUMBERGER                   : Scn          - SERVICE COMPANY   
DATE.         10 FEB 75                      : Date         - LOG DATE          
STRT.M        384.048                        : top_depth    - START DEPTH       
STOP.M        600.548                        : bot_depth    - STOP DEPTH        
STEP.M        0.25                           : increment    - STEP LENGTH       
~CURVE INFORMATION BLOCK
#MNEM UNIT       ERCB CURVE CODE    CURVE DESCRIPTION
#-----------   ------------------   ----------------------------------
DEPT.M        00 001 00 00         : DEPTH        - DEPTH                       
DPHI.V/V      00 890 00 00         : PHID         - DENSITY POROSITY (SANDSTONE)
NPHI.V/V      00 330 00 00         : PHIN         - NEUTRON POROSITY (SANDSTONE)
GR  .API      00 310 00 00         : GR           - GAMMA RAY                   
CALI.MM       00 280 01 00         : CAL          - CALIPER                     
ILD .OHMM     00 120 00 00         : RESD         - DEEP RESISTIVITY (DIL)      
~PARAMETER INFORMATION       
#MNEM.UNIT           DATA             DESCRIPTION OF MNEMONIC
#---------         -----------     ------------------------------
GL  .M        606.857              : gl           - GROUND LEVEL ELEVATION      
EREF.M        610.819              : kb           - ELEVATION OF DEPTH REFERENCE
DATM.M        606.857              : datum        - DATUM ELEVATION             
TDD .M        609.6                : tdd          - TOTAL DEPTH DRILLER         
RUN .         ONE                  : Run          - RUN NUMBER                  
ENG .         FETTERLEY            : Engineer     - RECORDING ENGINEER          
WIT .         HOVER                : Witness      - WITNESSED BY                
BASE.         EDM                  : Branch       - HOME BASE OF LOGGING UNIT   
MUD .         GEL CHEM             : Mud_type     - MUD TYPE                    
MATR.         SANDSTONE            : Logunit      - NEUTRON MATRIX              
TMAX.C        23.8889              : BHT          - MAXIMUM RECORDED TEMPERATURE
BHTD.M        610.21               : BHTDEP       - MAXIMUM RECORDED TEMPERATURE
RMT .C        7.22222              : MDTP         - TEMPERATURE OF MUD          
MUDD.KG/M     0                    : MWT          - MUD DENSITY                 
NEUT.         1                    : NEUTRON      - NEUTRON TYPE                
RESI.         0                    : RESIST       - RESISTIVITY TYPE            
RM  .OHMM     4.38                 : RM           - RESISTIVITY OF MUD          
RMC .OHMM     0                    : RMC          - RESISTIVITY OF MUD CAKE     
RMF .OHMM     0                    : RMF          - RESISTIVITY OF MUD FILTRATE 
SUFT.C        -17.7778             : SUFT         - SURFACE TEMPERATURE         
~A  DEPTH     PHID     PHIN       GR      CAL     RESD
  384.048    0.201    0.560  104.758  191.947    2.575
  384.298    0.204    0.528  100.257  192.583    2.531
  384.548    0.214    0.544   97.644  193.529    2.501
  384.798    0.230    0.553   97.410  194.166    2.504
  385.048    0.247    0.552   99.980  189.846    2.544
  385.298    0.229    0.531  102.734  190.585    2.619
  385.548    0.175    0.510  102.196  193.184    2.696
  385.798    0.212    0.505   99.584  193.818    2.785
  386.048    0.230    0.506   90.202  193.422    2.872
  386.298    0.245    0.501   78.017  185.386    2.930
  386.548    0.234    0.513   72.478  193.042    2.790
  386.798    0.256    0.461   70.109  197.603    2.536
  387.048    0.276    0.469   76.401  197.620    2.226
  387.298    0.285    0.520   80.799  197.223    1.997
  387.548    0.276    0.542   80.688  200.852    2.087
  387.798    0.308    0.581   81.124  199.423    2.397
  388.048    0.325    0.593   81.560  185.914    2.814
  388.298    0.313    0.571   77.547  175.915    3.474
  388.548    0.249    0.502   72.435  175.210    4.148
  388.798    0.244    0.452   68.176  174.092    4.711
  389.048    0.238    0.439   62.332  172.868    4.588
  389.298    0.217    0.409   55.329  171.129    4.409
  389.548    0.188    0.417   52.655  171.145    4.222
  389.798    0.149    0.442   55.409  172.712    4.065
  390.048    0.180    0.455   60.968  173.862    3.943
  390.298    0.217    0.469   55.246  175.326    3.840
  390.548    0.246    0.465   54.707  176.273    3.859
  390.798    0.275    0.451   59.473  177.221    3.885
  391.048    0.261    0.445   59.239  177.545    3.889
  391.298    0.237    0.435   61.688  178.178    3.836
  391.548    0.236    0.455   65.600  178.299    3.770
  391.798    0.259    0.462   70.549  178.109    3.638
  392.048    0.253    0.455   76.168  177.609    3.515
  392.298    0.227    0.447   80.081  177.109    3.378
  392.548    0.196    0.489   84.847  176.506    3.253
  392.798    0.216    0.482   91.869  178.071    3.180
  393.048    0.256    0.481   97.062  180.567    3.114
  393.298    0.275    0.496   95.791  187.087    3.083
  393.548    0.318    0.550   87.996  180.186    3.092
  393.798    0.290    0.509   75.749  176.485    3.143
  394.048    0.255    0.473   63.564  175.884    3.187
  394.298    0.280    0.457   49.610  176.314    3.255
  394.548    0.275    0.439   54.011  176.639    3.433
  394.798    0.263    0.414   61.398  176.656    3.660
  395.048    0.260    0.404   67.688  176.570    3.768
  395.298    0.248    0.396   78.857  176.278    3.807
  395.548    0.233    0.481   86.001  177.531    3.862
  395.798    0.248    0.503   86.621  182.711    3.961
  396.048    0.301    0.521   80.898  188.716    4.153
  396.298    0.338    0.528   73.653  183.054    4.444
  396.548    0.274    0.533   64.515  188.336    4.983
  396.798    0.179    0.335   59.709  182.363    5.606
  397.048    0.098    0.321   58.194  176.908    5.923
  397.298    0.096    0.337   65.826  176.926    5.640
  397.548    0.159    0.380   70.836  178.387    4.859
  397.798    0.210    0.427   72.003  179.642    4.402
  398.048    0.257    0.432   67.623  181.210    4.200
  398.298    0.232    0.420   66.352  182.153    4.082
  398.548    0.201    0.417   66.301  183.202    3.967
  398.798    0.201    0.422   60.030  185.079    3.862
  399.048    0.232    0.433   63.090  186.540    3.664
  399.298    0.223    0.440   67.855  186.660    3.464
  399.548    0.239    0.449   72.865  190.083    3.417
  399.798    0.201    0.470   75.923  190.720    3.420
  400.048    0.232    0.486   80.630  187.849    3.482
  400.298    0.213    0.460   86.004  186.417    3.624
  400.548    0.170    0.473   91.806  185.402    3.865
  400.798    0.187    0.453   97.975  185.107    4.030
  401.048    0.205    0.452   95.851  183.577    4.141
  401.298    0.190    0.454   87.811  182.354    4.208
  401.548    0.199    0.452   78.980  181.235    4.214
  401.798    0.204    0.437   74.111  179.907    4.218
  402.048    0.209    0.410   70.706  178.272    4.199
  402.298    0.190    0.425   76.814  177.051    4.081
  402.548    0.185    0.437   76.945  175.726    3.937
  402.798    0.210    0.435   71.711  173.882    3.791
  403.048    0.243    0.430   65.989  171.834    3.604
  403.298    0.285    0.437   60.145  172.882    3.356
  403.548    0.298    0.421   61.130  175.482    3.160
  403.798    0.296    0.429   72.055  176.943    3.032
  404.048    0.286    0.420   78.162  176.547    3.064
  404.298    0.267    0.399   63.904  175.531    3.267
  404.548    0.272    0.392   57.695  174.617    3.575
  404.798    0.270    0.389   60.814  174.221    3.653
  405.048    0.260    0.375   65.092  171.141    3.537
  405.298    0.224    0.350   71.992  166.614    3.276
  405.548    0.214    0.371   66.391  166.113    2.870
  405.798    0.233    0.380   58.535  170.159    2.648
  406.048    0.259    0.383   48.545  171.104    2.484
  406.298    0.287    0.392   46.726  170.708    2.423
  406.548    0.279    0.401   48.321  170.827    2.426
  406.798    0.265    0.384   49.672  171.050    2.470
  407.048    0.245    0.370   47.060  171.170    2.547
  407.298    0.232    0.376   47.497  170.875    2.608
  407.548    0.271    0.383   47.568  169.756    2.596
  407.798    0.278    0.380   46.541  166.160    2.537
  408.048    0.262    0.364   51.245  161.219    2.470
  408.298    0.249    0.380   51.438  164.542    2.379
  408.548    0.278    0.386   43.643  168.687    2.228
  408.798    0.284    0.374   32.982  170.977    2.133
  409.048    0.273    0.374   31.040  172.234    2.200
  409.298    0.264    0.380   34.953  172.660    2.346
  409.548    0.266    0.382   39.963  172.680    2.664
  409.798    0.243    0.367   46.071  171.249    3.015
  410.048    0.204    0.346   54.556  168.167    3.342
  410.298    0.178    0.373   66.090  165.603    3.577
  410.548    0.214    0.382   77.502  168.820    3.682
  410.798    0.229    0.391   87.146  176.373    3.784
  411.048    0.259    0.405   89.656  187.542    3.888
  411.298    0.311    0.433   93.568  194.476    4.009
  411.548    0.329    0.472   92.663  198.210    4.172
  411.798    0.320    0.481   91.881  200.291    4.248
  412.048    0.293    0.453   93.963  194.938    4.260
  412.298    0.231    0.400   90.377  189.173    3.946
  412.548    0.231    0.383   91.422  191.049    3.381
  412.798    0.274    0.419   94.725  194.162    2.956
  413.048    0.333    0.476  102.356  203.471    2.495
  413.298    0.386    0.552   99.318  218.460    2.122
  413.548    0.354    0.571   99.998  206.603    2.040
  413.798    0.300    0.567  103.728  215.912    2.167
  414.048    0.258    0.558  107.518  213.967    2.354
  414.298    0.315    0.546  110.211  241.449    2.624
  414.548    0.347    0.534  110.281  235.889    2.931
  414.798    0.308    0.502  107.060  213.603    3.207
  415.048    0.236    0.469  102.801  185.328    3.369
  415.298    0.198    0.493   98.969  182.869    3.374
  415.548    0.178    0.518  100.869  183.917    3.340
  415.798    0.290    0.526   96.915  180.216    3.301
  416.048    0.275    0.490   79.181  177.135    3.299
  416.298    0.262    0.460   67.849  176.635    3.309
  416.548    0.251    0.434   64.262  175.620    3.324
  416.798    0.240    0.446   65.369  174.912    3.250
  417.048    0.236    0.483   71.720  174.723    3.241
  417.298    0.225    0.499   74.474  174.639    3.269
  417.548    0.272    0.501   69.788  174.863    3.254
  417.798    0.270    0.446   72.481  174.675    3.282
  418.048    0.243    0.445   75.235  174.582    3.373
  418.298    0.265    0.470   69.147  174.498    3.484
  418.548    0.280    0.471   66.108  174.513    3.621
  418.798    0.262    0.456   73.008  174.219    3.818
  419.048    0.233    0.445   80.762  173.928    4.033
  419.298    0.204    0.439   91.930  173.944    4.332
  419.548    0.195    0.456   85.415  174.165    4.410
  419.798    0.217    0.461   79.939  174.392    4.263
  420.048    0.214    0.477   80.679  175.129    4.090
  420.298    0.199    0.472   81.848  176.177    3.845
