~VERSION INFORMATION
 VERS.                 2.0:   CWLS LOG ASCII STANDARD -VERSION 2.0
 WRAP.                  NO:   ONE LINE PER DEPTH STEP
~WELL INFORMATION BLOCK
#MNEM.UNIT           DATA                    DESCRIPTION OF MNEMONIC
#---------    -------------------            -------------------------------
# Generated from Intellog Unique Number	CX_WELLS/WELL/2617
WELL.         05-04-080-11W4                 : Well_name    - WELL
LOC .         00/05-04-080-11W4/0            : Location     - LOCATION
UWI .         00/05-04-080-11W400            : Uwi          - UNIQUE WELL ID
ENTR.         T                              : Entered      - ENTERED BY
SRVC.         SCHLUMBERGER                   : Scn          - SERVICE COMPANY
STRT.M        250                            : top_depth    - START DEPTH
STOP.M        480                            : bot_depth    - STOP DEPTH
STEP.M        0.25                           : increment    - STEP LENGTH
 NULL. -999.2500:NULL Value
~CURVE INFORMATION BLOCK
#MNEM UNIT       ERCB CURVE CODE    CURVE DESCRIPTION
#-----------   ------------------   ----------------------------------
DEPT.M        00 001 00 00         : DEPTH        - DEPTH
GR  .API      00 310 00 00         : GR           - GAMMA RAY
NPHI.V/V      00 330 00 00         : PHIN         - NEUTRON POROSITY (SANDSTONE)
DPHI.V/V      00 890 00 00         : PHID         - DENSITY POROSITY (SANDSTONE)
ILD .OHMM     00 120 00 00         : RESD         - DEEP RESISTIVITY (DIL)
~PARAMETER INFORMATION
#MNEM.UNIT           DATA             DESCRIPTION OF MNEMONIC
#---------         -----------     ------------------------------
GL  .M        682.9                : gl           - GROUND LEVEL ELEVATION
EREF.M        686.7                : kb           - ELEVATION OF DEPTH REFERENCE
DATM.M        686.7                : datum        - DATUM ELEVATION
TDD .M        492                  : tdd          - TOTAL DEPTH DRILLER
RUN .         ONE                  : Run          - RUN NUMBER
ENG .         BILL                 : Engineer     - RECORDING ENGINEER
WIT .         JIM                  : Witness      - WITNESSED BY
MUD .         GEL                  : Mud_type     - MUD TYPE
MATR.         SANDSTONE            : Logunit      - NEUTRON MATRIX
TMAX.C        24                   : BHT          - MAXIMUM RECORDED TEMPERATURE
BHTD.M        492                  : BHTDEP       - MAXIMUM RECORDED TEMPERATURE
MATR.         1                    : LOGUNIT      - NEUTRON MATRIX
RMT .C        25                   : MDTP         - TEMPERATURE OF MUD
NEUT.         1                    : NEUTRON      - NEUTRON TYPE
RESI.         4.5                  : RESIST       - RESISTIVITY TYPE
RMC .OHMM     8                    : RMC          - RESISTIVITY OF MUD CAKE
RMF .OHMM     6                    : RMF          - RESISTIVITY OF MUD FILTRATE
SUFT.C        4                    : SUFT         - SURFACE TEMPERATURE
~A  DEPTH       GR     PHIN     PHID     RESD
# ...
  337.000   52.246    0.385    0.344   17.383
  337.250   53.503    0.387    0.345   17.407
  337.500   53.547    0.388    0.345   17.432
  337.750   53.605    0.389    0.345   17.468
  338.000   53.064    0.389    0.344   17.487
  338.250   51.938    0.391    0.344   17.505
  338.500   52.011    0.394    0.341   17.216
  338.750   52.654    0.395    0.337   17.234
  339.000   53.312    0.397    0.331   17.264
  339.250   53.970    0.403    0.329   17.282
  339.500   54.628    0.408    0.329   17.301
  339.750   55.301    0.414    0.330   17.337
  340.000   55.344    0.416    0.330   17.361
  340.250   54.803    0.410    0.330   17.050
  340.500   54.861    0.393    0.328   16.757
  340.750   56.163    0.381    0.324   15.572
  341.000   56.207    0.377    0.323   14.465
  341.250   56.250    0.378    0.323   13.687
  341.500   56.294    0.379    0.323   12.710
  341.750   56.367    0.389    0.324   11.372
  342.000   57.025    0.394    0.324    9.986
  342.250   57.069    0.393    0.321    9.104
  342.500   57.727    0.393    0.315    7.994
  342.750   58.984    0.392    0.311    7.290
  343.000   61.441    0.390    0.307    6.523
  343.250   65.697    0.395    0.298    5.944
  343.500   77.764    0.425    0.285    5.522
  343.750   89.815    0.471    0.267    5.227
  344.000   93.472    0.505    0.259    4.949
  344.250   90.532    0.520    0.262    5.146
  344.500   86.392    0.515    0.266    5.766
  344.750   81.054    0.489    0.261    6.837
  345.000   90.707    0.434    0.261    7.956
  345.250  100.974    0.407    0.282    8.917
  345.500   94.436    0.401    0.298    9.629
  345.750   74.691    0.393    0.316   10.008
  346.000   65.154    0.389    0.322   10.216
  346.250   61.001    0.392    0.312   10.230
  346.500   59.275    0.398    0.312   10.245
  346.750   61.132    0.405    0.317   10.259
  347.000   64.189    0.404    0.321   10.270
  347.250   66.060    0.400    0.319   10.093
  347.500   66.718    0.398    0.314    9.560
  347.750   67.976    0.406    0.278    9.218
  348.000   68.034    0.413    0.302    8.887
  348.250   68.692    0.420    0.320    8.102
  348.500   70.535    0.426    0.321    6.855
  348.750   72.407    0.437    0.313    5.797
  349.000   73.665    0.435    0.307    5.185
  349.250   73.723    0.432    0.303    4.385
  349.500   74.367    0.428    0.309    3.849
  349.750   75.025    0.425    0.313    3.643
  350.000   76.282    0.428    0.309    3.385
  350.250   79.339    0.439    0.293    3.205
  350.500   87.822    0.450    0.284    3.033
  350.750   93.862    0.454    0.273    2.870
  351.000   97.518    0.464    0.262    2.667
  351.250  108.400    0.480    0.255    2.572
  351.500  109.058    0.489    0.249    2.577
  351.750  109.116    0.494    0.244    2.580
  352.000  108.589    0.502    0.239    2.682
  352.250  108.019    0.509    0.236    2.737
  352.500  106.278    0.523    0.235    2.847
  352.750  105.152    0.547    0.240    2.904
  353.000  104.596    0.557    0.251    3.018
  353.250  104.683    0.560    0.261    3.258
  353.500  105.327    0.513    0.257    3.653
  353.750  105.985    0.489    0.251    4.094
  354.000  106.043    0.477    0.238    4.503
  354.250  106.701    0.467    0.223    5.242
  354.500  106.760    0.454    0.215    5.764
  354.750  100.207    0.441    0.213    6.107
  355.000  109.260    0.419    0.213    6.350
  355.250  112.917    0.424    0.213    6.361
  355.500  110.576    0.430    0.218    6.372
  355.750  104.638    0.432    0.231    6.376
  356.000   90.290    0.428    0.240    6.267
  356.250   85.566    0.423    0.247    6.044
  356.500   84.425    0.422    0.253    5.829
  356.750   81.470    0.418    0.256    5.518
  357.000   73.733    0.417    0.258    5.126
  357.250   69.593    0.416    0.267    4.673
  357.500   73.250    0.422    0.273    4.341
  357.750   78.105    0.431    0.262    4.031
  358.000   84.160    0.438    0.251    3.676
  358.250   89.016    0.445    0.248    3.545
  358.500   92.687    0.466    0.250    3.355
  358.750   95.744    0.471    0.252    3.362
  359.000  100.000    0.471    0.247    3.428
  359.250  104.256    0.470    0.242    3.565
  359.500  107.926    0.468    0.240    3.706
  359.750  105.586    0.468    0.239    3.783
  360.000  105.045    0.474    0.243    3.790
  360.250  104.489    0.481    0.249    3.722
  360.500  100.364    0.487    0.253    3.590
  360.750   97.410    0.489    0.254    3.528
  361.000  102.265    0.489    0.252    3.404
  361.250  104.123    0.488    0.252    3.345
  361.500  103.581    0.487    0.250    3.349
  361.750  103.040    0.484    0.247    3.419
  362.000  102.513    0.480    0.239    3.554
  362.250  102.557    0.475    0.233    3.625
  362.500   99.617    0.473    0.225    3.769
  362.750   96.077    0.467    0.225    3.996
  363.000   93.737    0.457    0.226    4.152
  363.250   92.611    0.437    0.228    4.402
  363.500   90.855    0.431    0.233    4.575
  363.750   89.729    0.423    0.244    4.847
  364.000   89.173    0.415    0.247    5.137
  364.250   89.831    0.409    0.247    5.241
  364.500   89.889    0.404    0.249    5.247
  364.750   88.149    0.402    0.248    5.062
  365.000   87.622    0.402    0.243    4.883
  365.250   90.664    0.409    0.244    4.537
  365.500   97.319    0.422    0.250    4.373
  365.750   94.393    0.433    0.256    4.139
  366.000   93.252    0.447    0.255    3.992
  366.250   94.496    0.458    0.252    3.925
  366.500   99.965    0.464    0.247    3.929
  366.750  103.636    0.459    0.242    3.935
  367.000   98.283    0.454    0.241    4.015
  367.250   94.729    0.451    0.236    4.095
  367.500   97.215    0.445    0.232    4.340
  367.750  100.857    0.442    0.226    4.513
  368.000  106.926    0.438    0.224    4.692
  368.250  110.597    0.466    0.230    4.883
  368.500  111.826    0.454    0.234    4.887
  368.750  111.884    0.436    0.235    4.985
  369.000  108.944    0.422    0.236    5.090
  369.250  102.406    0.410    0.245    5.190
  369.500  103.664    0.407    0.254    5.498
  369.750  104.322    0.407    0.267    5.936
  370.000  101.982    0.402    0.279    6.529
  370.250   97.243    0.401    0.286    7.182
  370.500   92.504    0.396    0.291    7.611
  370.750   86.551    0.391    0.289    7.769
  371.000   74.016    0.379    0.275    7.925
  371.250   69.891    0.357    0.210    7.785
  371.500   67.551    0.351    0.107    7.651
  371.750   68.195    0.358    0.118    7.522
  372.000   77.847    0.377    0.229    7.390
  372.250   92.327    0.388    0.248    7.133
  372.500   93.599    0.402    0.249    7.007
  372.750   94.228    0.410    0.249    6.759
  373.000   92.487    0.410    0.246    6.640
  373.250   90.147    0.409    0.241    6.526
  373.500   87.821    0.408    0.234    6.296
  373.750   88.479    0.408    0.233    6.303
  374.000   89.737    0.398    0.230    6.196
  374.250   91.594    0.389    0.230    6.087
  374.500   92.837    0.393    0.230    5.983
  374.750   95.309    0.401    0.230    5.663
  375.000   98.366    0.403    0.230    5.360
  375.250  100.208    0.403    0.231    4.887
  375.500  101.466    0.401    0.231    4.455
  375.750   99.126    0.399    0.231    3.986
  376.000   98.014    0.396    0.233    3.633
  376.250   98.043    0.397    0.240    3.190
  376.500   99.930    0.407    0.249    2.963
  376.750  100.573    0.410    0.252    2.701
  377.000  100.631    0.418    0.235    2.510
  377.250  100.704    0.423    0.230    2.467
  377.500  101.947    0.442    0.231    2.470
  377.750  104.419    0.456    0.237    2.617
  378.000  109.260    0.469    0.251    2.879
  378.250  110.518    0.475    0.253    2.992
  378.500  108.792    0.473    0.252    3.483
  378.750  108.850    0.454    0.251    3.904
  379.000  108.908    0.431    0.249    4.378
  379.250  104.754    0.416    0.248    4.726
  379.500   94.618    0.413    0.248    5.006
  379.750   95.291    0.413    0.249    5.012
  380.000   98.333    0.416    0.250    5.211
  380.250  102.589    0.421    0.252    5.524
