~VERSION INFORMATION
 VERS.                 2.0:   CWLS LOG ASCII STANDARD -VERSION 2.0
 WRAP.                  NO:   ONE LINE PER DEPTH STEP
~WELL INFORMATION BLOCK
#MNEM.UNIT           DATA                    DESCRIPTION OF MNEMONIC
#---------    -------------------            -------------------------------
# Generated from Intellog Unique Number	CS_73_76/WELL/2196
WELL.         PETROFINA CANADA LTD           : Well_name    - WELL
LOC .         00/07-17-076-11W4/0            : Location     - LOCATION
UWI .         00/07-17-076-11W4/0            : Uwi          - UNIQUE WELL ID
ENTR.         SP                             : Entered      - ENTERED BY
SRVC.         SCHLUMBERGER                   : Scn          - SERVICE COMPANY
STRT.M        274.32                         : top_depth    - START DEPTH
STOP.M        511.82                         : bot_depth    - STOP DEPTH
STEP.M        0.25                           : increment    - STEP LENGTH
 NULL. -999.2500:NULL Value
~CURVE INFORMATION BLOCK
#MNEM UNIT       ERCB CURVE CODE    CURVE DESCRIPTION
#-----------   ------------------   ----------------------------------
DEPT.M        00 001 00 00         : DEPTH        - DEPTH
GR  .API      00 310 00 00         : GR           - GAMMA RAY
DPHI.V/V      00 890 00 00         : PHID         - DENSITY POROSITY (SANDSTONE)
NPHI.V/V      00 330 00 00         : PHIN         - NEUTRON POROSITY (SANDSTONE)
ILD .OHMM     00 120 00 00         : RESD         - DEEP RESISTIVITY (DIL)
~PARAMETER INFORMATION
#MNEM.UNIT           DATA             DESCRIPTION OF MNEMONIC
#---------         -----------     ------------------------------
GL  .M        667.817              : gl           - GROUND LEVEL ELEVATION
EREF.M        671.17               : kb           - ELEVATION OF DEPTH REFERENCE
DATM.M        667.817              : datum        - DATUM ELEVATION
TDD .M        532.79               : tdd          - TOTAL DEPTH DRILLER
RUN .         ONE                  : Run          - RUN NUMBER
ENG .         BILL                 : Engineer     - RECORDING ENGINEER
WIT .         JIM                  : Witness      - WITNESSED BY
MUD .         GEL                  : Mud_type     - MUD TYPE
MATR.         SANDSTONE            : Logunit      - NEUTRON MATRIX
TMAX.C        8.88889              : BHT          - MAXIMUM RECORDED TEMPERATURE
BHTD.M        532.79               : BHTDEP       - MAXIMUM RECORDED TEMPERATURE
MATR.         1                    : LOGUNIT      - NEUTRON MATRIX
RMT .C        25                   : MDTP         - TEMPERATURE OF MUD
NEUT.         1                    : NEUTRON      - NEUTRON TYPE
RESI.         0                    : RESIST       - RESISTIVITY TYPE
RMC .OHMM     0.25                 : RMC          - RESISTIVITY OF MUD CAKE
RMF .OHMM     0.25                 : RMF          - RESISTIVITY OF MUD FILTRATE
SUFT.C        15                   : SUFT         - SURFACE TEMPERATURE
~A  DEPTH       GR     PHID     PHIN     RESD
# ...
  361.320   86.737    0.295    0.475    5.510
  361.570   92.390    0.270    0.498    4.377
  361.820   98.883    0.249    0.534    3.533
  362.070  104.444    0.247    0.550    2.892
  362.320  106.138    0.245    0.568    2.913
  362.570  102.476    0.237    0.554    3.170
  362.820   99.844    0.232    0.542    3.366
  363.070   99.068    0.229    0.528    3.577
  363.320   99.551    0.224    0.517    3.805
  363.570  101.747    0.215    0.514    3.923
  363.820  103.583    0.207    0.520    4.049
  364.070  102.815    0.203    0.520    4.097
  364.320  101.535    0.222    0.515    4.147
  364.570  103.544    0.235    0.508    4.114
  364.820  105.527    0.236    0.500    4.177
  365.070  106.823    0.220    0.489    4.331
  365.320  108.905    0.199    0.478    4.507
  365.570  110.127    0.194    0.477    4.653
  365.820  109.369    0.205    0.483    4.638
  366.070  109.427    0.204    0.502    4.497
  366.320  110.038    0.211    0.518    4.069
  366.570  110.865    0.225    0.527    3.740
  366.820  111.847    0.229    0.533    3.476
  367.070  112.499    0.225    0.542    3.364
  367.320  113.234    0.231    0.552    3.444
  367.570  112.140    0.239    0.553    3.720
  367.820  110.412    0.246    0.555    3.973
  368.070  104.821    0.257    0.561    4.450
  368.320  101.660    0.277    0.564    4.713
  368.570   98.954    0.266    0.543    4.952
  368.820  102.308    0.258    0.496    4.937
  369.070  106.537    0.249    0.472    4.633
  369.320  111.309    0.244    0.494    3.936
  369.570  113.793    0.246    0.528    3.477
  369.820  117.126    0.245    0.555    2.972
  370.070  119.014    0.241    0.557    2.750
  370.320  118.814    0.242    0.562    2.634
  370.570  119.286    0.247    0.572    2.531
  370.820  122.107    0.253    0.594    2.423
  371.070  123.573    0.256    0.615    2.395
  371.320  122.979    0.261    0.601    2.325
  371.570  119.886    0.269    0.601    2.307
  371.820  114.987    0.268    0.602    2.489
  372.070  110.525    0.262    0.589    2.710
  372.320  107.817    0.263    0.573    3.109
  372.570  105.744    0.262    0.551    4.023
  372.820  102.585    0.254    0.520    4.622
  373.070  102.401    0.249    0.485    5.503
  373.320  102.050    0.245    0.471    5.927
  373.570  100.748    0.246    0.471    6.195
  373.820   97.693    0.252    0.475    6.289
  374.070   96.126    0.255    0.462    6.284
  374.320   97.678    0.253    0.456    6.274
  374.570   97.090    0.246    0.459    6.155
  374.820   95.635    0.243    0.479    6.290
  375.070   93.225    0.258    0.484    6.415
  375.320   89.172    0.275    0.499    6.517
  375.570   85.339    0.289    0.489    6.660
  375.820   83.601    0.287    0.477    6.646
  376.070   88.821    0.282    0.464    6.643
  376.320   92.493    0.277    0.457    6.617
  376.570   96.408    0.273    0.467    6.524
  376.820   97.251    0.270    0.474    6.596
  377.070   94.747    0.273    0.471    6.666
  377.320   92.265    0.284    0.476    6.755
  377.570   91.207    0.294    0.484    7.057
  377.820   91.646    0.294    0.489    7.036
  378.070   92.617    0.289    0.494    7.275
  378.320   93.229    0.281    0.495    7.342
  378.570   95.373    0.273    0.492    7.430
  378.820   98.009    0.263    0.479    7.334
  379.070   99.812    0.255    0.469    7.294
  379.320  101.414    0.247    0.457    7.297
  379.570  101.128    0.246    0.450    7.157
  379.820  100.186    0.251    0.450    6.986
  380.070  100.791    0.246    0.454    6.901
  380.320  101.848    0.237    0.480    6.694
  380.570  102.061    0.245    0.494    6.651
  380.820  100.566    0.249    0.485    6.556
  381.070   98.676    0.241    0.496    6.406
  381.320   99.140    0.236    0.508    6.281
  381.570  101.001    0.240    0.511    6.285
  381.820  102.983    0.231    0.499    6.248
  382.070  104.619    0.231    0.486    6.171
  382.320  105.330    0.240    0.479    6.095
  382.570  104.591    0.241    0.475    6.060
  382.820  104.625    0.242    0.483    6.057
  383.070  105.165    0.242    0.494    6.069
  383.320  107.465    0.237    0.496    5.936
  383.570  108.838    0.238    0.489    5.947
  383.820  109.214    0.241    0.482    5.946
  384.070  105.554    0.231    0.477    5.946
  384.320  101.527    0.222    0.473    5.946
  384.570  105.467    0.206    0.478    5.946
  384.820  106.552    0.209    0.483    5.946
  385.070  104.148    0.222    0.478    5.946
  385.320  101.537    0.217    0.473    5.946
  385.570  102.293    0.214    0.489    5.946
  385.820  103.961    0.218    0.497    5.949
  386.070  104.784    0.217    0.502    5.969
  386.320  105.878    0.216    0.497    6.060
  386.570  104.917    0.222    0.486    6.058
  386.820  100.857    0.213    0.478    6.057
  387.070   97.348    0.228    0.482    6.058
  387.320   95.640    0.212    0.479    6.069
  387.570   95.740    0.201    0.477    5.945
  387.820   96.446    0.211    0.475    5.715
  388.070   95.936    0.214    0.478    5.287
  388.320   99.414    0.224    0.503    4.756
  388.570  103.546    0.234    0.520    3.934
  388.820  106.000    0.242    0.550    3.193
  389.070  108.502    0.243    0.592    2.639
  389.320  110.689    0.262    0.608    2.168
  389.570  109.378    0.275    0.622    1.923
  389.820  107.522    0.282    0.644    1.781
  390.070  104.737    0.271    0.634    1.749
  390.320  105.041    0.262    0.617    1.890
  390.570  104.193    0.265    0.567    2.060
  390.820  100.709    0.265    0.530    2.397
  391.070   98.841    0.241    0.500    2.852
  391.320   99.104    0.235    0.487    3.404
  391.570  101.573    0.233    0.478    4.121
  391.820  103.800    0.243    0.478    4.751
  392.070  107.885    0.266    0.483    5.055
  392.320  112.161    0.286    0.492    5.225
  392.570  112.686    0.289    0.498    5.226
  392.820  102.015    0.300    0.480    5.125
  393.070   90.521    0.315    0.462    5.021
  393.320   82.101    0.323    0.445    5.039
  393.570   74.522    0.323    0.439    4.929
  393.820   70.777    0.321    0.453    4.938
  394.070   69.128    0.316    0.458    4.928
  394.320   68.478    0.311    0.467    5.024
  394.570   68.562    0.313    0.459    5.223
  394.820   68.978    0.307    0.446    5.287
  395.070   69.021    0.301    0.436    5.342
  395.320   68.588    0.296    0.442    5.420
  395.570   68.341    0.320    0.441    5.418
  395.820   66.496    0.322    0.441    5.414
  396.070   65.042    0.318    0.442    5.509
  396.320   64.026    0.315    0.437    5.517
  396.570   63.819    0.316    0.436    5.520
  396.820   65.333    0.316    0.443    5.519
  397.070   67.358    0.322    0.455    5.511
  397.320   69.372    0.328    0.450    5.627
  397.570   70.728    0.328    0.449    5.622
  397.820   67.993    0.322    0.450    5.623
  398.070   66.276    0.317    0.460    5.624
  398.320   67.633    0.321    0.463    5.692
  398.570   69.669    0.318    0.464    5.732
  398.820   71.676    0.311    0.461    5.631
  399.070   73.627    0.305    0.458    5.627
  399.320   74.374    0.300    0.459    5.628
  399.570   70.204    0.309    0.455    5.534
  399.820   66.741    0.315    0.441    5.521
  400.070   67.123    0.317    0.440    5.514
  400.320   70.284    0.313    0.448    5.333
  400.570   71.496    0.312    0.450    5.286
  400.820   71.871    0.299    0.445    5.222
  401.070   71.325    0.288    0.435    5.148
  401.320   70.760    0.253    0.401    5.277
  401.570   68.379    0.213    0.343    5.703
  401.820   66.423    0.168    0.224    6.876
  402.070   63.620    0.043    0.179    8.898
  402.320   62.822    0.051    0.181   11.029
  402.570   62.269    0.080    0.200   12.045
  402.820   64.814    0.128    0.243   12.449
  403.070   66.180    0.211    0.285   11.030
  403.320   67.914    0.233    0.328    8.697
  403.570   70.261    0.260    0.371    7.663
  403.820   71.660    0.296    0.425    6.624
  404.070   72.844    0.314    0.452    5.769
  404.320   73.854    0.322    0.467    5.222
  404.570   75.114    0.321    0.457    5.115
