~VERSION INFORMATION
 VERS.                 2.0:   CWLS LOG ASCII STANDARD -VERSION 2.0
 WRAP.                  NO:   ONE LINE PER DEPTH STEP
~WELL INFORMATION BLOCK
#MNEM.UNIT           DATA                    DESCRIPTION OF MNEMONIC
#---------    -------------------            -------------------------------
# Generated from Intellog Unique Number	CC_80_83/WELL/1185
NULL.         -999.25                        : NULL_VALUE
WELL.         GULF RESDELN                   : Well_name    - WELL              
LOC .         07-16-083-07W4                 : Location     - LOCATION          
UWI .         00/07-16-083-07W4/0            : Uwi          - UNIQUE WELL ID    
ENTR.         DW                             : Entered      - ENTERED BY        
SRVC.         SCHLUMBERGER                   : Scn          - SERVICE COMPANY   
DATE.         16 MAR 81                      : Date         - LOG DATE
STRT.M        250                            : top_depth    - START DEPTH       
STOP.M        504.99                         : bot_depth    - STOP DEPTH        
STEP.M        0.3                            : increment    - STEP LENGTH       
~CURVE INFORMATION BLOCK
#MNEM UNIT       ERCB CURVE CODE    CURVE DESCRIPTION
#-----------   ------------------   ----------------------------------
DEPT.M        00 001 00 00         : DEPTH        - DEPTH                       
DPHI.V/V      00 890 00 00         : PHID         - DENSITY POROSITY (LIMESTONE)
NPHI.V/V      00 330 00 00         : PHIN         - NEUTRON POROSITY (LIMESTONE)
GR  .API      00 310 00 00         : GR           - GAMMA RAY                   
ILD .OHMM     00 120 00 00         : RESD         - DEEP RESISTIVITY (DIL)      
~PARAMETER INFORMATION       
#MNEM.UNIT           DATA             DESCRIPTION OF MNEMONIC
#---------         -----------     ------------------------------
GL  .M        711.2                : gl           - GROUND LEVEL ELEVATION      
EREF.M        715                  : kb           - ELEVATION OF DEPTH REFERENCE
DATM.M        715                  : datum        - DATUM ELEVATION             
TDD .M        542                  : tdd          - TOTAL DEPTH DRILLER         
RUN .         ONE                  : Run          - RUN NUMBER                  
ENG .         BILL                 : Engineer     - RECORDING ENGINEER          
WIT .         JIM                  : Witness      - WITNESSED BY                
MUD .         GEL                  : Mud_type     - MUD TYPE                    
MATR.         LIMESTONE            : Logunit      - NEUTRON MATRIX              
TMAX.C        26                   : BHT          - MAXIMUM RECORDED TEMPERATURE
BHTD.M        542                  : BHTDEP       - MAXIMUM RECORDED TEMPERATURE
MATR.         1                    : LOGUNIT      - NEUTRON MATRIX              
RMT .C        25                   : MDTP         - TEMPERATURE OF MUD          
NEUT.         1                    : NEUTRON      - NEUTRON TYPE                
RESI.         0                    : RESIST       - RESISTIVITY TYPE            
RMC .OHMM     0.25                 : RMC          - RESISTIVITY OF MUD CAKE     
RMF .OHMM     0.25                 : RMF          - RESISTIVITY OF MUD FILTRATE 
SUFT.C        4                    : SUFT         - SURFACE TEMPERATURE         
~A  DEPTH     PHID     PHIN       GR     RESD
# ...
  302.198    0.369    0.573   72.368   10.105
  302.498    0.402    0.576   60.447   11.139
  302.798    0.450    0.566   58.719   11.373
  303.098    0.472    0.562   62.365   10.759
  303.398    0.467    0.592   69.008   10.175
  303.698    0.468    0.628   74.456    9.265
  303.998    0.469    0.615   75.715    9.101
  304.298    0.472    0.611   74.572    8.949
  304.598    0.468    0.622   73.438    8.961
  304.898    0.453    0.637   71.690    8.973
  305.198    0.440    0.638   67.561    8.995
  305.498    0.437    0.615   70.612    9.007
  305.798    0.417    0.613   75.462    9.025
  306.098    0.413    0.616   71.926    8.862
  306.398    0.430    0.615   65.396    8.389
  306.698    0.424    0.613   66.048    8.086
  306.998    0.427    0.630   68.514    7.646
  307.298    0.443    0.639   67.362    6.965
  307.598    0.458    0.657   60.838    6.842
  307.898    0.458    0.656   60.893    6.851
  308.198    0.492    0.632   65.141    6.995
  308.498    0.531    0.615   74.181    7.146
  308.798    0.404    0.597   86.227    6.760
  309.098    0.346    0.577  100.659    6.513
  309.398    0.265    0.552  109.698    6.163
  309.698    0.255    0.525  107.373    6.415
  309.998    0.251    0.500  105.022    6.801
  310.298    0.232    0.475  100.290    7.785
  310.598    0.230    0.447   86.572    9.261
  310.898    0.223    0.443   87.223   10.210
  311.198    0.221    0.455   91.477   10.420
  311.498    0.209    0.472   93.330   10.240
  311.798    0.211    0.464   97.587    9.324
  312.098    0.191    0.460   97.647    8.488
  312.398    0.190    0.457  100.100    8.505
  312.698    0.203    0.449  106.747    9.022
  312.998    0.182    0.455  108.599    9.756
  313.298    0.193    0.445  110.456    9.954
  313.598    0.210    0.446  111.707    9.973
  313.898    0.235    0.481  107.572    9.798
  314.198    0.252    0.477   93.854   10.599
  314.498    0.264    0.465   96.308   11.673
  314.798    0.251    0.466   97.570   12.865
  315.098    0.254    0.462   94.645   13.387
  315.398    0.273    0.438   94.089   12.671
  315.698    0.279    0.418   95.350   12.445
  315.998    0.258    0.436   94.207   12.466
  316.298    0.175    0.457   88.271   12.973
  316.598    0.158    0.454   70.356   14.033
  316.898    0.203    0.470   62.023   15.754
  317.198    0.268    0.455   52.498   19.099
  317.498    0.288    0.451   47.178   21.060
  317.798    0.284    0.450   46.035   21.911
  318.098    0.292    0.442   47.296   22.362
  318.398    0.293    0.431   49.733   22.839
  318.698    0.302    0.425   49.798   22.872
  318.997    0.293    0.448   51.662   22.905
  319.297    0.303    0.453   52.907   22.950
  319.597    0.307    0.460   54.760   22.982
  319.897    0.300    0.457   54.225   23.034
  320.197    0.313    0.438   54.877   23.057
  320.497    0.303    0.418   58.531   23.099
  320.797    0.296    0.420   57.397   23.595
  321.097    0.292    0.460   55.667   23.619
  321.397    0.327    0.449   55.104   23.666
  321.697    0.325    0.436   56.363   23.702
  321.997    0.319    0.432   58.216   23.296
  322.297    0.341    0.428   60.675   22.897
  322.597    0.349    0.426   59.530   22.924
  322.897    0.321    0.436   56.011   23.412
  323.197    0.310    0.434   59.647   24.367
  323.497    0.321    0.430   63.299   24.407
  323.797    0.325    0.448   61.568   24.456
  324.097    0.343    0.446   62.215   24.493
  324.397    0.333    0.444   58.081   24.069
  324.697    0.344    0.459   53.951   23.646
  324.997    0.358    0.461   52.809   23.235
  325.297    0.318    0.445   52.866   22.405
  325.597    0.305    0.436   53.533   21.604
  325.897    0.328    0.457   52.979   21.237
  326.197    0.324    0.476   51.836   21.667
  326.497    0.330    0.467   49.508   22.560
  326.797    0.316    0.455   47.761   23.483
  327.097    0.320    0.443   46.624   23.955
  327.397    0.328    0.438   47.876   24.460
  327.697    0.316    0.451   49.739   24.511
  327.997    0.316    0.451   49.191   23.642
  328.297    0.329    0.445   53.449   23.661
  328.597    0.333    0.440   54.108   22.812
  328.897    0.325    0.436   52.961   22.014
  329.197    0.320    0.452   54.215   22.037
  329.497    0.329    0.457   54.888   22.513
  329.797    0.318    0.454   54.331   22.976
  330.097    0.317    0.464   51.396   23.012
  330.397    0.306    0.478   49.056   23.485
  330.697    0.273    0.458   49.727   23.979
  330.997    0.262    0.430   50.379   25.926
  331.297    0.225    0.383   52.226   26.466
  331.597    0.108    0.254   60.673   24.095
  331.897    0.028    0.247   67.314   20.722
  332.197    0.066    0.286   76.358   14.721
  332.497    0.197    0.406   83.601   11.724
  332.797    0.237    0.470   92.645    6.255
  333.097    0.241    0.473   96.299    5.917
  333.397    0.211    0.502   91.568    6.524
  333.697    0.208    0.512   88.028    7.049
  333.997    0.258    0.505   66.523    8.878
  334.297    0.296    0.465   67.778   12.540
  334.597    0.297    0.442   74.425   13.054
  334.897    0.287    0.440   81.073   11.435
  335.197    0.259    0.484   83.523    8.602
  335.497    0.211    0.517   77.592    8.616
  335.797    0.221    0.491   68.072   10.255
  336.097    0.273    0.440   66.331   11.733
  336.397    0.307    0.440   66.386   18.583
  336.697    0.299    0.438   74.231   17.927
  336.997    0.283    0.433   81.477   12.974
  337.297    0.237    0.446   86.928    9.575
  337.597    0.220    0.495   84.592    8.234
  337.897    0.243    0.488   80.460    8.248
  338.197    0.279    0.484   78.125    8.584
  338.497    0.245    0.495   75.777    9.647
  338.797    0.270    0.469   72.240   10.225
  339.097    0.271    0.487   75.891    9.859
  339.397    0.277    0.495   78.361    8.981
  339.697    0.241    0.451   81.400    8.492
  339.997    0.197    0.460   90.444    8.347
  340.297    0.211    0.478   95.297    7.891
  340.597    0.213    0.487   92.960    6.052
  340.897    0.218    0.525   93.018    5.726
  341.197    0.253    0.508   96.665    5.843
  341.497    0.225    0.477   98.525    6.566
  341.797    0.198    0.488   97.978    7.096
  342.097    0.201    0.485   93.246    8.125
  342.397    0.189    0.466   90.915    9.127
  342.697    0.232    0.459   90.962    9.141
  342.997    0.214    0.455   94.616    8.814
  343.297    0.210    0.486   95.868    8.180
  343.596    0.217    0.489   92.332    7.306
  343.896    0.224    0.486   92.408    6.405
  344.196    0.228    0.493   91.859    5.613
  344.496    0.235    0.495   93.108    4.644
  344.796    0.199    0.531  100.354    3.918
  345.096    0.205    0.529  105.806    3.705
  345.396    0.200    0.532  104.064    3.712
  345.696    0.179    0.542  101.729    3.791
  345.996    0.188    0.517  102.385    3.796
  346.296    0.195    0.517  106.642    3.660
  346.596    0.205    0.546  109.089    3.667
  346.896    0.235    0.558  108.546    3.674
  347.196    0.232    0.563  103.815    3.677
  347.496    0.227    0.534   98.476    3.901
  347.796    0.213    0.513   94.355    4.469
  348.096    0.208    0.497   93.206    5.018
  348.396    0.233    0.484   90.868    5.424
  348.696    0.238    0.474   89.132    6.210
  348.996    0.260    0.485   87.388    6.712
  349.296    0.269    0.502   88.649    6.597
  349.596    0.260    0.495   92.295    5.460
  349.896    0.241    0.562   99.540    3.953
  350.196    0.233    0.592  100.194    3.400
  350.496    0.221    0.582   94.863    3.095
  350.796    0.221    0.573  100.311    2.927
  351.096    0.197    0.568  103.968    2.822
  351.396    0.241    0.566  105.228    2.828
  351.696    0.254    0.540  103.480    3.116
  351.996    0.273    0.529   92.764    3.501
  352.296    0.274    0.542   89.820    3.784
  352.596    0.241    0.554   89.284    4.012
  352.896    0.271    0.558   89.341    4.257
  353.196    0.273    0.558   84.599    4.603
  353.496    0.282    0.528   76.871    5.169
  353.796    0.291    0.480   65.555    6.148
  354.096    0.288    0.492   59.614    9.021
