~VERSION INFORMATION
 VERS.                 2.0:   CWLS LOG ASCII STANDARD -VERSION 2.0
 WRAP.                  NO:   ONE LINE PER DEPTH STEP
~WELL INFORMATION BLOCK
#MNEM.UNIT           DATA                    DESCRIPTION OF MNEMONIC
#---------    -------------------            -------------------------------
# Generated from Intellog Unique Number	CS_69_70/WELL/850
NULL.         -999.25                        : NULL_VALUE
WELL.         KISSINGER POETROLEUMS          : Well_name    - WELL              
LOC .         00/07-35-070-11W4/0            : Location     - LOCATION          
UWI .         00/07-35-070-11W4/0            : Uwi          - UNIQUE WELL ID    
ENTR.         SP                             : Entered      - ENTERED BY        
SRVC.         SCHLUMBERGER                   : Scn          - SERVICE COMPANY   
STRT.M        290                            : top_depth    - START DEPTH       
STOP.M        515                            : bot_depth    - STOP DEPTH        
STEP.M        0.25                           : increment    - STEP LENGTH       
~CURVE INFORMATION BLOCK
#MNEM UNIT       ERCB CURVE CODE    CURVE DESCRIPTION
#-----------   ------------------   ----------------------------------
DEPT.M        00 001 00 00         : DEPTH        - DEPTH                       
ILD .OHMM     00 120 00 00         : RESD         - DEEP RESISTIVITY (DIL)      
DPHI.V/V      00 890 00 00         : PHID         - DENSITY POROSITY (LIMESTONE)
NPHI.V/V      00 330 00 00         : PHIN         - NEUTRON POROSITY (LIMESTONE)
GR  .API      00 310 00 00         : GR           - GAMMA RAY                   
~PARAMETER INFORMATION       
#MNEM.UNIT           DATA             DESCRIPTION OF MNEMONIC
#---------         -----------     ------------------------------
GL  .M        622                  : gl           - GROUND LEVEL ELEVATION      
EREF.M        625.35               : kb           - ELEVATION OF DEPTH REFERENCE
DATM.M        622                  : datum        - DATUM ELEVATION             
TDD .M        515                  : tdd          - TOTAL DEPTH DRILLER         
RUN .         ONE                  : Run          - RUN NUMBER                  
ENG .         BILL                 : Engineer     - RECORDING ENGINEER          
WIT .         JIM                  : Witness      - WITNESSED BY                
MUD .         GEL                  : Mud_type     - MUD TYPE                    
MATR.         LIMESTONE            : Logunit      - NEUTRON MATRIX              
TMAX.C        18                   : BHT          - MAXIMUM RECORDED TEMPERATURE
BHTD.M        515                  : BHTDEP       - MAXIMUM RECORDED TEMPERATURE
MATR.         1                    : LOGUNIT      - NEUTRON MATRIX              
RMT .C        25                   : MDTP         - TEMPERATURE OF MUD          
NEUT.         1                    : NEUTRON      - NEUTRON TYPE                
RESI.         0                    : RESIST       - RESISTIVITY TYPE            
RMC .OHMM     0.25                 : RMC          - RESISTIVITY OF MUD CAKE     
RMF .OHMM     0.25                 : RMF          - RESISTIVITY OF MUD FILTRATE 
SUFT.C        15                   : SUFT         - SURFACE TEMPERATURE         
~A  DEPTH     RESD     PHID     PHIN       GR
# ...
  420.500    2.924    0.244    0.440  105.121
  420.750    2.522    0.264    0.445  107.311
  421.000    2.152    0.279    0.459  111.618
  421.250    1.805    0.295    0.480  116.107
  421.500    1.611    0.305    0.489  117.446
  421.750    1.626    0.300    0.460  118.123
  422.000    1.688    0.281    0.443  117.531
  422.250    1.838    0.267    0.438  116.454
  422.500    1.966    0.265    0.438  114.954
  422.750    2.204    0.275    0.439  113.392
  423.000    2.603    0.265    0.432  112.013
  423.250    2.962    0.247    0.423  110.816
  423.500    3.361    0.247    0.419  109.012
  423.750    3.456    0.264    0.413  106.907
  424.000    3.527    0.276    0.407  105.830
  424.250    3.469    0.283    0.401  102.213
  424.500    3.267    0.288    0.393   96.720
  424.750    2.961    0.288    0.382   93.103
  425.000    2.735    0.285    0.375   93.901
  425.250    2.581    0.267    0.383   98.876
  425.500    2.547    0.250    0.394  103.547
  425.750    2.738    0.236    0.401  105.550
  426.000    3.041    0.239    0.402  108.467
  426.250    3.528    0.251    0.401  108.416
  426.500    3.912    0.246    0.389  104.315
  426.750    4.359    0.194    0.371  101.907
  427.000    4.526    0.186    0.366  101.496
  427.250    4.572    0.223    0.361  101.932
  427.500    4.667    0.238    0.365  102.005
  427.750    4.849    0.061    0.341  101.290
  428.000    5.072    0.086    0.292   98.095
  428.250    5.199    0.153    0.282   92.542
  428.500    5.165    0.185    0.314   89.892
  428.750    4.843    0.211    0.344   95.953
  429.000    4.296    0.218    0.380  103.349
  429.250    3.910    0.217    0.409  105.716
  429.500    3.948    0.217    0.400  107.542
  429.750    4.099    0.221    0.393  106.585
  430.000    4.202    0.222    0.383  105.932
  430.250    4.088    0.234    0.381  107.398
  430.500    3.870    0.247    0.383  108.679
  430.750    3.708    0.255    0.397  109.235
  431.000    3.658    0.255    0.413  106.647
  431.250    3.665    0.236    0.402  104.236
  431.500    3.792    0.227    0.399  104.551
  431.750    3.894    0.234    0.402  106.742
  432.000    3.957    0.243    0.408  107.660
  432.250    4.035    0.249    0.404  106.522
  432.500    4.082    0.235    0.387  105.083
  432.750    4.096    0.230    0.379  105.699
  433.000    4.095    0.234    0.382  107.706
  433.250    4.093    0.235    0.392  108.263
  433.500    4.099    0.240    0.393  107.609
  433.750    4.138    0.239    0.391  107.198
  434.000    4.176    0.241    0.390  107.634
  434.250    4.215    0.250    0.399  108.251
  434.500    4.293    0.244    0.403  109.229
  434.750    4.332    0.233    0.397  109.967
  435.000    4.298    0.226    0.396  111.250
  435.250    4.273    0.220    0.389  112.351
  435.500    4.359    0.216    0.383  112.483
  435.750    4.462    0.221    0.380  111.405
  436.000    4.524    0.223    0.374  109.905
  436.250    4.491    0.214    0.375  109.372
  436.500    4.249    0.205    0.390  111.018
  436.750    3.766    0.204    0.405  112.360
  437.000    3.219    0.237    0.418  111.101
  437.250    2.705    0.259    0.424  108.452
  437.500    2.335    0.279    0.452  107.559
  437.750    2.092    0.300    0.469  107.750
  438.000    1.866    0.311    0.474  108.064
  438.250    1.857    0.295    0.480  106.382
  438.500    1.967    0.288    0.450  104.519
  438.750    2.150    0.298    0.452  106.163
  439.000    2.453    0.299    0.461  108.658
  439.250    2.676    0.282    0.446  110.119
  439.500    2.883    0.275    0.422  110.312
  439.750    3.090    0.273    0.411  108.872
  440.000    3.256    0.285    0.412  105.860
  440.250    3.375    0.250    0.413  102.908
  440.500    3.486    0.165    0.413  100.622
  440.750    3.564    0.113    0.401   98.517
  441.000    3.562    0.187    0.361   96.894
  441.250    3.392    0.242    0.374   98.963
  441.500    3.167    0.255    0.391  102.241
  441.750    3.012    0.252    0.411  104.129
  442.000    2.971    0.249    0.420  105.653
  442.250    3.074    0.255    0.423  106.633
  442.500    3.288    0.260    0.412  106.584
  442.750    3.672    0.152    0.392  105.929
  443.000    3.950    0.115    0.381  104.610
  443.250    4.093    0.154    0.373  102.324
  443.500    3.995    0.198    0.364  100.581
  443.750    3.561    0.226    0.373  105.977
  444.000    3.030    0.244    0.394  110.948
  444.250    2.676    0.251    0.428  113.561
  444.500    2.450    0.228    0.447  116.054
  444.750    2.344    0.231    0.460  116.791
  445.000    2.335    0.234    0.465  116.378
  445.250    2.341    0.219    0.460  118.448
  445.500    2.420    0.225    0.460  120.214
  445.750    2.482    0.236    0.449  121.737
  446.000    2.528    0.230    0.449  123.443
  446.250    2.575    0.221    0.462  121.520
  446.500    2.581    0.215    0.471  119.233
  446.750    2.547    0.215    0.496  117.734
  447.000    2.466    0.232    0.497  117.743
  447.250    2.328    0.246    0.491  118.118
  447.500    2.254    0.245    0.499  118.375
  447.750    2.253    0.242    0.466  118.570
  448.000    2.307    0.235    0.445  118.214
  448.250    2.465    0.243    0.440  116.782
  448.500    2.513    0.249    0.434  115.944
  448.750    2.511    0.243    0.429  115.406
  449.000    2.397    0.240    0.420  114.756
  449.250    2.307    0.242    0.419  117.003
  449.500    2.402    0.249    0.434  120.223
  449.750    2.681    0.242    0.377  122.228
  450.000    3.160    0.235    0.358  114.256
  450.250    3.623    0.248    0.351  103.746
  450.500    3.911    0.256    0.351   97.827
  450.750    4.197    0.256    0.356   94.936
  451.000    4.292    0.242    0.361   96.823
  451.250    4.226    0.236    0.363   98.288
  451.500    4.473    0.211    0.358   98.177
  451.750    5.105    0.171    0.341   97.644
  452.000    5.504    0.172    0.328   95.963
  452.250    5.839    0.208    0.343   95.248
  452.500    5.893    0.225    0.352   95.805
  452.750    5.700    0.240    0.356   96.786
  453.000    5.458    0.234    0.361   96.857
  453.250    5.215    0.241    0.368   93.179
  453.500    5.085    0.261    0.372   89.562
  453.750    5.060    0.268    0.371   86.309
  454.000    5.235    0.269    0.378   84.142
  454.250    5.425    0.280    0.393   82.882
  454.500    5.528    0.285    0.393   84.649
  454.750    5.615    0.271    0.370   87.023
  455.000    5.669    0.259    0.375   88.729
  455.250    5.716    0.269    0.366   89.644
  455.500    5.698    0.262    0.358   91.352
  455.750    5.648    0.252    0.354   92.210
  456.000    5.591    0.252    0.337   91.434
  456.250    5.629    0.262    0.332   88.844
  456.500    5.723    0.243    0.343   92.122
  456.750    5.866    0.229    0.340   94.856
  457.000    6.386    0.228    0.328   97.290
  457.250    6.985    0.065    0.299   97.240
  457.500    7.609    0.033    0.272   93.924
  457.750    8.465    0.190    0.309   92.061
  458.000    8.864    0.227    0.327   95.157
  458.250    9.087    0.262    0.335   99.284
  458.500    9.406    0.289    0.341  100.988
  458.750   10.494    0.306    0.359   95.858
  459.000   10.902    0.310    0.369   86.615
  459.250   11.124    0.302    0.357   82.272
  459.500   10.954    0.297    0.349   81.437
  459.750   10.127    0.291    0.350   86.287
  460.000    9.276    0.275    0.362   91.382
  460.250    8.008    0.255    0.357   95.506
  460.500    6.900    0.231    0.350   99.085
  460.750    6.105    0.247    0.347  103.091
  461.000    5.631    0.266    0.347  105.282
  461.250    5.276    0.247    0.347  106.804
  461.500    5.042    0.227    0.349  109.054
  461.750    4.848    0.240    0.356  110.819
  462.000    4.718    0.262    0.361  109.017
  462.250    4.653    0.269    0.366  108.302
  462.500    4.619    0.259    0.375  110.733
  462.750    4.658    0.260    0.388  114.859
  463.000    4.712    0.252    0.397  117.955
  463.250    4.855    0.240    0.401  122.080
  463.500    5.053    0.233    0.384  128.503
  463.750    5.172    0.232    0.370  130.087
