~VERSION INFORMATION
 VERS.                 2.0:   CWLS LOG ASCII STANDARD -VERSION 2.0
 WRAP.                  NO:   ONE LINE PER DEPTH STEP
~WELL INFORMATION BLOCK
#MNEM.UNIT           DATA                    DESCRIPTION OF MNEMONIC
#---------    -------------------            -------------------------------
# Generated from Intellog Unique Number	CS_77_79/WELL/2918
WELL.         CAN WORLDWIDE ENR              : Well_name    - WELL
LOC .         00/07-06-079-03W4/0            : Location     - LOCATION
UWI .         00/07-06-079-03W4/0            : Uwi          - UNIQUE WELL ID
ENTR.         TIM                            : Entered      - ENTERED BY
SRVC.         SCHLUMBERGER                   : Scn          - SERVICE COMPANY
STRT.M        135                            : top_depth    - START DEPTH
STOP.M        405                            : bot_depth    - STOP DEPTH
STEP.M        0.25                           : increment    - STEP LENGTH
 NULL. -999.2500:NULL Value
~CURVE INFORMATION BLOCK
#MNEM UNIT       ERCB CURVE CODE    CURVE DESCRIPTION
#-----------   ------------------   ----------------------------------
DEPT.M        00 001 00 00         : DEPTH        - DEPTH
GR  .API      00 310 00 00         : GR           - GAMMA RAY
NPHI.V/V      00 330 00 00         : PHIN         - NEUTRON POROSITY (SANDSTONE)
DPHI.V/V      00 890 00 00         : PHID         - DENSITY POROSITY (SANDSTONE)
ILD .OHMM     00 120 00 00         : RESD         - DEEP RESISTIVITY (DIL)
~PARAMETER INFORMATION
#MNEM.UNIT           DATA             DESCRIPTION OF MNEMONIC
#---------         -----------     ------------------------------
GL  .M        552.02               : gl           - GROUND LEVEL ELEVATION
EREF.M        556.38               : kb           - ELEVATION OF DEPTH REFERENCE
DATM.M        556.38               : datum        - DATUM ELEVATION
TDD .M        410                  : tdd          - TOTAL DEPTH DRILLER
RUN .         ONE                  : Run          - RUN NUMBER
ENG .         BILL                 : Engineer     - RECORDING ENGINEER
WIT .         JIM                  : Witness      - WITNESSED BY
MUD .         GEL                  : Mud_type     - MUD TYPE
MATR.         SANDSTONE            : Logunit      - NEUTRON MATRIX
TMAX.C        20                   : BHT          - MAXIMUM RECORDED TEMPERATURE
BHTD.M        410                  : BHTDEP       - MAXIMUM RECORDED TEMPERATURE
MATR.         1                    : LOGUNIT      - NEUTRON MATRIX
RMT .C        15                   : MDTP         - TEMPERATURE OF MUD
NEUT.         1                    : NEUTRON      - NEUTRON TYPE
RESI.         4.4                  : RESIST       - RESISTIVITY TYPE
RMC .OHMM     4.5                  : RMC          - RESISTIVITY OF MUD CAKE
RMF .OHMM     4                    : RMF          - RESISTIVITY OF MUD FILTRATE
SUFT.C        15                   : SUFT         - SURFACE TEMPERATURE
~A  DEPTH       GR     PHIN     PHID     RESD
# ...
  309.000   58.059    0.131    0.355   27.826
  309.250   59.275    0.123    0.375   25.342
  309.500   56.226    0.116    0.380   23.077
  309.750   51.352    0.109    0.388   17.098
  310.000   45.868    0.101    0.399   15.571
  310.250   40.995    0.091    0.410   14.180
  310.500   36.120    0.080    0.410   11.114
  310.750   31.245    0.075    0.404    7.359
  311.000   32.459    0.104    0.388    6.455
  311.250   34.893    0.126    0.372    5.661
  311.500   37.324    0.170    0.352    4.783
  311.750   34.886    0.186    0.331    4.118
  312.000   31.229    0.226    0.315    3.414
  312.250   28.790    0.284    0.311    2.303
  312.500   32.440    0.315    0.317    2.219
  312.750   35.482    0.333    0.321    2.138
  313.000   37.915    0.348    0.321    2.098
  313.250   37.911    0.345    0.321    2.060
  313.500   35.472    0.344    0.320    2.060
  313.750   33.033    0.345    0.312    2.022
  314.000   34.248    0.346    0.310    2.061
  314.250   36.681    0.348    0.315    2.101
  314.500   40.331    0.348    0.317    2.101
  314.750   41.545    0.349    0.317    2.141
  315.000   40.325    0.355    0.314    2.141
  315.250   36.668    0.358    0.311    2.142
  315.500   33.620    0.359    0.308    2.142
  315.750   34.834    0.362    0.306    2.143
  316.000   38.485    0.362    0.308    2.103
  316.250   47.616    0.362    0.313    2.104
  316.500   49.438    0.360    0.316    2.104
  316.750   49.437    0.359    0.326    2.065
  317.000   46.998    0.361    0.336    2.066
  317.250   42.123    0.360    0.330    2.028
  317.500   35.422    0.358    0.330    2.028
  317.750   29.938    0.355    0.330    2.029
  318.000   37.850    0.359    0.331    1.991
  318.250   42.719    0.366    0.328    1.992
  318.500   39.062    0.371    0.326    1.992
  318.750   34.188    0.366    0.324    1.992
  319.000   31.140    0.359    0.321    1.993
  319.250   30.526    0.342    0.321    2.031
  319.500   31.133    0.343    0.326    2.070
  319.750   34.174    0.342    0.331    2.109
  320.000   38.434    0.346    0.338    2.190
  320.250   44.520    0.360    0.338    2.275
  320.500   50.607    0.370    0.320    2.318
  320.750   56.083    0.372    0.295    2.362
  321.000   53.035    0.368    0.302    2.363
  321.250   49.987    0.366    0.313    2.276
  321.500   39.632    0.363    0.324    2.193
  321.750   36.585    0.360    0.336    1.997
  322.000   35.363    0.360    0.340    1.960
  322.250   37.796    0.364    0.340    1.924
  322.500   41.447    0.364    0.332    1.889
  322.750   43.879    0.363    0.326    1.889
  323.000   45.094    0.362    0.318    1.890
  323.250   46.917    0.363    0.321    1.926
  323.500   48.741    0.359    0.325    1.926
  323.750   50.565    0.343    0.314    1.963
  324.000   51.171    0.345    0.317    1.963
  324.250   45.687    0.350    0.323    2.001
  324.500   38.376    0.354    0.326    2.001
  324.750   31.675    0.353    0.329    2.002
  325.000   28.018    0.351    0.330    2.002
  325.250   29.232    0.346    0.330    1.965
  325.500   29.838    0.342    0.324    1.893
  325.750   31.052    0.344    0.324    1.859
  326.000   31.659    0.348    0.331    1.791
  326.250   34.092    0.356    0.336    1.758
  326.500   38.351    0.369    0.345    1.758
  326.750   38.348    0.374    0.344    1.758
  327.000   35.909    0.375    0.325    1.758
  327.250   33.470    0.375    0.327    1.759
  327.500   32.858    0.375    0.327    1.793
  327.750   32.855    0.373    0.324    1.827
  328.000   32.851    0.361    0.322    1.862
  328.250   34.674    0.351    0.319    1.862
  328.500   36.499    0.346    0.316    1.898
  328.750   38.322    0.346    0.311    1.934
  329.000   38.927    0.346    0.308    1.934
  329.250   37.097    0.340    0.310    1.971
  329.500   35.268    0.336    0.317    1.972
  329.750   33.438    0.339    0.321    2.010
  330.000   31.609    0.341    0.324    2.010
  330.250   28.560    0.344    0.326    2.010
  330.500   24.903    0.345    0.324    2.011
  330.750   25.509    0.350    0.327    2.011
  331.000   28.550    0.351    0.327    2.011
  331.250   30.983    0.354    0.327    1.974
  331.500   35.851    0.358    0.328    1.938
  331.750   33.412    0.362    0.333    1.867
  332.000   30.364    0.362    0.337    1.833
  332.250   29.752    0.365    0.339    1.833
  332.500   32.793    0.366    0.342    1.833
  332.750   35.226    0.368    0.340    1.800
  333.000   38.268    0.372    0.338    1.734
  333.250   40.091    0.374    0.331    1.670
  333.500   39.478    0.376    0.321    1.579
  333.750   38.867    0.376    0.322    1.579
  334.000   37.036    0.374    0.327    1.580
  334.250   35.207    0.373    0.332    1.580
  334.500   33.377    0.373    0.338    1.581
  334.750   32.765    0.373    0.340    1.581
  335.000   32.762    0.375    0.340    1.523
  335.250   35.195    0.376    0.340    1.523
  335.500   38.844    0.376    0.340    1.524
  335.750   41.887    0.376    0.340    1.524
  336.000   39.448    0.375    0.343    1.553
  336.250   33.964    0.372    0.344    1.613
  336.500   27.871    0.370    0.344    1.706
  336.750   26.041    0.366    0.342    1.805
  337.000   40.652    0.360    0.337    1.946
  337.250   47.347    0.352    0.317    2.098
  337.500   65.612    0.343    0.266    2.220
  337.750   70.480    0.353    0.246    2.139
  338.000   58.299    0.372    0.277    1.876
  338.250   47.944    0.387    0.316    1.807
  338.500   41.243    0.393    0.348    1.741
  338.750   37.584    0.385    0.344    1.742
  339.000   36.974    0.369    0.347    1.775
  339.250   35.752    0.369    0.348    1.809
  339.500   35.140    0.365    0.347    1.878
  339.750   35.137    0.364    0.340    1.914
  340.000   34.525    0.363    0.333    1.988
  340.250   33.302    0.361    0.324    2.143
  340.500   33.300    0.355    0.313    2.311
  340.750   32.688    0.346    0.308    2.355
  341.000   32.684    0.343    0.303    2.400
  341.250   32.074    0.340    0.292    2.227
  341.500   31.461    0.334    0.281    2.066
  341.750   30.239    0.334    0.270    2.066
  342.000   29.628    0.337    0.279    2.029
  342.250   29.625    0.341    0.284    2.029
  342.500   29.620    0.346    0.301    2.030
  342.750   29.617    0.353    0.310    2.030
  343.000   30.223    0.360    0.320    2.030
  343.250   30.220    0.368    0.332    2.031
  343.500   30.218    0.368    0.339    1.993
  343.750   30.822    0.365    0.341    1.994
  344.000   30.820    0.364    0.340    1.994
  344.250   30.817    0.360    0.336    1.957
  344.500   31.422    0.356    0.335    1.958
  344.750   32.028    0.358    0.335    1.958
  345.000   33.242    0.364    0.337    1.887
  345.250   34.458    0.370    0.339    1.887
  345.500   36.282    0.378    0.340    1.887
  345.750   40.541    0.381    0.341    1.887
  346.000   40.537    0.378    0.342    1.888
  346.250   36.880    0.372    0.340    1.888
  346.500   33.831    0.367    0.335    1.853
  346.750   33.221    0.362    0.329    1.854
  347.000   32.000    0.361    0.325    1.820
  347.250   31.387    0.359    0.322    1.786
  347.500   30.775    0.358    0.320    1.787
  347.750   30.772    0.355    0.318    1.787
  348.000   30.768    0.347    0.317    1.787
  348.250   31.375    0.339    0.313    1.788
  348.500   31.981    0.335    0.311    1.788
  348.750   33.803    0.334    0.306    1.822
  349.000   35.019    0.336    0.297    1.857
  349.250   34.406    0.344    0.319    1.857
  349.500   33.186    0.357    0.327    1.858
  349.750   32.572    0.368    0.330    1.756
  350.000   31.962    0.372    0.336    1.661
  350.250   31.958    0.377    0.338    1.630
  350.500   31.346    0.375    0.339    1.600
  350.750   31.343    0.373    0.343    1.571
  351.000   31.340    0.369    0.343    1.571
  351.250   30.727    0.365    0.341    1.571
  351.500   30.725    0.365    0.341    1.602
  351.750   29.503    0.365    0.341    1.632
  352.000   28.891    0.365    0.341    1.663
  352.250   28.278    0.363    0.340    1.695
