~VERSION INFORMATION
 VERS.                 2.0:   CWLS LOG ASCII STANDARD -VERSION 2.0
 WRAP.                  NO:   ONE LINE PER DEPTH STEP
~WELL INFORMATION BLOCK
#MNEM.UNIT           DATA                    DESCRIPTION OF MNEMONIC
#---------    -------------------            -------------------------------
# Generated from Intellog Unique Number	CS_77_79/WELL/3286
WELL.         ALLIED ROXANA MINERALS LTD.    : Well_name    - WELL
LOC .         00/06-12-079-18W4/0            : Location     - LOCATION
UWI .         00/06-12-079-18W4/0            : Uwi          - UNIQUE WELL ID
ENTR.         JOETTE                         : Entered      - ENTERED BY
SRVC.         SCHLUMBERGER                   : Scn          - SERVICE COMPANY
DATE.         08-24-92                       : Date         - LOG DATE
STRT.M        198.12                         : top_depth    - START DEPTH
STOP.M        411.37                         : bot_depth    - STOP DEPTH
STEP.M        0.25                           : increment    - STEP LENGTH
 NULL. -999.2500:NULL Value
~CURVE INFORMATION BLOCK
#MNEM UNIT       ERCB CURVE CODE    CURVE DESCRIPTION
#-----------   ------------------   ----------------------------------
DEPT.M        00 001 00 00         : DEPTH        - DEPTH
ILD .OHMM     00 120 00 00         : RESD         - DEEP RESISTIVITY (DIL)
DPHI.V/V      00 890 00 00         : PHID         - DENSITY POROSITY (SANDSTONE)
NPHI.V/V      00 330 00 00         : PHIN         - NEUTRON POROSITY (SANDSTONE)
GR  .API      00 310 00 00         : GR           - GAMMA RAY
~PARAMETER INFORMATION
#MNEM.UNIT           DATA             DESCRIPTION OF MNEMONIC
#---------         -----------     ------------------------------
GL  .M        541.477              : gl           - GROUND LEVEL ELEVATION
EREF.M        544.525              : kb           - ELEVATION OF DEPTH REFERENCE
DATM.M        544.525              : datum        - DATUM ELEVATION
TDD .M        411.48               : tdd          - TOTAL DEPTH DRILLER
RUN .         ONE                  : Run          - RUN NUMBER
ENG .         BILL                 : Engineer     - RECORDING ENGINEER
WIT .         JIM                  : Witness      - WITNESSED BY
MUD .         GEL                  : Mud_type     - MUD TYPE
MATR.         SANDSTONE            : Logunit      - NEUTRON MATRIX
TMAX.C        23.3333              : BHT          - MAXIMUM RECORDED TEMPERATURE
BHTD.M        411.48               : BHTDEP       - MAXIMUM RECORDED TEMPERATURE
MATR.         1                    : LOGUNIT      - NEUTRON MATRIX
RMT .C        18.3333              : MDTP         - TEMPERATURE OF MUD
NEUT.         1                    : NEUTRON      - NEUTRON TYPE
RESI.         0                    : RESIST       - RESISTIVITY TYPE
RMC .OHMM     1.73                 : RMC          - RESISTIVITY OF MUD CAKE
RMF .OHMM     1.24                 : RMF          - RESISTIVITY OF MUD FILTRATE
SUFT.C        5                    : SUFT         - SURFACE TEMPERATURE
~A  DEPTH     RESD     PHID     PHIN       GR
# ...
  285.120    7.152    0.303    0.475   82.797
  285.370    7.172    0.295    0.474   82.856
  285.620    7.395    0.299    0.464   86.000
  285.870    7.420    0.310    0.465   84.218
  286.120    7.445    0.303    0.474   83.663
  286.370    7.460    0.301    0.487   84.951
  286.620    7.683    0.301    0.493   85.010
  286.870    7.683    0.293    0.499   85.084
  287.120    8.742    0.287    0.506   85.114
  287.370    7.337    0.294    0.514   89.486
  287.620    7.357    0.297    0.508   92.630
  287.870    7.387    0.295    0.485   92.090
  288.120    7.402    0.294    0.479   91.536
  288.370    7.021    0.299    0.475   92.179
  288.620    6.828    0.262    0.459   94.710
  288.870    6.041    0.253    0.439   95.383
  289.120    5.661    0.242    0.467   95.457
  289.370    5.468    0.248    0.476   96.130
  289.620    5.087    0.258    0.456   98.047
  289.870    5.107    0.256    0.430   99.304
  290.120    5.137    0.253    0.430  101.834
  290.370    5.152    0.222    0.446  102.523
  290.620    5.167    0.260    0.452  100.111
  290.870    5.394    0.269    0.450   97.101
  291.120    5.612    0.235    0.451   97.175
  291.370    5.835    0.240    0.454   97.863
  291.620    5.865    0.240    0.441   97.893
  291.870    5.890    0.237    0.461   97.338
  292.120    5.905    0.247    0.471   97.398
  292.370    5.920    0.272    0.474   99.314
  292.620    5.950    0.257    0.478  100.601
  292.870    5.960    0.256    0.467   98.205
  293.120    5.985    0.268    0.498   97.036
  293.370    6.005    0.261    0.507   97.710
  293.620    5.822    0.237    0.504  100.854
  293.870    5.847    0.237    0.481  100.928
  294.120    5.867    0.217    0.477  100.359
  294.370    5.882    0.232    0.456   99.220
  294.620    5.902    0.224    0.461   98.636
  294.870    5.931    0.238    0.467   99.324
  295.120    5.941    0.249    0.466  101.839
  295.370    5.961    0.254    0.455  103.112
  295.620    5.986    0.233    0.463  106.870
  295.870    6.011    0.228    0.488  107.543
  296.120    6.026    0.235    0.482  105.775
  296.370    6.046    0.217    0.471  103.993
  296.620    5.863    0.210    0.470  102.824
  296.870    5.680    0.217    0.473  102.255
  297.120    5.700    0.217    0.483  103.572
  297.370    5.522    0.234    0.481  103.602
  297.620    5.547    0.244    0.473  104.904
  297.870    5.354    0.209    0.465  104.978
  298.120    5.186    0.220    0.460  105.637
  298.370    4.999    0.211    0.492  109.410
  298.620    5.014    0.221    0.496  110.682
  298.870    4.831    0.242    0.502  111.954
  299.120    4.856    0.236    0.500  112.029
  299.370    4.875    0.245    0.471  110.246
  299.620    5.093    0.262    0.425  107.251
  299.870    5.524    0.274    0.421  103.626
  300.120    5.965    0.285    0.392   99.388
  300.370    5.980    0.293    0.392   96.977
  300.620    6.197    0.229    0.400   95.808
  300.870    6.212    0.245    0.427   97.110
  301.120    6.029    0.278    0.469   98.383
  301.370    5.441    0.275    0.475  101.527
  301.620    4.857    0.283    0.484   99.744
  301.870    4.679    0.282    0.496   96.120
  302.120    4.689    0.285    0.474   93.110
  302.370    4.912    0.290    0.414   91.327
  302.620    5.951    0.203    0.398   93.228
  302.870    6.991    0.182    0.392   98.828
  303.120    7.614    0.168    0.391  101.344
  303.370    8.658    0.177    0.319   97.704
  303.620    8.881    0.186    0.287   90.396
  303.870    9.099    0.149    0.272   84.316
  304.120    8.916    0.118    0.255   80.078
  304.370    8.332    0.089    0.355   84.435
  304.620    7.942    0.251    0.402   98.630
  304.870    7.358    0.192    0.417   93.778
  305.120    7.170    0.159    0.316   83.400
  305.370    7.393    0.126    0.253   78.533
  305.620    8.432    0.116    0.224   72.453
  305.870    9.877    0.082    0.196   68.229
  306.120   10.906    0.059    0.171   67.046
  306.370   12.149    0.043    0.173   64.649
  306.620   12.985    0.041    0.203   65.352
  306.870   13.203    0.106    0.249   66.625
  307.120   13.431    0.126    0.277   70.383
  307.370   12.639    0.154    0.323   71.655
  307.620   11.442    0.185    0.355   72.943
  307.870   10.245    0.214    0.371   73.017
  308.120    9.042    0.237    0.398   74.304
  308.370    7.845    0.247    0.430   78.676
  308.620    6.455    0.275    0.442   75.651
  308.870    6.064    0.296    0.465   73.254
  309.120    5.876    0.300    0.480   72.715
  309.370    5.693    0.285    0.446   73.987
  309.620    5.713    0.302    0.423   75.289
  309.870    5.941    0.288    0.418   74.121
  310.120    6.575    0.232    0.415   71.724
  310.370    6.788    0.187    0.412   65.644
  310.620    8.233    0.162    0.182   60.792
  310.870    9.875    0.136    0.257   60.237
  311.120   11.726    0.076    0.302   63.381
  311.370   13.166    0.123    0.347   65.897
  311.620   14.003    0.172    0.389   68.397
  311.870   13.617    0.201    0.401   69.070
  312.120   12.617    0.244    0.425   67.288
  312.370   11.020    0.269    0.453   65.520
  312.620    9.817    0.281    0.453   64.382
  312.870    7.809    0.292    0.447   64.426
  313.120    6.413    0.312    0.458   66.941
  313.370    5.419    0.315    0.477   71.299
  313.620    5.028    0.307    0.461   73.829
  313.870    4.647    0.300    0.456   73.274
  314.120    4.662    0.301    0.460   72.719
  314.370    4.692    0.302    0.467   73.393
  314.620    4.702    0.302    0.469   73.437
  314.870    4.930    0.305    0.463   74.111
  315.120    5.148    0.304    0.460   74.185
  315.370    5.584    0.286    0.457   73.630
  315.620    6.618    0.261    0.405   70.006
  315.870    7.647    0.244    0.336   67.610
  316.120    9.092    0.218    0.296   67.669
  316.370    9.310    0.183    0.287   70.199
  316.620    9.132    0.183    0.290   70.887
  316.870    8.746    0.186    0.317   70.917
  317.120    8.361    0.200    0.343   69.763
  317.370    7.772    0.222    0.374   67.367
  317.620    7.188    0.244    0.428   69.897
  317.870    6.600    0.273    0.451   71.813
  318.120    6.412    0.285    0.479   73.086
  318.370    6.026    0.286    0.471   73.744
  318.620    5.848    0.300    0.457   75.660
  318.870    5.462    0.302    0.456   76.319
  319.120    5.274    0.289    0.458   77.621
  319.370    5.294    0.279    0.452   78.324
  319.620    5.324    0.268    0.428   78.354
  319.870    5.344    0.265    0.423   79.042
  320.120    5.369    0.272    0.431   78.487
  320.370    5.379    0.263    0.455   77.918
  320.620    5.399    0.262    0.461   77.378
  320.870    5.419    0.259    0.465   77.438
  321.120    5.449    0.260    0.461   78.740
  321.370    5.464    0.271    0.456   80.012
  321.620    5.479    0.278    0.461   81.943
  321.870    5.504    0.262    0.469   82.602
  322.120    5.529    0.256    0.469   85.132
  322.370    5.544    0.241    0.463   86.404
  322.620    5.569    0.251    0.440   90.163
  322.870    5.588    0.255    0.438   88.994
  323.120    5.406    0.253    0.447   87.226
  323.370    5.426    0.260    0.453   87.256
  323.620    5.445    0.271    0.448   87.316
  323.870    5.465    0.244    0.476   91.673
  324.120    5.085    0.229    0.482   98.501
  324.370    4.897    0.258    0.482  104.714
  324.620    4.318    0.239    0.477  107.829
  324.870    4.130    0.229    0.475  107.933
  325.120    3.942    0.201    0.466  108.576
  325.370    3.769    0.182    0.452  109.879
  325.620    3.779    0.184    0.448  111.166
  325.870    3.809    0.215    0.438  113.052
  326.120    4.027    0.222    0.420  109.428
  326.370    4.661    0.217    0.405  104.576
  326.620    5.497    0.216    0.406  102.179
  326.870    5.923    0.189    0.416   99.169
  327.120    6.546    0.186    0.423   95.544
  327.370    7.170    0.235    0.395   89.464
  327.620    8.620    0.205    0.389   90.152
  327.870    9.451    0.152    0.366   87.756
  328.120   10.278    0.120    0.353   85.974
  328.370   10.906    0.126    0.346   86.033
