~VERSION INFORMATION
 VERS.                 2.0:   CWLS LOG ASCII STANDARD -VERSION 2.0
 WRAP.                  NO:   ONE LINE PER DEPTH STEP
~WELL INFORMATION BLOCK
#MNEM.UNIT           DATA                    DESCRIPTION OF MNEMONIC
#---------    -------------------            -------------------------------
# Generated from Intellog Unique Number	CN_94_101/WELL/2618
WELL.         PARAMOUNT RESOURCES LTD.       : Well_name    - WELL
LOC .         00/07-05-094-18W4/0            : Location     - LOCATION
UWI .         00/07-05-094-18W400            : Uwi          - UNIQUE WELL ID
ENTR.         JOETTE                         : Entered      - ENTERED BY
SRVC.         COMPUTALOG                     : Scn          - SERVICE COMPANY
DATE.         06\18\92                       : Date         - LOG DATE
STRT.M        100                            : top_depth    - START DEPTH
STOP.M        254                            : bot_depth    - STOP DEPTH
STEP.M        0.25                           : increment    - STEP LENGTH
 NULL. -999.2500:NULL Value
~CURVE INFORMATION BLOCK
#MNEM UNIT       ERCB CURVE CODE    CURVE DESCRIPTION
#-----------   ------------------   ----------------------------------
DEPT.M        00 001 00 00         : DEPTH        - DEPTH
CALI.MM       00 280 01 00         : CAL          - CALIPER
GR  .API      00 310 00 00         : GR           - GAMMA RAY
NPHI.V/V      00 330 00 00         : PHIN         - NEUTRON POROSITY (SANDSTONE)
DPHI.V/V      00 890 00 00         : PHID         - DENSITY POROSITY (SANDSTONE)
ILD .OHMM     00 120 00 00         : RESD         - DEEP RESISTIVITY (DIL)
~PARAMETER INFORMATION
#MNEM.UNIT           DATA             DESCRIPTION OF MNEMONIC
#---------         -----------     ------------------------------
GL  .M        522                  : gl           - GROUND LEVEL ELEVATION
EREF.M        525.8                : kb           - ELEVATION OF DEPTH REFERENCE
DATM.M        525.8                : datum        - DATUM ELEVATION
TDD .M        253                  : tdd          - TOTAL DEPTH DRILLER
RUN .         ONE                  : Run          - RUN NUMBER
ENG .         JO                   : Engineer     - RECORDING ENGINEER
WIT .         TIM                  : Witness      - WITNESSED BY
MUD .         GEL                  : Mud_type     - MUD TYPE
MATR.         SANDSTONE            : Logunit      - NEUTRON MATRIX
TMAX.C        26                   : BHT          - MAXIMUM RECORDED TEMPERATURE
BHTD.M        253                  : BHTDEP       - MAXIMUM RECORDED TEMPERATURE
RMT .C        16                   : MDTP         - TEMPERATURE OF MUD
MUDD.KG/M     1090                 : MWT          - MUD DENSITY
NEUT.         1                    : NEUTRON      - NEUTRON TYPE
RESI.         0                    : RESIST       - RESISTIVITY TYPE
RM  .OHMM     3.4                  : RM           - RESISTIVITY OF MUD
RMC .OHMM     3.4                  : RMC          - RESISTIVITY OF MUD CAKE
RMF .OHMM     3.4                  : RMF          - RESISTIVITY OF MUD FILTRATE
SUFT.C        4                    : SUFT         - SURFACE TEMPERATURE
~A  DEPTH      CAL       GR     PHIN     PHID     RESD
# ...
  209.500  164.771   57.312    0.221    0.044   27.690
  209.750  164.892   56.789    0.215    0.036   29.957
  210.000  166.130   60.489    0.195    0.035   30.561
  210.250  167.205   63.544    0.220    0.005   28.944
  210.500  167.408   70.823    0.246    0.033   18.791
  210.750  167.570   76.885    0.354    0.175   14.739
  211.000  167.691   85.382    0.411    0.193    9.043
  211.250  168.847   96.215    0.423    0.186    7.097
  211.500  170.044  102.277    0.408    0.158    7.112
  211.750  171.200   98.795    0.410    0.140    7.264
  212.000  171.363   97.700    0.417    0.141    7.414
  212.250  171.484   99.038    0.429    0.165    8.174
  212.500  170.652   99.087    0.434    0.170    8.348
  212.750  168.826   96.799    0.430    0.172    8.516
  213.000  167.081   93.938    0.428    0.171    8.535
  213.250  167.162   91.649    0.432    0.165    8.241
  213.500  166.411   92.343    0.432    0.137    7.954
  213.750  165.498   94.802    0.422    0.111    7.529
  214.000  165.742  101.484    0.422    0.097    6.739
  214.250  165.823  102.750    0.428    0.160    5.922
  214.500  166.025  102.276    0.431    0.172    5.715
  214.750  166.187  101.204    0.429    0.172    5.725
  215.000  166.309  100.656    0.431    0.144    6.078
  215.250  166.471   98.989    0.431    0.149    6.200
  215.500  167.627   98.490    0.427    0.161    6.575
  215.750  167.871   99.183    0.419    0.153    6.843
  216.000  167.952  101.070    0.408    0.148    7.261
  216.250  168.195  102.981    0.399    0.175    7.411
  216.500  168.276  104.867    0.410    0.177    7.869
  216.750  167.444  104.965    0.419    0.172    8.032
  217.000  167.647  105.634    0.411    0.160    8.203
  217.250  166.815  103.942    0.403    0.150    8.225
  217.500  165.983  106.449    0.394    0.152    8.234
  217.750  166.185  108.908    0.385    0.164    7.951
  218.000  165.313  109.626    0.385    0.173    7.674
  218.250  165.434  106.717    0.400    0.176    7.136
  218.500  165.637  108.031    0.411    0.177    6.880
  218.750  165.840  109.894    0.417    0.173    6.394
  219.000  166.956  113.046    0.415    0.167    5.942
  219.250  167.158  112.498    0.410    0.164    5.526
  219.500  165.332  111.403    0.412    0.161    5.333
  219.750  162.512  111.500    0.423    0.157    5.550
  220.000  160.686  109.187    0.432    0.160    5.886
  220.250  159.773  106.302    0.441    0.164    6.609
  220.500  160.016  105.207    0.450    0.157    6.750
  220.750  160.138  105.304    0.443    0.164    6.890
  221.000  161.335  106.594    0.428    0.179    6.653
  221.250  162.450  106.691    0.418    0.172    6.294
  221.500  165.635  106.192    0.428    0.155    5.747
  221.750  169.774  106.290    0.434    0.147    5.646
  222.000  169.936  108.821    0.431    0.142    5.552
  222.250  170.057  106.533    0.440    0.092    5.568
  222.500  170.260  103.027    0.449    0.101    5.791
  222.750  170.422  100.714    0.450    0.128    6.027
  223.000  170.544  103.818    0.467    0.136    6.645
  223.250  169.712  103.915    0.454    0.138    7.043
  223.500  168.920  101.030    0.417    0.136    7.756
  223.750  169.123   97.525    0.406    0.136    9.043
  224.000  168.210   82.090    0.392    0.145    9.954
  224.250  168.372   70.234    0.382    0.152   14.552
  224.500  168.575   70.927    0.381    0.163   14.862
  224.750  168.696   79.399    0.393    0.173   15.476
  225.000  166.870   83.075    0.403    0.188   14.657
  225.250  165.125   89.161    0.417    0.199    9.697
  225.500  165.288   92.241    0.427    0.171    8.674
  225.750  164.415   95.320    0.432    0.151    7.476
  226.000  163.624   99.617    0.446    0.142    6.948
  226.250  163.705   96.112    0.440    0.142    6.106
  226.500  163.867   86.069    0.347    0.142    6.848
  226.750  164.069   83.184    0.343    0.091   10.197
  227.000  164.232   84.474    0.348    0.080   11.236
  227.250  164.394   79.776    0.377    0.192   15.226
  227.500  164.515   69.709    0.392    0.250   17.412
  227.750  164.718   59.119    0.394    0.264   22.733
  228.000  164.840   61.553    0.394    0.228   26.507
  228.250  166.077   65.229    0.405    0.215   25.104
  228.500  166.280   68.930    0.375    0.196   24.690
  228.750  166.361   72.033    0.350    0.254   26.169
  229.000  165.610   72.131    0.333    0.287   29.927
  229.250  165.691   69.221    0.278    0.298   42.936
  229.500  165.893   63.926    0.254    0.315   46.401
  229.750  165.021   54.480    0.219    0.328   51.128
  230.000  165.183   50.999    0.219    0.339   51.213
  230.250  165.183   51.717    0.210    0.350   52.302
  230.500  160.659   52.386    0.214    0.345   52.446
  230.750  162.687   52.484    0.216    0.342   51.551
  231.000  162.930   51.984    0.218    0.343   47.965
  231.250  158.001   51.534    0.222    0.340   46.266
  231.500  156.256   51.583    0.229    0.329   45.477
  231.750  156.337   52.301    0.237    0.328   44.726
  232.000  157.533   52.994    0.248    0.327   51.148
  232.250  157.736   54.285    0.258    0.327   47.537
  232.500  158.892   55.550    0.265    0.322   48.575
  232.750  159.014   56.244    0.226    0.312   53.464
  233.000  160.170   53.956    0.203    0.308   64.734
  233.250  161.367   50.498    0.190    0.312   72.686
  233.500  161.488   47.614    0.189    0.330   77.085
  233.750  160.778   46.518    0.154    0.332   81.795
  234.000  159.825   45.970    0.143    0.336   85.078
  234.250  159.987   45.495    0.150    0.350   86.841
  234.500  161.183   43.779    0.159    0.362   88.737
  234.750  161.346   42.111    0.166    0.362   88.932
  235.000  162.502   43.998    0.161    0.362   87.463
  235.250  163.617   45.288    0.152    0.365   86.018
  235.500  163.780   42.999    0.160    0.373   82.972
  235.750  161.994   41.879    0.176    0.375   74.302
  236.000  161.122   40.808    0.183    0.376   70.332
  236.250  159.296   40.309    0.188    0.378   60.618
  236.500  156.516   41.003    0.226    0.336   43.245
  236.750  155.643   44.082    0.263    0.289   37.273
  237.000  155.846   64.483    0.285    0.274   30.359
  237.250  156.962   69.948    0.311    0.256   25.198
  237.500  159.153   69.498    0.364    0.252   23.406
  237.750  160.349   68.950    0.397    0.255   22.180
  238.000  160.471   65.469    0.392    0.264   24.426
  238.250  160.674   60.198    0.370    0.272   28.465
  238.500  160.795   53.710    0.329    0.280   42.430
  238.750  160.917   46.053    0.303    0.283   60.808
  239.000  161.160   40.807    0.277    0.288   70.862
  239.250  161.241   38.494    0.257    0.300   89.097
  239.500  160.409   36.206    0.191    0.337  109.871
  239.750  159.658   35.682    0.165    0.368  130.475
  240.000  158.745   36.972    0.191    0.369  133.250
  240.250  158.907   37.715    0.219    0.339  123.911
  240.500  158.075   35.426    0.325    0.319  121.797
  240.750  159.313   36.071    0.353    0.319  117.678
  241.000  159.394   39.771    0.364    0.317  115.671
  241.250  161.585   45.261    0.376    0.316  115.861
  241.500  163.775   45.955    0.386    0.314  120.644
  241.750  165.885   44.859    0.391    0.310  123.143
  242.000  168.117   43.739    0.391    0.307  125.832
  242.250  169.192   42.668    0.384    0.298  121.442
  242.500  170.429   45.772    0.377    0.289  110.700
  242.750  170.510   47.610    0.375    0.263   90.165
  243.000  170.713   51.931    0.392    0.260   62.012
  243.250  170.915   53.818    0.392    0.250   59.783
  243.500  170.997   55.083    0.386    0.241   54.525
  243.750  169.252   57.566    0.373    0.241   47.941
  244.000  167.344   52.892    0.354    0.248   46.218
  244.250  161.542   48.242    0.295    0.262   47.201
  244.500  156.774   45.309    0.225    0.318   73.024
  244.750  155.942   43.641    0.215    0.344   88.417
  245.000  156.064   43.142    0.245    0.354  101.112
  245.250  156.307   42.618    0.248    0.342  113.471
  245.500  156.429   42.119    0.252    0.338  122.696
  245.750  156.550   40.451    0.255    0.339  122.966
