~VERSION INFORMATION
 VERS.                 2.0:   CWLS LOG ASCII STANDARD -VERSION 2.0
 WRAP.                  NO:   ONE LINE PER DEPTH STEP
~WELL INFORMATION BLOCK
#MNEM.UNIT           DATA                    DESCRIPTION OF MNEMONIC
#---------    -------------------            -------------------------------
# Generated from Intellog Unique Number	CS_67_68/WELL/637
WELL.         CANADIAN HOMESTEAD OIL         : Well_name    - WELL
LOC .         00/03-19-068-09W4/0            : Location     - LOCATION
UWI .         00/03-19-068-09W4/0            : Uwi          - UNIQUE WELL ID
ENTR.         SP                             : Entered      - ENTERED BY
SRVC.         SCHLUMBERGER                   : Scn          - SERVICE COMPANY
STRT.M        390                            : top_depth    - START DEPTH
STOP.M        609                            : bot_depth    - STOP DEPTH
STEP.M        0.25                           : increment    - STEP LENGTH
 NULL. -999.2500:NULL Value
~CURVE INFORMATION BLOCK
#MNEM UNIT       ERCB CURVE CODE    CURVE DESCRIPTION
#-----------   ------------------   ----------------------------------
DEPT.M        00 001 00 00         : DEPTH        - DEPTH
ILD .OHMM     00 120 00 00         : RESD         - DEEP RESISTIVITY (DIL)
DPHI.V/V      00 890 00 00         : PHID         - DENSITY POROSITY (LIMESTONE)
NPHI.V/V      00 330 00 00         : PHIN         - NEUTRON POROSITY (LIMESTONE)
GR  .API      00 310 00 00         : GR           - GAMMA RAY
~PARAMETER INFORMATION
#MNEM.UNIT           DATA             DESCRIPTION OF MNEMONIC
#---------         -----------     ------------------------------
GL  .M        702.5                : gl           - GROUND LEVEL ELEVATION
EREF.M        705.5                : kb           - ELEVATION OF DEPTH REFERENCE
DATM.M        702.5                : datum        - DATUM ELEVATION
TDD .M        624                  : tdd          - TOTAL DEPTH DRILLER
RUN .         ONE                  : Run          - RUN NUMBER
ENG .         BILL                 : Engineer     - RECORDING ENGINEER
WIT .         JIM                  : Witness      - WITNESSED BY
MUD .         GEL                  : Mud_type     - MUD TYPE
MATR.         LIMESTONE            : Logunit      - NEUTRON MATRIX
TMAX.C        23                   : BHT          - MAXIMUM RECORDED TEMPERATURE
BHTD.M        624                  : BHTDEP       - MAXIMUM RECORDED TEMPERATURE
MATR.         1                    : LOGUNIT      - NEUTRON MATRIX
RMT .C        25                   : MDTP         - TEMPERATURE OF MUD
NEUT.         1                    : NEUTRON      - NEUTRON TYPE
RESI.         0                    : RESIST       - RESISTIVITY TYPE
RMC .OHMM     0.25                 : RMC          - RESISTIVITY OF MUD CAKE
RMF .OHMM     0.25                 : RMF          - RESISTIVITY OF MUD FILTRATE
SUFT.C        15                   : SUFT         - SURFACE TEMPERATURE
~A  DEPTH     RESD     PHID     PHIN       GR
  390.000    2.708    0.362    0.498  124.862
  390.250    2.713    0.373    0.501  126.857
  390.500    2.740    0.377    0.511  129.217
  390.750    2.772    0.376    0.513  128.493
  391.000    2.762    0.378    0.515  127.347
  391.250    2.727    0.377    0.520  126.684
  391.500    2.692    0.364    0.511  126.625
  391.750    2.643    0.356    0.495  127.231
  392.000    2.590    0.349    0.481  127.234
  392.250    2.538    0.358    0.482  126.752
  392.500    2.505    0.367    0.496  124.578
  392.750    2.492    0.374    0.508  121.860
  393.000    2.526    0.378    0.514  118.659
  393.250    2.593    0.373    0.518  119.386
  393.500    2.673    0.363    0.509  121.866
  393.750    2.724    0.357    0.496  126.099
  394.000    2.767    0.360    0.494  132.446
  394.250    2.757    0.362    0.499  130.031
  394.500    2.753    0.362    0.502  127.011
  394.750    2.738    0.359    0.500  128.584
  395.000    2.723    0.356    0.497  127.196
  395.250    2.724    0.353    0.493  125.264
  395.500    2.771    0.352    0.490  123.513
  395.750    2.798    0.353    0.488  122.609
  396.000    2.820    0.349    0.481  133.006
  396.250    2.774    0.343    0.477  139.474
  396.500    2.613    0.345    0.476  146.426
  396.750    2.490    0.351    0.481  125.276
  397.000    2.390    0.362    0.491  120.020
  397.250    2.463    0.375    0.502  119.659
  397.500    3.294    0.384    0.516   94.882
  397.750    3.973    0.383    0.524   73.127
  398.000    5.069    0.344    0.498   55.784
  398.250    6.372    0.318    0.430   60.862
  398.500    7.586    0.297    0.439   78.874
  398.750    8.380    0.309    0.428   89.332
  399.000   10.070    0.285    0.426   95.619
  399.250   12.540    0.277    0.414   99.186
  399.500   16.988    0.276    0.408   76.706
  399.750   20.491    0.280    0.411   57.671
  400.000   22.216    0.284    0.416   44.860
  400.250   22.898    0.279    0.411   42.868
  400.500   16.661    0.247    0.396   48.853
  400.750   12.562    0.216    0.358   55.684
  401.000   10.323    0.202    0.336   63.543
  401.250    8.579    0.251    0.379   73.758
  401.500    7.278    0.275    0.400   85.304
  401.750    6.374    0.286    0.414   92.679
  402.000    5.742    0.285    0.407  105.674
  402.250    5.289    0.284    0.408  117.340
  402.500    5.173    0.286    0.407  126.831
  402.750    5.146    0.289    0.415  133.118
  403.000    5.254    0.292    0.420  130.763
  403.250    5.256    0.295    0.421  134.150
  403.500    5.150    0.292    0.421  128.772
  403.750    5.056    0.286    0.417  127.022
  404.000    4.982    0.285    0.412  136.331
  404.250    4.947    0.291    0.414  143.525
  404.500    4.921    0.298    0.420  138.692
  404.750    4.858    0.302    0.426  134.343
  405.000    4.832    0.294    0.428  135.372
  405.250    4.771    0.286    0.418  135.072
  405.500    4.754    0.285    0.412  130.541
  405.750    4.694    0.300    0.413  120.147
  406.000    4.514    0.300    0.427   95.975
  406.250    4.358    0.293    0.437   76.698
  406.500    4.230    0.292    0.425   65.096
  406.750    4.184    0.296    0.421   82.323
  407.000    4.178    0.300    0.424   93.323
  407.250    4.298    0.301    0.428  104.204
  407.500    4.438    0.300    0.430  111.700
  407.750    4.583    0.292    0.424  117.806
  408.000    4.662    0.290    0.418  116.297
  408.250    4.690    0.291    0.415  118.172
  408.500    4.639    0.309    0.422  125.789
  408.750    4.520    0.324    0.439  134.252
  409.000    4.380    0.331    0.458  141.990
  409.250    4.220    0.331    0.462  139.393
  409.500    3.998    0.329    0.461  140.241
  409.750    3.767    0.331    0.471  143.265
  410.000    3.542    0.334    0.472  147.497
  410.250    3.312    0.341    0.480  151.428
  410.500    3.034    0.351    0.490  152.457
  410.750    2.790    0.358    0.497  149.377
  411.000    2.609    0.367    0.501  148.774
  411.250    2.509    0.366    0.506  154.034
  411.500    2.586    0.383    0.520  148.355
  411.750    2.741    0.395    0.535  112.700
  412.000    2.890    0.383    0.545   89.978
  412.250    3.041    0.319    0.429   72.393
  412.500    3.187    0.296    0.414   59.522
  412.750    3.200    0.285    0.417   52.996
  413.000    3.183    0.296    0.425   52.878
  413.250    3.202    0.299    0.431   57.413
  413.500    3.276    0.297    0.431   58.139
  413.750    3.326    0.289    0.420   63.883
  414.000    3.327    0.284    0.414   68.599
  414.250    3.285    0.282    0.409   71.864
  414.500    3.207    0.283    0.404   71.927
  414.750    3.142    0.288    0.405   64.072
  415.000    3.056    0.291    0.412   59.541
  415.250    2.983    0.294    0.417   61.477
  415.500    2.929    0.294    0.422   62.386
  415.750    2.881    0.290    0.424   62.569
  416.000    2.882    0.285    0.418   61.543
  416.250    2.888    0.284    0.408   57.013
  416.500    2.889    0.286    0.405   55.624
  416.750    2.890    0.290    0.415   58.951
  417.000    2.885    0.292    0.419   60.282
  417.250    2.865    0.293    0.420   60.888
  417.500    2.860    0.292    0.420   60.285
  417.750    2.866    0.290    0.418   59.200
  418.000    2.878    0.290    0.417   62.465
  418.250    2.889    0.290    0.418   65.247
  418.500    2.890    0.290    0.418   66.397
  418.750    2.870    0.290    0.419   63.317
  419.000    2.849    0.290    0.421   70.632
  419.250    2.813    0.289    0.420   78.309
  419.500    2.782    0.288    0.417   87.014
  419.750    2.783    0.289    0.415   92.213
  420.000    2.842    0.291    0.416   87.259
  420.250    2.940    0.293    0.421   78.559
  420.500    3.036    0.296    0.423   72.758
  420.750    3.194    0.298    0.424   71.793
  421.000    3.380    0.303    0.430   84.668
  421.250    3.623    0.302    0.435  100.081
  421.500    3.770    0.293    0.427  109.813
  421.750    3.929    0.292    0.423  105.101
  422.000    3.997    0.296    0.425  109.213
  422.250    4.036    0.297    0.427  112.176
  422.500    4.045    0.294    0.426  110.970
  422.750    4.016    0.294    0.426  108.010
  423.000    3.987    0.295    0.428  106.743
  423.250    3.944    0.301    0.431  109.283
  423.500    3.930    0.303    0.434  112.730
  423.750    3.909    0.303    0.436  116.177
  424.000    3.896    0.301    0.430  117.629
  424.250    3.919    0.298    0.427  116.906
  424.500    3.935    0.296    0.425  114.248
  424.750    3.936    0.294    0.424  108.872
  425.000    3.944    0.295    0.424  105.126
  425.250    3.938    0.298    0.424  102.832
  425.500    3.939    0.299    0.424  101.081
  425.750    3.963    0.300    0.425   99.029
  426.000    4.077    0.299    0.425   97.398
  426.250    4.453    0.297    0.424   95.346
  426.500    4.882    0.287    0.420   92.265
  426.750    5.373    0.253    0.397   87.191
  427.000    5.957    0.080    0.213   83.626
  427.250    6.544    0.050    0.189   85.260
  427.500    6.720    0.037    0.167   90.460
  427.750    6.202    0.160    0.173   96.626
  428.000    5.649    0.234    0.283  101.342
  428.250    4.994    0.279    0.393  105.394
  428.500    4.541    0.288    0.418  108.357
  428.750    4.167    0.291    0.417  107.392
  429.000    3.941    0.294    0.419  107.998
  429.250    3.891    0.292    0.425  111.868
  429.500    3.855    0.295    0.434  115.737
  429.750    3.806    0.303    0.440  119.124
  430.000    3.779    0.306    0.443  119.911
  430.250    3.759    0.311    0.444  117.073
  430.500    3.760    0.313    0.443  120.761
  430.750    3.840    0.314    0.444  123.543
  431.000    3.877    0.315    0.446  125.056
  431.250    3.929    0.316    0.448  123.366
  431.500    3.945    0.317    0.450  119.258
  431.750    3.953    0.320    0.452  121.859
  432.000    3.940    0.321    0.451  116.724
  432.250    3.890    0.320    0.449  114.671
  432.500    3.847    0.317    0.448  116.124
  432.750    3.770    0.316    0.448  117.757
  433.000    3.674    0.315    0.448  119.149
  433.250    3.566    0.315    0.448  114.981
