~VERSION INFORMATION
 VERS.                 2.0:   CWLS LOG ASCII STANDARD -VERSION 2.0
 WRAP.                  NO:   ONE LINE PER DEPTH STEP
~WELL INFORMATION BLOCK
#MNEM.UNIT           DATA                    DESCRIPTION OF MNEMONIC
#---------    -------------------            -------------------------------
# Generated from Intellog Unique Number	CN_94_101/WELL/2640
WELL.         07-28-094-19W4                 : Well_name    - WELL
LOC .         00/07-28-094-19W4/0            : Location     - LOCATION
UWI .         00/07-28-094-19W4/0            : Uwi          - UNIQUE WELL ID
ENTR.         JOETTE                         : Entered      - ENTERED BY
SRVC.         SCHLUMBERGER                   : Scn          - SERVICE COMPANY
DATE.         07\03\92                       : Date         - LOG DATE
STRT.F        500                            : top_depth    - START DEPTH
STOP.F        1195.54                        : bot_depth    - STOP DEPTH
STEP.F        0.82                           : increment    - STEP LENGTH
 NULL. -999.2500:NULL Value
~CURVE INFORMATION BLOCK
#MNEM UNIT       ERCB CURVE CODE    CURVE DESCRIPTION
#-----------   ------------------   ----------------------------------
DEPT.F        00 001 00 00         : DEPTH        - DEPTH
CALI.IN       00 280 01 00         : CAL          - CALIPER
GR  .API      00 310 00 00         : GR           - GAMMA RAY
NPHI.V/V      00 330 00 00         : PHIN         - NEUTRON POROSITY (SANDSTONE)
ILD .OHMM     00 120 00 00         : RESD         - DEEP RESISTIVITY (DIL)
~PARAMETER INFORMATION
#MNEM.UNIT           DATA             DESCRIPTION OF MNEMONIC
#---------         -----------     ------------------------------
GL  .M        639.775              : gl           - GROUND LEVEL ELEVATION
EREF.M        641.909              : kb           - ELEVATION OF DEPTH REFERENCE
DATM.M        641.909              : datum        - DATUM ELEVATION
TDD .M        368.198              : tdd          - TOTAL DEPTH DRILLER
RUN .         ONE                  : Run          - RUN NUMBER
ENG .         JO                   : Engineer     - RECORDING ENGINEER
WIT .         TIM                  : Witness      - WITNESSED BY
MUD .         GEL                  : Mud_type     - MUD TYPE
MATR.         SANDSTONE            : Logunit      - NEUTRON MATRIX
TMAX.F        60                   : BHT          - MAXIMUM RECORDED TEMPERATURE
BHTD.F        1208                 : BHTDEP       - MAXIMUM RECORDED TEMPERATURE
RMT .F        60                   : MDTP         - TEMPERATURE OF MUD
MUDD.LB/G     1.06                 : MWT          - MUD DENSITY
NEUT.         1                    : NEUTRON      - NEUTRON TYPE
RESI.         0                    : RESIST       - RESISTIVITY TYPE
RM  .OHMM     5.7                  : RM           - RESISTIVITY OF MUD
RMC .OHMM     5.7                  : RMC          - RESISTIVITY OF MUD CAKE
RMF .OHMM     5.7                  : RMF          - RESISTIVITY OF MUD FILTRATE
SUFT.F        39.2                 : SUFT         - SURFACE TEMPERATURE
~A  DEPTH      CAL       GR     PHIN     RESD
# ...
  928.150    6.787   80.055    0.353    5.987
  928.970    6.908   83.102    0.357    6.323
  929.790    6.989   85.536    0.367    6.437
  930.610    7.070   85.526    0.386    6.434
  931.430    7.069   80.612    0.373    6.195
  932.251    6.905   72.029    0.352    6.424
  933.071    6.741   63.446    0.337    7.041
  933.891    6.576   53.027    0.316    8.011
  934.711    6.493   43.220    0.261    9.456
  935.531    6.493   40.142    0.097   11.160
  936.352    6.451   49.922    0.156   12.461
  937.172    6.450   62.149    0.190   12.000
  937.992    6.449   71.929    0.252    9.603
  938.812    6.448   69.467    0.293    8.430
  939.633    6.529   68.841    0.362    8.118
  940.453    6.650   70.051    0.352    7.533
  941.273    6.772   72.486    0.354    6.988
  942.093    6.893   77.368    0.368    6.605
  942.913    6.933   80.411    0.395    6.130
  943.734    6.973   79.785    0.409    5.689
  944.554    6.972   80.384    0.421    5.378
  945.374    6.971   80.982    0.425    5.576
  946.194    6.970   77.296    0.431    5.782
  947.014    6.969   72.385    0.443    5.885
  947.835    6.968   77.880    0.402    5.666
  948.655    6.967   84.599    0.376    5.163
  949.475    6.966   89.478    0.374    4.287
  950.295    6.965   93.133    0.420    3.627
  951.115    6.964   93.123    0.446    3.183
  951.936    6.963   91.885    0.453    3.065
  952.756    6.962   88.199    0.450    3.062
  953.576    6.961   84.509    0.450    3.176
  954.396    6.961   80.826    0.428    3.293
  955.217    6.837   74.076    0.389    3.544
  956.037    6.673   69.774    0.381    4.031
  956.857    6.550   67.312    0.373    5.220
  957.677    6.467   69.135    0.369    6.635
  958.497    6.507   70.348    0.382    8.433
  959.318    6.547   72.783    0.376    8.743
  960.138    6.587   74.605    0.362    8.265
  960.958    6.627   78.264    0.365    7.255
  961.778    6.789   81.919    0.392    6.137
  962.598    7.155   85.574    0.409    5.591
  963.419    7.358   80.052    0.423    5.284
  964.239    7.112   76.981    0.432    5.185
  965.059    6.785   75.131    0.434    5.185
  965.879    6.580   72.057    0.428    5.675
  966.699    6.661   74.491    0.428    4.802
  967.520    6.905   79.979    0.438    5.168
  968.340    7.148   83.029    0.455    5.665
  969.160    7.311   82.403    0.386    6.444
  969.980    7.024   79.941    0.352    7.607
  970.801    6.492   82.984    0.355    8.814
  971.621    6.491   80.525    0.364   10.024
  972.441    6.491   78.060    0.356   10.395
  973.261    6.490   81.106    0.390    9.828
  974.081    6.652   84.149    0.420    7.439
  974.902    6.773   87.196    0.438    6.652
  975.722    6.813   89.634    0.432    6.286
  976.542    6.731   85.335    0.421    6.397
  977.362    6.689   82.261    0.412    6.394
  978.182    6.647   84.084    0.396    6.511
  979.003    6.606   82.234    0.353    6.504
  979.823    6.564   76.704    0.373    6.500
  980.643    6.563   76.078    0.367    6.259
  981.463    6.562   78.513    0.355    5.494
  982.283    6.561   83.399    0.360    5.098
  983.104    6.560   88.890    0.378    4.819
  983.924    6.559   88.264    0.371    4.813
  984.744    6.558   85.194    0.380    4.811
  985.564    6.598   83.340    0.373    4.809
  986.385    6.638   82.102    0.368    4.893
  987.205    6.678   82.088    0.390    4.890
  988.025    6.758   81.462    0.408    4.887
  988.845    6.635   83.897    0.408    4.883
  989.665    6.634   88.168    0.408    4.615
  990.486    6.755   92.435    0.414    4.127
  991.306    6.795   94.257    0.406    3.902
  992.126    6.794   92.407    0.399    4.121
  992.946    6.712   91.169    0.370    4.601
  993.766    6.670   96.052    0.360    4.862
  994.587    6.709   96.038    0.335    5.530
  995.407    6.709   97.248    0.328    6.062
  996.227    6.585  100.904    0.323    6.768
  997.047    6.543   97.829    0.318    7.019
  997.867    6.543   97.207    0.306    7.412
  998.688    6.583   98.410    0.328    7.272
  999.508    6.826  100.233    0.326    7.267
 1000.330    6.621   96.550    0.311    7.260
 1001.150    6.539   92.248    0.302    7.387
 1001.970    6.497   90.401    0.305    7.521
 1002.790    6.496   90.388    0.320    7.519
 1003.610    6.495   89.150    0.332    7.653
 1004.430    6.494   86.680    0.321    7.645
 1005.250    6.493   86.058    0.325    7.501
 1006.070    6.533   85.432    0.340    7.223
 1006.890    6.573   87.254    0.354    6.826
 1007.710    6.653   89.077    0.387    6.575
 1008.530    6.734   90.899    0.397    6.100
 1009.350    6.856   91.494    0.401    5.984
 1010.170    6.937   91.477    0.387    5.868
 1010.990    6.895   90.239    0.387    5.864
 1011.810    6.935   89.001    0.392    5.969
 1012.630    7.015   87.763    0.395    6.077
 1013.450    6.973   88.361    0.412    6.073
 1014.270    6.932   90.796    0.389    6.298
 1015.090    6.808   92.009    0.367    6.530
 1015.910    6.481   92.608    0.341    6.897
 1016.730    6.480   90.747    0.339    7.152
 1017.550    6.724   87.676    0.330    7.277
 1018.370    6.519   85.830    0.361    7.275
 1019.190    6.395   85.204    0.325    7.269
 1020.010    6.272   86.414    0.329    7.128
 1020.830    6.230   90.069    0.319    7.126
 1021.650    6.270   91.283    0.329    7.118
 1022.470    6.310   93.099    0.353    7.115
 1023.290    6.309   94.309    0.367    7.108
 1024.110    6.185   96.135    0.378    7.101
 1024.930    6.307   98.569    0.384    7.098
 1025.750    6.755   99.776    0.384    7.092
 1026.570    7.121   98.535    0.383    7.087
 1027.400    7.447   96.076    0.378    7.082
 1028.220    7.405   91.165    0.370    7.076
 1029.040    7.486   93.600    0.352    7.073
 1029.860    7.526   97.255    0.341    7.198
 1030.680    7.280   95.409    0.343    7.191
 1031.500    6.748   93.558    0.335    7.320
 1032.320    6.748   91.708    0.376    7.047
 1033.140    7.032   91.079    0.391    6.916
 1033.960    7.235   90.450    0.401    6.537
 1034.780    7.234   89.824    0.395    6.066
 1035.600    7.070   89.806    0.386    5.323
 1036.420    6.988   89.187    0.393    5.223
 1037.240    6.987   87.946    0.367    5.317
 1038.060    6.863   86.708    0.362    5.512
 1038.880    6.862   88.534    0.369    5.510
 1039.700    7.024   88.520    0.384    5.403
 1040.520    7.105   86.047    0.386    5.302
 1041.340    7.104   85.428    0.384    5.011
 1042.160    7.103   87.247    0.449    4.650
 1042.980    7.102   90.906    0.457    4.081
 1043.800    7.101   93.341    0.464    3.788
 1044.620    7.100   94.551    0.474    3.580
 1045.440    7.100   92.085    0.481    3.578
 1046.260    7.057   89.627    0.463    3.779
 1047.080    7.016   86.549    0.445    4.065
 1047.900    6.934   84.090    0.419    4.375
 1048.720    6.769   77.956    0.400    4.707
 1049.540    6.727   77.326    0.379    4.973
 1050.360    6.726   80.376    0.365    5.450
 1051.180    6.725   83.419    0.351    5.651
 1052.000    6.643   85.238    0.370    5.648
 1052.820    6.601   86.449    0.436    5.645
 1053.640    6.600   88.883    0.436    5.537
 1054.460    6.681   87.648    0.425    5.331
 1055.280    6.762   90.083    0.436    5.038
 1056.100    6.761   93.126    0.424    4.943
 1056.920    6.678   93.728    0.407    5.222
 1057.740    6.636   94.326    0.393    5.830
 1058.560    6.758   91.857    0.359    6.159
 1059.380    6.798   93.071    0.308    6.749
 1060.200    6.674   97.950    0.313    6.999
 1061.020    6.551   96.103    0.306    7.257
 1061.840    6.550   94.253    0.308    7.253
 1062.660    6.508   94.240    0.305    7.246
 1063.480    6.507   96.058    0.299    7.241
 1064.300    6.465   97.881    0.306    7.236
 1065.120    6.464   99.091    0.307    7.230
 1065.940    6.464   94.181    0.294    7.225
 1066.770    6.463   90.494    0.306    7.221
 1067.590    6.461   89.253    0.295    7.351
 1068.410    6.502   91.079    0.291    7.341
 1069.230    6.500   94.125    0.303    7.476
 1070.050    6.500   95.948    0.294    7.467
