~VERSION INFORMATION
 VERS.                 2.0:   CWLS LOG ASCII STANDARD -VERSION 2.0
 WRAP.                  NO:   ONE LINE PER DEPTH STEP
~WELL INFORMATION BLOCK
#MNEM.UNIT           DATA                    DESCRIPTION OF MNEMONIC
#---------    -------------------            -------------------------------
# Generated from Intellog Unique Number	CS_77_79/WELL/871
WELL.         HOME LEISMER                   : Well_name    - WELL
LOC .         00/06-11-078-07W4/0            : Location     - LOCATION
UWI .         00/06-11-078-07W4/0            : Uwi          - UNIQUE WELL ID
ENTR.         JHS                            : Entered      - ENTERED BY
SRVC.         SCHLUMBERGER                   : Scn          - SERVICE COMPANY
STRT.M        106.680                        : top_depth    - START DEPTH
STOP.M        344.180                        : bot_depth    - STOP DEPTH
STEP.M        0.25                           : increment    - STEP LENGTH
 NULL. -999.2500:NULL Value
~CURVE INFORMATION BLOCK
#MNEM UNIT       ERCB CURVE CODE    CURVE DESCRIPTION
#-----------   ------------------   ----------------------------------
DEPT.M        00 001 00 00         : DEPTH        - DEPTH
RHOB.KG/M3    00 350 00 00         : DENS         - BULK DENSITY
GR  .API      00 310 00 00         : GR           - GAMMA RAY
DPHI.V/V      00 890 00 00         : PHID         - DENSITY POROSITY (SANDSTONE)
NPHI.V/V      00 330 00 00         : PHIN         - NEUTRON POROSITY (SANDSTONE)
ILD .OHMM     00 120 00 00         : RESD         - DEEP RESISTIVITY (DIL)
~PARAMETER INFORMATION
#MNEM.UNIT           DATA             DESCRIPTION OF MNEMONIC
#---------         -----------     ------------------------------
GL  .M        533.461              : gl           - GROUND LEVEL ELEVATION
EREF.M        536.814              : kb           - ELEVATION OF DEPTH REFERENCE
DATM.M        536.814              : datum        - DATUM ELEVATION
TDD .M        347.472              : tdd          - TOTAL DEPTH DRILLER
RUN .         ONE                  : Run          - RUN NUMBER
ENG .         BILL                 : Engineer     - RECORDING ENGINEER
WIT .         JIM                  : Witness      - WITNESSED BY
MUD .         GEL                  : Mud_type     - MUD TYPE
MATR.         SANDSTONE            : Logunit      - NEUTRON MATRIX
TMAX.C        21.6667              : BHT          - MAXIMUM RECORDED TEMPERATURE
BHTD.M        347.472              : BHTDEP       - MAXIMUM RECORDED TEMPERATURE
MATR.         1                    : LOGUNIT      - NEUTRON MATRIX
RMT .C        25                   : MDTP         - TEMPERATURE OF MUD
NEUT.         1                    : NEUTRON      - NEUTRON TYPE
RESI.         0                    : RESIST       - RESISTIVITY TYPE
RMC .OHMM     0.25                 : RMC          - RESISTIVITY OF MUD CAKE
RMF .OHMM     0.25                 : RMF          - RESISTIVITY OF MUD FILTRATE
SUFT.C        15                   : SUFT         - SURFACE TEMPERATURE
~A  DEPTH     DENS       GR     PHID     PHIN     RESD
# ...
  325.680 2349.290  110.917    0.211    0.486    8.016
  325.930 2329.180   99.960    0.223    0.499    7.676
  326.180 2300.450   86.489    0.240    0.459    8.091
  326.430 2270.500   81.382    0.257    0.428    9.026
  326.680 2278.830   78.005    0.252    0.406    9.474
  326.930 2319.070   87.492    0.229    0.401    9.026
  327.180 2330.020  103.275    0.222    0.425    8.500
  327.430 2350.760  114.509    0.210    0.479    7.927
  327.680 2387.350  115.233    0.189    0.493    7.545
  327.930 2399.010  113.649    0.182    0.514    7.186
  328.180 2412.290  108.938    0.174    0.511    7.004
  328.430 2419.020  107.584    0.170    0.494    7.157
  328.680 2401.670  109.423    0.180    0.448    7.246
  328.930 2382.920  105.018    0.191    0.430    7.309
  329.180 2383.350   98.444    0.191    0.412    7.555
  329.430 2386.200   93.223    0.189    0.397    7.638
  329.680 2394.440   94.886    0.185    0.387    7.698
  329.930 2368.620   95.854    0.200    0.385    7.579
  330.180 2357.590   96.455    0.206    0.398    7.352
  330.430 2370.270   94.523    0.199    0.412    7.133
  330.680 2359.240   87.388    0.205    0.415    6.910
  330.930 2319.900   82.098    0.228    0.416    6.882
  331.180 2281.770   79.692    0.250    0.439    7.175
  331.430 2267.090   73.461    0.259    0.462    8.004
  331.680 2243.210   57.734    0.273    0.438    9.169
  331.930 2201.250   37.585    0.298    0.412   12.126
  332.180 2200.150   35.729    0.298    0.401   15.183
  332.430 2205.810   33.699    0.295    0.397   18.929
  332.680 2223.200   34.709    0.285    0.396   19.277
  332.930 2228.610   45.720    0.282    0.411   18.134
  333.180 2218.630   49.533    0.287    0.412   18.041
  333.430 2233.000   49.239    0.279    0.380   19.617
  333.680 2256.830   58.433    0.265    0.382   17.828
  333.930 2278.680   75.207    0.252    0.429   12.156
  334.180 2311.140   90.774    0.233    0.519    7.140
  334.430 2341.940   96.069    0.215    0.525    5.881
  334.680 2315.960   87.702    0.230    0.484    5.315
  334.930 2295.470   63.439    0.242    0.440    5.016
  335.180 2275.280   57.530    0.254    0.392    5.187
  335.430 2309.800   63.053    0.234    0.390    5.410
  335.680 2332.150   75.239    0.221    0.414    5.592
  335.930 2325.830   77.535    0.225    0.400    5.271
  336.180 2367.040   81.439    0.201    0.395    5.054
  336.430 2405.460   90.197    0.178    0.428    4.613
  336.680 2427.670   93.194    0.165    0.464    4.405
  336.930 2398.320   83.182    0.182    0.481    3.995
  337.180 2394.090   65.322    0.185    0.454    3.962
  337.430 2324.450   36.929    0.225    0.402    4.128
  337.680 2239.040   24.892    0.276    0.367    4.829
  337.930 2259.650   24.683    0.271    0.342    6.166
  338.180 2293.830   30.782    0.240    0.315    7.939
  338.430  819.146   58.991    0.211    0.288    9.430
  338.680   62.200   68.449    0.155    0.279   10.357
  338.930   -2.959   73.184    0.098    0.315   10.469
  339.180   -1.131   59.896    0.120    0.313    9.974
  339.430   -0.072   28.802    0.117    0.270    9.005
  339.680    0.008   25.467    0.096    0.245    7.138
  339.930    0.002   49.298    0.029    0.249    5.894
  340.180    0.000   78.090    0.001    0.275    5.774
  340.430   -0.000   80.253   -0.000    0.274    6.986
  340.680   -0.000   80.081   -0.000    0.239    9.700
  340.930   -0.000   79.066   -0.000    0.206   15.025
  341.180    0.000   78.478    0.000    0.175   26.291
  341.430    0.000   78.512    0.000    0.152   31.576
  341.680   -0.000   79.153   -0.000    0.131   35.574
  341.930   -0.000   79.185   -0.000    0.100   37.483
  342.180   -0.000   79.232   -0.000    0.075   37.683
  342.430    0.000   79.254    0.000    0.036   37.136
  342.680    0.000   79.285    0.000   -0.002   35.391
  342.930    0.000   79.312    0.000   -0.000   32.958
  343.180   -0.000   79.336   -0.000    0.000   31.573
  343.430   -0.000   79.364   -0.000    0.000   30.322
  343.680   -0.000   79.388   -0.000    0.000   29.089
  343.930    0.000   79.870    0.000   -0.000   28.625
  344.180    0.000   80.028    0.000   -0.000   28.012
