~VERSION INFORMATION
 VERS.                 2.0:   CWLS LOG ASCII STANDARD -VERSION 2.0
 WRAP.                  NO:   ONE LINE PER DEPTH STEP
~WELL INFORMATION BLOCK
#MNEM.UNIT           DATA                    DESCRIPTION OF MNEMONIC
#---------    -------------------            -------------------------------
# Generated from Intellog Unique Number	CC_80_83/WELL/1181
NULL.         -999.25                        : NULL_VALUE
WELL.         CAN SUP PONY                   : Well_name    - WELL
LOC .         07-11-082-07W4                 : Location     - LOCATION          
UWI .         00/07-11-082-07W4/0            : Uwi          - UNIQUE WELL ID    
ENTR.         DW                             : Entered      - ENTERED BY        
SRVC.         SCHLUMBERGER                   : Scn          - SERVICE COMPANY   
DATE.         14 FEB 77                      : Date         - LOG DATE
STRT.M        228.6                          : top_depth    - START DEPTH       
STOP.M        478.542                        : bot_depth    - STOP DEPTH        
STEP.M        0.305                          : increment    - STEP LENGTH       
~CURVE INFORMATION BLOCK
#MNEM UNIT       ERCB CURVE CODE    CURVE DESCRIPTION
#-----------   ------------------   ----------------------------------
DEPT.M        00 001 00 00         : DEPTH        - DEPTH                       
DPHI.V/V      00 890 00 00         : PHID         - DENSITY POROSITY (LIMESTONE)
NPHI.V/V      00 330 00 00         : PHIN         - NEUTRON POROSITY (LIMESTONE)
GR  .API      00 310 00 00         : GR           - GAMMA RAY                   
ILD .OHMM     00 120 00 00         : RESD         - DEEP RESISTIVITY (DIL)      
~PARAMETER INFORMATION       
#MNEM.UNIT           DATA             DESCRIPTION OF MNEMONIC
#---------         -----------     ------------------------------
GL  .M        0                    : gl           - GROUND LEVEL ELEVATION      
EREF.M        0                    : kb           - ELEVATION OF DEPTH REFERENCE
DATM.M        0                    : datum        - DATUM ELEVATION             
TDD .M        487.68               : tdd          - TOTAL DEPTH DRILLER         
RUN .         ONE                  : Run          - RUN NUMBER                  
ENG .         BILL                 : Engineer     - RECORDING ENGINEER          
WIT .         JIM                  : Witness      - WITNESSED BY                
MUD .         GEL                  : Mud_type     - MUD TYPE                    
MATR.         LIMESTONE            : Logunit      - NEUTRON MATRIX              
TMAX.C        21.6667              : BHT          - MAXIMUM RECORDED TEMPERATURE
BHTD.M        487.68               : BHTDEP       - MAXIMUM RECORDED TEMPERATURE
MATR.         1                    : LOGUNIT      - NEUTRON MATRIX              
RMT .C        25                   : MDTP         - TEMPERATURE OF MUD          
NEUT.         1                    : NEUTRON      - NEUTRON TYPE                
RESI.         0                    : RESIST       - RESISTIVITY TYPE            
RMC .OHMM     0.25                 : RMC          - RESISTIVITY OF MUD CAKE     
RMF .OHMM     0.25                 : RMF          - RESISTIVITY OF MUD FILTRATE 
SUFT.C        4                    : SUFT         - SURFACE TEMPERATURE         
~A  DEPTH     PHID     PHIN       GR     RESD
# ...
  387.709    0.290    0.452   75.758   11.179
  388.014    0.277    0.450   74.563   10.764
  388.319    0.234    0.447   75.179    9.987
  388.624    0.180    0.452   79.429    9.267
  388.928    0.219    0.485   89.731    8.133
  389.233    0.214    0.467   90.351    7.006
  389.538    0.200    0.461   87.945    6.500
  389.843    0.212    0.475   89.169    6.143
  390.148    0.216    0.492   90.999    6.025
  390.453    0.225    0.481   91.620    6.021
  390.757    0.235    0.439   91.634    6.477
  391.062    0.245    0.411   92.254    7.100
  391.367    0.237    0.420   93.477    7.927
  391.672    0.245    0.445   93.490    8.374
  391.977    0.228    0.452   91.688    8.681
  392.281    0.229    0.468   91.102    8.674
  392.586    0.239    0.494   91.725    7.901
  392.891    0.235    0.529   91.128    6.205
  393.196    0.258    0.565   81.458    4.360
  393.501    0.268    0.574   79.054    2.793
  393.805    0.290    0.559   78.460    2.406
  394.110    0.303    0.542   78.473    2.404
  394.415    0.289    0.541   82.121    2.447
  394.720    0.272    0.534   83.343    2.682
  395.025    0.256    0.514   78.517    3.108
  395.329    0.264    0.480   78.531    3.877
  395.634    0.235    0.444   80.359    4.663
  395.939    0.242    0.435   78.560    5.711
  396.244    0.228    0.441   84.686    6.818
  396.549    0.238    0.441   85.240    6.688
  396.854    0.236    0.434   87.013    6.202
  397.158    0.208    0.423   90.615    5.646
  397.463    0.201    0.452   96.041    5.045
  397.768    0.221    0.480   94.162    4.680
  398.073    0.214    0.499   92.279    4.104
  398.378    0.233    0.507   92.819    3.806
  398.682    0.245    0.515   93.978    3.665
  398.987    0.235    0.526   95.750    3.595
  399.292    0.232    0.521   95.101    3.592
  399.597    0.238    0.489   95.643    3.589
  399.902    0.248    0.482   98.036    3.521
  400.206    0.240    0.517   97.977    3.518
  400.511    0.255    0.496  100.950    3.582
  400.816    0.242    0.492  103.341    3.715
  401.121    0.235    0.526  104.512    3.783
  401.426    0.224    0.528  103.851    4.072
  401.730    0.236    0.516   98.305    4.637
  402.035    0.230    0.455   95.205    5.378
  402.340    0.229    0.439   93.924    5.900
  402.645    0.239    0.441   91.433    6.234
  402.950    0.239    0.439   89.553    6.229
  403.255    0.228    0.429   82.189    6.343
  403.559    0.235    0.427   87.004    7.087
  403.864    0.226    0.464   86.952    7.775
  404.169    0.249    0.457   82.013    9.361
  404.474    0.249    0.397   77.090   10.858
  404.779    0.275    0.404   69.725   11.472
  405.083    0.282    0.413   73.316   11.681
  405.388    0.277    0.429   75.088   11.038
  405.693    0.268    0.444   70.768    9.501
  405.998    0.225    0.499   68.883    8.980
  406.303    0.191    0.477   69.438    9.142
  406.607    0.202    0.448   70.600    8.968
  406.912    0.283    0.458   69.941    8.162
  407.217    0.268    0.505   64.397    7.571
  407.522    0.288    0.437   54.592    6.518
  407.827    0.292    0.428   60.024    5.824
  408.131    0.273    0.462   68.501    5.930
  408.436    0.266    0.507   73.923    7.411
  408.741    0.303    0.492   65.337    9.794
  409.046    0.311    0.447   63.453   10.945
  409.351    0.280    0.435   73.147   10.734
  409.656    0.257    0.459   96.859    7.814
  409.960    0.244    0.481  104.116    6.727
  410.265    0.226    0.460  108.324    6.598
  410.570    0.198    0.430   94.864    7.653
  410.875    0.184    0.403  105.766   10.697
  411.180    0.194    0.378  103.275   11.954
  411.484    0.209    0.356   99.570   11.942
  411.789    0.196    0.356   90.981   10.873
  412.094    0.188    0.390   95.190    9.717
  412.399    0.218    0.421  103.658    8.683
  412.704    0.187    0.467  107.266    8.203
  413.008    0.171    0.463  102.942    8.197
  413.313    0.169    0.437  102.280    8.194
  413.618    0.184    0.444  105.875    8.342
  413.923    0.210    0.450  108.263    8.651
  414.228    0.204    0.452  107.591    8.974
  414.532    0.206    0.433  107.538    9.137
  414.837    0.192    0.415  108.081    9.300
  415.142    0.181    0.421  108.641    9.470
  415.447    0.185    0.425  108.587    9.464
  415.752    0.201    0.423  106.092    9.111
  416.057    0.176    0.440  104.216    9.103
  416.361    0.179    0.432  102.935    9.095
  416.666    0.185    0.405  102.280    9.089
  416.971    0.190    0.403  105.267    9.085
  417.276    0.184    0.405  103.382    9.250
  417.581    0.168    0.406   92.973    9.242
  417.885    0.177    0.393   93.520    8.898
  418.190    0.218    0.391  103.220    8.406
  418.495    0.208    0.414  103.156    8.093
  418.800    0.209    0.426  106.753    7.791
  419.105    0.221    0.451  107.921    7.644
  419.409    0.238    0.447  103.600    7.781
  419.714    0.220    0.439   98.061    7.923
  420.019    0.237    0.443   95.563    8.065
  420.324    0.225    0.447   98.554    7.912
  420.629    0.234    0.459  102.161    7.474
  420.933    0.246    0.485  103.926    7.064
  421.238    0.255    0.496  105.079    6.551
  421.543    0.260    0.503  106.862    6.076
  421.848    0.261    0.532  106.809    5.850
  422.153    0.257    0.532  100.042    5.632
  422.458    0.242    0.520  100.600    5.524
  422.762    0.232    0.518  101.148    5.418
  423.067    0.224    0.519  100.478    5.415
  423.372    0.212    0.518  101.044    5.512
  423.677    0.195    0.508  104.041    5.718
  423.982    0.179    0.525  111.294    5.821
  424.286    0.203    0.545  108.188    6.038
  424.591    0.203    0.530  102.649    6.381
  424.896    0.210    0.509   92.242    6.870
  425.201    0.201    0.483  105.590    7.260
  425.506    0.205    0.464  105.532    7.672
  425.810    0.183    0.474   99.995    7.809
  426.115    0.169    0.469   99.926    8.101
  426.420    0.160    0.465  102.912    8.402
  426.725    0.162    0.458  103.473    8.716
  427.030    0.178    0.470   97.327    9.384
  427.334    0.235    0.472   82.655   10.293
  427.639    0.253    0.450   81.986   11.082
  427.944    0.231    0.401   84.368   12.854
  428.249    0.203    0.393   83.097   16.065
  428.554    0.234    0.397   64.763   21.232
  428.859    0.261    0.413   40.945   30.800
  429.163    0.291    0.404   29.913   45.521
  429.468    0.334    0.384   28.644  111.287
  429.773    0.321    0.410   29.808  180.548
  430.078    0.330    0.439   27.921  380.211
  430.383    0.361    0.457   27.869  628.433
  430.687    0.337    0.410   29.633 1183.490
  430.992    0.338    0.401   32.625  911.011
  431.297    0.327    0.402   33.797  688.346
  431.602    0.327    0.394   32.521  755.032
  431.907    0.333    0.383   34.901 1395.550
  432.211    0.337    0.386   45.813 1588.930
  432.516    0.337    0.389   35.399 1647.860
  432.821    0.328    0.391   36.561 1677.920
  433.126    0.328    0.390   37.108 1707.820
  433.431    0.329    0.391   33.403 1644.220
  433.735    0.324    0.407   35.783 1583.130
  434.040    0.316    0.424   34.497 1552.910
  434.345    0.326    0.393   32.630 1580.790
  434.650    0.337    0.389   31.959 1579.900
  434.955    0.344    0.418   32.515 1549.360
  435.260    0.333    0.406   31.844 1519.460
  435.564    0.331    0.400   31.187 1518.890
  435.869    0.330    0.400   29.913 1517.480
  436.174    0.340    0.406   31.070 1516.370
  436.479    0.337    0.414   31.008 1515.600
  436.784    0.337    0.409   31.573 1514.470
  437.088    0.335    0.413   35.778 1513.260
  437.393    0.330    0.430   44.255 1456.820
  437.698    0.327    0.442   42.983 1428.940
  438.003    0.329    0.435   37.442 1401.470
  438.308    0.344    0.421   32.499 1349.240
  438.612    0.354    0.398   31.845 1348.560
  438.917    0.359    0.420   33.610 1424.620
  439.222    0.347    0.427   36.002 1450.700
  439.527    0.340    0.395   43.258 1449.750
  439.832    0.336    0.400   47.462 1448.690
  440.136    0.320    0.419   35.825 1447.670
  440.441    0.329    0.405   35.169 1419.980
