~VERSION INFORMATION
 VERS.                 2.0:   CWLS LOG ASCII STANDARD -VERSION 2.0
 WRAP.                  NO:   ONE LINE PER DEPTH STEP
~WELL INFORMATION BLOCK
#MNEM.UNIT           DATA                    DESCRIPTION OF MNEMONIC
#---------    -------------------            -------------------------------
# Generated from Intellog Unique Number	CW_73_75/WELL/3517
WELL.         CABRE EXPLORATION              : Well_name    - WELL
LOC .         00/02-05-074-04W5/0            : Location     - LOCATION
UWI .         00/02-05-074-04W5/0            : Uwi          - UNIQUE WELL ID
ENTR.         T                              : Entered      - ENTERED BY
SRVC.         SCHLUMBERGER                   : Scn          - SERVICE COMPANY
DATE.         05\15\92                       : Date         - LOG DATE
STRT.M        335                            : top_depth    - START DEPTH
STOP.M        590                            : bot_depth    - STOP DEPTH
STEP.M        0.25                           : increment    - STEP LENGTH
 NULL. -999.2500:NULL Value
~CURVE INFORMATION BLOCK
#MNEM UNIT       ERCB CURVE CODE    CURVE DESCRIPTION
#-----------   ------------------   ----------------------------------
DEPT.M        00 001 00 00         : DEPTH        - DEPTH
ILD .OHMM     00 120 00 00         : RESD         - DEEP RESISTIVITY (DIL)
DPHI.V/V      00 890 00 00         : PHID         - DENSITY POROSITY (SANDSTONE)
NPHI.V/V      00 330 00 00         : PHIN         - NEUTRON POROSITY (SANDSTONE)
GR  .API      00 310 00 00         : GR           - GAMMA RAY
~PARAMETER INFORMATION
#MNEM.UNIT           DATA             DESCRIPTION OF MNEMONIC
#---------         -----------     ------------------------------
GL  .M        593                  : gl           - GROUND LEVEL ELEVATION
EREF.M        597                  : kb           - ELEVATION OF DEPTH REFERENCE
DATM.M        597                  : datum        - DATUM ELEVATION
TDD .M        1628                 : tdd          - TOTAL DEPTH DRILLER
RUN .         ONE                  : Run          - RUN NUMBER
ENG .         JO                   : Engineer     - RECORDING ENGINEER
WIT .         TIM                  : Witness      - WITNESSED BY
MUD .         GEL                  : Mud_type     - MUD TYPE
MATR.         SANDSTONE            : Logunit      - NEUTRON MATRIX
TMAX.C        44                   : BHT          - MAXIMUM RECORDED TEMPERATURE
BHTD.M        1628                 : BHTDEP       - MAXIMUM RECORDED TEMPERATURE
RMT .C        15                   : MDTP         - TEMPERATURE OF MUD
MUDD.KG/M     1080                 : MWT          - MUD DENSITY
NEUT.         1                    : NEUTRON      - NEUTRON TYPE
RESI.         0                    : RESIST       - RESISTIVITY TYPE
RM  .OHMM     0.97                 : RM           - RESISTIVITY OF MUD
RMC .OHMM     0.688                : RMC          - RESISTIVITY OF MUD CAKE
RMF .OHMM     0.84                 : RMF          - RESISTIVITY OF MUD FILTRATE
SUFT.C        4                    : SUFT         - SURFACE TEMPERATURE
~A  DEPTH     RESD     PHID     PHIN       GR
  335.000    2.986    0.356    0.402   69.428
  335.250    2.987    0.353    0.439   65.878
  335.500    2.987    0.354    0.439   64.686
  335.750    3.042    0.341    0.404   67.616
  336.000    3.098    0.316    0.410   79.368
  336.250    3.098    0.306    0.421   86.412
  336.500    3.098    0.297    0.433   89.335
  336.750    3.098    0.302    0.441   91.084
  337.000    3.099    0.370    0.437   92.245
  337.250    3.099    0.417    0.452   94.583
  337.500    3.099    0.432    0.466   96.328
  337.750    3.099    0.402    0.464   94.543
  338.000    3.043    0.371    0.414   93.359
  338.250    3.043    0.350    0.374   88.632
  338.500    2.988    0.324    0.369   85.679
  338.750    2.988    0.327    0.514   82.717
  339.000    2.988    0.376    0.566   77.994
  339.250    3.100    0.456    0.571   74.445
  339.500    3.215    0.486    0.566   72.664
  339.750    3.335    0.521    0.545   69.122
  340.000    3.335    0.579    0.503   64.987
  340.250    3.335    0.570    0.504   62.026
  340.500    3.275    0.578    0.513   60.833
  340.750    3.216    0.619    0.527   59.641
  341.000    3.100    0.504    0.536   59.621
  341.250    3.158    0.443    0.486   57.844
  341.500    3.216    0.455    0.461   53.710
  341.750    3.216    0.479    0.444   51.925
  342.000    3.158    0.629    0.502   54.263
  342.250    3.045    0.667    0.544   56.605
  342.500    2.883    0.633    0.560   58.350
  342.750    2.831    0.654    0.575   58.334
  343.000    2.631    0.679    0.588   54.200
  343.250    2.537    0.690    0.574   50.066
  343.500    2.316    0.539    0.546   46.520
  343.750    2.233    0.583    0.528   42.382
  344.000    2.192    0.725    0.539   39.428
  344.250    2.076    0.773    0.530   34.701
  344.500    2.193    0.794    0.499   27.037
  344.750    2.402    0.819    0.506   23.491
  345.000    2.492    0.844    0.540   22.883
  345.250    2.492    0.873    0.572   22.867
  345.500    2.492    0.900    0.585   24.032
  345.750    2.403    0.830    0.550   24.605
  346.000    2.233    0.781    0.537   26.939
  346.250    2.076    0.721    0.525   29.865
  346.500    2.039    0.746    0.532   32.791
  346.750    2.193    0.776    0.540   36.301
  347.000    2.317    0.769    0.554   38.639
  347.250    2.448    0.764    0.531   38.627
  347.500    2.448    0.801    0.561   37.431
  347.750    2.448    0.831    0.602   36.827
  348.000    2.448    0.874    0.605   38.580
  348.250    2.360    0.890    0.594   41.502
  348.500    2.234    0.860    0.567   45.017
  348.750    2.276    0.833    0.503   49.120
  349.000    2.276    0.809    0.474   50.869
  349.250    2.318    0.732    0.486   50.850
  349.500    2.318    0.596    0.507   50.246
  349.750    2.318    0.702    0.524   50.814
  350.000    2.318    0.639    0.523   51.395
  350.250    2.318    0.611    0.511   54.317
  350.500    2.318    0.572    0.480   55.478
  350.750    2.318    0.559    0.455   56.051
  351.000    2.318    0.584    0.466   56.620
  351.250    2.277    0.589    0.490   56.604
  351.500    2.235    0.635    0.509   57.180
  351.750    2.195    0.664    0.512   57.749
  352.000    2.155    0.621    0.509   57.737
  352.250    2.116    0.593    0.499   58.310
  352.500    2.078    0.570    0.492   58.883
  352.750    2.041    0.540    0.492   58.863
  353.000    2.041    0.537    0.493   58.847
  353.250    2.041    0.562    0.500   58.828
  353.500    2.041    0.607    0.511   57.635
  353.750    2.041    0.624    0.528   57.035
  354.000    2.004    0.597    0.548   56.431
  354.250    2.004    0.571    0.539   55.238
  354.500    1.968    0.560    0.537   54.630
  354.750    1.968    0.572    0.544   55.203
  355.000    1.933    0.610    0.561   55.183
  355.250    1.898    0.637    0.596   55.164
  355.500    1.898    0.645    0.605   55.152
  355.750    1.863    0.647    0.615   55.140
  356.000    1.830    0.641    0.588   55.124
  356.250    1.830    0.628    0.536   55.105
  356.500    1.797    0.619    0.564   54.501
  356.750    1.797    0.619    0.569   53.893
  357.000    1.797    0.617    0.558   53.289
  357.250    1.797    0.612    0.545   51.508
  357.500    1.797    0.600    0.529   50.315
  357.750    1.830    0.587    0.512   49.123
  358.000    1.864    0.586    0.513   49.107
  358.250    1.864    0.633    0.518   50.268
  358.500    1.864    0.645    0.530   52.610
  358.750    1.864    0.656    0.534   54.359
  359.000    1.864    0.656    0.539   56.101
  359.250    1.831    0.606    0.534   58.443
  359.500    1.831    0.573    0.534   60.192
  359.750    1.798    0.544    0.538   61.353
  360.000    1.798    0.550    0.532   61.926
  360.250    1.831    0.578    0.528   60.733
  360.500    1.899    0.646    0.533   59.537
  360.750    1.899    0.598    0.540   58.933
  361.000    1.970    0.573    0.537   58.917
  361.250    1.970    0.546    0.523   60.078
  361.500    2.007    0.518    0.522   60.647
  361.750    1.970    0.486    0.515   60.039
  362.000    2.545    0.505    0.514   60.027
  362.250    2.545    0.601    0.532   59.423
  362.500    2.545    0.629    0.547   59.407
  362.750    2.499    0.639    0.559   59.391
  363.000    2.239    0.586    0.567   59.380
  363.250    2.281    0.559    0.572   59.941
  363.500    2.366    0.538    0.569   60.521
  363.750    2.410    0.513    0.557   63.447
  364.000    2.454    0.507    0.536   69.311
  364.250    2.454    0.553    0.495   71.061
  364.500    2.410    0.603    0.489   72.222
  364.750    2.366    0.631    0.487   72.202
  365.000    2.366    0.625    0.485   71.606
  365.250    2.641    0.572    0.482   69.825
  365.500    3.537    0.332    0.439   66.275
  365.750    3.947    0.315    0.384   71.555
  366.000    4.325    0.312    0.375   76.242
  366.250    4.915    0.321    0.381   77.992
  366.500    4.915    0.344    0.394   85.629
  366.750    4.653    0.353    0.408   93.850
  367.000    3.948    0.378    0.430   92.654
  367.250    3.670    0.408    0.447   89.108
  367.500    3.670    0.421    0.462   87.331
  367.750    3.738    0.409    0.469   83.197
  368.000    3.948    0.393    0.451   76.116
  368.250    4.095    0.382    0.433   69.629
  368.500    4.326    0.376    0.433   66.083
  368.750    4.654    0.369    0.439   63.121
  369.000    4.917    0.359    0.456   59.575
  369.250    5.194    0.351    0.464   57.794
  369.500    5.290    0.340    0.461   57.779
  369.750    5.290    0.333    0.455   58.936
  370.000    5.290    0.323    0.435   60.101
  370.250    5.291    0.310    0.407   62.438
  370.500    5.195    0.269    0.386   65.365
  370.750    5.009    0.247    0.368   70.056
  371.000    5.009    0.234    0.365   68.859
  371.250    5.009    0.234    0.366   67.671
  371.500    5.102    0.240    0.374   65.294
  371.750    5.196    0.258    0.381   64.105
  372.000    5.102    0.310    0.391   62.913
  372.250    5.010    0.375    0.388   62.309
  372.500    4.573    0.414    0.373   78.175
  372.750    4.174    0.447    0.380   75.810
  373.000    3.607    0.485    0.404   72.264
  373.250    3.477    0.523    0.492   72.248
  373.500    3.174    0.551    0.495   90.472
  373.750    3.060    0.563    0.487   89.864
  374.000    2.897    0.544    0.466   86.322
  374.250    2.793    0.558    0.470   81.595
  374.500    2.897    0.528    0.477   76.869
  374.750    3.117    0.473    0.443   73.327
  375.000    3.478    0.435    0.408   71.546
  375.250    3.543    0.406    0.433   70.353
  375.500    3.543    0.370    0.442   67.984
  375.750    3.479    0.369    0.438   62.665
  376.000    3.118    0.417    0.433   62.065
  376.250    3.006    0.546    0.433   60.873
  376.500    2.694    0.644    0.446   60.269
  376.750    2.504    0.669    0.481   58.488
  377.000    2.551    0.681    0.498   56.707
  377.250    2.744    0.656    0.514   54.922
  377.500    4.027    0.629    0.512   53.730
  377.750    4.412    0.603    0.485   52.537
  378.000    4.924    0.549    0.389   50.756
  378.250    5.699    0.463    0.369   48.387
