~VERSION INFORMATION
 VERS.                 2.0:   CWLS LOG ASCII STANDARD -VERSION 2.0
 WRAP.                  NO:   ONE LINE PER DEPTH STEP
~WELL INFORMATION BLOCK
#MNEM.UNIT           DATA                    DESCRIPTION OF MNEMONIC
#---------    -------------------            -------------------------------
# Generated from Intellog Unique Number	CS_73_76/WELL/1080
WELL.         BOW VALLEY EXPLORATION         : Well_name    - WELL
LOC .         00/06-28-076-17W4/0            : Location     - LOCATION
UWI .         00/06-28-076-17W4/0            : Uwi          - UNIQUE WELL ID
ENTR.         SP                             : Entered      - ENTERED BY
SRVC.         SCHLUMBERGER                   : Scn          - SERVICE COMPANY
STRT.M        325                            : top_depth    - START DEPTH
STOP.M        542                            : bot_depth    - STOP DEPTH
STEP.M        0.25                           : increment    - STEP LENGTH
 NULL. -999.2500:NULL Value
~CURVE INFORMATION BLOCK
#MNEM UNIT       ERCB CURVE CODE    CURVE DESCRIPTION
#-----------   ------------------   ----------------------------------
DEPT.M        00 001 00 00         : DEPTH        - DEPTH
DPHI.V/V      00 890 00 00         : PHID         - DENSITY POROSITY (LIMESTONE)
NPHI.V/V      00 330 00 00         : PHIN         - NEUTRON POROSITY (LIMESTONE)
GR  .API      00 310 00 00         : GR           - GAMMA RAY
ILD .OHMM     00 120 00 00         : RESD         - DEEP RESISTIVITY (DIL)
~PARAMETER INFORMATION
#MNEM.UNIT           DATA             DESCRIPTION OF MNEMONIC
#---------         -----------     ------------------------------
GL  .M        692.7                : gl           - GROUND LEVEL ELEVATION
EREF.M        696                  : kb           - ELEVATION OF DEPTH REFERENCE
DATM.M        692.7                : datum        - DATUM ELEVATION
TDD .M        545                  : tdd          - TOTAL DEPTH DRILLER
RUN .         ONE                  : Run          - RUN NUMBER
ENG .         BILL                 : Engineer     - RECORDING ENGINEER
WIT .         JIM                  : Witness      - WITNESSED BY
MUD .         GEL                  : Mud_type     - MUD TYPE
MATR.         LIMESTONE            : Logunit      - NEUTRON MATRIX
TMAX.C        24                   : BHT          - MAXIMUM RECORDED TEMPERATURE
BHTD.M        545                  : BHTDEP       - MAXIMUM RECORDED TEMPERATURE
MATR.         1                    : LOGUNIT      - NEUTRON MATRIX
RMT .C        25                   : MDTP         - TEMPERATURE OF MUD
NEUT.         1                    : NEUTRON      - NEUTRON TYPE
RESI.         0                    : RESIST       - RESISTIVITY TYPE
RMC .OHMM     0.25                 : RMC          - RESISTIVITY OF MUD CAKE
RMF .OHMM     0.25                 : RMF          - RESISTIVITY OF MUD FILTRATE
SUFT.C        15                   : SUFT         - SURFACE TEMPERATURE
~A  DEPTH     PHID     PHIN       GR     RESD
# ...
  455.500    0.280    0.473   94.005    4.882
  455.750    0.250    0.445   92.786    4.975
  456.000    0.241    0.463   92.781    4.977
  456.250    0.250    0.469   95.205    4.978
  456.500    0.255    0.465   93.378    4.980
  456.750    0.256    0.462   92.766    4.801
  457.000    0.253    0.459   92.760    4.802
  457.250    0.256    0.458   91.542    4.804
  457.500    0.250    0.448   90.928    4.806
  457.750    0.233    0.446   93.352    4.897
  458.000    0.253    0.457   95.171    4.990
  458.250    0.251    0.447   93.950    4.992
  458.500    0.237    0.456   92.731    4.994
  458.750    0.234    0.445   92.725    4.995
  459.000    0.259    0.433   93.328    4.997
  459.250    0.245    0.428   94.539    4.907
  459.500    0.255    0.444   92.711    4.643
  459.750    0.259    0.450   91.492    4.476
  460.000    0.272    0.462   90.273    4.395
  460.250    0.239    0.470   89.053    4.397
  460.500    0.262    0.479   87.227    4.399
  460.750    0.286    0.473   84.186    4.482
  461.000    0.312    0.469   78.108    4.740
  461.250    0.329    0.471   73.244    5.106
  461.500    0.343    0.452   67.775    5.815
  461.750    0.353    0.437   59.875    6.381
  462.000    0.356    0.440   55.619    7.267
  462.250    0.346    0.427   53.185    8.275
  462.500    0.353    0.423   53.180    9.600
  462.750    0.349    0.428   54.390    9.965
  463.000    0.343    0.447   56.207    9.969
  463.250    0.328    0.462   58.023    9.260
  463.500    0.349    0.467   60.448    8.444
  463.750    0.353    0.465   62.265    7.421
  464.000    0.355    0.469   64.688    7.153
  464.250    0.356    0.473   65.899    6.523
  464.500    0.343    0.465   65.894    6.059
  464.750    0.344    0.458   69.532    5.841
  465.000    0.343    0.465   72.565    5.527
  465.250    0.328    0.462   72.560    5.328
  465.500    0.313    0.477   71.947    5.232
  465.750    0.306    0.485   70.728    5.137
  466.000    0.296    0.478   72.545    5.139
  466.250    0.287    0.461   74.968    5.047
  466.500    0.281    0.456   76.785    4.956
  466.750    0.302    0.435   79.211    4.777
  467.000    0.307    0.446   81.635    4.691
  467.250    0.314    0.460   79.200    4.607
  467.500    0.322    0.465   76.158    4.441
  467.750    0.333    0.478   74.333    4.361
  468.000    0.338    0.487   71.898    4.283
  468.250    0.339    0.479   73.108    4.283
  468.500    0.332    0.489   74.317    4.285
  468.750    0.325    0.505   72.491    4.287
  469.000    0.333    0.491   70.057    4.288
  469.250    0.324    0.490   68.231    4.289
  469.500    0.316    0.483   67.011    4.213
  469.750    0.319    0.491   67.613    4.213
  470.000    0.332    0.500   68.213    4.216
  470.250    0.336    0.489   68.817    4.217
  470.500    0.338    0.487   71.242    4.218
  470.750    0.340    0.490   73.059    4.220
  471.000    0.343    0.505   75.483    4.221
  471.250    0.355    0.496   74.264    4.222
  471.500    0.351    0.498   68.794    4.303
  471.750    0.337    0.478   67.574    4.305
  472.000    0.338    0.467   66.962    4.306
  472.250    0.345    0.471   67.565    4.307
  472.500    0.347    0.469   68.167    4.309
  472.750    0.346    0.472   66.340    4.310
  473.000    0.334    0.475   67.550    4.311
  473.250    0.336    0.478   69.974    4.314
  473.500    0.345    0.470   69.362    4.315
  473.750    0.349    0.476   69.964    4.316
  474.000    0.353    0.483   70.567    4.317
  474.250    0.356    0.466   68.740    4.319
  474.500    0.353    0.464   68.128    4.320
  474.750    0.357    0.465   70.552    4.322
  475.000    0.353    0.464   70.547    4.323
  475.250    0.351    0.466   67.506    4.406
  475.500    0.353    0.477   67.501    4.407
  475.750    0.350    0.487   66.281    4.409
  476.000    0.345    0.463   65.061    4.492
  476.250    0.340    0.453   62.628    4.494
  476.500    0.348    0.448   62.623    4.580
  476.750    0.350    0.444   62.010    4.666
  477.000    0.347    0.469   62.006    5.121
  477.250    0.339    0.460   59.572    6.052
  477.500    0.297    0.446   57.745    8.449
  477.750    0.247    0.425   57.133   10.753
  478.000    0.104    0.191   53.484   13.684
  478.250    0.110    0.200   51.658   13.945
  478.500    0.114    0.206   50.438   12.029
  478.750    0.149    0.227   51.041    9.115
  479.000    0.195    0.276   52.858    7.437
  479.250    0.244    0.355   55.889    5.848
  479.500    0.290    0.451   59.528    5.138
  479.750    0.319    0.479   63.167    4.773
  480.000    0.346    0.489   61.947    4.517
  480.250    0.338    0.500   64.372    4.519
  480.500    0.335    0.506   66.189    4.605
  480.750    0.335    0.514   68.006    4.606
  481.000    0.335    0.500   69.214    4.694
  481.250    0.330    0.487   67.995    4.695
  481.500    0.326    0.471   65.561    4.786
  481.750    0.332    0.460   64.948    4.877
  482.000    0.332    0.457   63.122    4.614
  482.250    0.332    0.459   61.296    4.702
  482.500    0.324    0.457   60.076    4.703
  482.750    0.343    0.453   58.856    4.793
  483.000    0.345    0.463   58.852    4.795
  483.250    0.344    0.468   62.490    4.797
  483.500    0.339    0.468   66.130    4.798
  483.750    0.329    0.473   66.125    4.799
  484.000    0.328    0.460   66.727    4.713
  484.250    0.332    0.453   67.330    4.543
  484.500    0.335    0.450   66.717    4.299
  484.750    0.324    0.457   72.176    4.222
  485.000    0.327    0.463   72.780    4.223
  485.250    0.332    0.478   75.812    4.304
  485.500    0.327    0.486   80.058    4.305
  485.750    0.300    0.468   78.839    4.469
  486.000    0.287    0.446   79.440    4.554
  486.250    0.260    0.450   81.258    4.641
  486.500    0.264    0.452   83.075    4.643
  486.750    0.275    0.453   84.285    4.644
  487.000    0.264    0.455   86.709    4.560
  487.250    0.271    0.453   86.704    4.315
  487.500    0.267    0.453   88.521    4.083
  487.750    0.259    0.452   90.337    3.936
  488.000    0.266    0.461   93.368    3.865
  488.250    0.249    0.467   95.794    3.939
  488.500    0.235    0.472   99.432    4.014
  488.750    0.232    0.468  103.071    4.245
  489.000    0.231    0.462  109.746    4.746
  489.250    0.240    0.470  105.490    5.112
  489.500    0.224    0.455  101.841    5.610
  489.750    0.244    0.435  101.837    6.272
  490.000    0.248    0.412  100.010    6.632
  490.250    0.249    0.406   93.325    6.884
  490.500    0.248    0.413   88.463    7.015
  490.750    0.236    0.429   79.348    7.018
  491.000    0.080    0.430   73.271    6.765
  491.250    0.136    0.406   65.371    6.401
  491.500    0.157    0.332   67.188    6.058
  491.750    0.195    0.364   89.653    5.839
  492.000    0.249    0.402   93.898    5.734
  492.250    0.252    0.428   92.679    6.177
  492.500    0.265    0.452   90.245    6.654
  492.750    0.249    0.451   87.204    7.169
  493.000    0.245    0.457   84.769    7.171
  493.250    0.228    0.441   85.372    6.912
  493.500    0.239    0.420   88.403    6.421
  493.750    0.232    0.430   89.006    6.423
  494.000    0.229    0.430   89.000    6.426
  494.250    0.225    0.435   88.995    6.428
  494.500    0.230    0.456   90.206    6.551
  494.750    0.207    0.460   88.986    6.553
  495.000    0.207    0.452   87.159    6.803
  495.250    0.228    0.441   85.941    6.805
  495.500    0.224    0.433   85.328    6.807
  495.750    0.196    0.420   90.181    6.561
  496.000    0.203    0.411   94.427    5.983
  496.250    0.197    0.410   96.245    5.768
  496.500    0.205    0.415   95.025    5.560
  496.750    0.212    0.427   95.626    5.261
  497.000    0.218    0.437   96.229    5.167
  497.250    0.209    0.455   96.831    5.168
  497.500    0.203    0.467   97.433    5.076
  497.750    0.217    0.444   98.036    4.985
  498.000    0.233    0.442   98.639    4.895
  498.250    0.222    0.448   99.849    4.806
  498.500    0.208    0.442   98.022    4.719
  498.750    0.214    0.433   98.624    4.634
