~VERSION INFORMATION
 VERS.                 2.0:   CWLS LOG ASCII STANDARD -VERSION 2.0
 WRAP.                  NO:   ONE LINE PER DEPTH STEP
~WELL INFORMATION BLOCK
#MNEM.UNIT           DATA                    DESCRIPTION OF MNEMONIC
#---------    -------------------            -------------------------------
# Generated from Intellog Unique Number	CW_76_78/WELL/2801
WELL.         07-25-077-24W4                 : Well_name    - WELL
LOC .         00/07-25-077-24W4/0            : Location     - LOCATION
UWI .         00/07-25-077-24W4/0            : Uwi          - UNIQUE WELL ID
ENTR.         JJ                             : Entered      - ENTERED BY
SRVC.         SCHLUMBERGER                   : Scn          - SERVICE COMPANY
DATE.         9 FEB 71                       : Date         - LOG DATE
STRT.M        487.68                         : top_depth    - START DEPTH
STOP.M        636.93                         : bot_depth    - STOP DEPTH
STEP.M        0.25                           : increment    - STEP LENGTH
 NULL. -999.2500:NULL Value
~CURVE INFORMATION BLOCK
#MNEM UNIT       ERCB CURVE CODE    CURVE DESCRIPTION
#-----------   ------------------   ----------------------------------
DEPT.M        00 001 00 00         : DEPTH        - DEPTH
ILD .OHMM     00 120 00 00         : RESD         - DEEP RESISTIVITY (DIL)
CALI.MM       00 280 01 00         : CAL          - CALIPER
GR  .API      00 310 00 00         : GR           - GAMMA RAY
NPHI.V/V      00 330 00 00         : PHIN         - NEUTRON POROSITY (SANDSTONE)
DELT.US/F     00 520 00 00         : DELT         - SONIC TRAVEL TIME
~PARAMETER INFORMATION
#MNEM.UNIT           DATA             DESCRIPTION OF MNEMONIC
#---------         -----------     ------------------------------
GL  .M        667.573              : gl           - GROUND LEVEL ELEVATION
EREF.M        670.865              : kb           - ELEVATION OF DEPTH REFERENCE
DATM.M        670.865              : datum        - DATUM ELEVATION
TDD .M        637.032              : tdd          - TOTAL DEPTH DRILLER
RUN .         ONE                  : Run          - RUN NUMBER
ENG .         KEOWN                : Engineer     - RECORDING ENGINEER
WIT .         KELLY                : Witness      - WITNESSED BY
BASE.         EDM                  : Branch       - HOME BASE OF LOGGING UNIT
MUD .         GEL                  : Mud_type     - MUD TYPE
MATR.         SANDSTONE            : Logunit      - NEUTRON MATRIX
TMAX.C        31.6667              : BHT          - MAXIMUM RECORDED TEMPERATURE
BHTD.M        637.946              : BHTDEP       - MAXIMUM RECORDED TEMPERATURE
RMT .C        21.1111              : MDTP         - TEMPERATURE OF MUD
MUDD.KG/M     1128                 : MWT          - MUD DENSITY
NEUT.         0                    : NEUTRON      - NEUTRON TYPE
RESI.         0                    : RESIST       - RESISTIVITY TYPE
RM  .OHMM     3.56                 : RM           - RESISTIVITY OF MUD
RMC .OHMM     0                    : RMC          - RESISTIVITY OF MUD CAKE
RMF .OHMM     3.51                 : RMF          - RESISTIVITY OF MUD FILTRATE
SUFT.C        5                    : SUFT         - SURFACE TEMPERATURE
~A  DEPTH     RESD      CAL       GR     PHIN     DELT
# ...
  524.180   13.236  230.398   68.059    0.243  283.167
  524.430   12.135  230.410   73.941    0.226  325.048
  524.680   11.519  230.629   78.449    0.255  355.673
  524.930   11.204  230.647   75.115    0.286  356.856
  525.180   11.019  230.659   74.917    0.294  348.163
  525.430   10.929  230.570   76.288    0.285  348.427
  525.680   10.647  230.376   76.484    0.302  354.714
  525.930   10.493  230.392   74.522    0.291  357.984
  526.180   10.776  230.094   71.971    0.283  366.491
  526.430   11.037  230.005   72.166    0.272  369.192
  526.680   11.162  229.611   72.361    0.290  352.704
  526.930   11.175  229.518   70.399    0.277  328.884
  527.180   11.252  229.640   72.359    0.263  331.243
  527.430   10.867  229.443   80.985    0.269  368.163
  527.680   10.219  229.664   83.337    0.283  371.502
  527.930    9.674  230.398   80.786    0.290  370.195
  528.180    9.456  233.606   81.766    0.289  366.461
  528.430    9.628  235.267   83.529    0.291  363.794
  528.680    9.267  232.089   79.606    0.305  359.731
  528.930    9.361  229.734   74.507    0.305  359.668
  529.180    9.994  229.128   73.526    0.305  362.303
  529.430   10.813  229.452   78.034    0.294  363.017
  529.680   11.519  232.350   75.876    0.276  355.965
  529.930   12.338  235.145   71.365    0.242  322.008
  530.180   12.613  234.029   61.560    0.216  281.050
  530.430   12.045  232.086   61.363    0.197  251.803
  530.680   11.245  231.788   67.048    0.242  258.022
  530.930   10.334  233.245   77.243    0.289  298.731
  531.180    9.885  236.044   83.516    0.295  342.183
  531.430    9.555  237.703   83.123    0.282  363.777
  531.680    9.386  236.997   85.278    0.283  359.535
  531.930    9.654  235.259   86.650    0.292  355.409
  532.180    9.810  234.139   86.060    0.289  362.811
  532.430    9.616  234.153   83.314    0.292  362.546
  532.680    9.494  234.165   81.548    0.302  361.842
  532.930    9.571  233.563   81.154    0.306  361.834
  533.180    9.823  233.681   83.506    0.301  363.413
  533.430    9.996  233.589   78.995    0.299  370.293
  533.680    9.683  233.504   73.700    0.291  374.688
  533.930    9.401  233.104   71.738    0.279  368.475
  534.180    9.366  233.017   80.756    0.260  343.482
  534.430    9.092  233.855   85.265    0.300  323.329
  534.680    8.732  234.277   89.970    0.312  357.494
  534.930    8.641  235.321   90.360    0.298  370.256
  535.180    8.980  235.954   89.379    0.306  372.220
  535.430    9.154  236.482   87.025    0.309  370.848
  535.680    9.222  236.909   81.533    0.297  372.094
  535.930    9.372  237.233   78.199    0.298  362.556
  536.180    9.448  236.835   81.139    0.297  357.975
  536.430    9.230  236.436   85.059    0.289  357.719
  536.680    8.932  235.936   87.999    0.314  366.231
  536.930    9.320  235.334   86.625    0.293  368.389
  537.180    9.900  234.829   83.095    0.308  368.659
  537.430   10.207  234.329   77.799    0.300  374.948
  537.680   10.348  234.033   73.484    0.286  378.357
  537.930   10.289  233.639   70.150    0.295  359.452
  538.180   10.318  232.930   67.207    0.249  324.579
  538.430    9.901  232.430   72.501    0.279  313.717
  538.680    9.324  232.136   80.146    0.301  366.728
  538.930    9.242  231.736   84.067    0.318  375.168
  539.180    9.486  232.063   81.713    0.329  372.562
  539.430    9.579  232.281   81.123    0.322  374.922
  539.680    9.497  232.600   78.573    0.298  364.192
  539.930    9.239  233.028   75.630    0.293  360.141
  540.180    9.054  234.280   80.335    0.301  364.662
  540.430    9.083  235.011   83.863    0.304  373.824
  540.680    9.247  236.158   85.627    0.295  377.800
  540.930    9.435  237.304   87.391    0.307  379.632
  541.180    9.808  238.246   89.350    0.331  380.372
  541.430   10.179  233.730   86.408    0.354  374.036
  541.680   10.558  229.932   76.406    0.311  360.633
  541.930   11.082  227.887   71.307    0.296  349.500
  542.180   11.645  227.798   72.286    0.292  347.551
  542.430   12.399  227.912   75.814    0.288  350.613
  542.680   13.400  228.030   75.813    0.304  350.245
  542.930   14.791  228.250   68.753    0.317  331.797
  543.180   16.207  229.090   66.791    0.284  299.280
  543.430   16.746  229.105   62.672    0.248  285.075
  543.680   16.432  229.527   53.259    0.232  276.056
  543.930   14.789  229.851   56.003    0.220  281.880
  544.180   13.351  229.969   60.512    0.231  302.500
  544.430   11.867  229.675   68.158    0.263  323.379
  544.680   11.306  229.996   72.470    0.288  353.095
  544.930   10.793  230.421   74.038    0.293  354.394
  545.180   10.241  232.393   75.409    0.307  355.456
  545.430    9.705  235.807   81.486    0.313  358.269
  545.680    9.496  237.880   83.838    0.300  357.823
  545.930    9.436  240.162   81.876    0.303  359.073
  546.180    9.919  241.102   84.816    0.298  358.024
  546.430   11.215  241.217   86.972    0.290  363.003
  546.680   13.483  237.113   82.657    0.281  369.617
  546.930   16.388  231.050   75.008    0.278  356.664
  547.180   18.306  228.074   70.890    0.260  330.042
  547.430   21.753  227.885   67.947    0.239  313.620
  547.680   26.853  228.207   65.593    0.210  291.379
  547.930   27.490  228.219   63.631    0.168  261.871
  548.180   24.223  227.204   60.689    0.152  244.921
  548.430   19.203  225.159   65.393    0.139  230.665
  548.680   18.576  223.527   72.451    0.166  250.563
  548.930   15.113  223.846   77.156    0.217  280.794
  549.180   13.857  225.921   80.880    0.261  307.633
  549.430   13.094  228.612   84.408    0.286  333.551
  549.680   12.623  230.892   87.544    0.269  336.158
  549.930   11.899  232.764   88.327    0.262  338.135
  550.180   10.715  233.907   88.914    0.263  340.488
  550.430   10.380  234.436   91.070    0.256  342.856
  550.680   11.007  233.935   93.814    0.279  349.079
  550.930   11.959  229.934   84.401    0.288  358.314
  551.180   12.997  227.166   74.988    0.263  365.255
  551.430   14.323  225.944   68.516    0.227  354.721
  551.680   15.457  226.162   72.436    0.204  301.528
  551.930   15.694  226.486   76.553    0.216  283.013
  552.180   13.779  226.812   79.297    0.239  311.149
  552.430   12.539  227.031   80.472    0.242  326.603
  552.680   11.799  227.249   80.863    0.254  334.519
  552.930   11.362  227.262   81.254    0.251  333.811
  553.180   11.003  227.071   80.469    0.262  338.195
  553.430   10.660  226.675   77.330    0.289  347.816
  553.680   10.468  226.278   72.427    0.305  359.534
  553.930   10.435  226.289   73.994    0.301  363.595
  554.180   11.062  226.508   75.954    0.289  360.054
  554.430   11.640  228.275   78.502    0.282  357.460
  554.680   12.211  229.317   81.834    0.300  353.801
  554.930   12.139  229.950   74.774    0.284  358.579
  555.180   11.661  230.893   68.890    0.265  345.301
  555.430   10.913  231.937   70.458    0.237  321.162
  555.680   10.181  232.670   78.496    0.273  319.986
  555.930    9.473  233.406   80.455    0.288  355.456
  556.180    9.012  233.627   81.238    0.276  367.567
  556.430    8.843  234.260   82.806    0.286  373.721
  556.680    8.794  234.991   82.608    0.293  370.452
  556.930    8.976  235.524   84.176    0.296  372.881
  557.180    9.315  235.536   86.724    0.287  377.072
  557.430    9.783  235.549   88.487    0.286  380.743
  557.680   10.155  235.150   84.957    0.296  375.641
  557.930   10.162  233.723   75.740    0.283  350.064
  558.180   10.075  231.780   69.660    0.265  348.953
  558.430   10.231  229.839   57.894    0.270  366.562
  558.680   10.794  228.511   59.265    0.286  372.784
  558.930    9.816  227.598   62.009    0.289  362.120
  559.180    8.274  226.479   58.283    0.275  352.704
  559.430    7.637  225.980   52.399    0.282  363.505
  559.680    7.207  226.713   46.712    0.298  388.765
  559.930    6.999  225.696   49.456    0.324  415.731
  560.180    6.609  227.462   54.160    0.323  411.615
  560.430    7.013  226.858   46.316    0.282  380.078
