~VERSION INFORMATION
 VERS.                 2.0:   CWLS LOG ASCII STANDARD -VERSION 2.0
 WRAP.                  NO:   ONE LINE PER DEPTH STEP
~WELL INFORMATION BLOCK
#MNEM.UNIT           DATA                    DESCRIPTION OF MNEMONIC
#---------    -------------------            -------------------------------
# Generated from Intellog Unique Number	CS_77_79/WELL/907
WELL.         HOME OIL COMPANY LIMITED       : Well_name    - WELL
LOC .         00/07-25-077-06W4/0            : Location     - LOCATION
UWI .         00/07-25-077-06W4/0            : Uwi          - UNIQUE WELL ID
ENTR.         SP                             : Entered      - ENTERED BY
SRVC.         SCHLUMBERGER                   : Scn          - SERVICE COMPANY
STRT.M        145                            : top_depth    - START DEPTH
STOP.M        420                            : bot_depth    - STOP DEPTH
STEP.M        0.25                           : increment    - STEP LENGTH
 NULL. -999.2500:NULL Value
~CURVE INFORMATION BLOCK
#MNEM UNIT       ERCB CURVE CODE    CURVE DESCRIPTION
#-----------   ------------------   ----------------------------------
DEPT.M        00 001 00 00         : DEPTH        - DEPTH
ILD .OHMM     00 120 00 00         : RESD         - DEEP RESISTIVITY (DIL)
DPHI.V/V      00 890 00 00         : PHID         - DENSITY POROSITY (LIMESTONE)
NPHI.V/V      00 330 00 00         : PHIN         - NEUTRON POROSITY (LIMESTONE)
GR  .API      00 310 00 00         : GR           - GAMMA RAY
~PARAMETER INFORMATION
#MNEM.UNIT           DATA             DESCRIPTION OF MNEMONIC
#---------         -----------     ------------------------------
GL  .M        565.83               : gl           - GROUND LEVEL ELEVATION
EREF.M        568.85               : kb           - ELEVATION OF DEPTH REFERENCE
DATM.M        565.83               : datum        - DATUM ELEVATION
TDD .M        420.8                : tdd          - TOTAL DEPTH DRILLER
RUN .         ONE                  : Run          - RUN NUMBER
ENG .         BILL                 : Engineer     - RECORDING ENGINEER
WIT .         JIM                  : Witness      - WITNESSED BY
MUD .         GEL                  : Mud_type     - MUD TYPE
MATR.         LIMESTONE            : Logunit      - NEUTRON MATRIX
TMAX.C        16                   : BHT          - MAXIMUM RECORDED TEMPERATURE
BHTD.M        420.8                : BHTDEP       - MAXIMUM RECORDED TEMPERATURE
MATR.         1                    : LOGUNIT      - NEUTRON MATRIX
RMT .C        25                   : MDTP         - TEMPERATURE OF MUD
NEUT.         1                    : NEUTRON      - NEUTRON TYPE
RESI.         0                    : RESIST       - RESISTIVITY TYPE
RMC .OHMM     0.25                 : RMC          - RESISTIVITY OF MUD CAKE
RMF .OHMM     0.25                 : RMF          - RESISTIVITY OF MUD FILTRATE
SUFT.C        15                   : SUFT         - SURFACE TEMPERATURE
~A  DEPTH     RESD     PHID     PHIN       GR
  145.000    2.962    0.272    0.593  111.602
  145.250    2.964    0.272    0.493  107.961
  145.500    2.856    0.267    0.466  112.854
  145.750    2.702    0.267    0.476  108.605
  146.000    2.703    0.279    0.487  106.179
  146.250    2.704    0.285    0.513  115.954
  146.500    2.656    0.273    0.556  111.702
  146.750    2.707    0.229    0.541  110.497
  147.000    2.760    0.219    0.548  105.027
  147.250    2.762    0.265    0.580  107.488
  147.500    2.763    0.258    0.629  107.499
  147.750    2.765    0.257    0.602  107.520
  148.000    2.766    0.267    0.567  111.191
  148.250    2.717    0.275    0.541  110.597
  148.500    2.718    0.263    0.565  111.835
  148.750    2.669    0.269    0.576  108.193
  149.000    2.670    0.258    0.541  103.329
  149.250    2.622    0.255    0.495  100.297
  149.500    2.673    0.261    0.498  107.634
  149.750    2.674    0.248    0.515  105.822
  150.000    2.676    0.226    0.526  103.396
  150.250    2.728    0.200    0.507  106.466
  150.500    2.833    0.179    0.554  103.428
  150.750    2.998    0.221    0.580   97.958
  151.000    3.001    0.244    0.533  108.952
  151.250    3.002    0.229    0.561  110.798
  151.500    2.948    0.234    0.619  107.770
  151.750    3.005    0.222    0.507  109.002
  152.000    3.006    0.222    0.533  110.239
  152.250    3.008    0.227    0.519  111.472
  152.500    3.010    0.226    0.489  115.765
  152.750    3.185    0.223    0.497  116.385
  153.000    3.371    0.237    0.529  115.185
  153.250    3.568    0.233    0.538  119.467
  153.500    3.706    0.214    0.547  113.996
  153.750    3.849    0.213    0.524  109.135
  154.000    3.851    0.214    0.497  114.028
  154.250    3.853    0.208    0.495  112.826
  154.500    3.855    0.204    0.484  107.963
  154.750    3.716    0.217    0.471  105.542
  155.000    3.717    0.213    0.452  114.095
  155.250    3.650    0.226    0.448  118.380
  155.500    3.721    0.226    0.523  117.181
  155.750    4.326    0.214    0.577  115.366
  156.000    4.577    0.206    0.568  111.724
  156.250    5.420    0.208    0.569  111.130
  156.500    6.540    0.199    0.399  105.656
  156.750    7.601    0.000    0.254   89.208
  157.000    8.669    0.128    0.329   63.610
  157.250   11.273    0.185    0.352   48.381
  157.500   13.601    0.242    0.268   40.470
  157.750   15.513    0.182    0.291   43.537
  158.000   13.873    0.220    0.356   37.458
  158.250   11.948    0.202    0.362   50.280
  158.500    9.731    0.184    0.382   88.105
  158.750    8.226    0.214    0.444   99.712
  159.000    6.826    0.198    0.462  107.651
  159.250    5.879    0.209    0.390  116.816
  159.500    5.064    0.216    0.473  116.224
  159.750    4.614    0.215    0.548  114.411
  160.000    5.779    0.203    0.588  111.988
  160.250    8.100    0.281    0.553  103.466
  160.500   10.337    0.318    0.490   77.871
  160.750   12.471    0.329    0.451   68.129
  161.000   15.915    0.331    0.428   68.145
  161.250   18.496    0.322    0.446   67.553
  161.500   18.507    0.310    0.433   72.448
  161.750   16.863    0.293    0.396   78.564
  162.000   15.078    0.265    0.373   89.558
  162.250   13.233    0.235    0.409   98.722
  162.500   11.834    0.214    0.446  103.618
  162.750   11.194    0.060    0.475  106.071
  163.000   11.200    0.006    0.478  100.601
  163.250   12.537    0.060    0.451   91.470
  163.500   14.302    0.220    0.449   90.269
  163.750   15.715    0.254    0.383  100.040
  164.000   16.320    0.240    0.367  108.593
  164.250   16.953    0.252    0.419  105.567
  164.500   16.963    0.255    0.451  101.925
  164.750   16.970    0.242    0.441  100.110
  165.000   16.357    0.220    0.430  101.342
  165.250   14.627    0.201    0.422  113.556
  165.500   13.578    0.191    0.437  122.723
  165.750   12.846    0.194    0.464  129.447
  166.000   13.094    0.214    0.480  128.243
  166.250   14.118    0.237    0.496  112.403
  166.500   19.058    0.264    0.406   85.587
  166.750   23.872    0.307    0.377   65.478
  167.000   29.345    0.316    0.374   47.201
  167.250   34.754    0.330    0.395   35.018
  167.500   36.094    0.345    0.422   38.697
  167.750   35.445    0.328    0.409   43.589
  168.000   33.525    0.330    0.429   47.270
  168.250   32.310    0.322    0.468   52.771
  168.500   31.739    0.328    0.460   58.886
  168.750   30.585    0.334    0.438   61.342
  169.000   30.033    0.329    0.423   65.024
  169.250   29.486    0.324    0.412   69.304
  169.500   26.863    0.316    0.414   72.368
  169.750   22.291    0.308    0.434   78.484
  170.000   18.495    0.291    0.431   79.110
  170.250   16.539    0.260    0.412   77.911
  170.500   15.068    0.234    0.384   89.513
  170.750   12.272    0.218    0.420  100.505
  171.000   11.180    0.207    0.446  109.060
  171.250   10.188    0.217    0.464  117.002
  171.500    9.457    0.215    0.485  113.366
  171.750    9.286    0.216    0.492  111.547
  172.000    9.466    0.226    0.483  110.343
  172.250   10.800    0.218    0.463  121.337
  172.500   11.217    0.233    0.472  115.870
  172.750   12.793    0.284    0.470  111.004
  173.000   15.435    0.305    0.465   96.384
  173.250   19.698    0.325    0.469   67.738
  173.500   23.324    0.309    0.414   54.340
  173.750   25.628    0.317    0.375   50.696
  174.000   25.640    0.328    0.388   44.005
  174.250   24.257    0.324    0.406   48.904
  174.500   23.822    0.328    0.387   54.404
  174.750   23.828    0.305    0.371   56.864
  175.000   22.968    0.304    0.404   61.148
  175.250   22.134    0.314    0.411   63.602
  175.500   21.735    0.301    0.423   67.284
  175.750   19.803    0.302    0.426   74.007
  176.000   17.709    0.283    0.415   81.339
  176.250   15.253    0.269    0.387   89.284
  176.500   12.191    0.264    0.402   97.226
  176.750   10.116    0.193    0.450  107.000
  177.000    8.877    0.106    0.444  116.775
  177.250    7.505    0.134    0.453  127.159
  177.500    6.838    0.089    0.484  129.005
  177.750    6.469    0.126    0.473  124.142
  178.000    6.005    0.167    0.497  122.331
  178.250    5.787    0.188    0.511  127.837
  178.500    5.683    0.178    0.495  131.513
  178.750    5.903    0.198    0.537  128.478
  179.000    6.248    0.238    0.575  125.445
  179.250    6.863    0.292    0.495  105.336
  179.500    9.093    0.313    0.381   87.059
  179.750   11.604    0.269    0.438   73.658
  180.000   13.237    0.229    0.482   99.289
  180.250   12.998    0.210    0.445  106.624
  180.500   13.252    0.232    0.413   96.884
  180.750   14.559    0.282    0.451   86.532
  181.000   17.242    0.294    0.425   77.402
  181.250   19.301    0.303    0.420   66.439
  181.500   21.605    0.316    0.430   61.577
  181.750   24.188    0.301    0.424   65.255
  182.000   24.660    0.304    0.396   67.099
  182.250   23.325    0.292    0.404   73.826
  182.500   22.059    0.284    0.424   76.281
  182.750   20.101    0.266    0.441   75.078
  183.000   19.012    0.250    0.438   78.755
  183.250   17.988    0.242    0.414   84.870
  183.500   17.662    0.235    0.437   84.277
  183.750   17.340    0.229    0.449   85.512
  184.000   17.030    0.220    0.397   90.409
  184.250   17.363    0.230    0.425   91.034
  184.500   17.368    0.268    0.449   88.003
  184.750   18.041    0.247    0.412   83.747
  185.000   19.454    0.235    0.455   81.328
  185.250   22.189    0.275    0.487   86.829
  185.500   25.314    0.306    0.487   86.847
  185.750   27.298    0.328    0.461   66.739
  186.000   29.437    0.330    0.433   67.368
  186.250   30.569    0.324    0.406   72.872
  186.500   31.753    0.318    0.437   88.743
  186.750   31.771    0.324    0.486  143.035
  187.000   31.201    0.324    0.471  102.802
  187.250   30.074    0.328    0.433   83.304
  187.500   29.525    0.331    0.435   73.563
  187.750   28.458    0.326    0.461   77.850
  188.000   27.940    0.299    0.497   92.502
  188.250   27.442    0.307    0.511  104.104
