~VERSION INFORMATION
 VERS.                 2.0:   CWLS LOG ASCII STANDARD -VERSION 2.0
 WRAP.                  NO:   ONE LINE PER DEPTH STEP
~WELL INFORMATION BLOCK
#MNEM.UNIT           DATA                    DESCRIPTION OF MNEMONIC
#---------    -------------------            -------------------------------
# Generated from Intellog Unique Number	CS_73_76/WELL/619
WELL.         MATNARD EXPLORATION            : Well_name    - WELL
LOC .         00/06-07-073-11W4/0            : Location     - LOCATION
UWI .         00/06-07-073-11W4/0            : Uwi          - UNIQUE WELL ID
ENTR.         SP                             : Entered      - ENTERED BY
SRVC.         SCHLUMBERGER                   : Scn          - SERVICE COMPANY
STRT.M        295                            : top_depth    - START DEPTH
STOP.M        544                            : bot_depth    - STOP DEPTH
STEP.M        0.25                           : increment    - STEP LENGTH
 NULL. -999.2500:NULL Value
~CURVE INFORMATION BLOCK
#MNEM UNIT       ERCB CURVE CODE    CURVE DESCRIPTION
#-----------   ------------------   ----------------------------------
DEPT.M        00 001 00 00         : DEPTH        - DEPTH
ILD .OHMM     00 120 00 00         : RESD         - DEEP RESISTIVITY (DIL)
DPHI.V/V      00 890 00 00         : PHID         - DENSITY POROSITY (LIMESTONE)
NPHI.V/V      00 330 00 00         : PHIN         - NEUTRON POROSITY (LIMESTONE)
GR  .API      00 310 00 00         : GR           - GAMMA RAY
~PARAMETER INFORMATION
#MNEM.UNIT           DATA             DESCRIPTION OF MNEMONIC
#---------         -----------     ------------------------------
GL  .M        656.4                : gl           - GROUND LEVEL ELEVATION
EREF.M        659.2                : kb           - ELEVATION OF DEPTH REFERENCE
DATM.M        656.4                : datum        - DATUM ELEVATION
TDD .M        552.67               : tdd          - TOTAL DEPTH DRILLER
RUN .         ONE                  : Run          - RUN NUMBER
ENG .         BILL                 : Engineer     - RECORDING ENGINEER
WIT .         JIM                  : Witness      - WITNESSED BY
MUD .         GEL                  : Mud_type     - MUD TYPE
MATR.         LIMESTONE            : Logunit      - NEUTRON MATRIX
TMAX.C        19                   : BHT          - MAXIMUM RECORDED TEMPERATURE
BHTD.M        552.67               : BHTDEP       - MAXIMUM RECORDED TEMPERATURE
MATR.         1                    : LOGUNIT      - NEUTRON MATRIX
RMT .C        25                   : MDTP         - TEMPERATURE OF MUD
NEUT.         1                    : NEUTRON      - NEUTRON TYPE
RESI.         0                    : RESIST       - RESISTIVITY TYPE
RMC .OHMM     0.25                 : RMC          - RESISTIVITY OF MUD CAKE
RMF .OHMM     0.25                 : RMF          - RESISTIVITY OF MUD FILTRATE
SUFT.C        15                   : SUFT         - SURFACE TEMPERATURE
~A  DEPTH     RESD     PHID     PHIN       GR
# ...
  338.500   13.189    0.324    0.376   34.535
  338.750   13.188    0.324    0.368   35.132
  339.000   13.108    0.322    0.362   34.533
  339.250   13.107    0.318    0.359   33.935
  339.500   13.106    0.318    0.363   33.337
  339.750   13.184    0.318    0.373   32.141
  340.000   13.104    0.324    0.376   33.335
  340.250   12.945    0.330    0.378   34.529
  340.500   12.628    0.324    0.386   35.126
  340.750   12.469    0.316    0.391   35.126
  341.000   12.468    0.318    0.398   34.527
  341.250   12.546    0.326    0.394   33.929
  341.500   12.624    0.332    0.382   33.331
  341.750   12.623    0.313    0.378   33.330
  342.000   12.622    0.303    0.385   32.732
  342.250   12.542    0.304    0.380   32.133
  342.500   12.541    0.310    0.368   32.133
  342.750   12.540    0.312    0.366   32.132
  343.000   12.539    0.317    0.369   32.131
  343.250   12.459    0.319    0.372   33.325
  343.500   12.379    0.323    0.375   34.520
  343.750   12.378    0.335    0.379   34.519
  344.000   12.298    0.339    0.373   33.921
  344.250   12.297    0.328    0.373   32.127
  344.500   12.296    0.323    0.379   31.529
  344.750   12.374    0.318    0.373   32.126
  345.000   12.373    0.318    0.371   33.320
  345.250   12.135    0.318    0.371   33.917
  345.500   11.976    0.316    0.372   33.916
  345.750   11.896    0.311    0.378   33.318
  346.000   11.974    0.304    0.367   32.720
  346.250   11.973    0.301    0.362   34.512
  346.500   12.051    0.303    0.378   36.902
  346.750   11.892    0.296    0.389   38.694
  347.000   11.654    0.298    0.407   41.083
  347.250   11.653    0.311    0.421   41.083
  347.500   11.652    0.317    0.428   39.887
  347.750   11.414    0.324    0.421   38.691
  348.000   11.334    0.337    0.414   38.092
  348.250   11.254    0.345    0.412   38.092
  348.500   11.253    0.331    0.408   39.286
  348.750   11.252    0.320    0.418   39.883
  349.000   11.330    0.310    0.426   39.285
  349.250   11.408    0.312    0.430   38.687
  349.500   11.565    0.326    0.420   38.088
  349.750   11.564    0.338    0.416   38.087
  350.000   11.563    0.342    0.411   39.880
  350.250   11.483    0.329    0.414   41.074
  350.500   11.482    0.318    0.421   39.878
  350.750   11.481    0.309    0.438   39.280
  351.000   11.480    0.304    0.446   41.072
  351.250   11.400    0.312    0.436   42.864
  351.500   11.241    0.285    0.425   44.059
  351.750   11.003    0.268    0.432   48.839
  352.000   10.686    0.278    0.433   55.412
  352.250   10.132    0.267    0.453   69.753
  352.500    9.577    0.256    0.496   82.900
  352.750    8.865    0.255    0.499  115.170
  353.000    7.836    0.253    0.494  114.572
  353.250    7.045    0.249    0.488  116.962
  353.500    6.728    0.246    0.502  119.352
  353.750    6.648    0.255    0.499  113.375
  354.000    6.647    0.254    0.498  108.593
  354.250    6.567    0.252    0.507  105.007
  354.500    6.249    0.249    0.507  108.591
  354.750    6.090    0.255    0.510  110.384
  355.000    5.694    0.260    0.492  111.578
  355.250    5.377    0.262    0.481  103.211
  355.500    5.376    0.261    0.471  105.600
  355.750    5.770    0.260    0.470  106.198
  356.000    6.323    0.258    0.477  102.013
  356.250    6.875    0.254    0.468  100.220
  356.500    7.507    0.249    0.457   98.426
  356.750    8.059    0.258    0.449   97.828
  357.000    8.532    0.261    0.440   94.839
  357.250    9.005    0.261    0.444   91.850
  357.500    9.083    0.264    0.427   88.264
  357.750    9.161    0.268    0.425   85.275
  358.000    8.923    0.274    0.429   85.872
  358.250    8.685    0.272    0.430   85.872
  358.500    8.526    0.281    0.431   84.078
  358.750    8.683    0.292    0.439   88.261
  359.000    8.761    0.291    0.462   99.017
  359.250    8.760    0.285    0.446  104.992
  359.500    8.759    0.285    0.430   85.270
  359.750    8.759    0.279    0.439   79.294
  360.000    8.916    0.270    0.444   78.695
  360.250    9.073    0.268    0.437   81.085
  360.500    9.230    0.266    0.443   84.072
  360.750    9.308    0.257    0.448   90.645
  361.000    9.386    0.246    0.441   92.437
  361.250    9.306    0.241    0.433   96.619
  361.500    9.147    0.233    0.432   97.217
  361.750    8.909    0.229    0.435   99.009
  362.000    8.750    0.226    0.431  101.398
  362.250    8.590    0.235    0.429  101.995
  362.500    8.431    0.243    0.426   96.616
  362.750    8.352    0.243    0.438   99.006
  363.000    8.351    0.247    0.454  102.591
  363.250    8.508    0.255    0.444  103.188
  363.500    8.507    0.264    0.442  100.796
  363.750    8.506    0.274    0.435   96.612
  364.000    8.505    0.268    0.425   93.624
  364.250    8.346    0.274    0.422   94.221
  364.500    8.265    0.270    0.436   96.013
  364.750    8.264    0.274    0.457   96.610
  365.000    8.185    0.277    0.444   87.644
  365.250    8.421    0.287    0.423   83.461
  365.500    8.657    0.299    0.415   81.070
  365.750    9.051    0.304    0.411   78.081
  366.000    9.525    0.315    0.423   75.092
  366.250    9.840    0.316    0.436   75.091
  366.500   10.076    0.319    0.441   76.883
  366.750   10.391    0.325    0.437   78.078
  367.000   10.627    0.341    0.448   77.480
  367.250   10.942    0.351    0.443   76.881
  367.500   11.100    0.342    0.448   77.478
  367.750   11.020    0.338    0.455   78.075
  368.000   10.623    0.343    0.445   79.269
  368.250   10.464    0.327    0.437   80.464
  368.500   10.385    0.313    0.434   81.061
  368.750   10.305    0.308    0.436   83.450
  369.000   10.303    0.298    0.442   84.645
  369.250   10.065    0.294    0.449   85.242
  369.500    9.590    0.291    0.452   84.644
  369.750    9.115    0.284    0.460   82.850
  370.000    8.639    0.286    0.476   83.447
  370.250    8.322    0.281    0.469   84.641
  370.500    8.084    0.273    0.464   85.836
  370.750    8.557    0.274    0.462   85.835
  371.000    8.794    0.284    0.463   84.041
  371.250    8.319    0.277    0.454   83.443
  371.500    7.606    0.281    0.453   81.650
  371.750    7.447    0.285    0.462   81.649
  372.000    7.446    0.278    0.456   83.441
  372.250    7.524    0.264    0.456   86.428
  372.500    7.839    0.246    0.457   91.209
  372.750    8.549    0.226    0.441   94.196
  373.000    9.023    0.225    0.435   94.793
  373.250    9.496    0.225    0.417   87.023
  373.500   10.049    0.238    0.406   76.863
  373.750   10.364    0.254    0.379   70.289
  374.000   10.521    0.271    0.397   64.312
  374.250   10.204    0.287    0.419   70.884
  374.500    9.807    0.286    0.434   78.653
  374.750    9.569    0.289    0.441   77.457
  375.000    9.331    0.302    0.450   75.663
  375.250    9.330    0.305    0.449   75.065
  375.500    9.566    0.304    0.430   73.869
  375.750    9.645    0.304    0.416   73.270
  376.000    9.880    0.308    0.418   72.074
  376.250   10.038    0.311    0.420   71.476
  376.500   10.116    0.311    0.417   71.476
  376.750   10.273    0.311    0.416   70.877
  377.000   10.351    0.311    0.416   70.877
  377.250   10.350    0.310    0.422   72.669
  377.500   10.349    0.308    0.429   74.461
  377.750   10.348    0.306    0.431   67.886
  378.000   10.189    0.305    0.436   67.288
  378.250   10.109    0.298    0.441   69.678
  378.500   10.108    0.306    0.425   70.872
  378.750   10.186    0.311    0.420   68.481
  379.000   10.343    0.305    0.414   65.492
  379.250   10.500    0.303    0.423   64.894
  379.500   10.815    0.306    0.429   65.491
  379.750   11.052    0.309    0.421   66.088
  380.000   11.446    0.308    0.431   65.489
  380.250   11.919    0.303    0.428   63.696
  380.500   12.156    0.297    0.420   62.500
  380.750   12.550    0.298    0.413   63.097
  381.000   13.023    0.306    0.421   64.291
  381.250   13.181    0.318    0.440   63.693
  381.500   13.100    0.319    0.454   66.082
  381.750   13.020    0.321    0.466   67.875
