~VERSION INFORMATION
 VERS.                 2.0:   CWLS LOG ASCII STANDARD -VERSION 2.0
 WRAP.                  NO:   ONE LINE PER DEPTH STEP
~WELL INFORMATION BLOCK
#MNEM.UNIT           DATA                    DESCRIPTION OF MNEMONIC
#---------    -------------------            -------------------------------
# Generated from Intellog Unique Number	CS_73_76/WELL/2104
WELL.         CAVALIER ENERTY LIMITED        : Well_name    - WELL
LOC .         00/07-08-076-15W4/0            : Location     - LOCATION
UWI .         00/07-08-076-15W4/0            : Uwi          - UNIQUE WELL ID
ENTR.         SP                             : Entered      - ENTERED BY
SRVC.         SCHLUMBERGER                   : Scn          - SERVICE COMPANY
STRT.M        360                            : top_depth    - START DEPTH
STOP.M        585                            : bot_depth    - STOP DEPTH
STEP.M        0.25                           : increment    - STEP LENGTH
 NULL. -999.2500:NULL Value
~CURVE INFORMATION BLOCK
#MNEM UNIT       ERCB CURVE CODE    CURVE DESCRIPTION
#-----------   ------------------   ----------------------------------
DEPT.M        00 001 00 00         : DEPTH        - DEPTH
DPHI.V/V      00 890 00 00         : PHID         - DENSITY POROSITY (LIMESTONE)
NPHI.V/V      00 330 00 00         : PHIN         - NEUTRON POROSITY (LIMESTONE)
GR  .API      00 310 00 00         : GR           - GAMMA RAY
ILD .OHMM     00 120 00 00         : RESD         - DEEP RESISTIVITY (DIL)
~PARAMETER INFORMATION
#MNEM.UNIT           DATA             DESCRIPTION OF MNEMONIC
#---------         -----------     ------------------------------
GL  .M        735.6                : gl           - GROUND LEVEL ELEVATION
EREF.M        739.7                : kb           - ELEVATION OF DEPTH REFERENCE
DATM.M        735.6                : datum        - DATUM ELEVATION
TDD .M        595                  : tdd          - TOTAL DEPTH DRILLER
RUN .         ONE                  : Run          - RUN NUMBER
ENG .         BILL                 : Engineer     - RECORDING ENGINEER
WIT .         JIM                  : Witness      - WITNESSED BY
MUD .         GEL                  : Mud_type     - MUD TYPE
MATR.         LIMESTONE            : Logunit      - NEUTRON MATRIX
TMAX.C        20                   : BHT          - MAXIMUM RECORDED TEMPERATURE
BHTD.M        595                  : BHTDEP       - MAXIMUM RECORDED TEMPERATURE
MATR.         1                    : LOGUNIT      - NEUTRON MATRIX
RMT .C        25                   : MDTP         - TEMPERATURE OF MUD
NEUT.         1                    : NEUTRON      - NEUTRON TYPE
RESI.         0                    : RESIST       - RESISTIVITY TYPE
RMC .OHMM     0.25                 : RMC          - RESISTIVITY OF MUD CAKE
RMF .OHMM     0.25                 : RMF          - RESISTIVITY OF MUD FILTRATE
SUFT.C        15                   : SUFT         - SURFACE TEMPERATURE
~A  DEPTH     PHID     PHIN       GR     RESD
  360.000    0.235    0.536  112.802    2.259
  360.250    0.156    0.524  105.481    2.573
  360.500    0.157    0.512  101.210    2.671
  360.750    0.184    0.501  108.523    2.825
  361.000    0.213    0.489  113.398    2.988
  361.250    0.223    0.505  115.224    3.160
  361.500    0.233    0.500  114.612    3.405
  361.750    0.219    0.466  109.121    3.601
  362.000    0.217    0.438  104.849    3.809
  362.250    0.222    0.452  104.236    3.881
  362.500    0.230    0.476  107.891    3.812
  362.750    0.230    0.493  110.327    3.608
  363.000    0.230    0.471  115.812    3.414
  363.250    0.234    0.481  120.077    3.231
  363.500    0.234    0.497  113.976    3.058
  363.750    0.244    0.509  109.095    3.003
  364.000    0.264    0.497  108.481    3.061
  364.250    0.257    0.511  108.479    3.298
  364.500    0.237    0.493  109.085    3.488
  364.750    0.226    0.509  107.863    3.555
  365.000    0.215    0.527  106.030    3.623
  365.250    0.209    0.485  107.246    3.624
  365.500    0.236    0.459  109.073    3.560
  365.750    0.250    0.468  109.679    3.561
  366.000    0.254    0.480  112.724    3.498
  366.250    0.254    0.498  111.501    3.435
  366.500    0.242    0.492  107.840    3.436
  366.750    0.231    0.475  106.618    3.438
  367.000    0.224    0.457  106.005    3.314
  367.250    0.231    0.443  107.220    3.505
  367.500    0.243    0.458  107.827    4.717
  367.750    0.255    0.456   95.020    7.498
  368.000    0.277    0.387   75.505   12.141
  368.250    0.300    0.284   58.429   19.660
  368.500    0.355    0.254   45.621   21.981
  368.750    0.349    0.278   43.789   22.405
  369.000    0.268    0.316   53.542   21.202
  369.250    0.266    0.337   71.830   15.482
  369.500    0.252    0.356   80.364   10.305
  369.750    0.241    0.380   86.457    9.574
  370.000    0.268    0.389   88.283   11.109
  370.250    0.317    0.372   84.622   14.404
  370.500    0.357    0.336   54.742   18.675
  370.750    0.391    0.236   46.202   23.771
  371.000    0.406    0.239   44.980   25.611
  371.250    0.393    0.262   48.025   25.151
  371.500    0.368    0.278   55.949   17.698
  371.750    0.322    0.318   60.823   14.989
  372.000    0.280    0.335   62.039   12.931
  372.250    0.277    0.327   66.914   11.575
  372.500    0.269    0.338   73.618   10.956
  372.750    0.280    0.361   79.713   10.759
  373.000    0.313    0.377   80.928   10.568
  373.250    0.324    0.396   76.657   10.377
  373.500    0.324    0.417   73.605   10.382
  373.750    0.339    0.428   73.602   10.009
  374.000    0.331    0.415   87.013    9.831
  374.250    0.318    0.426   97.375   10.020
  374.500    0.294    0.435  103.470    9.839
  374.750    0.292    0.427  104.686   10.029
  375.000    0.315    0.356  101.634   10.034
  375.250    0.340    0.365   89.436   10.225
  375.500    0.341    0.379   86.384   10.421
  375.750    0.326    0.391   85.161   10.235
  376.000    0.306    0.413   88.207   10.241
  376.250    0.297    0.430   93.691   10.056
  376.500    0.289    0.428   97.347    9.875
  376.750    0.282    0.421   96.734    9.880
  377.000    0.270    0.430   97.950    9.887
  377.250    0.275    0.442  101.605   10.074
  377.500    0.286    0.430  105.261   10.079
  377.750    0.293    0.400  104.038   10.273
  378.000    0.305    0.395  100.376   10.088
  378.250    0.302    0.418   98.543   10.094
  378.500    0.295    0.426   98.541    9.913
  378.750    0.279    0.413   91.831    9.917
  379.000    0.264    0.390   87.558    9.739
  379.250    0.266    0.390   89.385    9.565
  379.500    0.277    0.413   85.113    9.221
  379.750    0.269    0.431   80.842    9.225
  380.000    0.239    0.389   74.132    9.939
  380.250    0.234    0.377   71.690    9.944
  380.500    0.248    0.387   74.125    9.238
  380.750    0.242    0.400   73.512    9.592
  381.000    0.231    0.422   73.508    9.775
  381.250    0.241    0.407   72.896    9.601
  381.500    0.265    0.399   69.845    9.605
  381.750    0.282    0.391   67.403    9.433
  382.000    0.289    0.381   66.789    9.264
  382.250    0.288    0.368   68.615    9.268
  382.500    0.288    0.354   69.832    9.272
  382.750    0.282    0.345   71.658    9.276
  383.000    0.284    0.357   70.435    9.281
  383.250    0.287    0.367   70.432    9.115
  383.500    0.283    0.376   73.478    8.952
  383.750    0.277    0.379   77.132    8.472
  384.000    0.280    0.381   80.178    6.787
  384.250    0.283    0.396   86.272    5.538
  384.500    0.247    0.407  101.513    5.051
  384.750    0.198    0.439  124.070    4.693
  385.000    0.190    0.464  122.847    4.441
  385.250    0.171    0.494  117.356    4.282
  385.500    0.080    0.500  114.304    4.052
  385.750    0.129    0.487  121.618    3.695
  386.000    0.189    0.472  135.029    3.433
  386.250    0.217    0.506  134.416    3.017
  386.500    0.216    0.547  132.584    3.251
  386.750    0.238    0.569  131.971    3.702
  387.000    0.250    0.552  127.699    4.800
  387.250    0.252    0.521  120.989    6.109
  387.500    0.250    0.487  116.108    7.356
  387.750    0.248    0.427  111.836    7.926
  388.000    0.246    0.428  117.930    8.077
  388.250    0.244    0.441  117.928    8.081
  388.500    0.251    0.447  117.924    7.936
  388.750    0.255    0.445  117.921    7.940
  389.000    0.257    0.417  118.528    7.944
  389.250    0.271    0.407  113.647    7.802
  389.500    0.264    0.409  107.546    7.115
  389.750    0.119    0.412  102.665    6.734
  390.000    0.139    0.403  111.808    6.613
  390.250    0.194    0.420  128.267    6.617
  390.500    0.238    0.449  127.045    7.128
  390.750    0.252    0.444  115.456    8.425
  391.000    0.261    0.432  108.137    9.247
  391.250    0.277    0.409  100.207    9.424
  391.500    0.283    0.413  102.642    9.086
  391.750    0.280    0.410  109.346    8.598
  392.000    0.282    0.418  110.562    7.697
  392.250    0.276    0.437  109.949    7.285
  392.500    0.267    0.449  113.605    7.154
  392.750    0.270    0.458  117.260    7.157
  393.000    0.264    0.465  119.086    7.161
  393.250    0.259    0.460  123.350    7.164
  393.500    0.253    0.449  127.006    7.302
  393.750    0.249    0.443  131.271    7.441
  394.000    0.255    0.430  121.512    7.870
  394.250    0.269    0.419  114.192    8.324
  394.500    0.275    0.426  107.482    8.642
  394.750    0.281    0.422   89.187    8.646
  395.000    0.297    0.413   75.159    8.491
  395.250    0.313    0.422   73.936    7.888
  395.500    0.303    0.416   80.031    7.465
  395.750    0.292    0.405   86.735    7.609
  396.000    0.301    0.413   81.853    8.198
  396.250    0.315    0.433   78.192    8.670
  396.500    0.322    0.435   73.921    9.170
  396.750    0.317    0.411   67.210    9.345
  397.000    0.325    0.426   64.768    9.525
  397.250    0.334    0.434   64.765    9.529
  397.500    0.336    0.443   65.372    9.358
  397.750    0.308    0.438   68.417    9.191
  398.000    0.250    0.423   72.072    8.698
  398.250    0.230    0.419   76.947    8.232
  398.500    0.248    0.438   88.529    7.790
  398.750    0.261    0.450   88.525    7.373
  399.000    0.249    0.457   87.913    7.109
  399.250    0.259    0.431   89.739    6.853
  399.500    0.268    0.431   94.003    6.730
  399.750    0.269    0.439   96.439    6.369
  400.000    0.270    0.445   97.655    6.141
  400.250    0.279    0.456   95.213    5.920
  400.500    0.293    0.465   90.331    5.500
  400.750    0.314    0.472   87.890    5.110
  401.000    0.309    0.473   91.546    4.926
  401.250    0.292    0.461  111.664    4.928
  401.500    0.279    0.463  109.831    5.116
  401.750    0.284    0.453  103.121    5.512
  402.000    0.290    0.435  100.679    6.050
  402.250    0.289    0.423   97.017    7.020
  402.500    0.280    0.424   96.404    7.424
  402.750    0.267    0.424   98.840    7.291
  403.000    0.285    0.419  100.666    7.029
  403.250    0.288    0.433   96.395    7.164
