~VERSION INFORMATION
 VERS.                 2.0:   CWLS LOG ASCII STANDARD -VERSION 2.0
 WRAP.                  NO:   ONE LINE PER DEPTH STEP
~WELL INFORMATION BLOCK
#MNEM.UNIT           DATA                    DESCRIPTION OF MNEMONIC
#---------    -------------------            -------------------------------
# Generated from Intellog Unique Number	CS_69_70/WELL/800
WELL.         AEC FISHER CRK                 : Well_name    - WELL
LOC .         00/06-19-069-04W4/0            : Location     - LOCATION
UWI .         00/06-19-069-04W4/0            : Uwi          - UNIQUE WELL ID
ENTR.         SP                             : Entered      - ENTERED BY
SRVC.         SCHLUMBERGER                   : Scn          - SERVICE COMPANY
STRT.M        300                            : top_depth    - START DEPTH
STOP.M        550                            : bot_depth    - STOP DEPTH
STEP.M        0.25                           : increment    - STEP LENGTH
 NULL. -999.2500:NULL Value
~CURVE INFORMATION BLOCK
#MNEM UNIT       ERCB CURVE CODE    CURVE DESCRIPTION
#-----------   ------------------   ----------------------------------
DEPT.M        00 001 00 00         : DEPTH        - DEPTH
ILD .OHMM     00 120 00 00         : RESD         - DEEP RESISTIVITY (DIL)
DPHI.V/V      00 890 00 00         : PHID         - DENSITY POROSITY (LIMESTONE)
NPHI.V/V      00 330 00 00         : PHIN         - NEUTRON POROSITY (LIMESTONE)
GR  .API      00 310 00 00         : GR           - GAMMA RAY
~PARAMETER INFORMATION
#MNEM.UNIT           DATA             DESCRIPTION OF MNEMONIC
#---------         -----------     ------------------------------
GL  .M        687.9                : gl           - GROUND LEVEL ELEVATION
EREF.M        691.6                : kb           - ELEVATION OF DEPTH REFERENCE
DATM.M        687.9                : datum        - DATUM ELEVATION
TDD .M        557                  : tdd          - TOTAL DEPTH DRILLER
RUN .         ONE                  : Run          - RUN NUMBER
ENG .         BILL                 : Engineer     - RECORDING ENGINEER
WIT .         JIM                  : Witness      - WITNESSED BY
MUD .         GEL                  : Mud_type     - MUD TYPE
MATR.         LIMESTONE            : Logunit      - NEUTRON MATRIX
TMAX.C        21                   : BHT          - MAXIMUM RECORDED TEMPERATURE
BHTD.M        5572                 : BHTDEP       - MAXIMUM RECORDED TEMPERATURE
MATR.         1                    : LOGUNIT      - NEUTRON MATRIX
RMT .C        25                   : MDTP         - TEMPERATURE OF MUD
NEUT.         1                    : NEUTRON      - NEUTRON TYPE
RESI.         0                    : RESIST       - RESISTIVITY TYPE
RMC .OHMM     0.25                 : RMC          - RESISTIVITY OF MUD CAKE
RMF .OHMM     0.25                 : RMF          - RESISTIVITY OF MUD FILTRATE
SUFT.C        15                   : SUFT         - SURFACE TEMPERATURE
~A  DEPTH     RESD     PHID     PHIN       GR
# ...
  343.500    6.998    0.346    0.396   43.639
  343.750    7.572    0.354    0.397   45.586
  344.000    7.936    0.362    0.412   45.585
  344.250    8.056    0.345    0.436   41.626
  344.500    7.950    0.330    0.423   38.642
  344.750    7.729    0.325    0.395   47.772
  345.000    7.556    0.330    0.376   63.598
  345.250    7.359    0.331    0.383   72.546
  345.500    7.154    0.328    0.401   76.197
  345.750    7.021    0.331    0.417   76.500
  346.000    6.903    0.338    0.426   78.568
  346.250    6.812    0.329    0.419   80.210
  346.500    6.723    0.315    0.410   83.192
  346.750    6.647    0.305    0.413   81.729
  347.000    6.622    0.312    0.422   79.963
  347.250    6.572    0.320    0.404   78.317
  347.500    6.621    0.310    0.402   78.011
  347.750    6.708    0.305    0.399   78.131
  348.000    6.797    0.301    0.383   78.252
  348.250    6.847    0.305    0.375   77.459
  348.500    6.899    0.296    0.384   74.231
  348.750    6.990    0.264    0.390   70.090
  349.000    7.135    0.235    0.397   68.019
  349.250    7.297    0.203    0.385   66.009
  349.500    7.520    0.223    0.379   65.581
  349.750    7.619    0.254    0.378   70.937
  350.000    7.676    0.284    0.373   76.718
  350.250    7.661    0.270    0.376   80.065
  350.500    7.661    0.251    0.384   82.316
  350.750    7.617    0.253    0.376   79.271
  351.000    7.531    0.258    0.384   73.608
  351.250    7.446    0.278    0.393   69.467
  351.500    7.376    0.291    0.382   73.605
  351.750    7.348    0.278    0.374   79.022
  352.000    7.306    0.249    0.388   83.586
  352.250    7.238    0.223    0.402   88.028
  352.500    7.170    0.213    0.413   90.584
  352.750    7.102    0.220    0.422   91.374
  353.000    7.022    0.248    0.428   87.354
  353.250    6.956    0.264    0.417   82.057
  353.500    6.930    0.278    0.402   77.733
  353.750    6.929    0.266    0.401   74.018
  354.000    6.929    0.282    0.421   72.495
  354.250    6.942    0.300    0.420   75.415
  354.500    6.941    0.314    0.423   77.544
  354.750    6.941    0.315    0.415   79.004
  355.000    6.888    0.316    0.407   79.246
  355.250    6.836    0.307    0.409   77.236
  355.500    6.747    0.314    0.423   80.339
  355.750    6.671    0.310    0.438   84.294
  356.000    6.620    0.294    0.445   86.850
  356.250    6.595    0.283    0.426   89.710
  356.500    6.545    0.271    0.416   91.291
  356.750    6.521    0.252    0.413   89.951
  357.000    6.471    0.215    0.405   84.835
  357.250    6.459    0.156    0.399   81.912
  357.500    6.507    0.179    0.416   86.476
  357.750    6.556    0.259    0.473   82.396
  358.000    6.642    0.271    0.451   79.716
  358.250    6.755    0.257    0.434   80.201
  358.500    6.883    0.247    0.426   86.409
  358.750    6.987    0.239    0.457   89.026
  359.000    6.999    0.245    0.482   92.251
  359.250    6.716    0.252    0.475   93.102
  359.500    6.312    0.255    0.468   90.909
  359.750    6.022    0.260    0.469   95.290
  360.000    5.854    0.250    0.480  100.524
  360.250    5.810    0.261    0.492  102.775
  360.500    5.842    0.279    0.502   94.799
  360.750    6.032    0.282    0.471   89.622
  361.000    6.204    0.277    0.436   87.673
  361.250    6.321    0.293    0.418   86.820
  361.500    6.550    0.304    0.409   89.862
  361.750    6.699    0.294    0.404   91.991
  362.000    6.839    0.287    0.425   93.268
  362.250    6.994    0.286    0.418   91.014
  362.500    7.086    0.284    0.412   88.334
  362.750    7.113    0.272    0.412   90.159
  363.000    7.046    0.260    0.416   92.045
  363.250    6.927    0.254    0.420   93.139
  363.500    6.836    0.268    0.427   91.555
  363.750    6.785    0.279    0.420   92.467
  364.000    6.734    0.270    0.414   97.518
  364.250    6.571    0.250    0.430  101.352
  364.500    6.210    0.235    0.443   99.585
  364.750    5.958    0.242    0.441   89.722
  365.000    5.880    0.252    0.437   82.354
  365.250    5.847    0.245    0.445   83.083
  365.500    5.847    0.242    0.508   88.560
  365.750    5.835    0.258    0.493   91.724
  366.000    5.802    0.274    0.483   93.306
  366.250    5.802    0.293    0.485   78.938
  366.500    5.867    0.305    0.448   70.353
  366.750    5.956    0.313    0.405   61.828
  367.000    6.046    0.320    0.391   51.113
  367.250    6.148    0.327    0.406   43.502
  367.500    6.206    0.341    0.416   45.266
  367.750    6.229    0.345    0.397   51.352
  368.000    6.229    0.345    0.379   56.098
  368.250    6.240    0.343    0.391   58.228
  368.500    6.240    0.340    0.408   59.505
  368.750    6.239    0.338    0.410   59.443
  369.000    6.274    0.339    0.410   58.711
  369.250    6.297    0.340    0.396   57.796
  369.500    6.333    0.332    0.394   57.064
  369.750    6.368    0.327    0.407   56.941
  370.000    6.416    0.330    0.419   57.426
  370.250    6.415    0.339    0.412   58.521
  370.500    6.415    0.332    0.410   59.797
  370.750    6.331    0.327    0.413   59.796
  371.000    6.330    0.326    0.418   56.995
  371.250    6.760    0.330    0.426   51.331
  371.500    7.454    0.154    0.342   46.338
  371.750    8.390    0.080    0.243   41.832
  372.000    8.909    0.022    0.209   38.300
  372.250    9.250    0.004    0.189   48.708
  372.500    7.810    0.073    0.280   58.934
  372.750    6.990    0.151    0.388   66.968
  373.000    6.644    0.198    0.403   73.298
  373.250    6.256    0.277    0.416   75.001
  373.500    6.048    0.269    0.430   72.868
  373.750    5.946    0.283    0.425   73.293
  374.000    5.957    0.296    0.418   77.919
  374.250    6.070    0.304    0.431   81.752
  374.500    6.138    0.309    0.435   84.734
  374.750    6.149    0.311    0.428   85.280
  375.000    6.184    0.313    0.429   81.809
  375.250    6.195    0.312    0.438   79.129
  375.500    6.218    0.319    0.438   66.222
  375.750    6.241    0.333    0.438   60.802
  376.000    6.241    0.347    0.440   61.288
  376.250    6.217    0.348    0.442   61.103
  376.500    6.182    0.334    0.444   59.397
  376.750    6.135    0.342    0.450   57.083
  377.000    6.032    0.349    0.437   55.133
  377.250    5.975    0.349    0.429   53.975
  377.500    5.908    0.347    0.434   55.435
  377.750    5.841    0.346    0.438   57.747
  378.000    5.786    0.346    0.440   60.059
  378.250    5.732    0.329    0.437   62.796
  378.500    5.667    0.314    0.424   64.804
  378.750    5.593    0.293    0.418   68.212
  379.000    5.530    0.272    0.425   72.350
  379.250    5.488    0.259    0.437   75.818
  379.500    5.467    0.257    0.443   73.199
  379.750    5.446    0.265    0.442   69.484
  380.000    5.436    0.273    0.437   66.621
  380.250    5.446    0.280    0.424   65.707
  380.500    5.466    0.284    0.410   63.088
  380.750    5.466    0.285    0.408   62.173
  381.000    5.476    0.278    0.417   64.668
  381.250    5.455    0.274    0.420   63.631
  381.500    5.434    0.274    0.412   59.673
  381.750    5.403    0.269    0.408   61.315
  382.000    5.383    0.266    0.410   63.262
  382.250    5.372    0.265    0.415   63.869
  382.500    5.302    0.280    0.419   57.536
  382.750    5.212    0.305    0.416   51.021
  383.000    5.039    0.328    0.413   45.602
  383.250    4.853    0.342    0.403   43.165
  383.500    4.726    0.344    0.391   41.520
  383.750    4.621    0.345    0.382   41.458
  384.000    4.535    0.341    0.384   43.343
  384.250    4.484    0.345    0.397   45.229
  384.500    4.450    0.347    0.406   46.324
  384.750    4.416    0.337    0.399   47.540
  385.000    4.375    0.326    0.385   46.625
  385.250    4.358    0.316    0.374   42.971
  385.500    4.341    0.308    0.383   41.448
  385.750    4.333    0.323    0.393   42.542
  386.000    4.308    0.336    0.397   44.245
  386.250    4.276    0.332    0.400   44.731
  386.500    4.267    0.331    0.402   45.034
  386.750    4.473    0.331    0.407   47.345
