~VERSION INFORMATION
 VERS.                 2.0:   CWLS LOG ASCII STANDARD -VERSION 2.0
 WRAP.                  NO:   ONE LINE PER DEPTH STEP
~WELL INFORMATION BLOCK
#MNEM.UNIT           DATA                    DESCRIPTION OF MNEMONIC
#---------    -------------------            -------------------------------
# Generated from Intellog Unique Number	CS_69_70/WELL/804
WELL.         HUSKEY OIL OPERATIONS          : Well_name    - WELL
LOC .         00/06-22-069-05W4/0            : Location     - LOCATION
UWI .         00/06-22-069-05W4/0            : Uwi          - UNIQUE WELL ID
ENTR.         SP                             : Entered      - ENTERED BY
SRVC.         SCHLUMBERGER                   : Scn          - SERVICE COMPANY
STRT.M        300                            : top_depth    - START DEPTH
STOP.M        580                            : bot_depth    - STOP DEPTH
STEP.M        0.25                           : increment    - STEP LENGTH
 NULL. -999.2500:NULL Value
~CURVE INFORMATION BLOCK
#MNEM UNIT       ERCB CURVE CODE    CURVE DESCRIPTION
#-----------   ------------------   ----------------------------------
DEPT.M        00 001 00 00         : DEPTH        - DEPTH
ILD .OHMM     00 120 00 00         : RESD         - DEEP RESISTIVITY (DIL)
DPHI.V/V      00 890 00 00         : PHID         - DENSITY POROSITY (LIMESTONE)
NPHI.V/V      00 330 00 00         : PHIN         - NEUTRON POROSITY (LIMESTONE)
GR  .API      00 310 00 00         : GR           - GAMMA RAY
~PARAMETER INFORMATION
#MNEM.UNIT           DATA             DESCRIPTION OF MNEMONIC
#---------         -----------     ------------------------------
GL  .M        670.1                : gl           - GROUND LEVEL ELEVATION
EREF.M        673.8                : kb           - ELEVATION OF DEPTH REFERENCE
DATM.M        670.1                : datum        - DATUM ELEVATION
TDD .M        585                  : tdd          - TOTAL DEPTH DRILLER
RUN .         ONE                  : Run          - RUN NUMBER
ENG .         BILL                 : Engineer     - RECORDING ENGINEER
WIT .         JIM                  : Witness      - WITNESSED BY
MUD .         GEL                  : Mud_type     - MUD TYPE
MATR.         LIMESTONE            : Logunit      - NEUTRON MATRIX
TMAX.C        21                   : BHT          - MAXIMUM RECORDED TEMPERATURE
BHTD.M        585                  : BHTDEP       - MAXIMUM RECORDED TEMPERATURE
MATR.         1                    : LOGUNIT      - NEUTRON MATRIX
RMT .C        25                   : MDTP         - TEMPERATURE OF MUD
NEUT.         1                    : NEUTRON      - NEUTRON TYPE
RESI.         0                    : RESIST       - RESISTIVITY TYPE
RMC .OHMM     0.25                 : RMC          - RESISTIVITY OF MUD CAKE
RMF .OHMM     0.25                 : RMF          - RESISTIVITY OF MUD FILTRATE
SUFT.C        15                   : SUFT         - SURFACE TEMPERATURE
~A  DEPTH     RESD     PHID     PHIN       GR
# ...
  430.500    5.549    0.297    0.431   76.803
  430.750    5.072    0.300    0.447   82.069
  431.000    4.645    0.288    0.459   85.096
  431.250    4.343    0.272    0.470   88.123
  431.500    4.311    0.265    0.482   90.122
  431.750    4.360    0.264    0.472   90.670
  432.000    4.411    0.268    0.466   90.673
  432.250    4.486    0.272    0.461   90.011
  432.500    4.607    0.268    0.455   88.079
  432.750    4.616    0.257    0.460   85.784
  433.000    4.455    0.252    0.458   85.122
  433.250    4.111    0.259    0.450   89.238
  433.500    3.579    0.267    0.463   93.536
  433.750    3.080    0.273    0.475   95.051
  434.000    2.682    0.284    0.490   95.114
  434.250    2.512    0.298    0.511   92.940
  434.500    2.388    0.296    0.565   91.915
  434.750    2.305    0.284    0.558   95.366
  435.000    2.241    0.281    0.542   97.668
  435.250    2.184    0.291    0.530   93.498
  435.500    2.143    0.302    0.535   91.626
  435.750    2.136    0.293    0.535   92.536
  436.000    2.209    0.282    0.529   93.023
  436.250    2.329    0.276    0.546   95.446
  436.500    2.506    0.270    0.554   97.143
  436.750    2.535    0.267    0.544   97.751
  437.000    2.536    0.264    0.537   95.214
  437.250    2.599    0.273    0.548   90.378
  437.500    2.936    0.288    0.545   84.938
  437.750    3.630    0.307    0.507   80.828
  438.000    4.911    0.317    0.472   73.029
  438.250    6.720    0.327    0.451   66.197
  438.500    9.057    0.333    0.434   59.910
  438.750   11.282    0.337    0.425   58.643
  439.000   14.373    0.340    0.421   58.102
  439.250   17.737    0.340    0.420   57.138
  439.500   19.742    0.339    0.422   55.629
  439.750   20.968    0.333    0.427   54.967
  440.000   21.979    0.327    0.433   54.063
  440.250   22.315    0.318    0.438   53.642
  440.500   22.319    0.314    0.436   53.706
  440.750   22.240    0.312    0.430   54.133
  441.000   22.036    0.331    0.427   53.471
  441.250   21.590    0.354    0.425   54.320
  441.500   20.916    0.354    0.436   56.441
  441.750   19.480    0.341    0.450   56.989
  442.000   18.731    0.334    0.466   56.205
  442.250   18.735    0.335    0.467   54.757
  442.500   19.346    0.341    0.457   54.881
  442.750   20.051    0.341    0.451   55.610
  443.000   21.175    0.325    0.443   56.460
  443.250   22.031    0.315    0.435   57.310
  443.500   22.536    0.306    0.426   57.798
  443.750   22.925    0.302    0.417   57.982
  444.000   22.376    0.301    0.431   57.380
  444.250   20.453    0.324    0.437   57.444
  444.500   18.731    0.339    0.423   58.112
  444.750   17.942    0.332    0.414   59.749
  445.000   18.047    0.329    0.435   60.175
  445.250   19.347    0.327    0.479   57.215
  445.500   23.831    0.300    0.313   51.593
  445.750   31.760    0.036    0.247   48.995
  446.000   40.922    0.019    0.183   46.156
  446.250   46.761    0.007    0.131   43.740
  446.500   49.107    0.002    0.121   41.989
  446.750   45.565    0.302    0.154   45.560
  447.000   33.946    0.313    0.265   51.915
  447.250   24.634    0.321    0.370   55.910
  447.500   19.635    0.308    0.442   59.058
  447.750   17.981    0.300    0.455   60.271
  448.000   17.290    0.293    0.437   57.190
  448.250   17.131    0.289    0.423   54.410
  448.500   17.006    0.289    0.411   57.136
  448.750   16.819    0.299    0.427   58.712
  449.000   16.417    0.309    0.441   59.319
  449.250   15.347    0.322    0.453   57.085
  449.500   13.742    0.331    0.466   55.939
  449.750   12.655    0.326    0.442   56.486
  450.000   11.353    0.309    0.428   62.599
  450.250   10.241    0.294    0.419   68.771
  450.500    8.882    0.282    0.426   74.097
  450.750    7.392    0.271    0.445   78.394
  451.000    6.198    0.262    0.458   82.209
  451.250    5.508    0.254    0.471   81.909
  451.500    5.016    0.245    0.459   79.130
  451.750    4.887    0.240    0.447   83.065
  452.000    4.887    0.244    0.445   85.971
  452.250    4.972    0.248    0.451   88.818
  452.500    5.114    0.247    0.451   89.728
  452.750    5.321    0.240    0.448   87.796
  453.000    5.577    0.248    0.442   83.504
  453.250    6.036    0.267    0.434   78.488
  453.500    6.422    0.258    0.446   76.373
  453.750    7.055    0.261    0.467   75.288
  454.000    7.942    0.288    0.475   72.328
  454.250    9.230    0.296    0.453   69.005
  454.500   10.063    0.292    0.440   67.072
  454.750   11.139    0.296    0.451   65.865
  455.000   11.807    0.305    0.460   65.808
  455.250   11.655    0.312    0.445   67.929
  455.500   11.061    0.303    0.433   70.956
  455.750   10.418    0.293    0.439   74.346
  456.000    9.906    0.286    0.453   76.164
  456.250    9.561    0.279    0.449   73.929
  456.500    9.402    0.275    0.442   71.453
  456.750    9.564    0.287    0.455   71.819
  457.000    9.894    0.299    0.435   75.572
  457.250   10.083    0.280    0.421   79.083
  457.500    9.898    0.262    0.449   80.961
  457.750    8.963    0.256    0.475   81.146
  458.000    7.802    0.253    0.458   81.754
  458.250    6.716    0.243    0.436   81.999
  458.500    5.814    0.243    0.441   76.196
  458.750    4.967    0.251    0.478   71.663
  459.000    4.617    0.237    0.471   69.065
  459.250    4.390    0.231    0.439   71.306
  459.500    4.269    0.274    0.422   74.395
  459.750    3.487    0.299    0.488   76.515
  460.000    2.330    0.305    0.553   77.425
  460.250    2.090    0.313    0.585   78.275
  460.500    1.950    0.314    0.590   80.093
  460.750    1.837    0.311    0.581   79.310
  461.000    1.790    0.307    0.566   75.563
  461.250    1.797    0.302    0.552   77.320
  461.500    1.845    0.297    0.577   81.799
  461.750    1.916    0.292    0.563   84.161
  462.000    1.952    0.287    0.533   83.560
  462.250    2.043    0.294    0.517   83.986
  462.500    2.133    0.286    0.537   85.501
  462.750    2.232    0.274    0.550   88.106
  463.000    2.322    0.264    0.555   90.286
  463.250    2.420    0.258    0.564   91.499
  463.500    2.542    0.261    0.544   90.293
  463.750    2.761    0.273    0.508   88.119
  464.000    3.079    0.268    0.468   84.977
  464.250    3.414    0.254    0.427   83.044
  464.500    3.793    0.243    0.418   83.592
  464.750    4.089    0.228    0.416   84.865
  465.000    4.286    0.227    0.422   87.046
  465.250    4.510    0.238    0.430   82.755
  465.500    4.665    0.213    0.415   78.706
  465.750    4.702    0.144    0.389   82.338
  466.000    4.504    0.160    0.405   86.213
  466.250    4.048    0.198    0.447   87.849
  466.500    3.749    0.240    0.467   88.759
  466.750    3.446    0.229    0.473   89.246
  467.000    3.150    0.231    0.495   88.403
  467.250    2.983    0.247    0.525   85.986
  467.500    2.907    0.265    0.507   85.082
  467.750    2.891    0.276    0.494   86.416
  468.000    2.902    0.263    0.491   88.779
  468.250    2.974    0.249    0.498   91.201
  468.500    3.060    0.240    0.468   92.293
  468.750    3.232    0.224    0.439   88.365
  469.000    3.451    0.187    0.416   86.009
  469.250    3.777    0.164    0.422   91.456
  469.500    4.095    0.200    0.430   95.693
  469.750    4.399    0.222    0.439   94.970
  470.000    4.559    0.211    0.451   91.586
  470.250    4.682    0.202    0.455   89.473
  470.500    4.744    0.220    0.441   89.960
  470.750    4.701    0.238    0.434   92.020
  471.000    4.623    0.235    0.432   93.837
  471.250    4.512    0.220    0.428   95.292
  471.500    4.429    0.215    0.453   89.610
  471.750    4.687    0.226    0.470   79.330
  472.000    5.436    0.237    0.388   69.959
  472.250    6.584    0.215    0.328   59.075
  472.500    8.628    0.070    0.274   52.364
  472.750   11.477    0.026    0.232   51.763
  473.000   13.413    0.007    0.259   56.423
  473.250   14.597    0.111    0.345   61.447
  473.500   15.243    0.188    0.379   64.353
  473.750   15.564    0.236    0.398   63.993
