~VERSION INFORMATION
 VERS.                 2.0:   CWLS LOG ASCII STANDARD -VERSION 2.0
 WRAP.                  NO:   ONE LINE PER DEPTH STEP
~WELL INFORMATION BLOCK
#MNEM.UNIT           DATA                    DESCRIPTION OF MNEMONIC
#---------    -------------------            -------------------------------
# Generated from Intellog Unique Number	CS_67_68/WELL/2184
WELL.         CHIEFCO et al TWEEDIE          : Well_name    - WELL
LOC .         00/08-05-067-12W4/0            : Location     - LOCATION
UWI .         00/08-05-067-12W4/0            : Uwi          - UNIQUE WELL ID
ENTR.         SP                             : Entered      - ENTERED BY
SRVC.         SCHLUMBERGER                   : Scn          - SERVICE COMPANY
STRT.M        280                            : top_depth    - START DEPTH
STOP.M        485                            : bot_depth    - STOP DEPTH
STEP.M        0.25                           : increment    - STEP LENGTH
 NULL. -999.2500:NULL Value
~CURVE INFORMATION BLOCK
#MNEM UNIT       ERCB CURVE CODE    CURVE DESCRIPTION
#-----------   ------------------   ----------------------------------
DEPT.M        00 001 00 00         : DEPTH        - DEPTH
ILD .OHMM     00 120 00 00         : RESD         - DEEP RESISTIVITY (DIL)
DPHI.V/V      00 890 00 00         : PHID         - DENSITY POROSITY (LIMESTONE)
NPHI.V/V      00 330 00 00         : PHIN         - NEUTRON POROSITY (LIMESTONE)
GR  .API      00 310 00 00         : GR           - GAMMA RAY
CALI.MM       00 280 01 00         : CAL          - CALIPER
~PARAMETER INFORMATION
#MNEM.UNIT           DATA             DESCRIPTION OF MNEMONIC
#---------         -----------     ------------------------------
GL  .M        555.5                : gl           - GROUND LEVEL ELEVATION
EREF.M        558.5                : kb           - ELEVATION OF DEPTH REFERENCE
DATM.M        558.5                : datum        - DATUM ELEVATION
TDD .M        488                  : tdd          - TOTAL DEPTH DRILLER
RUN .         ONE                  : Run          - RUN NUMBER
ENG .         BILL                 : Engineer     - RECORDING ENGINEER
WIT .         JIM                  : Witness      - WITNESSED BY
MUD .         GEL                  : Mud_type     - MUD TYPE
MATR.         LIMESTONE            : Logunit      - NEUTRON MATRIX
TMAX.C        19                   : BHT          - MAXIMUM RECORDED TEMPERATURE
BHTD.M        487.4                : BHTDEP       - MAXIMUM RECORDED TEMPERATURE
MATR.         1                    : LOGUNIT      - NEUTRON MATRIX
RMT .C        25                   : MDTP         - TEMPERATURE OF MUD
NEUT.         1                    : NEUTRON      - NEUTRON TYPE
RESI.         0                    : RESIST       - RESISTIVITY TYPE
RMC .OHMM     0.25                 : RMC          - RESISTIVITY OF MUD CAKE
RMF .OHMM     0.25                 : RMF          - RESISTIVITY OF MUD FILTRATE
SUFT.C        15                   : SUFT         - SURFACE TEMPERATURE
~A  DEPTH     RESD     PHID     PHIN       GR      CAL
# ...
  316.500    3.261    0.218    0.426  102.468  176.755
  316.750    3.173    0.244    0.420  103.949  177.199
  317.000    3.060    0.242    0.413  101.898  177.225
  317.250    2.994    0.227    0.410   98.932  176.854
  317.500    2.919    0.219    0.411   98.282  176.678
  317.750    2.856    0.230    0.411   98.118  176.406
  318.000    2.826    0.230    0.410  103.136  176.238
  318.250    2.833    0.239    0.414  106.013  176.272
  318.500    2.851    0.253    0.417  108.770  176.299
  318.750    2.836    0.261    0.421  109.580  175.931
  319.000    2.806    0.254    0.428  109.054  175.755
  319.250    2.840    0.239    0.431  111.688  173.251
  319.500    2.857    0.243    0.433  116.155  165.568
  319.750    2.859    0.268    0.434  120.376  173.213
  320.000    2.818    0.270    0.434  124.537  176.088
  320.250    2.748    0.269    0.430  127.290  176.735
  320.500    2.664    0.269    0.424  132.729  176.862
  320.750    2.550    0.269    0.415  139.140  176.993
  321.000    2.504    0.257    0.410  145.126  177.226
  321.250    2.482    0.229    0.402  151.660  177.363
  321.500    2.530    0.239    0.414  155.088  177.497
  321.750    2.603    0.251    0.422  156.934  177.323
  322.000    2.648    0.262    0.431  156.953  177.152
  322.250    2.685    0.272    0.433  156.058  176.882
  322.500    2.686    0.281    0.425  155.043  176.816
  322.750    2.678    0.285    0.424  141.972  176.644
  323.000    2.660    0.276    0.429  122.875  176.068
  323.250    2.642    0.277    0.427  104.203  175.791
  323.500    2.633    0.285    0.425   95.395  175.823
  323.750    2.625    0.279    0.424   94.805  175.855
  324.000    2.607    0.265    0.416   94.336  175.788
  324.250    2.618    0.253    0.401   95.025  175.523
  324.500    2.634    0.245    0.392   93.526  175.446
  324.750    2.725    0.255    0.388   94.273  175.273
  325.000    2.819    0.279    0.394   96.361  175.104
  325.250    2.879    0.297    0.401   97.964  175.239
  325.500    2.913    0.288    0.403   95.552  175.372
  325.750    2.920    0.277    0.412   93.496  175.806
  326.000    2.900    0.270    0.403   91.568  175.736
  326.250    2.875    0.260    0.402   89.821  175.466
  326.500    2.845    0.259    0.406   88.440  175.198
  326.750    2.799    0.268    0.413   87.672  175.224
  327.000    2.744    0.267    0.417   88.419  175.869
  327.250    2.686    0.276    0.425   89.291  176.302
  327.500    2.652    0.282    0.427   89.430  176.852
  327.750    2.605    0.282    0.424   85.857  176.977
  328.000    2.583    0.273    0.426   82.102  176.498
  328.250    2.575    0.281    0.430   84.130  176.429
  328.500    2.576    0.286    0.434   84.396  176.361
  328.750    2.611    0.286    0.430   84.292  175.991
  329.000    2.696    0.292    0.420   83.762  175.921
  329.250    2.774    0.297    0.418   83.538  175.549
  329.500    2.849    0.286    0.424   86.298  175.474
  329.750    2.887    0.294    0.429   88.387  175.205
  330.000    2.878    0.296    0.433   88.953  175.131
  330.250    2.785    0.301    0.440   87.205  174.960
  330.500    2.696    0.305    0.448   85.399  174.691
  330.750    2.643    0.281    0.452   84.504  174.324
  331.000    2.596    0.272    0.444   83.490  174.348
  331.250    2.578    0.285    0.442   81.865  174.177
  331.500    2.556    0.294    0.441   79.753  173.699
  331.750    2.552    0.294    0.435   79.346  173.123
  332.000    2.592    0.290    0.432   81.191  172.449
  332.250    2.681    0.284    0.434   83.403  172.273
  332.500    2.831    0.279    0.432   84.826  172.106
  332.750    2.967    0.274    0.428   84.903  172.540
  333.000    3.098    0.276    0.428   86.565  172.988
  333.250    3.235    0.288    0.421   89.202  173.113
  333.500    3.347    0.296    0.422   88.185  173.455
  333.750    3.380    0.293    0.425   90.276  173.987
  334.000    3.388    0.292    0.428   92.974  178.889
  334.250    3.352    0.226    0.426   96.590  183.591
  334.500    3.209    0.226    0.421   98.552  185.454
  334.750    3.122    0.228    0.412  100.093  187.414
  335.000    2.999    0.247    0.415   99.929  187.440
  335.250    2.902    0.258    0.418  103.545  184.330
  335.500    2.824    0.260    0.415  105.569  181.416
  335.750    2.759    0.269    0.409  105.406  178.911
  336.000    2.710    0.265    0.400   98.668  178.742
  336.250    2.681    0.256    0.391   94.305  179.281
  336.500    2.658    0.253    0.389   92.071  179.518
  336.750    2.669    0.258    0.394   91.479  179.040
  337.000    2.686    0.267    0.398   90.890  178.868
  337.250    2.707    0.279    0.401   88.965  178.599
  337.500    2.749    0.275    0.399   87.763  178.326
  337.750    2.766    0.260    0.398   87.842  178.259
  338.000    2.783    0.258    0.400   91.090  177.680
  338.250    2.811    0.273    0.392   94.638  177.507
  338.500    2.876    0.283    0.383   94.963  177.131
  338.750    2.997    0.272    0.376   91.876  177.068
  339.000    3.170    0.263    0.372   91.713  177.196
  339.250    3.329    0.261    0.370   92.645  177.840
  339.500    3.508    0.256    0.372   94.979  178.985
  339.750    3.725    0.249    0.373   91.163  180.337
  340.000    3.918    0.242    0.380   86.980  182.101
  340.250    4.121    0.237    0.389   89.861  182.938
  340.500    4.256    0.231    0.393   93.901  184.085
  340.750    4.298    0.226    0.387   96.293  185.131
  341.000    4.316    0.221    0.392   92.355  185.975
  341.250    4.287    0.217    0.401   91.642  186.113
  341.500    4.218    0.220    0.396   97.874  186.242
  341.750    4.082    0.224    0.390  102.337  185.870
  342.000    3.892    0.227    0.388  107.108  184.886
  342.250    3.610    0.234    0.402  108.219  180.458
  342.500    3.404    0.243    0.414  102.818  177.950
  342.750    3.239    0.255    0.401   95.715  176.459
  343.000    3.100    0.249    0.402   90.315  175.884
  343.250    3.039    0.225    0.406   84.066  176.220
  343.500    2.997    0.202    0.407   85.909  176.553
  343.750    2.981    0.237    0.416   89.217  177.099
  344.000    2.956    0.258    0.416   91.488  177.634
  344.250    2.936    0.270    0.406   88.829  177.768
  344.500    2.926    0.268    0.400   86.475  177.802
  344.750    2.891    0.255    0.393   85.094  177.830
  345.000    2.876    0.243    0.382   84.139  177.763
  345.250    2.856    0.246    0.369   84.400  177.600
  345.500    2.790    0.257    0.357   85.880  177.723
  345.750    2.685    0.265    0.359   86.629  177.768
  346.000    2.627    0.274    0.372   82.816  177.898
  346.250    2.600    0.274    0.370   80.339  177.927
  346.500    2.630    0.270    0.381   79.504  177.647
  346.750    2.603    0.264    0.388   78.914  176.972
  347.000    2.509    0.258    0.385   78.507  176.395
  347.250    2.353    0.255    0.383   80.170  176.328
  347.500    2.227    0.255    0.389   82.563  175.951
  347.750    2.127    0.271    0.393   85.205  175.583
  348.000    2.036    0.282    0.382   82.541  175.415
  348.250    1.978    0.295    0.373   75.806  175.342
  348.500    1.921    0.297    0.364   71.378  175.475
  348.750    1.873    0.287    0.366   67.135  175.506
  349.000    1.836    0.300    0.372   69.042  175.637
  349.250    1.837    0.314    0.366   68.635  175.465
  349.500    1.859    0.315    0.364   67.071  175.494
  349.750    1.891    0.300    0.369   64.351  175.737
  350.000    1.967    0.289    0.372   62.359  175.661
  350.250    2.043    0.298    0.373   64.753  175.803
  350.500    2.102    0.310    0.374   66.478  175.826
  350.750    2.150    0.300    0.371   65.461  176.165
  351.000    2.196    0.288    0.370   67.186  176.505
  351.250    2.238    0.278    0.371   68.546  176.949
  351.500    2.298    0.280    0.366   68.441  177.292
  351.750    2.386    0.280    0.372   69.986  177.738
  352.000    2.501    0.272    0.369   71.647  178.153
  352.250    2.675    0.270    0.372   72.212  178.079
  352.500    2.793    0.269    0.375   74.485  178.120
  352.750    2.938    0.256    0.372   77.122  178.247
