~VERSION INFORMATION
 VERS.                 2.0:   CWLS LOG ASCII STANDARD -VERSION 2.0
 WRAP.                  NO:   ONE LINE PER DEPTH STEP
~WELL INFORMATION BLOCK
#MNEM.UNIT           DATA                    DESCRIPTION OF MNEMONIC
#---------    -------------------            -------------------------------
# Generated from Intellog Unique Number	CS_73_76/WELL/1092
WELL.         BOW VALLLEY INDUSTRIES         : Well_name    - WELL
LOC .         00/02-07-076-13W4/0            : Location     - LOCATION
UWI .         00/02-07-076-13W4/0            : Uwi          - UNIQUE WELL ID
ENTR.         T                              : Entered      - ENTERED BY
SRVC.         SCHLUMBERGER                   : Scn          - SERVICE COMPANY
STRT.M        335                            : top_depth    - START DEPTH
STOP.M        565                            : bot_depth    - STOP DEPTH
STEP.M        0.25                           : increment    - STEP LENGTH
 NULL. -999.2500:NULL Value
~CURVE INFORMATION BLOCK
#MNEM UNIT       ERCB CURVE CODE    CURVE DESCRIPTION
#-----------   ------------------   ----------------------------------
DEPT.M        00 001 00 00         : DEPTH        - DEPTH
GR  .API      00 310 00 00         : GR           - GAMMA RAY
NPHI.V/V      00 330 00 00         : PHIN         - NEUTRON POROSITY (SANDSTONE)
DPHI.V/V      00 890 00 00         : PHID         - DENSITY POROSITY (SANDSTONE)
ILD .OHMM     00 120 00 00         : RESD         - DEEP RESISTIVITY (DIL)
~PARAMETER INFORMATION
#MNEM.UNIT           DATA             DESCRIPTION OF MNEMONIC
#---------         -----------     ------------------------------
GL  .M        709.6                : gl           - GROUND LEVEL ELEVATION
EREF.M        712.3                : kb           - ELEVATION OF DEPTH REFERENCE
DATM.M        712.3                : datum        - DATUM ELEVATION
TDD .M        572                  : tdd          - TOTAL DEPTH DRILLER
RUN .         ONE                  : Run          - RUN NUMBER
ENG .         BILL                 : Engineer     - RECORDING ENGINEER
WIT .         JIM                  : Witness      - WITNESSED BY
MUD .         GEL                  : Mud_type     - MUD TYPE
MATR.         SANDSTONE            : Logunit      - NEUTRON MATRIX
TMAX.C        24                   : BHT          - MAXIMUM RECORDED TEMPERATURE
BHTD.M        572                  : BHTDEP       - MAXIMUM RECORDED TEMPERATURE
MATR.         1                    : LOGUNIT      - NEUTRON MATRIX
RMT .C        25                   : MDTP         - TEMPERATURE OF MUD
NEUT.         1                    : NEUTRON      - NEUTRON TYPE
RESI.         0                    : RESIST       - RESISTIVITY TYPE
RMC .OHMM     0.25                 : RMC          - RESISTIVITY OF MUD CAKE
RMF .OHMM     0.25                 : RMF          - RESISTIVITY OF MUD FILTRATE
SUFT.C        15                   : SUFT         - SURFACE TEMPERATURE
~A  DEPTH       GR     PHIN     PHID     RESD
  335.000   93.613    0.543    0.228    3.961
  335.250   93.074    0.539    0.221    3.887
  335.500   93.150    0.528    0.214    3.960
  335.750   92.593    0.516    0.216    4.034
  336.000   91.439    0.503    0.213    4.034
  336.250   91.553    0.486    0.210    4.033
  336.500   92.860    0.486    0.202    3.742
  336.750   91.706    0.502    0.195    3.742
  337.000   89.322    0.515    0.185    3.956
  337.250   86.323    0.517    0.180    4.857
  337.500   85.150    0.488    0.178    6.924
  337.750   82.150    0.442    0.182    8.823
  338.000   79.785    0.428    0.193   10.053
  338.250   78.016    0.433    0.245   11.242
  338.500   75.036    0.439    0.279   11.668
  338.750   73.844    0.442    0.286   11.666
  339.000   72.075    0.442    0.288   10.825
  339.250   70.921    0.442    0.281   10.234
  339.500   71.612    0.442    0.263    9.321
  339.750   74.764    0.442    0.244    8.813
  340.000   78.531    0.445    0.236    8.811
  340.250   82.299    0.452    0.229    8.976
  340.500   81.760    0.458    0.225    9.670
  340.750   78.165    0.454    0.244   10.418
  341.000   76.376    0.452    0.271   11.016
  341.250   73.396    0.453    0.267   11.015
  341.500   71.627    0.454    0.269   11.012
  341.750   71.088    0.457    0.274   11.011
  342.000   71.146    0.460    0.273   11.009
  342.250   72.471    0.457    0.265   11.215
  342.500   73.778    0.436    0.259   11.425
  342.750   74.469    0.422    0.254   11.638
  343.000   75.776    0.424    0.252   11.210
  343.250   78.313    0.431    0.245   10.798
  343.500   86.405    0.436    0.237    9.474
  343.750   94.478    0.440    0.226    8.008
  344.000  103.204    0.449    0.213    7.431
  344.250  102.050    0.460    0.190    7.430
  344.500   97.821    0.464    0.197    8.004
  344.750   94.187    0.473    0.203    8.154
  345.000   90.554    0.482    0.214    9.290
  345.250   85.709    0.477    0.228    9.824
  345.500   80.268    0.466    0.251   10.584
  345.750   77.269    0.462    0.292   11.402
  346.000   74.885    0.462    0.297   12.056
  346.250   71.886    0.461    0.296   12.513
  346.500   70.713    0.459    0.302   12.746
  346.750   70.174    0.459    0.306   12.745
  347.000   71.481    0.465    0.303   12.983
  347.250   74.055    0.466    0.296   12.981
  347.500   75.343    0.468    0.289   13.224
  347.750   79.110    0.467    0.285   13.222
  348.000   82.262    0.463    0.273   13.469
  348.250   86.048    0.460    0.267   13.467
  348.500   83.664    0.455    0.259   13.465
  348.750   80.646    0.448    0.248   13.213
  349.000   73.956    0.429    0.239   13.212
  349.250   67.266    0.415    0.250   13.210
  349.500   61.806    0.402    0.259   13.457
  349.750   57.557    0.392    0.261   13.708
  350.000   53.328    0.389    0.252   13.964
  350.250   49.118    0.392    0.247   14.225
  350.500   47.983    0.395    0.245   14.224
  350.750   48.021    0.399    0.246   13.959
  351.000   54.268    0.401    0.244   12.713
  351.250   60.495    0.406    0.234   11.796
  351.500   66.723    0.409    0.229   10.743
  351.750   75.430    0.415    0.223    9.784
  352.000   81.042    0.421    0.215    9.251
  352.250   87.904    0.426    0.205    8.911
  352.500   92.901    0.435    0.192    8.268
  352.750   97.284    0.445    0.170    7.964
  353.000  102.319    0.460    0.153    7.390
  353.250  105.452    0.482    0.140    7.253
  353.500  109.238    0.490    0.150    6.730
  353.750  113.620    0.505    0.167    6.604
  354.000  116.176    0.512    0.159    6.361
  354.250  112.543    0.502    0.132    6.014
  354.500  108.928    0.493    0.124    6.013
  354.750  110.254    0.484    0.122    5.901
  355.000  114.021    0.480    0.129    5.791
  355.250  117.173    0.487    0.140    5.683
  355.500  119.729    0.515    0.149    5.474
  355.750  121.035    0.540    0.158    4.986
  356.000  120.516    0.550    0.173    4.457
  356.250  119.939    0.559    0.189    4.214
  356.500  118.823    0.554    0.206    3.838
  356.750  118.861    0.552    0.208    3.837
  357.000  118.957    0.548    0.205    3.836
  357.250  118.418    0.538    0.205    3.981
  357.500  117.245    0.513    0.211    4.132
  357.750  113.631    0.496    0.226    7.508
  358.000  108.190    0.466    0.235    9.047
  358.250  105.825    0.452    0.236    9.389
  358.500  104.633    0.450    0.225    9.744
  358.750  101.634    0.452    0.223    9.744
  359.000   98.019    0.459    0.226   10.111
  359.250   95.020    0.467    0.242   10.111
  359.500   92.001    0.467    0.258   10.300
  359.750   88.387    0.460    0.263   10.298
  360.000   83.543    0.462    0.251   10.296
  360.250   88.559    0.464    0.237    9.918
  360.500   99.092    0.463    0.219    9.553
  360.750  107.184    0.464    0.208    9.031
  361.000  110.970    0.465    0.198    8.863
  361.250  107.952    0.469    0.208    8.698
  361.500  103.723    0.462    0.203    8.378
  361.750  100.108    0.456    0.198    8.377
  362.000   97.109    0.454    0.208    8.694
  362.250   94.129    0.452    0.217    9.193
  362.500   92.956    0.450    0.226    9.542
  362.750   92.436    0.448    0.236    9.903
  363.000   93.128    0.449    0.248    9.902
  363.250   93.223    0.450    0.257   10.086
  363.500   93.261    0.454    0.257   10.085
  363.750   93.953    0.455    0.224    9.714
  364.000   95.913    0.456    0.211    9.533
  364.250   97.815    0.452    0.211    9.013
  364.500  101.620    0.446    0.226    8.681
  364.750  104.138    0.441    0.233    8.519
  365.000  106.079    0.441    0.237    8.517
  365.250  106.732    0.443    0.231    8.517
  365.500   96.352    0.449    0.227    8.515
  365.750   77.955    0.456    0.238    8.837
  366.000   70.035    0.462    0.256    9.003
  366.250   67.036    0.463    0.271    9.171
  366.500   68.977    0.474    0.257    9.343
  366.750   69.668    0.477    0.267    9.517
  367.000   66.688    0.479    0.292    9.878
  367.250   64.881    0.478    0.300   10.445
  367.500   61.266    0.477    0.315   11.044
  367.750   57.652    0.472    0.320   11.462
  368.000   55.268    0.469    0.312   11.677
  368.250   55.344    0.469    0.303   11.675
  368.500   59.130    0.464    0.304   11.457
  368.750   62.282    0.463    0.305   11.456
  369.000   63.589    0.459    0.307   11.454
  369.250   64.261    0.455    0.306   11.453
  369.500   64.991    0.455    0.306   11.450
  369.750   65.701    0.459    0.309   11.237
  370.000   66.355    0.465    0.312   11.028
  370.250   69.507    0.467    0.314   10.822
  370.500   73.312    0.472    0.303   10.424
  370.750   75.195    0.474    0.291   10.230
  371.000   78.981    0.475    0.276    9.671
  371.250   82.749    0.483    0.256    8.808
  371.500   86.516    0.501    0.243    8.484
  371.750   92.762    0.519    0.224    7.727
  372.000   97.760    0.524    0.234    7.170
  372.250  102.142    0.523    0.252    6.654
  372.500  101.622    0.514    0.247    6.409
  372.750  100.468    0.504    0.233    6.289
  373.000   99.314    0.499    0.219    6.288
  373.250   97.526    0.494    0.215    6.406
  373.500   92.701    0.493    0.227    6.649
  373.750   89.067    0.484    0.236    7.162
  374.000   87.913    0.473    0.236    7.434
  374.250   86.163    0.464    0.235    8.009
  374.500   83.760    0.459    0.238    8.956
  374.750   78.935    0.475    0.246    9.471
  375.000   74.686    0.481    0.256   10.015
  375.250   71.072    0.475    0.272   10.590
  375.500   71.167    0.472    0.286   11.409
  375.750   73.089    0.467    0.298   11.841
  376.000   76.241    0.471    0.290   11.839
  376.250   81.872    0.478    0.271   10.783
  376.500   86.850    0.485    0.246    9.639
  376.750   93.078    0.487    0.232    8.945
  377.000   96.268    0.489    0.215    7.996
  377.250   94.518    0.495    0.204    7.419
  377.500   92.730    0.498    0.200    7.014
  377.750   90.327    0.499    0.218    6.756
  378.000   86.713    0.499    0.246    6.630
  378.250   84.309    0.496    0.256    6.881
