~VERSION INFORMATION
 VERS.                 2.0:   CWLS LOG ASCII STANDARD -VERSION 2.0
 WRAP.                  NO:   ONE LINE PER DEPTH STEP
~WELL INFORMATION BLOCK
#MNEM.UNIT           DATA                    DESCRIPTION OF MNEMONIC
#---------    -------------------            -------------------------------
# Generated from Intellog Unique Number	CX_WELLS/WELL/3729
NULL.         -999.25                        : NULL_VALUE
WELL.         PARAMOUNT ET AL LIVOCK         : Well_name    - WELL              
LOC .         06-23-085-18W4                 : Location     - LOCATION          
UWI .         00/06-23-085-18W400            : Uwi          - UNIQUE WELL ID    
ENTR.         T                              : Entered      - ENTERED BY        
SRVC.         SCHLUMBERGER                   : Scn          - SERVICE COMPANY   
DATE.         03/04/92                       : Date         - LOG DATE          
STRT.F        620                            : top_depth    - START DEPTH       
STOP.F        849.659                        : bot_depth    - STOP DEPTH        
STEP.F        0.82                           : increment    - STEP LENGTH       
~CURVE INFORMATION BLOCK
#MNEM UNIT       ERCB CURVE CODE    CURVE DESCRIPTION
#-----------   ------------------   ----------------------------------
DEPT.F        00 001 00 00         : DEPTH        - DEPTH                       
GR  .API      00 310 00 00         : GR           - GAMMA RAY                   
NPHI.V/V      00 330 00 00         : PHIN         - NEUTRON POROSITY (SANDSTONE)
DPHI.V/V      00 890 00 00         : PHID         - DENSITY POROSITY (SANDSTONE)
ILD .OHMM     00 120 00 00         : RESD         - DEEP RESISTIVITY (DIL)      
~PARAMETER INFORMATION       
#MNEM.UNIT           DATA             DESCRIPTION OF MNEMONIC
#---------         -----------     ------------------------------
GL  .F        1657                 : gl           - GROUND LEVEL ELEVATION      
EREF.F        1668                 : kb           - ELEVATION OF DEPTH REFERENCE
DATM.F        1668                 : datum        - DATUM ELEVATION             
TDD .F        850                  : tdd          - TOTAL DEPTH DRILLER         
RUN .         ONE                  : Run          - RUN NUMBER                  
ENG .         JO                   : Engineer     - RECORDING ENGINEER          
WIT .         TIM                  : Witness      - WITNESSED BY                
MUD .         GEL                  : Mud_type     - MUD TYPE                    
MATR.         SANDSTONE            : Logunit      - NEUTRON MATRIX              
TMAX.F        57                   : BHT          - MAXIMUM RECORDED TEMPERATURE
BHTD.F        850                  : BHTDEP       - MAXIMUM RECORDED TEMPERATURE
RMT .F        50                   : MDTP         - TEMPERATURE OF MUD          
MUDD.LB/G     1                    : MWT          - MUD DENSITY                 
NEUT.         1                    : NEUTRON      - NEUTRON TYPE                
RESI.         0                    : RESIST       - RESISTIVITY TYPE            
RM  .OHMM     2.5                  : RM           - RESISTIVITY OF MUD          
RMC .OHMM     2.5                  : RMC          - RESISTIVITY OF MUD CAKE     
RMF .OHMM     3.4                  : RMF          - RESISTIVITY OF MUD FILTRATE 
SUFT.F        39.2                 : SUFT         - SURFACE TEMPERATURE         
~A  DEPTH       GR     PHIN     PHID     RESD
# ...
  762.717   90.053    0.430    0.241   16.568
  763.537   87.110    0.433    0.241   16.655
  764.357   82.988    0.440    0.234   16.738
  765.177   77.684    0.447    0.208   17.144
  765.997   76.514    0.443    0.201   17.306
  766.818   79.472    0.449    0.212   17.393
  767.638   82.431    0.456    0.225   16.280
  768.458   84.805    0.466    0.225   15.329
  769.278   84.221    0.467    0.226   15.493
  770.098   84.821    0.467    0.233   15.897
  770.919   84.241    0.456    0.243   16.300
  771.739   81.884    0.433    0.215   17.344
  772.559   77.172    0.410    0.181   18.467
  773.379   73.639    0.405    0.164   19.589
  774.199   73.650    0.399    0.146   21.910
  775.020   75.429    0.390    0.135   22.555
  775.840   77.800    0.394    0.144   22.161
  776.660   78.987    0.418    0.165   21.768
  777.480   80.766    0.428    0.189   21.533
  778.301   82.547    0.441    0.196   20.021
  779.121   84.328    0.457    0.220   18.109
  779.941   84.922    0.464    0.230   16.279
  780.761   87.884    0.469    0.231   14.847
  781.581   90.255    0.472    0.235   14.533
  782.402   92.036    0.475    0.248   14.141
  783.222   92.633    0.478    0.250   13.908
  784.042   92.053    0.477    0.227   13.831
  784.862   92.059    0.475    0.221   13.519
  785.682   91.481    0.478    0.210   13.363
  786.503   91.485    0.485    0.200   13.207
  787.323   92.084    0.490    0.196   12.894
  788.143   92.094    0.499    0.197   12.738
  788.963   92.695    0.502    0.197   12.345
  789.783   92.701    0.509    0.194   11.951
  790.604   94.482    0.514    0.185   11.318
  791.424   95.079    0.515    0.180   10.684
  792.244   96.862    0.506    0.171   10.131
  793.064   97.458    0.501    0.165    9.818
  793.885   99.828    0.505    0.158    9.422
  794.705  102.787    0.509    0.191    8.869
  795.525  108.110    0.515    0.209    8.075
  796.345  110.479    0.517    0.219    7.362
  797.165  110.487    0.520    0.221    6.650
  797.986  108.727    0.515    0.212    6.175
  798.806  107.553    0.520    0.205    5.781
  799.626  106.975    0.526    0.203    5.308
  800.446  107.573    0.528    0.201    5.393
  801.266  106.403    0.528    0.199    5.720
  802.087  104.048    0.528    0.189    5.963
  802.907  102.284    0.525    0.167    6.446
  803.727   98.752    0.499    0.140    7.889
  804.547   95.219    0.481    0.134    9.969
  805.367   81.061    0.449    0.086   13.009
  806.188   76.347    0.437    0.072   15.569
  807.008   68.092    0.403    0.158   19.169
  807.828   61.607    0.412    0.248   20.210
  808.648   56.305    0.432    0.272   22.132
  809.469   51.592    0.443    0.275   22.856
  810.289   46.880    0.454    0.276   23.500
  811.109   46.300    0.457    0.281   24.464
  811.929   46.306    0.460    0.286   25.347
  812.749   48.089    0.463    0.287   25.910
  813.570   49.868    0.466    0.285   25.039
  814.390   52.236    0.470    0.282   24.325
  815.210   55.193    0.475    0.275   23.452
  816.030   58.743    0.476    0.269   22.259
  816.850   62.885    0.474    0.260   19.151
  817.671   67.025    0.465    0.247   16.921
  818.491   72.346    0.456    0.231   14.692
  819.311   78.847    0.455    0.205   12.860
  820.131   94.204    0.463    0.194   12.465
  820.951  102.476    0.487    0.205   10.315
  821.772  109.567    0.496    0.218    7.207
  822.592  113.117    0.508    0.226    6.413
  823.412  111.947    0.523    0.224    5.301
  824.232  109.004    0.537    0.213    4.588
  825.052  104.290    0.532    0.185    4.593
  825.873  100.170    0.519    0.163    4.998
  826.693  100.175    0.519    0.161    5.241
  827.513  103.728    0.521    0.153    5.248
  828.333  109.637    0.522    0.153    5.094
  829.154  115.550    0.528    0.181    5.098
  829.974  117.329    0.545    0.187    5.184
  830.794  116.747    0.548    0.195    5.590
  831.614  114.985    0.537    0.199    5.913
  832.434  111.453    0.526    0.204    8.153
  833.255  107.922    0.512    0.210   13.108
  834.075  106.156    0.503    0.218   19.821
  834.895  107.937    0.493    0.228   20.384
  835.715  118.570    0.483    0.251   20.071
  836.535  138.647    0.480    0.258   19.758
  837.356  154.002    0.475    0.249   19.602
  838.176  164.046    0.474    0.225   19.529
  838.996  150.479    0.471    0.219   19.695
  839.816  138.682    0.469    0.215   20.017
  840.636  103.275    0.466    0.224   20.901
  841.457   75.541    0.465    0.230   22.263
  842.277   66.105    0.466    0.238   23.066
  843.097   60.213    0.467    0.242   24.192
  843.917   61.406    0.468    0.246   24.437
  844.738   63.773    0.470    0.251   24.441
  845.558   65.550    0.469    0.255   24.366
  846.378   64.382    0.469    0.262   24.132
  847.198   63.205    0.469    0.269   23.818
  848.018   63.218    0.469    0.278   23.663
  848.839   64.404    0.468    0.287   23.428
  849.659   66.185    0.466    0.312   23.116
