~VERSION INFORMATION
 VERS.                 2.0:   CWLS LOG ASCII STANDARD -VERSION 2.0
 WRAP.                  NO:   ONE LINE PER DEPTH STEP
~WELL INFORMATION BLOCK
#MNEM.UNIT           DATA                    DESCRIPTION OF MNEMONIC
#---------    -------------------            -------------------------------
# Generated from Intellog Unique Number	CN_91_93/WELL/3193
WELL.         PARAMOUNT RESOURCES LTD.       : Well_name    - WELL
LOC .         00/06-02-092-19W4/0            : Location     - LOCATION
UWI .         00/06-02-092-19W4/0            : Uwi          - UNIQUE WELL ID
ENTR.         JOETTE                         : Entered      - ENTERED BY
SRVC.         COMPUTALOG                     : Scn          - SERVICE COMPANY
DATE.         04/14/92                       : Date         - LOG DATE
STRT.M        100                            : top_depth    - START DEPTH
STOP.M        267                            : bot_depth    - STOP DEPTH
STEP.M        0.25                           : increment    - STEP LENGTH
 NULL. -999.2500:NULL Value
~CURVE INFORMATION BLOCK
#MNEM UNIT       ERCB CURVE CODE    CURVE DESCRIPTION
#-----------   ------------------   ----------------------------------
DEPT.M        00 001 00 00         : DEPTH        - DEPTH
CALI.MM       00 280 01 00         : CAL          - CALIPER
GR  .API      00 310 00 00         : GR           - GAMMA RAY
NPHI.V/V      00 330 00 00         : PHIN         - NEUTRON POROSITY (SANDSTONE)
DPHI.V/V      00 890 00 00         : PHID         - DENSITY POROSITY (SANDSTONE)
ILD .OHMM     00 120 00 00         : RESD         - DEEP RESISTIVITY (DIL)
~PARAMETER INFORMATION
#MNEM.UNIT           DATA             DESCRIPTION OF MNEMONIC
#---------         -----------     ------------------------------
GL  .M        527.02               : gl           - GROUND LEVEL ELEVATION
EREF.M        530.82               : kb           - ELEVATION OF DEPTH REFERENCE
DATM.M        530.82               : datum        - DATUM ELEVATION
TDD .M        267.5                : tdd          - TOTAL DEPTH DRILLER
RUN .         ONE                  : Run          - RUN NUMBER
ENG .         JO                   : Engineer     - RECORDING ENGINEER
WIT .         TIM                  : Witness      - WITNESSED BY
MUD .         GEL                  : Mud_type     - MUD TYPE
MATR.         SANDSTONE            : Logunit      - NEUTRON MATRIX
TMAX.C        22                   : BHT          - MAXIMUM RECORDED TEMPERATURE
BHTD.M        267.5                : BHTDEP       - MAXIMUM RECORDED TEMPERATURE
RMT .C        11.1                 : MDTP         - TEMPERATURE OF MUD
MUDD.KG/M     1130                 : MWT          - MUD DENSITY
NEUT.         1                    : NEUTRON      - NEUTRON TYPE
RESI.         0                    : RESIST       - RESISTIVITY TYPE
RM  .OHMM     1.8                  : RM           - RESISTIVITY OF MUD
RMC .OHMM     1.8                  : RMC          - RESISTIVITY OF MUD CAKE
RMF .OHMM     5                    : RMF          - RESISTIVITY OF MUD FILTRATE
SUFT.C        4                    : SUFT         - SURFACE TEMPERATURE
~A  DEPTH      CAL       GR     PHIN     PHID     RESD
# ...
  209.500  224.090   95.890    0.374    0.087   12.175
  209.750  224.149   94.066    0.404    0.072   11.936
  210.000  224.196   93.477    0.409    0.066   11.477
  210.250  224.255   97.202    0.401    0.061   10.824
  210.500  225.319  100.935    0.395    0.136   10.407
  210.750  228.464  105.291    0.384    0.154   10.403
  211.000  231.598  107.171    0.447    0.169   10.401
  211.250  232.674  106.582    0.476    0.170   10.399
  211.500  232.710   97.968    0.481    0.168   10.396
  211.750  231.751   94.293    0.434    0.120   10.596
  212.000  229.717   94.321    0.389    0.080   10.594
  212.250  224.632  104.844    0.386    0.055   11.010
  212.500  225.708  114.132    0.416    0.091   11.444
  212.750  228.842  116.019    0.435    0.150   11.440
  213.000  230.946  111.102    0.451    0.177   10.789
  213.250  232.022  104.957    0.430    0.135   10.173
  213.500  231.053   98.819    0.409    0.108    9.782
  213.750  228.001  100.692    0.434    0.087    9.971
  214.000  214.661  107.511    0.452    0.127   10.776
  214.250  212.663  114.330    0.472    0.160   10.984
  214.500  213.739  119.914    0.463    0.178   10.562
  214.750  213.797  114.386    0.482    0.176   10.355
  215.000  213.821  107.624    0.417    0.171   10.352
  215.250  206.666  103.948    0.405    0.177   10.760
  215.500  206.713  103.977    0.394    0.185   11.184
  215.750  213.962  102.770    0.382    0.180   12.085
  216.000  220.195  100.329    0.317    0.138   13.060
  216.250  227.456   97.278    0.280    0.063   13.574
  216.500  230.589  101.003    0.265    0.016   13.052
  216.750  231.665  109.681    0.329    0.062   12.551
  217.000  233.770  112.796    0.349    0.099   11.608
  217.250  234.834  115.294    0.363    0.157   10.736
  217.500  234.882  121.495    0.381    0.176   10.123
  217.750  234.929  125.845    0.407    0.168    9.734
  218.000  233.947  122.169    0.404    0.166    9.180
  218.250  231.948  118.493    0.387    0.170    8.657
  218.500  227.868  117.904    0.433    0.174    8.655
  218.750  218.655  114.229    0.463    0.150    8.822
  219.000  215.616  107.473    0.509    0.098    9.350
  219.250  223.918  112.433    0.484    0.087    9.909
  219.500  227.028  119.252    0.446    0.118    9.906
  219.750  231.190  122.367    0.458    0.161    9.161
  220.000  232.278  117.457    0.480    0.171    8.981
  220.250  232.325   95.261    0.466    0.158    9.156
  220.500  230.315   78.622    0.446    0.156   11.338
  220.750  226.246   60.741    0.248    0.232   18.081
  221.000  215.993   42.249    0.179    0.304   26.162
  221.250  197.521   32.408    0.142    0.348   41.721
  221.500  214.030   29.960    0.105    0.365   55.845
  221.750  218.216   26.291    0.097    0.371   80.794
  222.000  219.280   25.078    0.096    0.376   83.976
  222.250  219.327   26.340    0.102    0.379   83.958
  222.500  218.345   28.228    0.116    0.381   54.702
  222.750  216.335   29.498    0.127    0.381   46.803
  223.000  212.278   29.519    0.137    0.380   37.774
  223.250  208.222   30.165    0.159    0.376   27.128
  223.500  207.216   30.193    0.222    0.367   24.606
  223.750  207.275   29.604    0.272    0.351   25.082
  224.000  208.340   29.625    0.304    0.329   29.872
  224.250  212.526   33.364    0.355    0.305   34.895
  224.500  214.619   37.097    0.383    0.291   41.562
  224.750  218.782   42.071    0.399    0.288   49.502
  225.000  220.875   41.481    0.448    0.300   55.616
  225.250  217.835   42.737    0.442    0.303   58.942
  225.500  215.825   45.859    0.475    0.300   63.694
  225.750  223.086   43.411    0.469    0.291   67.503
  226.000  227.248   40.970    0.476    0.288   74.379
  226.250  228.336   39.147    0.481    0.286   80.376
  226.500  227.366   40.416    0.468    0.286   90.297
  226.750  226.361   42.914    0.468    0.283   97.577
  227.000  223.321   44.794    0.453    0.265  101.420
  227.250  220.282   44.212    0.439    0.264  101.384
  227.500  219.300   43.609    0.393    0.270  101.369
  227.750  219.371   43.020    0.406    0.277  101.332
  228.000  220.423   43.680    0.417    0.282  101.296
  228.250  222.528   44.319    0.440    0.285  101.281
  228.500  226.703   46.206    0.444    0.287  101.252
  228.750  226.761   47.469    0.455    0.289  101.216
  229.000  225.768   49.356    0.455    0.282  101.179
  229.250  223.769   49.987    0.435    0.249  101.150
  229.500  222.764   48.781    0.440    0.249  101.128
  229.750  218.719   44.488    0.452    0.255  101.099
  230.000  217.714   45.751    0.461    0.266  101.063
  230.250  217.761   46.397    0.495    0.278  101.041
  230.500  218.849   44.573    0.515    0.287   99.065
  230.750  219.913   42.132    0.502    0.295   89.849
  231.000  219.972   40.926    0.442    0.299   83.103
  231.250  220.019   41.571    0.394    0.295   72.501
  231.500  220.066   47.773    0.395    0.291   67.048
  231.750  220.125   48.425    0.434    0.289   64.470
  232.000  220.160   47.829    0.486    0.269   63.205
  232.250  220.196   46.630    0.533    0.249   63.191
  232.500  220.266   46.034    0.559    0.228   60.762
  232.750  220.302   47.914    0.522    0.195   54.055
  233.000  220.361   52.888    0.477    0.197   51.977
  233.250  220.408   55.393    0.440    0.217   48.071
  233.500  220.455   56.045    0.413    0.227   42.759
  233.750  219.473   56.060    0.423    0.223   38.036
  234.000  217.463   57.940    0.424    0.214   31.917
  234.250  218.539   59.827    0.418    0.202   22.048
  234.500  219.603   62.935    0.408    0.189   16.144
  234.750  221.720   67.902    0.389    0.176   14.084
  235.000  222.807   73.486    0.380    0.162   12.775
  235.250  223.860   80.922    0.396    0.164   11.587
  235.500  223.931   85.896    0.384    0.169    9.913
  235.750  223.931   89.018    0.372    0.183    8.992
  236.000  225.066   89.664    0.356    0.196    7.694
  236.250  225.089   90.316    0.367    0.201    5.973
  236.500  225.124   90.948    0.511    0.193    5.971
  236.750  223.137   85.420    0.495    0.193    7.111
  237.000  222.132   89.159    0.454    0.197    7.537
  237.250  218.064   95.971    0.360    0.185    8.145
  237.500  209.880  103.407    0.350    0.160    8.631
  237.750  215.071  110.226    0.396    0.189    8.463
  238.000  219.246  117.677    0.444    0.196    7.827
  238.250  222.391  115.853    0.462    0.182    7.099
  238.500  223.456  109.084    0.462    0.160    6.315
  238.750  224.532  106.643    0.525    0.128    6.073
  239.000  224.591  114.079    0.398    0.115    8.959
  239.250  224.626  121.522    0.370    0.129   10.880
  239.500  224.697  116.605    0.337    0.150   12.959
  239.750  224.732  101.200    0.402    0.166   12.459
  240.000  223.738   91.351    0.362    0.177   11.981
  240.250  222.757   84.582    0.318    0.192   11.521
  240.500  222.827   74.733    0.277    0.214   20.248
  240.750  221.846   68.595    0.256    0.241   22.310
  241.000  220.852   69.240    0.235    0.267   21.876
  241.250  221.928   69.262    0.268    0.337   21.446
  241.500  217.860   73.001    0.293    0.305   20.622
  241.750  216.866   77.975    0.320    0.268   19.829
  242.000  214.856   81.090    0.348    0.237   18.339
  242.250  219.030   79.876    0.371    0.242   21.419
  242.500  221.135   81.139    0.389    0.242   22.701
  242.750  219.124   85.496    0.391    0.232   24.061
  243.000  216.085   87.986    0.386    0.243   25.999
  243.250  213.057   84.311    0.344    0.267   27.551
  243.500  212.052   81.870    0.348    0.260   29.773
  243.750  211.070   84.985    0.375    0.252   30.948
  244.000  209.072   88.717    0.375    0.261   33.445
  244.250  209.119   94.918    0.383    0.275   43.905
  244.500  216.380   98.651    0.415    0.282   43.892
  244.750  219.513   68.430    0.443    0.290   42.205
  245.000  221.618   58.581    0.437    0.295   39.797
  245.250  221.665   61.079    0.441    0.285   36.100
  245.500  222.741   66.663    0.409    0.255   31.494
  245.750  221.760   72.247    0.394    0.216   23.515
