~VERSION INFORMATION
 VERS.                 2.0:   CWLS LOG ASCII STANDARD -VERSION 2.0
 WRAP.                  NO:   ONE LINE PER DEPTH STEP
~WELL INFORMATION BLOCK
#MNEM.UNIT           DATA                    DESCRIPTION OF MNEMONIC
#---------    -------------------            -------------------------------
# Generated from Intellog Unique Number	CX_WELLS/WELL/3124
WELL.         UNIVERSAL                      : Well_name    - WELL
LOC .         00/06-09-083-03W4/0            : Location     - LOCATION
UWI .         00/06-09-083-03W400            : Uwi          - UNIQUE WELL ID
ENTR.         TIM                            : Entered      - ENTERED BY
SRVC.         SCHLUMBERGER                   : Scn          - SERVICE COMPANY
STRT.F        300                            : top_depth    - START DEPTH
STOP.F        979.954                        : bot_depth    - STOP DEPTH
STEP.F        0.82                           : increment    - STEP LENGTH
 NULL. -999.2500:NULL Value
~CURVE INFORMATION BLOCK
#MNEM UNIT       ERCB CURVE CODE    CURVE DESCRIPTION
#-----------   ------------------   ----------------------------------
DEPT.F        00 001 00 00         : DEPTH        - DEPTH
GR  .API      00 310 00 00         : GR           - GAMMA RAY
NPHI.V/V      00 330 00 00         : PHIN         - NEUTRON POROSITY (SANDSTONE)
DPHI.V/V      00 890 00 00         : PHID         - DENSITY POROSITY (SANDSTONE)
ILD .OHMM     00 120 00 00         : RESD         - DEEP RESISTIVITY (OTHER)
~PARAMETER INFORMATION
#MNEM.UNIT           DATA             DESCRIPTION OF MNEMONIC
#---------         -----------     ------------------------------
GL  .F        1568                 : gl           - GROUND LEVEL ELEVATION
EREF.F        1578.5               : kb           - ELEVATION OF DEPTH REFERENCE
DATM.F        1578.5               : datum        - DATUM ELEVATION
TDD .F        1000                 : tdd          - TOTAL DEPTH DRILLER
RUN .         ONE                  : Run          - RUN NUMBER
ENG .         BILL                 : Engineer     - RECORDING ENGINEER
WIT .         JIM                  : Witness      - WITNESSED BY
MUD .         GEL                  : Mud_type     - MUD TYPE
MATR.         SANDSTONE            : Logunit      - NEUTRON MATRIX
TMAX.F        68                   : BHT          - MAXIMUM RECORDED TEMPERATURE
BHTD.F        1000                 : BHTDEP       - MAXIMUM RECORDED TEMPERATURE
MATR.         1                    : LOGUNIT      - NEUTRON MATRIX
RMT .F        68                   : MDTP         - TEMPERATURE OF MUD
NEUT.         1                    : NEUTRON      - NEUTRON TYPE
RESI.         5.65                 : RESIST       - RESISTIVITY TYPE
RMC .OHMM     6.4                  : RMC          - RESISTIVITY OF MUD CAKE
RMF .OHMM     5.2                  : RMF          - RESISTIVITY OF MUD FILTRATE
SUFT.F        37.4                 : SUFT         - SURFACE TEMPERATURE
~A  DEPTH       GR     PHIN     PHID     RESD
# ...
  442.717   51.875    0.474    0.355   15.391
  443.537   50.567    0.470    0.350   15.145
  444.357   48.590    0.469    0.350   14.884
  445.177   46.583    0.464    0.351   14.366
  445.997   48.027    0.462    0.354   14.130
  446.818   50.155    0.463    0.356   13.899
  447.638   50.900    0.462    0.355   13.660
  448.458   50.946    0.458    0.355   13.430
  449.278   50.337    0.451    0.355   13.447
  450.098   50.397    0.440    0.355   13.231
  450.919   50.458    0.436    0.355   12.999
  451.739   50.519    0.442    0.352   13.020
  452.559   50.579    0.449    0.351   13.290
  453.379   51.339    0.451    0.353   13.566
  454.199   51.369    0.456    0.358   13.836
  455.020   51.430    0.458    0.364   14.387
  455.840   49.453    0.462    0.374   15.240
  456.660   48.829    0.462    0.375   15.538
  457.480   49.574    0.460    0.374   15.854
  458.301   51.687    0.458    0.370   15.301
  459.121   54.484    0.457    0.368   13.975
  459.941   57.297    0.456    0.367   12.524
  460.761   59.410    0.458    0.364   11.014
  461.581   62.208    0.465    0.357   10.243
  462.402   65.005    0.471    0.356   10.071
  463.222   61.660    0.485    0.357   10.477
  464.042   60.352    0.495    0.359   10.886
  464.862   59.728    0.492    0.360   11.531
  465.682   59.804    0.492    0.360   11.981
  466.503   59.834    0.493    0.360   12.229
  467.323   59.211    0.497    0.361   12.254
  468.143   58.587    0.500    0.366   12.268
  468.963   60.016    0.495    0.366   12.067
  469.783   64.212    0.484    0.361   11.860
  470.604   64.273    0.472    0.358   11.879
  471.424   62.965    0.473    0.352   11.470
  472.244   61.657    0.477    0.348   11.282
  473.064   60.349    0.483    0.345   11.295
  473.885   59.056    0.492    0.344   11.741
  474.705   59.086    0.497    0.357   11.975
  475.525   59.162    0.481    0.356   11.994
  476.345   59.207    0.475    0.351   12.013
  477.165   59.283    0.482    0.351   12.042
  477.986   57.975    0.489    0.352   11.622
  478.806   56.667    0.482    0.358   11.432
  479.626   55.359    0.457    0.370   11.450
  480.446   53.382    0.452    0.368   11.464
  481.266   52.758    0.453    0.362   11.692
  482.087   52.135    0.453    0.361   12.153
  482.907   52.864    0.453    0.357   12.173
  483.727   55.662    0.458    0.351   12.430
  484.547   57.106    0.469    0.344   12.688
  485.367   55.114    0.481    0.342   12.941
  486.188   53.791    0.480    0.347   13.457
  487.008   51.129    0.474    0.355   13.719
  487.828   50.521    0.461    0.366   14.260
  488.648   50.566    0.447    0.367   15.106
  489.469   50.611    0.448    0.366   15.695
  490.289   51.386    0.453    0.371   16.020
  491.109   51.432    0.455    0.377   16.059
  491.929   51.492    0.455    0.380   16.078
  492.749   50.869    0.455    0.378   16.098
  493.570   48.877    0.456    0.373   15.834
  494.390   46.884    0.457    0.369   15.007
  495.210   46.960    0.466    0.368   14.479
  496.030   48.374    0.479    0.369   14.230
  496.850   49.803    0.476    0.369   13.234
  497.671   49.863    0.464    0.365   12.539
  498.491   48.571    0.468    0.330   12.107
  499.311   48.631    0.474    0.308   12.819
  500.131   49.376    0.470    0.302   14.087
  500.951   51.489    0.461    0.288   15.201
  501.772   56.370    0.465    0.275   15.504
  502.592   57.769    0.468    0.262   15.832
  503.412   61.250    0.468    0.244   15.851
  504.232   64.747    0.436    0.233   15.585
  505.052   68.959    0.420    0.236   15.054
  505.873   70.372    0.449    0.262   14.795
  506.693   71.087    0.470    0.268   14.541
  507.513   71.847    0.485    0.295   13.529
  508.333   71.223    0.509    0.328   12.818
  509.154   70.599    0.510    0.331   12.144
  509.974   69.976    0.499    0.335   11.295
  510.794   70.036    0.482    0.332   10.901
  511.614   70.796    0.480    0.326   10.714
  512.434   71.526    0.485    0.323   10.735
  513.255   72.955    0.486    0.322   10.551
  514.075   74.384    0.488    0.324   10.568
  514.895   74.444    0.490    0.327   10.390
  515.715   74.505    0.492    0.325   10.216
  516.535   75.949    0.494    0.329   10.048
  517.356   76.010    0.498    0.335    9.706
  518.176   76.085    0.506    0.331    9.535
  518.996   75.446    0.518    0.325    9.375
  519.816   74.138    0.532    0.320    9.218
  520.636   72.846    0.539    0.317    8.897
  521.457   74.944    0.546    0.316    8.432
  522.277   77.741    0.531    0.316    8.139
  523.097   78.486    0.519    0.314    8.002
  523.917   77.193    0.511    0.314    8.165
  524.738   75.885    0.509    0.315    8.483
  525.558   75.307    0.509    0.316    8.348
  526.378   76.037    0.507    0.326    8.053
  527.198   77.451    0.507    0.335    7.353
  528.018   79.549    0.511    0.339    6.589
  528.839   83.046    0.516    0.333    5.688
  529.659   87.196    0.525    0.323    4.912
  530.479   94.799    0.547    0.307    4.164
  531.299   96.228    0.565    0.309    3.596
  532.119   96.288    0.586    0.314    3.347
  532.940   97.717    0.623    0.319    3.288
  533.760   99.831    0.616    0.330    3.174
  534.580  101.959    0.600    0.349    3.063
  535.400   98.598    0.603    0.371    2.850
  536.220   94.538    0.606    0.390    2.700
  537.041   90.508    0.602    0.410    2.707
  537.861   90.584    0.607    0.427    2.812
  538.681   90.630    0.610    0.432    2.978
  539.501   90.690    0.616    0.437    3.094
  540.322   90.082    0.618    0.421    3.338
  541.142   90.142    0.626    0.416    3.670
  541.962   93.624    0.629    0.419    3.814
  542.782   97.790    0.622    0.426    4.115
  543.602   98.535    0.615    0.429    4.359
  544.423   95.174    0.611    0.399    4.527
  545.243   91.798    0.616    0.387    4.794
  546.063   85.731    0.617    0.373    5.175
  546.883   84.392    0.602    0.362    5.482
  547.703   83.100    0.581    0.356    5.589
  548.524   81.792    0.565    0.369    5.810
  549.344   81.168    0.553    0.374    5.819
  550.164   81.228    0.555    0.367    5.828
  550.984   81.289    0.559    0.328    5.838
  551.804   81.380    0.568    0.338    5.852
  552.625   81.410    0.584    0.344    6.080
  553.445   81.486    0.588    0.343    6.325
  554.265   81.561    0.581    0.334    6.451
  555.085   82.276    0.542    0.328    6.582
  555.906   82.352    0.529    0.308    6.590
  556.726   81.728    0.521    0.307    6.600
  557.546   80.420    0.512    0.310    6.740
  558.366   79.796    0.510    0.310    6.874
  559.186   80.556    0.505    0.312    7.017
  560.007   81.985    0.500    0.317    7.028
  560.827   83.414    0.507    0.317    7.042
  561.647   83.460    0.540    0.312    7.048
  562.467   83.520    0.559    0.318    6.932
  563.287   81.543    0.545    0.317    6.943
  564.108   81.619    0.530    0.313    6.952
  564.928   81.664    0.516    0.310    6.966
  565.748   83.093    0.507    0.307    7.113
  566.568   84.522    0.498    0.302    7.119
  567.388   85.267    0.495    0.292    7.133
  568.209   86.012    0.501    0.288    7.142
  569.029   85.403    0.508    0.296    7.159
  569.849   84.779    0.510    0.303    7.164
  570.669   83.456    0.519    0.316    7.047
  571.490   83.517    0.520    0.320    6.801
  572.310   82.893    0.510    0.319    6.685
  573.130   83.638    0.498    0.314    6.333
  573.950   86.466    0.500    0.304    6.113
  574.770   87.880    0.511    0.282    6.012
  575.591   89.993    0.519    0.282    6.024
  576.411   92.106    0.528    0.307    5.923
  577.231   94.234    0.547    0.323    5.826
  578.051   91.543    0.536    0.290    5.726
  578.871   90.235    0.523    0.296    5.529
  579.692   90.980    0.525    0.303    5.432
  580.512   93.792    0.520    0.286    5.052
  581.332   96.590    0.516    0.286    4.529
  582.152   98.703    0.540    0.286    4.373
  582.972   98.079    0.554    0.286    4.296
  583.793   94.719    0.562    0.285    4.224
  584.613   90.674    0.560    0.284    4.078
