~VERSION INFORMATION
 VERS.                 2.0:   CWLS LOG ASCII STANDARD -VERSION 2.0
 WRAP.                  NO:   ONE LINE PER DEPTH STEP
~WELL INFORMATION BLOCK
#MNEM.UNIT           DATA                    DESCRIPTION OF MNEMONIC
#---------    -------------------            -------------------------------
# Generated from Intellog Unique Number	CS_73_76/WELL/737
WELL.         MAYNARD EXPLORATION            : Well_name    - WELL
LOC .         00/07-10-073-12W4/0            : Location     - LOCATION
UWI .         00/07-10-073-12W4/0            : Uwi          - UNIQUE WELL ID
ENTR.         SP                             : Entered      - ENTERED BY
SRVC.         SCHLUMBERGER                   : Scn          - SERVICE COMPANY
STRT.M        285                            : top_depth    - START DEPTH
STOP.M        520                            : bot_depth    - STOP DEPTH
STEP.M        0.25                           : increment    - STEP LENGTH
 NULL. -999.2500:NULL Value
~CURVE INFORMATION BLOCK
#MNEM UNIT       ERCB CURVE CODE    CURVE DESCRIPTION
#-----------   ------------------   ----------------------------------
DEPT.M        00 001 00 00         : DEPTH        - DEPTH
ILD .OHMM     00 120 00 00         : RESD         - DEEP RESISTIVITY (DIL)
DPHI.V/V      00 890 00 00         : PHID         - DENSITY POROSITY (LIMESTONE)
NPHI.V/V      00 330 00 00         : PHIN         - NEUTRON POROSITY (LIMESTONE)
GR  .API      00 310 00 00         : GR           - GAMMA RAY
~PARAMETER INFORMATION
#MNEM.UNIT           DATA             DESCRIPTION OF MNEMONIC
#---------         -----------     ------------------------------
GL  .M        638.29               : gl           - GROUND LEVEL ELEVATION
EREF.M        641.49               : kb           - ELEVATION OF DEPTH REFERENCE
DATM.M        638.29               : datum        - DATUM ELEVATION
TDD .M        535                  : tdd          - TOTAL DEPTH DRILLER
RUN .         ONE                  : Run          - RUN NUMBER
ENG .         BILL                 : Engineer     - RECORDING ENGINEER
WIT .         JIM                  : Witness      - WITNESSED BY
MUD .         GEL                  : Mud_type     - MUD TYPE
MATR.         LIMESTONE            : Logunit      - NEUTRON MATRIX
TMAX.C        23                   : BHT          - MAXIMUM RECORDED TEMPERATURE
BHTD.M        535                  : BHTDEP       - MAXIMUM RECORDED TEMPERATURE
MATR.         1                    : LOGUNIT      - NEUTRON MATRIX
RMT .C        25                   : MDTP         - TEMPERATURE OF MUD
NEUT.         1                    : NEUTRON      - NEUTRON TYPE
RESI.         0                    : RESIST       - RESISTIVITY TYPE
RMC .OHMM     0.25                 : RMC          - RESISTIVITY OF MUD CAKE
RMF .OHMM     0.25                 : RMF          - RESISTIVITY OF MUD FILTRATE
SUFT.C        15                   : SUFT         - SURFACE TEMPERATURE
~A  DEPTH     RESD     PHID     PHIN       GR
# ...
  459.000   15.749    0.108    0.313   71.045
  459.250   17.457    0.102    0.297   71.664
  459.500   18.189    0.200    0.325   74.118
  459.750   18.840    0.233    0.353   74.733
  460.000   19.247    0.245    0.370   74.129
  460.250   19.573    0.245    0.381   69.263
  460.500   19.817    0.258    0.389   66.832
  460.750   19.980    0.261    0.394   67.452
  461.000   19.249    0.254    0.378   69.902
  461.250   18.355    0.259    0.370   72.957
  461.500   17.055    0.266    0.361   80.894
  461.750   16.242    0.267    0.370   85.778
  462.000   15.592    0.259    0.389   90.057
  462.250   15.267    0.249    0.397   88.237
  462.500   15.268    0.243    0.389   91.904
  462.750   15.187    0.229    0.380   96.182
  463.000   15.187    0.215    0.370   97.410
  463.250   15.107    0.202    0.367   91.934
  463.500   14.782    0.197    0.358   85.236
  463.750   13.888    0.201    0.356   82.193
  464.000   13.238    0.207    0.353   82.204
  464.250   12.588    0.199    0.350   88.312
  464.500   11.613    0.183    0.350   91.367
  464.750   10.637    0.169    0.389   93.206
  465.000    9.906    0.181    0.395   93.216
  465.250    9.419    0.190    0.389   91.395
  465.500    8.931    0.201    0.385   96.892
  465.750    8.444    0.206    0.397  101.173
  466.000    8.201    0.211    0.408  103.008
  466.250    8.689    0.218    0.412  105.457
  466.500    9.584    0.227    0.411   99.978
  466.750   10.803    0.235    0.406   95.110
  467.000   12.511    0.241    0.395   96.949
  467.250   13.569    0.247    0.389   98.786
  467.500   15.520    0.260    0.382   95.749
  467.750   17.065    0.256    0.375   88.438
  468.000   18.610    0.246    0.366   79.304
  468.250   20.887    0.235    0.360   74.433
  468.500   22.758    0.198    0.346   70.786
  468.750   23.978    0.259    0.344   73.234
  469.000   22.759    0.277    0.355   75.682
  469.250   21.783    0.262    0.362   77.522
  469.500   19.020    0.246    0.362   80.578
  469.750   17.313    0.235    0.358   83.637
  470.000   16.419    0.224    0.347   84.867
  470.250   16.094    0.226    0.339   85.481
  470.500   16.095    0.231    0.336   81.226
  470.750   16.176    0.230    0.334   75.746
  471.000   16.583    0.225    0.323   72.097
  471.250   17.153    0.224    0.319   71.495
  471.500   17.804    0.229    0.323   72.115
  471.750   18.698    0.240    0.330   71.514
  472.000   21.131    0.243    0.335   69.083
  472.250   22.676    0.246    0.335   70.921
  472.500   22.640    0.233    0.333   73.980
  472.750   24.194    0.226    0.336   73.381
  473.000   27.361    0.218    0.338   69.730
  473.250   28.957    0.248    0.333   60.597
  473.500   32.153    0.266    0.337   55.119
  473.750   36.161    0.274    0.343   52.076
  474.000   40.983    0.281    0.334   49.037
  474.250   43.359    0.279    0.332   50.874
  474.500   40.856    0.258    0.338   63.077
  474.750   39.182    0.235    0.346   75.283
  475.000    9.039    0.220    0.357   81.998
  475.250    9.302    0.204    0.371   90.545
  475.500    7.992    0.204    0.385   95.432
  475.750    7.173    0.219    0.396   97.272
  476.000    7.088    0.217    0.414   97.280
  476.250    7.003    0.221    0.411   96.681
  476.500    6.837    0.230    0.399   93.640
  476.750    6.589    0.234    0.392   88.770
  477.000    6.341    0.214    0.378   75.365
  477.250    6.175    0.179    0.354   61.350
  477.500    6.252    0.232    0.339   66.848
  477.750    6.331    0.262    0.348   76.004
  478.000    6.410    0.250    0.356   83.331
  478.250    6.325    0.235    0.362   87.608
  478.500    6.241    0.229    0.360   72.981
  478.750    6.319    0.248    0.343   60.187
  479.000    6.479    0.256    0.334   57.146
  479.250    6.721    0.262    0.334   66.304
  479.500    7.126    0.267    0.344   65.703
  479.750    8.510    0.266    0.344   63.883
  480.000   10.629    0.277    0.343   66.334
  480.250   13.238    0.279    0.354   67.559
  480.500   16.337    0.271    0.361   68.792
  480.750   18.701    0.259    0.368   68.797
  481.000   19.759    0.238    0.367   70.025
  481.250   20.327    0.212    0.358   73.697
  481.500   19.670    0.227    0.354   76.753
  481.750   18.851    0.232    0.355   81.031
  482.000   16.808    0.250    0.365   82.866
  482.250   15.172    0.228    0.364   85.316
  482.500   14.108    0.216    0.361   86.545
  482.750   12.798    0.206    0.375   90.823
  483.000   11.734    0.206    0.387   94.489
  483.250   10.752    0.218    0.391   92.061
  483.500   10.177    0.225    0.384   89.022
  483.750   10.011    0.238    0.380   87.203
  484.000    9.681    0.235    0.373   88.428
  484.250    9.351    0.234    0.371   93.929
  484.500    9.184    0.225    0.381   96.983
  484.750    9.182    0.220    0.397  100.040
  485.000    9.178    0.226    0.411   97.612
  485.250    9.339    0.233    0.417   89.695
  485.500    9.744    0.240    0.405   81.168
  485.750   10.473    0.244    0.371   74.468
  486.000   10.634    0.264    0.360   66.551
  486.250   10.877    0.281    0.354   61.684
  486.500   11.119    0.289    0.352   61.691
  486.750   11.361    0.290    0.349   64.138
  487.000   11.439    0.191    0.345   70.857
  487.250   11.517    0.138    0.328   74.524
  487.500   11.105    0.094    0.315   80.025
  487.750   10.940    0.139    0.293   82.470
  488.000   10.528    0.187    0.297   84.916
  488.250   10.117    0.211    0.308   85.538
  488.500    9.786    0.232    0.325   78.228
  488.750    9.703    0.263    0.330   62.995
  489.000    9.455    0.285    0.341   59.956
  489.250    9.370    0.291    0.355   61.184
  489.500    9.285    0.292    0.365   62.412
  489.750    9.689    0.292    0.371   66.692
  490.000   10.176    0.291    0.375   69.136
  490.250   10.744    0.287    0.370   76.466
  490.500   11.069    0.284    0.359   78.911
  490.750   11.392    0.271    0.354   80.140
  491.000   11.633    0.263    0.361   83.201
  491.250   11.141    0.252    0.365   86.256
  491.500   10.159    0.236    0.366   94.804
  491.750    9.175    0.227    0.370  100.300
  492.000    8.683    0.209    0.374  100.307
  492.250    8.026    0.197    0.376   97.269
  492.500    7.616    0.184    0.381   97.279
  492.750    7.204    0.170    0.390  100.945
  493.000    6.874    0.152    0.390  105.224
  493.250    6.708    0.150    0.391  107.672
  493.500    6.623    0.151    0.401  109.508
  493.750    6.619    0.152    0.403  108.908
  494.000    6.617    0.152    0.404  105.868
  494.250    6.695    0.146    0.404  100.390
  494.500    6.936    0.142    0.399   97.351
  494.750    7.016    0.149    0.395   96.751
  495.000    7.176    0.169    0.388   97.372
  495.250    7.255    0.179    0.392   97.379
  495.500    7.415    0.177    0.391   94.340
  495.750    7.492    0.179    0.381   91.909
  496.000    7.735    0.183    0.375   90.090
  496.250    7.976    0.195    0.376   88.880
  496.500    8.544    0.211    0.390   85.842
  496.750    9.194    0.210    0.388   82.801
  497.000    9.681    0.202    0.382   77.324
  497.250   10.331    0.197    0.369   73.675
  497.500   10.899    0.213    0.364   73.071
  497.750   11.548    0.233    0.358   76.740
  498.000   11.872    0.238    0.356   76.752
  498.250   12.033    0.234    0.357   74.318
  498.500   11.784    0.229    0.364   77.992
  498.750   11.209    0.217    0.376   80.435
  499.000   10.390    0.209    0.387   80.444
  499.250    9.571    0.203    0.389   77.404
  499.500    8.425    0.216    0.380   72.537
  499.750    7.605    0.227    0.373   67.667
  500.000    6.949    0.193    0.369   59.501
  500.250    6.212    0.223    0.336   55.218
  500.500    5.474    0.248    0.330   52.156
  500.750    4.900    0.270    0.324   47.870
  501.000    4.406    0.293    0.339   44.197
  501.250    4.158    0.305    0.343   39.307
  501.500    3.992    0.311    0.352   39.280
  501.750    3.826    0.311    0.360   41.680
  502.000    3.577    0.309    0.357   44.070
  502.250    3.494    0.313    0.349   42.841
