~VERSION INFORMATION
 VERS.                 2.0:   CWLS LOG ASCII STANDARD -VERSION 2.0
 WRAP.                  NO:   ONE LINE PER DEPTH STEP
~WELL INFORMATION BLOCK
#MNEM.UNIT           DATA                    DESCRIPTION OF MNEMONIC
#---------    -------------------            -------------------------------
# Generated from Intellog Unique Number	CS_67_68/WELL/2183
WELL.         GOLDEN EAGLE OIL & GAS         : Well_name    - WELL
LOC .         00/08-02-067-15W4/0            : Location     - LOCATION
UWI .         00/08-02-067-15W4/0            : Uwi          - UNIQUE WELL ID
ENTR.         SP                             : Entered      - ENTERED BY
SRVC.         SCHLUMBERGER                   : Scn          - SERVICE COMPANY
STRT.M        335                            : top_depth    - START DEPTH
STOP.M        513                            : bot_depth    - STOP DEPTH
STEP.M        0.25                           : increment    - STEP LENGTH
 NULL. -999.2500:NULL Value
~CURVE INFORMATION BLOCK
#MNEM UNIT       ERCB CURVE CODE    CURVE DESCRIPTION
#-----------   ------------------   ----------------------------------
DEPT.M        00 001 00 00         : DEPTH        - DEPTH
ILD .OHMM     00 120 00 00         : RESD         - DEEP RESISTIVITY (DIL)
DPHI.V/V      00 890 00 00         : PHID         - DENSITY POROSITY (LIMESTONE)
NPHI.V/V      00 330 00 00         : PHIN         - NEUTRON POROSITY (LIMESTONE)
GR  .API      00 310 00 00         : GR           - GAMMA RAY
CALI.MM       00 280 01 00         : CAL          - CALIPER
~PARAMETER INFORMATION
#MNEM.UNIT           DATA             DESCRIPTION OF MNEMONIC
#---------         -----------     ------------------------------
GL  .M        594.3                : gl           - GROUND LEVEL ELEVATION
EREF.M        597.3                : kb           - ELEVATION OF DEPTH REFERENCE
DATM.M        597.3                : datum        - DATUM ELEVATION
TDD .M        515                  : tdd          - TOTAL DEPTH DRILLER
RUN .         ONE                  : Run          - RUN NUMBER
ENG .         BILL                 : Engineer     - RECORDING ENGINEER
WIT .         JIM                  : Witness      - WITNESSED BY
MUD .         GEL                  : Mud_type     - MUD TYPE
MATR.         LIMESTONE            : Logunit      - NEUTRON MATRIX
TMAX.C        25                   : BHT          - MAXIMUM RECORDED TEMPERATURE
BHTD.M        516                  : BHTDEP       - MAXIMUM RECORDED TEMPERATURE
MATR.         1                    : LOGUNIT      - NEUTRON MATRIX
RMT .C        25                   : MDTP         - TEMPERATURE OF MUD
NEUT.         1                    : NEUTRON      - NEUTRON TYPE
RESI.         0                    : RESIST       - RESISTIVITY TYPE
RMC .OHMM     0.25                 : RMC          - RESISTIVITY OF MUD CAKE
RMF .OHMM     0.25                 : RMF          - RESISTIVITY OF MUD FILTRATE
SUFT.C        15                   : SUFT         - SURFACE TEMPERATURE
~A  DEPTH     RESD     PHID     PHIN       GR      CAL
# ...
  408.000    4.661    0.174    0.324  106.115  183.702
  408.250    4.721    0.191    0.335  107.886  184.725
  408.500    4.826    0.168    0.340  112.638  186.153
  408.750    4.887    0.139    0.359  116.111  188.494
  409.000    4.931    0.145    0.363  118.307  190.228
  409.250    4.894    0.157    0.372  117.765  189.629
  409.500    4.740    0.158    0.374  116.553  188.116
  409.750    4.532    0.171    0.364  109.560  185.691
  410.000    4.262    0.209    0.359  103.238  184.786
  410.250    3.748    0.196    0.364  106.468  184.897
  410.500    3.118    0.159    0.386  110.611  185.820
  410.750    2.737    0.180    0.395  114.024  188.567
  411.000    2.617    0.198    0.408  116.464  191.822
  411.250    2.681    0.197    0.443  114.035  193.149
  411.500    2.881    0.238    0.457  111.424  192.853
  411.750    3.062    0.272    0.446  112.403  189.413
  412.000    3.242    0.169    0.399  110.765  186.177
  412.250    3.272    0.192    0.390  106.024  183.448
  412.500    3.071    0.219    0.386   99.518  181.631
  412.750    2.925    0.247    0.381   93.864  180.119
  413.000    2.828    0.269    0.376   92.774  179.417
  413.250    2.812    0.259    0.368   93.449  178.616
  413.500    2.847    0.250    0.373   93.941  178.219
  413.750    2.895    0.260    0.376   94.676  178.227
  414.000    2.953    0.269    0.376   96.447  179.048
  414.250    3.047    0.245    0.381   99.190  181.085
  414.500    3.191    0.201    0.375  104.247  185.252
  414.750    3.244    0.188    0.383  105.835  188.507
  415.000    3.107    0.202    0.390  105.840  189.124
  415.250    2.944    0.212    0.394  105.541  186.091
  415.500    2.788    0.239    0.399   95.870  183.361
  415.750    2.686    0.236    0.397   87.782  181.544
  416.000    2.626    0.244    0.398   82.432  180.337
  416.250    2.591    0.260    0.393   80.004  179.838
  416.500    2.749    0.269    0.376   80.496  179.443
  416.750    2.966    0.277    0.367   83.118  179.552
  417.000    3.302    0.284    0.356   85.862  179.763
  417.250    3.615    0.298    0.344   81.546  179.874
  417.500    3.973    0.134    0.333   77.840  180.187
  417.750    4.191    0.108    0.321   76.811  180.399
  418.000    3.861    0.163    0.301   82.537  180.409
  418.250    3.177    0.233    0.281   86.619  180.518
  418.500    2.836    0.260    0.375   92.345  180.121
  418.750    2.657    0.275    0.377   96.731  179.217
  419.000    2.607    0.269    0.379   91.747  178.212
  419.250    2.635    0.249    0.389   87.188  177.511
  419.500    2.755    0.235    0.396   91.819  177.014
  419.750    2.890    0.223    0.391   94.319  177.326
  420.000    3.026    0.230    0.386   94.871  178.350
  420.250    3.152    0.238    0.386   94.695  179.575
  420.500    3.270    0.241    0.395   95.552  181.006
  420.750    3.324    0.246    0.389   92.515  181.419
  421.000    3.506    0.234    0.381   94.042  181.429
  421.250    3.706    0.233    0.382   94.777  181.235
  421.500    3.860    0.226    0.382   95.148  181.244
  421.750    4.064    0.222    0.370   96.857  181.759
  422.000    4.185    0.216    0.363   97.957  182.479
  422.250    4.287    0.204    0.375   97.780  182.892
  422.500    4.365    0.201    0.365   98.759  183.307
  422.750    4.454    0.192    0.352  100.225  184.330
  423.000    4.553    0.176    0.368  101.873  185.759
  423.250    4.603    0.166    0.369  102.731  186.884
  423.500    4.567    0.171    0.362  101.702  187.603
  423.750    4.383    0.179    0.362   99.029  187.916
  424.000    4.222    0.172    0.370  100.618  187.722
  424.250    4.082    0.177    0.377  103.665  186.210
  424.500    3.984    0.190    0.385  105.800  184.698
  424.750    3.916    0.193    0.380  102.824  183.287
  425.000    3.894    0.179    0.374   99.117  182.281
  425.250    3.864    0.167    0.380   99.123  180.972
  425.500    3.862    0.177    0.385  103.509  180.068
  425.750    3.847    0.188    0.377  103.454  179.773
  426.000    3.853    0.204    0.374  101.269  180.086
  426.250    3.866    0.207    0.386   99.814  180.704
  426.500    3.844    0.201    0.384  101.219  181.625
  426.750    3.751    0.198    0.386  103.110  182.648
  427.000    3.586    0.192    0.391  104.820  183.367
  427.250    3.391    0.187    0.379  105.555  182.971
  427.500    3.267    0.193    0.370  105.926  181.661
  427.750    3.200    0.207    0.379  104.471  181.264
  428.000    3.265    0.189    0.371  102.650  181.983
  428.250    3.581    0.168    0.375  105.029  182.397
  428.500    3.877    0.192    0.364  102.113  182.915
  428.750    4.230    0.207    0.353   97.250  183.836
  429.000    4.479    0.112    0.335   95.186  184.554
  429.250    4.751    0.019    0.298   93.123  185.172
  429.500    5.003    0.033    0.253   88.017  185.282
  429.750    5.172    0.102    0.255   80.841  185.392
  430.000    4.899    0.153    0.368   84.438  185.604
  430.250    4.547    0.173    0.390   91.623  185.715
  430.500    4.389    0.163    0.399   97.228  185.825
  430.750    4.299    0.184    0.389   99.910  186.140
  431.000    4.265    0.165    0.392  102.654  186.453
  431.250    4.248    0.171    0.396  102.781  186.765
  431.500    4.247    0.190    0.386  100.535  187.180
  431.750    4.230    0.199    0.378  101.210  187.393
  432.000    4.213    0.186    0.384  103.832  187.603
  432.250    4.196    0.176    0.397  106.272  187.916
  432.500    4.180    0.168    0.400  107.737  188.635
  432.750    4.155    0.166    0.396  106.586  188.746
  433.000    4.146    0.171    0.407  111.095  187.436
  433.250    4.145    0.173    0.401  113.595  185.417
  433.500    4.151    0.168    0.392  111.045  184.108
  433.750    4.165    0.168    0.381  108.737  183.608
  434.000    4.172    0.174    0.383  107.587  183.516
  434.250    4.171    0.184    0.381  107.774  183.829
  434.500    4.154    0.170    0.376  109.788  184.650
  434.750    4.138    0.158    0.376  110.828  185.876
  435.000    4.121    0.165    0.382  111.260  187.001
  435.250    4.051    0.175    0.378  109.561  187.719
  435.500    3.976    0.193    0.387  105.185  188.235
  435.750    3.909    0.184    0.394  104.886  188.448
  436.000    3.814    0.179    0.391  106.473  188.356
  436.250    3.750    0.181    0.387  107.331  188.365
  436.500    3.701    0.185    0.400  107.336  187.968
  436.750    3.598    0.174    0.410  110.446  187.570
  437.000    3.498    0.170    0.401  108.808  186.058
  437.250    3.407    0.188    0.404  105.161  184.850
  437.500    3.356    0.214    0.404   97.986  184.148
  437.750    3.380    0.233    0.395   91.906  183.447
  438.000    3.507    0.213    0.386   96.719  183.356
  438.250    3.618    0.198    0.380  100.863  184.581
  438.500    3.719    0.190    0.375  104.032  185.301
  438.750    3.788    0.189    0.377  106.776  185.613
  439.000    3.829    0.197    0.373  101.304  185.927
  439.250    3.849    0.207    0.364  105.083  186.038
  439.500    3.870    0.213    0.374  102.959  186.046
  439.750    3.847    0.203    0.384  100.955  186.359
  440.000    3.747    0.186    0.389   99.379  186.064
  440.250    3.576    0.174    0.400   96.707  186.074
  440.500    3.258    0.176    0.397   94.034  185.678
  440.750    3.013    0.203    0.394   90.571  185.382
  441.000    2.807    0.248    0.389   88.081  184.884
  441.250    2.654    0.256    0.385   88.391  184.689
  441.500    2.566    0.250    0.379   84.380  184.394
  441.750    2.537    0.247    0.372   81.160  184.607
  442.000    2.527    0.265    0.370   80.435  184.715
  442.250    2.503    0.277    0.387   81.293  184.725
  442.500    2.424    0.283    0.384   82.515  184.735
  442.750    2.348    0.295    0.393   83.433  184.743
  443.000    2.287    0.310    0.389   79.604  184.650
  443.250    2.261    0.325    0.382   72.308  184.557
  443.500    2.248    0.311    0.376   71.948  184.365
  443.750    2.223    0.316    0.387   72.136  184.169
  444.000    2.210    0.322    0.381   73.906  183.976
  444.250    2.193    0.312    0.392   76.711  183.883
