~VERSION INFORMATION
 VERS.                 2.0:   CWLS LOG ASCII STANDARD -VERSION 2.0
 WRAP.                  NO:   ONE LINE PER DEPTH STEP
~WELL INFORMATION BLOCK
#MNEM.UNIT           DATA                    DESCRIPTION OF MNEMONIC
#---------    -------------------            -------------------------------
# Generated from Intellog Unique Number	CS_73_76/WELL/1973
WELL.         AMOCO                          : Well_name    - WELL
LOC .         00/08-04-073-04W4/0            : Location     - LOCATION
UWI .         00/08-04-073-04W4/0            : Uwi          - UNIQUE WELL ID
ENTR.         T                              : Entered      - ENTERED BY
SRVC.         SCHLUMBERGER                   : Scn          - SERVICE COMPANY
STRT.M        325                            : top_depth    - START DEPTH
STOP.M        520                            : bot_depth    - STOP DEPTH
STEP.M        0.25                           : increment    - STEP LENGTH
 NULL. -999.2500:NULL Value
~CURVE INFORMATION BLOCK
#MNEM UNIT       ERCB CURVE CODE    CURVE DESCRIPTION
#-----------   ------------------   ----------------------------------
DEPT.M        00 001 00 00         : DEPTH        - DEPTH
GR  .API      00 310 00 00         : GR           - GAMMA RAY
NPHI.V/V      00 330 00 00         : PHIN         - NEUTRON POROSITY (SANDSTONE)
DPHI.V/V      00 890 00 00         : PHID         - DENSITY POROSITY (SANDSTONE)
ILD .OHMM     00 120 00 00         : RESD         - DEEP RESISTIVITY (DIL)
~PARAMETER INFORMATION
#MNEM.UNIT           DATA             DESCRIPTION OF MNEMONIC
#---------         -----------     ------------------------------
GL  .M        707                  : gl           - GROUND LEVEL ELEVATION
EREF.M        711                  : kb           - ELEVATION OF DEPTH REFERENCE
DATM.M        711                  : datum        - DATUM ELEVATION
TDD .M        535                  : tdd          - TOTAL DEPTH DRILLER
RUN .         ONE                  : Run          - RUN NUMBER
ENG .         BILL                 : Engineer     - RECORDING ENGINEER
WIT .         JIM                  : Witness      - WITNESSED BY
MUD .         GEL                  : Mud_type     - MUD TYPE
MATR.         SANDSTONE            : Logunit      - NEUTRON MATRIX
TMAX.C        13                   : BHT          - MAXIMUM RECORDED TEMPERATURE
BHTD.M        535                  : BHTDEP       - MAXIMUM RECORDED TEMPERATURE
MATR.         1                    : LOGUNIT      - NEUTRON MATRIX
RMT .C        25                   : MDTP         - TEMPERATURE OF MUD
NEUT.         1                    : NEUTRON      - NEUTRON TYPE
RESI.         0                    : RESIST       - RESISTIVITY TYPE
RMC .OHMM     3.53                 : RMC          - RESISTIVITY OF MUD CAKE
RMF .OHMM     4.12                 : RMF          - RESISTIVITY OF MUD FILTRATE
SUFT.C        15                   : SUFT         - SURFACE TEMPERATURE
~A  DEPTH       GR     PHIN     PHID     RESD
# ...
  455.500   80.972    0.409    0.212    2.921
  455.750   83.353    0.407    0.242    2.922
  456.000   82.761    0.414    0.246    2.923
  456.250   78.006    0.427    0.266    2.869
  456.500   75.628    0.437    0.270    2.870
  456.750   74.442    0.449    0.272    2.766
  457.000   73.849    0.460    0.279    2.715
  457.250   73.852    0.470    0.274    2.616
  457.500   73.853    0.473    0.264    2.617
  457.750   73.856    0.456    0.253    2.668
  458.000   74.453    0.436    0.249    2.718
  458.250   75.050    0.442    0.248    2.771
  458.500   75.053    0.448    0.246    2.720
  458.750   74.462    0.454    0.251    2.573
  459.000   74.463    0.460    0.257    2.479
  459.250   75.655    0.459    0.261    2.480
  459.500   78.037    0.445    0.265    2.527
  459.750   80.419    0.438    0.261    2.528
  460.000   82.206    0.465    0.241    2.482
  460.250   82.803    0.496    0.241    2.437
  460.500   82.805    0.511    0.248    2.392
  460.750   83.402    0.506    0.258    2.484
  461.000   84.594    0.507    0.254    2.532
  461.250   85.192    0.514    0.236    2.629
  461.500   85.788    0.507    0.232    2.680
  461.750   85.792    0.497    0.229    2.783
  462.000   85.198    0.502    0.220    2.889
  462.250   82.822    0.497    0.227    3.174
  462.500   81.040    0.489    0.239    3.234
  462.750   79.258    0.475    0.239    3.552
  463.000   76.881    0.464    0.239    3.902
  463.250   75.099    0.452    0.231    4.286
  463.500   72.723    0.440    0.215    4.796
  463.750   71.535    0.432    0.219    6.004
  464.000   69.754    0.427    0.243    7.659
  464.250   69.161    0.417    0.248    8.411
  464.500   67.379    0.411    0.266    9.239
  464.750   65.598    0.410    0.271    9.775
  465.000   65.004    0.410    0.279    9.777
  465.250   64.412    0.413    0.286    9.780
  465.500   64.414    0.416    0.285    9.604
  465.750   64.417    0.419    0.283    9.427
  466.000   64.420    0.422    0.279    8.750
  466.250   65.017    0.427    0.281    8.591
  466.500   65.614    0.429    0.284    8.594
  466.750   66.211    0.434    0.280    8.759
  467.000   66.808    0.441    0.272    8.927
  467.250   67.406    0.451    0.267    8.929
  467.500   67.407    0.442    0.264    8.767
  467.750   68.600    0.433    0.263    8.137
  468.000   69.792    0.429    0.264    7.696
  468.250   70.984    0.428    0.266    7.698
  468.500   70.986    0.431    0.258    7.700
  468.750   69.799    0.439    0.249    7.703
  469.000   71.587    0.439    0.218    7.285
  469.250   74.563    0.396    0.155    6.513
  469.500   76.350    0.370    0.129    6.045
  469.750   78.136    0.334    0.163    5.611
  470.000   81.112    0.384    0.202    4.744
  470.250   83.495    0.405    0.224    3.518
  470.500   84.686    0.419    0.230    2.164
  470.750   86.473    0.437    0.230    0.850
  471.000   88.261    0.437    0.225    0.585
  471.250   89.452    0.437    0.224    0.494
  471.500   90.049    0.444    0.222    0.418
  471.750   90.646    0.461    0.222    0.395
  472.000   88.270    0.481    0.218    0.410
  472.250   88.272    0.482    0.214    0.395
  472.500   88.870    0.478    0.211    0.347
  472.750   89.467    0.475    0.206    0.322
  473.000   90.659    0.469    0.205    0.305
  473.250   90.661    0.472    0.206    0.283
  473.500   91.258    0.491    0.211    0.283
  473.750   91.856    0.508    0.215    0.323
  474.000   91.858    0.513    0.212    0.389
  474.250   91.861    0.519    0.209    0.452
  474.500   91.863    0.530    0.205    0.555
  474.750   90.081    0.530    0.203    0.682
  475.000   89.488    0.524    0.208    0.887
  475.250   89.491    0.514    0.209    1.030
  475.500   89.494    0.502    0.203    1.175
  475.750   89.496    0.499    0.201    1.266
  476.000   89.499    0.501    0.201    1.365
  476.250   87.717    0.513    0.202    1.444
  476.500   85.340    0.512    0.203    1.557
  476.750   84.748    0.506    0.202    1.710
  477.000   87.130    0.500    0.202    1.843
  477.250   88.320    0.496    0.199    2.063
  477.500   88.918    0.495    0.199    2.224
  477.750   88.326    0.496    0.199    2.397
  478.000   87.734    0.496    0.203    2.633
  478.250   87.141    0.498    0.213    3.002
  478.500   85.954    0.501    0.218    3.236
  478.750   85.956    0.501    0.213    3.759
  479.000   85.959    0.498    0.205    4.367
  479.250   86.556    0.497    0.207    4.979
  479.500   87.153    0.495    0.209    5.572
  479.750   87.750    0.493    0.211    6.473
  480.000   87.157    0.493    0.211    7.110
  480.250   83.592    0.485    0.203    8.260
  480.500   80.025    0.450    0.192    9.072
  480.750   79.433    0.407    0.182    9.964
  481.000   79.435    0.338    0.186   11.151
  481.250   78.842    0.366    0.189   11.797
  481.500   78.251    0.360    0.198   12.482
  481.750   77.658    0.352    0.203   13.457
  482.000   76.471    0.344    0.206   13.974
  482.250   73.499    0.347    0.209   14.242
  482.500   72.312    0.369    0.212   14.515
  482.750   70.530    0.371    0.216   14.520
  483.000   69.937    0.373    0.215   14.522
  483.250   68.751    0.373    0.212   14.527
  483.500   68.158    0.373    0.210   14.531
  483.750   68.161    0.373    0.206   14.537
  484.000   68.164    0.374    0.203   14.815
  484.250   68.165    0.374    0.207   14.819
  484.500   68.167    0.373    0.210   15.104
  484.750   68.170    0.371    0.217   15.107
  485.000   68.173    0.367    0.221   15.112
  485.250   64.606    0.362    0.215   14.837
  485.500   62.229    0.360    0.213   14.296
  485.750   61.042    0.363    0.221   13.775
  486.000   62.829    0.367    0.230   13.781
  486.250   65.806    0.368    0.234   13.530
  486.500   69.376    0.366    0.222   12.326
  486.750   72.948    0.362    0.207   11.877
  487.000   77.114    0.357    0.196   11.024
  487.250   82.469    0.352    0.191   10.622
  487.500   88.420    0.348    0.190    9.677
  487.750   96.749    0.350    0.187    8.982
  488.000  102.105    0.360    0.183    8.655
  488.250  102.108    0.368    0.178    8.822
  488.500   90.809    0.374    0.170    8.824
  488.750   80.700    0.378    0.169    9.512
  489.000   67.021    0.392    0.192   10.447
  489.250   57.507    0.420    0.213   14.095
  489.500   52.156    0.432    0.235   17.646
  489.750   46.212    0.427    0.242   21.684
  490.000   48.593    0.418    0.248   23.815
  490.250   50.974    0.395    0.273   22.524
  490.500   56.330    0.388    0.275   19.765
  490.750   80.719    0.386    0.269   18.007
  491.000   88.454    0.385    0.261   20.150
  491.250   99.164    0.382    0.256   28.224
  491.500   97.382    0.390    0.259   32.788
  491.750   90.841    0.394    0.261   46.790
  492.000   69.430    0.390    0.262   53.350
  492.250   46.830    0.388    0.276   63.148
  492.500   39.696    0.388    0.302   69.358
  492.750   43.862    0.387    0.296   66.832
  493.000   45.648    0.387    0.290   63.209
  493.250   48.029    0.381    0.290   57.589
  493.500   50.412    0.376    0.288   53.446
  493.750   50.414    0.376    0.285   48.690
  494.000   49.227    0.376    0.283   41.941
  494.250   49.824    0.376    0.283   37.500
  494.500   51.611    0.380    0.283   35.462
  494.750   52.208    0.381    0.280   32.307
  495.000   54.590    0.391    0.280   29.432
  495.250   55.187    0.398    0.280   27.319
  495.500   56.379    0.399    0.282   24.886
  495.750   57.571    0.399    0.283   22.253
  496.000   58.763    0.397    0.284   21.044
  496.250   59.956    0.396    0.284   18.816
  496.500   61.147    0.398    0.284   17.143
  496.750   62.339    0.399    0.284   15.616
  497.000   64.721    0.399    0.283   13.705
  497.250   67.102    0.399    0.279   12.721
  497.500   70.674    0.399    0.277   11.807
  497.750   73.650    0.401    0.270   10.757
  498.000   75.436    0.401    0.264   10.173
  498.250   79.007    0.399    0.257    9.621
  498.500   83.768    0.398    0.252    9.445
  498.750   88.530    0.400    0.247    9.102
