~VERSION INFORMATION
 VERS.                 2.0:   CWLS LOG ASCII STANDARD -VERSION 2.0
 WRAP.                  NO:   ONE LINE PER DEPTH STEP
~WELL INFORMATION BLOCK
#MNEM.UNIT           DATA                    DESCRIPTION OF MNEMONIC
#---------    -------------------            -------------------------------
# Generated from Intellog Unique Number	CS_73_76/WELL/2276
WELL.         BOW VALLEY EXPLORATION         : Well_name    - WELL
LOC .         00/07-22-076-16W4/0            : Location     - LOCATION
UWI .         00/07-22-076-16W4/0            : Uwi          - UNIQUE WELL ID
ENTR.         SP                             : Entered      - ENTERED BY
SRVC.         SCHLUMBERGER                   : Scn          - SERVICE COMPANY
STRT.M        353.568                        : top_depth    - START DEPTH
STOP.M        588.068                        : bot_depth    - STOP DEPTH
STEP.M        0.25                           : increment    - STEP LENGTH
 NULL. -999.2500:NULL Value
~CURVE INFORMATION BLOCK
#MNEM UNIT       ERCB CURVE CODE    CURVE DESCRIPTION
#-----------   ------------------   ----------------------------------
DEPT.M        00 001 00 00         : DEPTH        - DEPTH
GR  .API      00 310 00 00         : GR           - GAMMA RAY
DPHI.V/V      00 890 00 00         : PHID         - DENSITY POROSITY (SANDSTONE)
NPHI.V/V      00 330 00 00         : PHIN         - NEUTRON POROSITY (SANDSTONE)
ILD .OHMM     00 120 00 00         : RESD         - DEEP RESISTIVITY (DIL)
~PARAMETER INFORMATION
#MNEM.UNIT           DATA             DESCRIPTION OF MNEMONIC
#---------         -----------     ------------------------------
GL  .M        714.146              : gl           - GROUND LEVEL ELEVATION
EREF.M        723.595              : kb           - ELEVATION OF DEPTH REFERENCE
DATM.M        714.146              : datum        - DATUM ELEVATION
TDD .M        594.36               : tdd          - TOTAL DEPTH DRILLER
RUN .         ONE                  : Run          - RUN NUMBER
ENG .         BILL                 : Engineer     - RECORDING ENGINEER
WIT .         JIM                  : Witness      - WITNESSED BY
MUD .         GEL                  : Mud_type     - MUD TYPE
MATR.         SANDSTONE            : Logunit      - NEUTRON MATRIX
TMAX.C        25.5556              : BHT          - MAXIMUM RECORDED TEMPERATURE
BHTD.M        594.36               : BHTDEP       - MAXIMUM RECORDED TEMPERATURE
MATR.         1                    : LOGUNIT      - NEUTRON MATRIX
RMT .C        25                   : MDTP         - TEMPERATURE OF MUD
NEUT.         1                    : NEUTRON      - NEUTRON TYPE
RESI.         0                    : RESIST       - RESISTIVITY TYPE
RMC .OHMM     0.25                 : RMC          - RESISTIVITY OF MUD CAKE
RMF .OHMM     0.25                 : RMF          - RESISTIVITY OF MUD FILTRATE
SUFT.C        15                   : SUFT         - SURFACE TEMPERATURE
~A  DEPTH       GR     PHID     PHIN     RESD
# ...
  527.568   88.369    0.220    0.464    4.821
  527.818   87.345    0.210    0.469    4.795
  528.068   85.986    0.207    0.465    4.794
  528.318   83.148    0.213    0.462    4.657
  528.568   84.414    0.222    0.460    4.405
  528.818   85.246    0.197    0.461    3.757
  529.068   88.482    0.192    0.466    3.031
  529.318   90.815    0.187    0.475    2.500
  529.568   92.298    0.246    0.485    2.123
  529.818   93.213    0.266    0.512    1.845
  530.068   91.759    0.276    0.572    1.728
  530.318   89.868    0.263    0.602    1.645
  530.568   87.142    0.280    0.610    1.650
  530.818   85.889    0.279    0.597    1.703
  531.068   86.626    0.285    0.601    1.812
  531.318   88.698    0.289    0.587    1.939
  531.568   89.465    0.273    0.575    2.158
  531.818   88.805    0.249    0.597    2.350
  532.068   87.556    0.255    0.607    2.564
  532.318   86.473    0.249    0.609    2.924
  532.568   87.327    0.238    0.596    3.441
  532.818   89.017    0.225    0.530    3.873
  533.068   90.992    0.209    0.506    4.298
  533.318   91.870    0.192    0.477    4.561
  533.568   91.125    0.208    0.469    4.697
  533.818   88.040    0.203    0.461    4.696
  534.068   86.946    0.189    0.450    4.732
  534.318   87.599    0.188    0.435    5.144
  534.568   87.204    0.194    0.450    5.776
  534.818   85.876    0.206    0.469    6.442
  535.068   82.351    0.179    0.467    8.080
  535.318   79.132    0.163    0.440    9.247
  535.568   75.144    0.143    0.416   10.246
  535.818   72.113    0.120    0.388   10.387
  536.068   71.744    0.118    0.364    9.990
  536.318   72.174    0.068    0.326    9.552
  536.568   77.700    0.142    0.341    8.292
  536.818   81.577    0.177    0.386    6.586
  537.068   87.022    0.171    0.430    5.732
  537.318   90.657    0.180    0.460    5.247
  537.568   91.890    0.197    0.463    5.108
  537.818   92.321    0.207    0.456    4.957
  538.068   91.728    0.214    0.466    4.816
  538.318   90.061    0.220    0.472    4.558
  538.568   88.114    0.208    0.453    4.294
  538.818   87.995    0.200    0.467    3.916
  539.068   89.445    0.214    0.486    3.749
  539.318   89.783    0.220    0.487    3.800
  539.568   91.219    0.205    0.460    4.029
  539.818   90.385    0.190    0.453    4.277
  540.068   88.743    0.176    0.454    4.355
  540.318   88.667    0.183    0.460    4.213
  540.568   89.233    0.159    0.464    4.037
  540.818   91.731    0.190    0.475    3.883
  541.068   93.445    0.235    0.488    3.578
  541.318   96.876    0.237    0.490    3.250
  541.568   98.897    0.212    0.495    3.171
  541.818  100.085    0.218    0.504    3.256
  542.068  100.662    0.221    0.517    3.701
  542.318   99.013    0.223    0.522    4.143
  542.568   98.115    0.205    0.495    4.523
  542.818   98.636    0.189    0.470    4.806
  543.068  100.319    0.175    0.446    5.059
  543.318  105.417    0.154    0.429    4.840
  543.568  109.023    0.126    0.440    4.516
  543.818  108.719    0.173    0.459    4.525
  544.068  104.702    0.221    0.483    4.669
  544.318  106.645    0.217    0.505    5.016
  544.568  107.407    0.205    0.513    5.362
  544.818  104.712    0.215    0.461    5.698
  545.068  105.611    0.220    0.440    6.018
  545.318  106.554    0.209    0.438    6.069
  545.568  107.559    0.197    0.456    6.478
  545.818  107.319    0.191    0.472    7.097
  546.068   99.383    0.200    0.480    7.843
  546.318   93.690    0.213    0.434    8.603
  546.568   86.804    0.223    0.420    9.015
  546.818   86.707    0.216    0.429    9.417
  547.068   88.976    0.214    0.447    9.741
  547.318   91.663    0.161    0.444    9.567
  547.568   93.738    0.149    0.451    9.590
  547.818   94.382    0.184    0.461    9.651
  548.068   93.984    0.195    0.458   10.157
  548.318   92.955    0.222    0.442   10.271
  548.568   91.509    0.229    0.435   10.828
  548.818   89.821    0.233    0.438   11.159
  549.068   91.007    0.234    0.427   11.564
  549.318   89.254    0.233    0.410   11.294
  549.568   91.499    0.220    0.405   11.312
  549.818   91.088    0.191    0.401   11.314
  550.068   87.690    0.200    0.397   11.345
  550.318   83.004    0.200    0.390   11.943
  550.568   78.391    0.192    0.375   12.488
  550.818   76.186    0.182    0.366   12.719
  551.068   76.207    0.191    0.357   12.038
  551.318   76.282    0.191    0.371   11.521
  551.568   80.218    0.167    0.389   11.068
  551.818   80.851    0.148    0.402   10.821
  552.068   76.520    0.136    0.411   11.970
  552.318   79.983    0.114    0.399   12.654
  552.568   82.586    0.221    0.405   13.043
  552.818   89.246    0.227    0.400   13.020
  553.068   90.566    0.210    0.408   12.616
  553.318   91.334    0.188    0.416   12.236
  553.568   88.770    0.167    0.407   11.859
  553.818   85.710    0.153    0.382   11.716
  554.068   86.369    0.160    0.347   11.844
  554.318   85.339    0.181    0.368   11.936
  554.568   81.725    0.189    0.385   11.745
  554.818   79.173    0.202    0.386   11.285
  555.068   82.061    0.214    0.381   10.831
  555.318   85.388    0.190    0.373   10.321
  555.568   89.789    0.159    0.374    9.529
  555.818   95.249    0.136    0.404    8.859
  556.068   98.491    0.128    0.433    8.153
  556.318   98.300    0.146    0.438    7.896
  556.568   97.466    0.175    0.443    7.653
  556.818   97.214    0.167    0.448    7.560
  557.068   94.576    0.151    0.448    7.482
  557.318   94.212    0.156    0.437    7.371
  557.568   97.389    0.186    0.417    7.438
  557.818   98.570    0.159    0.443    7.694
  558.068   90.195    0.158    0.453    8.061
  558.318   84.097    0.163    0.455    8.299
  558.568   83.489    0.169    0.429    8.545
  558.818   88.919    0.171    0.411    8.658
  559.068   92.498    0.175    0.389    8.633
  559.318   94.217    0.161    0.409    8.537
  559.568   92.560    0.175    0.418    8.370
  559.818   89.703    0.159    0.422    8.382
  560.068   86.400    0.171    0.426    8.375
  560.318   81.961    0.177    0.428    8.530
  560.568   86.303    0.187    0.417    8.700
  560.818   88.433    0.192    0.410    8.839
  561.068   90.770    0.181    0.410    8.936
  561.318   88.488    0.166    0.419    9.029
  561.568   85.651    0.197    0.433    9.321
  561.818   82.771    0.193    0.440    9.605
  562.068   82.488    0.183    0.423    9.900
  562.318   81.173    0.190    0.411   10.161
  562.568   77.584    0.214    0.418   10.950
  562.818   74.038    0.218    0.426   11.245
  563.068   71.069    0.215    0.433   11.755
  563.318   69.324    0.218    0.429   11.931
  563.568   70.873    0.243    0.418   12.098
  563.818   73.216    0.234    0.415   12.311
  564.068   73.801    0.222    0.412   12.272
  564.318   72.672    0.227    0.410   12.633
  564.568   74.846    0.235    0.415   13.297
  564.818   75.672    0.231    0.423   13.673
  565.068   75.787    0.221    0.417   14.078
  565.318   75.734    0.244    0.416   14.426
  565.568   77.387    0.246    0.425   14.397
  565.818   77.320    0.251    0.419   14.251
  566.068   77.210    0.246    0.406   13.484
  566.318   75.579    0.231    0.403   13.355
  566.568   75.241    0.230    0.403   13.084
  566.818   76.747    0.224    0.400   13.138
  567.068   75.031    0.218    0.403   13.337
  567.318   74.250    0.248    0.408   13.456
  567.568   78.250    0.251    0.405   13.580
  567.818   81.657    0.235    0.414   14.012
  568.068   83.556    0.229    0.422   14.431
  568.318   83.851    0.240    0.413   14.866
  568.568   88.248    0.253    0.409   15.331
  568.818   92.495    0.259    0.419   15.302
  569.068   94.524    0.239    0.424   14.819
  569.318   98.017    0.225    0.430   14.399
  569.568  101.462    0.225    0.426   13.655
  569.818  100.729    0.234    0.417   13.270
  570.068   93.397    0.213    0.426   13.006
  570.318   84.571    0.202    0.435   13.133
  570.568   79.261    0.195    0.418   14.444
  570.818   75.114    0.219    0.408   15.471
