~VERSION INFORMATION
 VERS.                 2.0:   CWLS LOG ASCII STANDARD -VERSION 2.0
 WRAP.                  NO:   ONE LINE PER DEPTH STEP
~WELL INFORMATION BLOCK
#MNEM.UNIT           DATA                    DESCRIPTION OF MNEMONIC
#---------    -------------------            -------------------------------
# Generated from Intellog Unique Number	CW_82_90/WELL/528
WELL.         06-19-083-22W4                 : Well_name    - WELL
LOC .         00/06-19-083-22W4/0            : Location     - LOCATION
UWI .         00/06-19-083-22W4/0            : Uwi          - UNIQUE WELL ID
ENTR.         JAYE                           : Entered      - ENTERED BY
SRVC.         SCHLUMBERGER                   : Scn          - SERVICE COMPANY
DATE.         11 FEB 86                      : Date         - LOG DATE
STRT.M        220                            : top_depth    - START DEPTH
STOP.M        435                            : bot_depth    - STOP DEPTH
STEP.M        0.25                           : increment    - STEP LENGTH
 NULL. -999.2500:NULL Value
~CURVE INFORMATION BLOCK
#MNEM UNIT       ERCB CURVE CODE    CURVE DESCRIPTION
#-----------   ------------------   ----------------------------------
DEPT.M        00 001 00 00         : DEPTH        - DEPTH
CALI.MM       00 280 01 00         : CAL          - CALIPER
GR  .API      00 310 00 00         : GR           - GAMMA RAY
NPHI.V/V      00 330 00 00         : PHIN         - NEUTRON POROSITY (SANDSTONE)
DPHI.V/V      00 890 00 00         : PHID         - DENSITY POROSITY (SANDSTONE)
ILD .OHMM     00 120 00 00         : RESD         - DEEP RESISTIVITY (DIL)
~PARAMETER INFORMATION
#MNEM.UNIT           DATA             DESCRIPTION OF MNEMONIC
#---------         -----------     ------------------------------
GL  .M        606.8                : gl           - GROUND LEVEL ELEVATION
EREF.M        610.4                : kb           - ELEVATION OF DEPTH REFERENCE
DATM.M        606.8                : datum        - DATUM ELEVATION
TDD .M        435                  : tdd          - TOTAL DEPTH DRILLER
RUN .         ONE                  : Run          - RUN NUMBER
ENG .         LAROSE               : Engineer     - RECORDING ENGINEER
WIT .         BLOTT                : Witness      - WITNESSED BY
BASE.         EDMONTON             : Branch       - HOME BASE OF LOGGING UNIT
MUD .         GEL CHEM             : Mud_type     - MUD TYPE
MATR.         SANDSTONE            : Logunit      - NEUTRON MATRIX
TMAX.C        46                   : BHT          - MAXIMUM RECORDED TEMPERATURE
BHTD.M        435                  : BHTDEP       - MAXIMUM RECORDED TEMPERATURE
RMT .C        18                   : MDTP         - TEMPERATURE OF MUD
MUDD.KG/M     1100                 : MWT          - MUD DENSITY
NEUT.         1                    : NEUTRON      - NEUTRON TYPE
RESI.         0                    : RESIST       - RESISTIVITY TYPE
RM  .OHMM     6.69                 : RM           - RESISTIVITY OF MUD
RMC .OHMM     0                    : RMC          - RESISTIVITY OF MUD CAKE
RMF .OHMM     8.7                  : RMF          - RESISTIVITY OF MUD FILTRATE
SUFT.C        0                    : SUFT         - SURFACE TEMPERATURE
~A  DEPTH      CAL       GR     PHIN     PHID     RESD
# ...
  329.500  239.139   61.919    0.390    0.286   10.085
  329.750  237.658   61.597    0.390    0.303    9.776
  330.000  237.646   62.025    0.405    0.320    9.546
  330.250  238.875   64.390    0.437    0.319    9.323
  330.500  240.110   66.005    0.432    0.289    9.089
  330.750  241.345   64.058    0.411    0.273    8.878
  331.000  244.037   63.048    0.418    0.260    8.670
  331.250  246.209   63.850    0.459    0.267    8.402
  331.500  248.066   65.716    0.444    0.271    7.918
  331.750  249.509   65.392    0.442    0.261    8.090
  332.000  250.430   62.571    0.474    0.273    9.345
  332.250  250.519   57.123    0.475    0.285   11.125
  332.500  249.147   54.988    0.454    0.293   11.872
  332.750  247.154   58.605    0.433    0.286   12.087
  333.000  244.532   65.532    0.441    0.262   12.169
  333.250  242.537   73.397    0.441    0.237   12.016
  333.500  242.207   75.138    0.403    0.192   11.344
  333.750  242.503   73.440    0.339    0.148   11.418
  334.000  243.110   56.679    0.310    0.064   11.715
  334.250  244.346   52.858    0.358    0.223   11.855
  334.500  247.037   55.160    0.406    0.259   12.183
  334.750  250.147   60.149    0.439    0.258   12.616
  335.000  251.066   61.513    0.421    0.228   12.939
  335.250  248.445   60.881    0.393    0.207   13.273
  335.500  246.868   58.807    0.392    0.211   12.390
  335.750  249.453   60.611    0.407    0.225   10.970
  336.000  249.960   62.911    0.426    0.220   10.220
  336.250  249.525   62.340    0.424    0.223    9.833
  336.500  248.464   60.581    0.426    0.246    9.971
  336.750  246.785   63.696    0.438    0.263   10.190
  337.000  243.853   62.310    0.466    0.278   10.431
  337.250  242.794   57.925    0.500    0.287   10.383
  337.500  243.297   58.853    0.492    0.293    9.893
  337.750  244.113   61.968    0.447    0.282    8.630
  338.000  245.136   65.960    0.438    0.264    7.656
  338.250  246.476   69.136    0.425    0.239    6.987
  338.500  248.231   69.876    0.413    0.209    6.721
  338.750  249.778   69.680    0.421    0.209    6.589
  339.000  252.365   72.356    0.452    0.256    6.594
  339.250  254.642   74.972    0.456    0.263    6.688
  339.500  256.289   77.588    0.472    0.265    6.938
  339.750  257.731   80.202    0.455    0.255    7.212
  340.000  258.549   81.880    0.440    0.242    7.396
  340.250  259.263   82.183    0.444    0.227    7.643
  340.500  259.140   81.235    0.457    0.231    7.899
  340.750  257.352   84.287    0.442    0.234    8.134
  341.000  255.360   86.278    0.428    0.241    8.360
  341.250  253.259   85.893    0.424    0.249    8.414
  341.500  253.242   82.258    0.430    0.234    8.485
  341.750  254.369   81.621    0.478    0.214    8.428
  342.000  255.398   82.927    0.481    0.215    8.309
  342.250  257.152   84.477    0.464    0.234    7.845
  342.500  257.864   84.405    0.440    0.230    7.605
  342.750  257.743   84.021    0.425    0.227    7.653
  343.000  257.620   83.075    0.440    0.234    8.386
  343.250  257.399   80.877    0.451    0.233    9.669
  343.500  257.173   77.555    0.469    0.227   10.592
  343.750  257.467   69.919    0.487    0.220   11.694
  344.000  257.662   70.096    0.457    0.224   13.533
  344.250  257.020   71.836    0.437    0.227   14.743
  344.500  254.712   70.765    0.415    0.220   15.037
  344.750  252.716   69.068    0.397    0.208   14.631
  345.000  251.658   71.308    0.383    0.210   13.504
  345.250  250.705   81.922    0.349    0.227   12.581
  345.500  249.748   77.724    0.318    0.147   11.701
  345.750  249.316   73.403    0.309    0.160   11.342
  346.000  249.508   69.767    0.367    0.208   11.160
  346.250  249.805   67.445    0.443    0.254   11.087
  346.500  250.828   65.684    0.444    0.292   11.117
  346.750  251.645   65.426    0.434    0.288   11.275
  347.000  251.735   69.103    0.428    0.274   11.543
  347.250  252.134   73.655    0.447    0.260   11.863
  347.500  252.532   72.084    0.439    0.253   11.961
  347.750  252.621   70.885    0.453    0.249   11.662
  348.000  252.711   72.063    0.483    0.251   11.324
  348.250  252.066   72.927    0.474    0.253   12.198
  348.500  251.632   72.669    0.463    0.257   13.649
  348.750  251.514   71.097    0.440    0.253   15.064
  349.000  250.871   56.399    0.441    0.246   16.981
  349.250  250.854   56.952    0.467    0.247   18.744
  349.500  250.423   62.254    0.470    0.247   19.448
  349.750  250.407   67.431    0.462    0.230   18.814
  350.000  250.182   73.171    0.426    0.205   16.285
  350.250  250.063   75.099    0.282    0.083   12.929
  350.500  250.148   73.214    0.276    0.097   13.037
  350.750  250.341   66.205    0.298    0.157   15.059
  351.000  250.638   60.694    0.408    0.229   17.825
  351.250  250.723   59.059    0.431    0.260   20.126
  351.500  251.021   58.426    0.430    0.254   22.770
  351.750  251.418   61.852    0.429    0.242   23.847
  352.000  251.613   63.154    0.430    0.220   23.512
  352.250  252.116   62.083    0.361    0.129   22.922
  352.500  252.411   63.511    0.283    0.068   21.885
  352.750  252.603   66.687    0.250    0.089   20.195
  353.000  252.901   70.741    0.276    0.152   16.583
  353.250  252.986   73.044    0.341    0.161   15.688
  353.500  253.285   69.409    0.324    0.152   15.758
  353.750  253.579   68.149    0.323    0.163   15.982
  354.000  253.565   67.513    0.389    0.191   15.878
  354.250  253.443   68.628    0.399    0.199   15.625
  354.500  253.104   72.119    0.386    0.194   14.859
  354.750  252.571   75.921    0.373    0.178   13.085
  355.000  251.415   76.662    0.347    0.149   12.190
  355.250  249.834   76.839    0.361    0.124   11.464
  355.500  250.651   78.328    0.407    0.127   11.007
  355.750  250.638   79.695    0.423    0.148   10.450
  356.000  250.725   80.622    0.428    0.211   10.287
  356.250  251.334   79.987    0.412    0.222   10.254
  356.500  251.835   79.166    0.398    0.223   10.538
  356.750  251.504   75.031    0.423    0.211   11.098
  357.000  251.596   75.333    0.422    0.200   11.492
  357.250  251.788   77.823    0.408    0.204   11.656
  357.500  251.353   80.501    0.417    0.206   11.668
  357.750  251.130   83.241    0.435    0.202   11.676
  358.000  251.008   81.856    0.434    0.210   11.600
  358.250  249.848   83.034    0.432    0.230   11.675
  358.500  247.957   81.773    0.427    0.223   11.641
  358.750  246.480   78.264    0.431    0.226   11.497
  359.000  246.465   75.564    0.436    0.231   11.124
  359.250  246.864   75.182    0.432    0.228   10.888
  359.500  247.576   75.547    0.419    0.222   10.734
  359.750  249.123   79.100    0.411    0.213   10.639
  360.000  251.294   82.401    0.413    0.222   10.471
  360.250  250.132   81.516    0.418    0.201   10.304
  360.500  246.054   79.320    0.420    0.197    9.913
  360.750  246.663   78.871    0.409    0.204    9.589
  361.000  248.935   79.112    0.411    0.211    9.278
  361.250  252.038   80.665    0.432    0.213    9.094
  361.500  253.692   81.715    0.452    0.215    8.801
  361.750  256.176   81.269    0.444    0.217    8.692
  362.000  258.039   79.136    0.442    0.200    8.814
  362.250  261.561   76.875    0.464    0.191    9.531
  362.500  263.838   75.553    0.469    0.195   10.385
  362.750  264.967   75.604    0.449    0.201   11.041
  363.000  265.054   76.096    0.422    0.211   11.806
  363.250  263.997   76.836    0.431    0.206   12.315
  363.500  260.646   76.702    0.446    0.204   12.606
  363.750  258.443   76.629    0.448    0.212   12.932
  364.000  256.341   76.119    0.433    0.235   13.489
  364.250  254.660   70.984    0.400    0.256   15.378
  364.500  253.185   60.662    0.402    0.246   17.463
  364.750  251.503   55.339    0.421    0.211   25.825
  365.000  249.611   58.329    0.423    0.222   31.624
  365.250  248.447   62.130    0.406    0.230   39.686
  365.500  247.910   60.935    0.408    0.180   46.891
  365.750  247.375   57.736    0.350    0.095   46.403
