~VERSION INFORMATION
 VERS.                 2.0:   CWLS LOG ASCII STANDARD -VERSION 2.0
 WRAP.                  NO:   ONE LINE PER DEPTH STEP
~WELL INFORMATION BLOCK
#MNEM.UNIT           DATA                    DESCRIPTION OF MNEMONIC
#---------    -------------------            -------------------------------
# Generated from Intellog Unique Number	CX_WELLS/WELL/3065
WELL.         AMOCO A-1 HOUSE                : Well_name    - WELL
LOC .         00/06-27-082-14W4/0            : Location     - LOCATION
UWI .         00/06-27-082-14W400            : Uwi          - UNIQUE WELL ID
ENTR.         TIM                            : Entered      - ENTERED BY
SRVC.         SCHLUMBERGER                   : Scn          - SERVICE COMPANY
DATE.         03/04/92                       : Date         - LOG DATE
STRT.F        450                            : top_depth    - START DEPTH
STOP.F        1189.83                        : bot_depth    - STOP DEPTH
STEP.F        0.82                           : increment    - STEP LENGTH
 NULL. -999.2500:NULL Value
~CURVE INFORMATION BLOCK
#MNEM UNIT       ERCB CURVE CODE    CURVE DESCRIPTION
#-----------   ------------------   ----------------------------------
DEPT.F        00 001 00 00         : DEPTH        - DEPTH
GR  .API      00 310 00 00         : GR           - GAMMA RAY
NPHI.V/V      00 330 00 00         : PHIN         - NEUTRON POROSITY (SANDSTONE)
DPHI.V/V      00 890 00 00         : PHID         - DENSITY POROSITY (SANDSTONE)
ILD .OHMM     00 120 00 00         : RESD         - DEEP RESISTIVITY (OTHER)
~PARAMETER INFORMATION
#MNEM.UNIT           DATA             DESCRIPTION OF MNEMONIC
#---------         -----------     ------------------------------
GL  .F        1905.3               : gl           - GROUND LEVEL ELEVATION
EREF.F        1919                 : kb           - ELEVATION OF DEPTH REFERENCE
DATM.F        1919                 : datum        - DATUM ELEVATION
TDD .F        1224                 : tdd          - TOTAL DEPTH DRILLER
RUN .         ONE                  : Run          - RUN NUMBER
ENG .         JO                   : Engineer     - RECORDING ENGINEER
WIT .         TIM                  : Witness      - WITNESSED BY
MUD .         GEL                  : Mud_type     - MUD TYPE
MATR.         SANDSTONE            : Logunit      - NEUTRON MATRIX
TMAX.F        72                   : BHT          - MAXIMUM RECORDED TEMPERATURE
BHTD.F        1224                 : BHTDEP       - MAXIMUM RECORDED TEMPERATURE
RMT .F        72                   : MDTP         - TEMPERATURE OF MUD
MUDD.LB/G     1                    : MWT          - MUD DENSITY
NEUT.         1                    : NEUTRON      - NEUTRON TYPE
RESI.         1.9                  : RESIST       - RESISTIVITY TYPE
RM  .OHMM     1.9                  : RM           - RESISTIVITY OF MUD
RMC .OHMM     1.9                  : RMC          - RESISTIVITY OF MUD CAKE
RMF .OHMM     1.84                 : RMF          - RESISTIVITY OF MUD FILTRATE
SUFT.F        32                   : SUFT         - SURFACE TEMPERATURE
~A  DEPTH       GR     PHIN     PHID     RESD
  450.000   99.168    0.579    0.261    3.208
  450.820   99.862    0.576    0.258    3.271
  451.640  100.541    0.566    0.253    3.336
  452.461  101.236    0.556    0.252    3.468
  453.281  101.302    0.551    0.252    3.535
  454.101  101.981    0.550    0.252    3.606
  454.921  103.899    0.549    0.254    3.746
  455.741  104.544    0.547    0.257    3.821
  456.562  105.833    0.546    0.260    3.825
  457.382  106.545    0.543    0.261    3.904
  458.202  106.017    0.541    0.255    3.980
  459.022  104.843    0.538    0.245    3.989
  459.843  104.282    0.537    0.235    4.067
  460.663  103.125    0.534    0.234    4.071
  461.483  103.192    0.531    0.232    4.157
  462.303  103.903    0.529    0.233    4.162
  463.123  103.953    0.525    0.240    4.168
  463.944  104.020    0.528    0.245    4.097
  464.764  104.103    0.538    0.250    4.029
  465.584  104.170    0.546    0.247    3.965
  466.404  104.220    0.550    0.241    3.970
  467.224  104.898    0.554    0.233    3.974
  468.045  104.998    0.549    0.231    4.055
  468.865  105.048    0.540    0.232    4.135
  469.685  104.519    0.533    0.233    4.295
  470.505  104.569    0.530    0.237    4.384
  471.325  104.653    0.530    0.239    4.389
  472.146  105.331    0.529    0.243    4.393
  472.966  105.398    0.527    0.242    4.400
  473.786  104.258    0.527    0.240    4.332
  474.606  102.473    0.528    0.237    4.257
  475.427   99.514    0.528    0.236    4.263
  476.247   97.101    0.528    0.235    4.676
  477.067   93.498    0.523    0.234    4.946
  477.887   86.837    0.517    0.234    5.631
  478.707   82.622    0.504    0.235    6.174
  479.528   77.184    0.499    0.239    7.284
  480.348   71.729    0.494    0.250    9.082
  481.168   64.456    0.485    0.290    9.958
  481.988   66.986    0.480    0.312   10.532
  482.808   69.499    0.469    0.306   10.175
  483.629   71.401    0.458    0.291   10.006
  484.449   70.856    0.447    0.282    9.836
  485.269   69.699    0.435    0.274   10.228
  486.089   69.171    0.426    0.274   10.423
  486.909   67.402    0.425    0.272   10.830
  487.730   65.667    0.427    0.266   11.248
  488.550   65.089    0.428    0.260   11.472
  489.370   64.544    0.417    0.255   11.489
  490.190   65.222    0.402    0.250   11.306
  491.010   67.124    0.403    0.242   11.315
  491.831   69.670    0.407    0.228   10.931
  492.651   71.572    0.405    0.221   10.365
  493.471   74.102    0.405    0.215    9.478
  494.291   75.358    0.409    0.201    8.825
  495.112   78.499    0.412    0.204    8.215
  495.932   81.624    0.421    0.234    7.649
  496.752   84.137    0.426    0.245    7.126
  497.572   86.667    0.435    0.245    6.518
  498.392   89.809    0.447    0.249    6.294
  499.213   89.264    0.461    0.257    6.417
  500.033   88.090    0.497    0.281    6.790
  500.853   83.264    0.537    0.334    7.316
  501.673   80.901    0.566    0.319    7.456
  502.493   82.819    0.474    0.298    8.034
  503.314   83.464    0.449    0.273    8.500
  504.134   85.399    0.448    0.268    8.666
  504.954   85.448    0.446    0.269    8.848
  505.774   85.515    0.441    0.270    8.855
  506.594   85.598    0.442    0.270    8.705
  507.415   85.648    0.448    0.269    8.409
  508.235   85.120    0.457    0.269    8.124
  509.055   83.963    0.469    0.267    7.986
  509.875   82.195    0.467    0.267    7.857
  510.696   79.220    0.461    0.268    8.010
  511.516   76.824    0.454    0.273    8.172
  512.336   73.237    0.449    0.275    8.484
  513.156   70.841    0.441    0.279    8.981
  513.976   67.237    0.428    0.283    9.327
  514.797   65.502    0.425    0.287    9.509
  515.617   66.164    0.427    0.290    9.702
  516.437   67.471    0.436    0.291    9.716
  517.257   68.115    0.445    0.287    9.048
  518.077   70.050    0.456    0.283    8.273
  518.898   73.175    0.465    0.279    7.434
  519.718   78.730    0.472    0.275    7.176
  520.538   86.169    0.474    0.270    6.564
  521.358   89.889    0.478    0.260    6.450
  522.178   94.849    0.486    0.246    6.119
  522.999   98.007    0.460    0.231    6.128
  523.819   99.313    0.444    0.241    6.484
  524.639   99.347    0.453    0.248    6.732
  525.459  100.058    0.459    0.243    7.256
  526.280  100.108    0.466    0.229    7.816
  527.100  100.175    0.473    0.210    8.111
  527.920  100.853    0.465    0.207    8.127
  528.740  101.548    0.445    0.199    8.142
  529.560  102.854    0.448    0.188    8.151
  530.381  103.516    0.458    0.176    8.169
  531.201  104.823    0.473    0.188    8.178
  532.021  106.096    0.474    0.212    8.341
  532.841  106.774    0.477    0.237    8.350
  533.661  103.171    0.482    0.251    8.516
  534.482   97.121    0.482    0.264    9.017
  535.302   81.269    0.477    0.276    9.358
  536.122   72.177    0.474    0.289    9.898
  536.942   66.739    0.476    0.300   11.264
  537.762   63.731    0.479    0.305   11.699
  538.583   60.740    0.478    0.303   11.716
  539.403   62.658    0.471    0.298   11.522
  540.223   65.171    0.449    0.293   11.751
  541.043   70.759    0.440    0.289   11.994
  541.864   74.479    0.465    0.294   12.228
  542.684   81.290    0.473    0.296   12.704
  543.504   81.968    0.481    0.301   12.719
  544.324   81.440    0.477    0.309   12.976
  545.144   80.266    0.471    0.321   13.482
  545.965   79.126    0.462    0.321   13.740
  546.785   78.598    0.454    0.312   14.276
  547.605   79.260    0.452    0.304   14.565
  548.425   80.566    0.448    0.302   14.855
  549.245   82.451    0.437    0.307   15.434
  550.066   84.353    0.431    0.309   15.741
  550.886   85.659    0.432    0.314   15.752
  551.706   86.354    0.435    0.323   16.373
  552.526   87.016    0.438    0.330   16.704
  553.346   88.951    0.434    0.329   16.717
  554.167   89.612    0.431    0.322   16.742
  554.987   90.274    0.430    0.314   16.773
  555.807   91.597    0.431    0.309   16.197
  556.627   91.647    0.433    0.306   15.365
  557.448   91.152    0.433    0.308   14.832
  558.268   91.202    0.428    0.298   13.822
  559.088   90.640    0.423    0.284   13.338
  559.908   89.467    0.425    0.270   12.885
  560.728   85.880    0.430    0.253   12.443
  561.549   82.872    0.437    0.256   12.245
  562.369   78.046    0.439    0.264   12.259
  563.189   73.831    0.434    0.268   12.047
  564.009   78.824    0.422    0.238   11.861
  564.829   80.725    0.415    0.228   11.655
  565.650   84.462    0.409    0.233   11.259
  566.470   90.033    0.409    0.240   10.677
  567.290   97.439    0.411    0.240    9.759
  568.110  105.474    0.438    0.221    8.453
  568.930  109.210    0.456    0.216    7.729
  569.751  113.575    0.471    0.195    7.197
  570.571  113.625    0.485    0.170    6.827
  571.391  112.485    0.496    0.161    6.588
  572.211  112.551    0.506    0.165    6.134
  573.031  113.858    0.514    0.171    6.033
  573.852  115.759    0.519    0.176    5.937
  574.672  115.826    0.523    0.182    5.946
  575.492  115.281    0.518    0.173    5.957
  576.312  114.736    0.509    0.162    5.856
  577.133  114.191    0.503    0.146    5.757
  577.953  114.274    0.496    0.135    5.363
  578.773  114.969    0.487    0.130    5.177
  579.593  115.002    0.496    0.139    4.824
  580.413  115.681    0.508    0.160    4.657
  581.234  114.574    0.520    0.186    4.667
  582.054  113.384    0.537    0.201    4.758
  582.874  108.574    0.555    0.224    5.125
  583.694  104.954    0.521    0.243    5.828
  584.514  100.128    0.515    0.260    7.397
  585.335   96.508    0.498    0.295    8.733
  586.155   90.459    0.482    0.307    9.064
  586.975   88.690    0.464    0.270    9.417
  587.795   92.460    0.452    0.247    9.431
  588.615   96.196    0.448    0.233    9.108
  589.436   98.693    0.451    0.223    8.798
  590.256  104.892    0.458    0.231    8.652
  591.076  104.976    0.462    0.253    8.665
  591.896  105.026    0.465    0.263    9.003
