~VERSION INFORMATION
 VERS.                 2.0:   CWLS LOG ASCII STANDARD -VERSION 2.0
 WRAP.                  NO:   ONE LINE PER DEPTH STEP
~WELL INFORMATION BLOCK
#MNEM.UNIT           DATA                    DESCRIPTION OF MNEMONIC
#---------    -------------------            -------------------------------
# Generated from Intellog Unique Number	CS_73_76/WELL/1034
WELL.         ALLIED ROXANNA MINERALS LT     : Well_name    - WELL
LOC .         00/06-08-075-16W4/0            : Location     - LOCATION
UWI .         00/06-08-075-16W4/0            : Uwi          - UNIQUE WELL ID
ENTR.         SP                             : Entered      - ENTERED BY
SRVC.         SCHLUMBERGER                   : Scn          - SERVICE COMPANY
STRT.M        323.088                        : top_depth    - START DEPTH
STOP.M        542.338                        : bot_depth    - STOP DEPTH
STEP.M        0.25                           : increment    - STEP LENGTH
 NULL. -999.2500:NULL Value
~CURVE INFORMATION BLOCK
#MNEM UNIT       ERCB CURVE CODE    CURVE DESCRIPTION
#-----------   ------------------   ----------------------------------
DEPT.M        00 001 00 00         : DEPTH        - DEPTH
GR  .API      00 310 00 00         : GR           - GAMMA RAY
DPHI.V/V      00 890 00 00         : PHID         - DENSITY POROSITY (SANDSTONE)
NPHI.V/V      00 330 00 00         : PHIN         - NEUTRON POROSITY (SANDSTONE)
ILD .OHMM     00 120 00 00         : RESD         - DEEP RESISTIVITY (DIL)
~PARAMETER INFORMATION
#MNEM.UNIT           DATA             DESCRIPTION OF MNEMONIC
#---------         -----------     ------------------------------
GL  .M        675.437              : gl           - GROUND LEVEL ELEVATION
EREF.M        678.485              : kb           - ELEVATION OF DEPTH REFERENCE
DATM.M        675.437              : datum        - DATUM ELEVATION
TDD .M        554.736              : tdd          - TOTAL DEPTH DRILLER
RUN .         ONE                  : Run          - RUN NUMBER
ENG .         BILL                 : Engineer     - RECORDING ENGINEER
WIT .         JIM                  : Witness      - WITNESSED BY
MUD .         GEL                  : Mud_type     - MUD TYPE
MATR.         SANDSTONE            : Logunit      - NEUTRON MATRIX
TMAX.C        22.7778              : BHT          - MAXIMUM RECORDED TEMPERATURE
BHTD.M        554.736              : BHTDEP       - MAXIMUM RECORDED TEMPERATURE
MATR.         1                    : LOGUNIT      - NEUTRON MATRIX
RMT .C        25                   : MDTP         - TEMPERATURE OF MUD
NEUT.         1                    : NEUTRON      - NEUTRON TYPE
RESI.         0                    : RESIST       - RESISTIVITY TYPE
RMC .OHMM     0.25                 : RMC          - RESISTIVITY OF MUD CAKE
RMF .OHMM     0.25                 : RMF          - RESISTIVITY OF MUD FILTRATE
SUFT.C        15                   : SUFT         - SURFACE TEMPERATURE
~A  DEPTH       GR     PHID     PHIN     RESD
# ...
  453.588   91.215    0.239    0.553    4.756
  453.838   91.260    0.237    0.559    4.559
  454.088   89.849    0.238    0.558    4.283
  454.338   91.118    0.245    0.535    4.218
  454.588   96.113    0.240    0.528    4.074
  454.838   97.728    0.233    0.543    4.105
  455.088   94.406    0.227    0.556    4.148
  455.338   90.599    0.232    0.559    4.219
  455.588   90.151    0.239    0.540    4.338
  455.838   92.269    0.252    0.508    4.377
  456.088   86.663    0.262    0.493    4.516
  456.338   79.298    0.272    0.496    4.530
  456.588   73.238    0.268    0.547    4.534
  456.838   76.556    0.262    0.563    4.445
  457.088   77.690    0.255    0.533    4.457
  457.338   80.608    0.240    0.519    4.729
  457.588   84.844    0.231    0.527    5.209
  457.838   87.341    0.219    0.540    5.699
  458.088   82.968    0.203    0.510    6.286
  458.338   81.534    0.192    0.498    6.749
  458.588   76.393    0.180    0.518    6.992
  458.838   69.270    0.166    0.508    7.073
  459.088   70.895    0.150    0.386    6.796
  459.338   77.217    0.165    0.329    6.265
  459.588   81.621    0.207    0.374    5.695
  459.838   81.212    0.250    0.426    5.188
  460.088   79.145    0.283    0.484    5.148
  460.338   74.985    0.296    0.531    5.103
  460.588   70.308    0.307    0.571    5.072
  460.838   69.031    0.329    0.570    5.007
  461.088   66.274    0.316    0.515    4.750
  461.338   69.689    0.309    0.472    4.491
  461.588   74.144    0.302    0.472    4.167
  461.838   77.065    0.296    0.484    3.929
  462.088   80.156    0.290    0.453    3.625
  462.338   84.413    0.281    0.452    3.488
  462.588   86.427    0.268    0.463    3.581
  462.838   87.242    0.269    0.485    3.706
  463.088   83.944    0.270    0.494    3.817
  463.338   82.022    0.275    0.509    4.134
  463.588   81.198    0.265    0.527    4.323
  463.838   80.569    0.259    0.532    4.427
  464.088   79.928    0.255    0.538    4.314
  464.338   79.438    0.267    0.553    4.050
  464.588   79.196    0.272    0.570    3.817
  464.838   77.465    0.273    0.586    3.690
  465.088   75.655    0.262    0.596    3.616
  465.338   73.878    0.253    0.605    3.635
  465.588   73.297    0.264    0.595    3.376
  465.838   72.326    0.271    0.573    3.382
  466.088   71.440    0.278    0.565    3.376
  466.338   71.483    0.294    0.565    3.375
  466.588   71.560    0.311    0.570    3.373
  466.838   69.959    0.306    0.561    3.369
  467.088   68.518    0.302    0.551    3.443
  467.338   67.303    0.295    0.548    3.486
  467.588   65.309    0.291    0.563    3.524
  467.838   64.890    0.295    0.568    3.585
  468.088   64.539    0.288    0.560    3.724
  468.338   66.641    0.283    0.557    3.765
  468.588   69.101    0.282    0.563    3.837
  468.838   70.507    0.284    0.570    3.929
  469.088   71.922    0.288    0.578    3.916
  469.338   72.905    0.290    0.572    4.005
  469.588   72.850    0.295    0.573    4.014
  469.838   71.341    0.299    0.562    4.069
  470.088   70.307    0.296    0.550    4.114
  470.338   70.067    0.289    0.540    4.062
  470.588   70.522    0.277    0.550    3.933
  470.838   71.404    0.288    0.543    3.751
  471.088   73.752    0.295    0.523    3.584
  471.338   74.212    0.294    0.518    3.469
  471.588   74.167    0.284    0.524    3.436
  471.838   74.798    0.276    0.531    3.429
  472.088   76.813    0.289    0.539    3.512
  472.338   77.972    0.300    0.545    3.501
  472.588   77.770    0.293    0.538    3.580
  472.838   76.695    0.295    0.530    3.593
  473.088   77.373    0.296    0.537    3.860
  473.338   78.820    0.282    0.549    3.564
  473.588   79.808    0.284    0.551    3.663
  473.838   80.013    0.276    0.531    3.655
  474.088   80.976    0.265    0.542    3.714
  474.338   82.064    0.259    0.551    3.819
  474.588   83.063    0.253    0.531    3.811
  474.838   85.012    0.245    0.541    3.611
  475.088   86.725    0.246    0.557    3.415
  475.338   88.919    0.237    0.527    3.175
  475.588   90.177    0.212    0.507    3.008
  475.838   91.953    0.207    0.500    2.910
  476.088   92.435    0.223    0.516    2.781
  476.338   92.006    0.242    0.536    2.689
  476.588   87.517    0.264    0.527    2.702
  476.838   81.940    0.288    0.514    2.827
  477.088   77.656    0.308    0.528    3.214
  477.338   72.306    0.283    0.543    4.126
  477.588   65.649    0.166    0.515    5.760
  477.838   60.647    0.074    0.420    7.213
  478.088   59.547    0.049    0.273    8.092
  478.338   66.938    0.068    0.244    8.156
  478.588   71.814    0.101    0.300    6.931
  478.838   77.262    0.131    0.332    5.818
  479.088   80.484    0.177    0.450    4.843
  479.338   82.995    0.206    0.487    4.294
  479.588   83.876    0.196    0.507    4.183
  479.838   83.651    0.215    0.515    4.186
  480.088   83.529    0.215    0.508    4.193
  480.338   85.577    0.214    0.503    4.265
  480.588   87.291    0.214    0.497    4.260
  480.838   86.804    0.208    0.499    4.258
  481.088   83.885    0.218    0.519    4.314
  481.338   81.413    0.229    0.526    4.307
  481.588   80.245    0.242    0.523    4.256
  481.838   80.855    0.227    0.516    4.111
  482.088   80.678    0.220    0.520    4.058
  482.338   80.204    0.212    0.524    3.932
  482.588   80.463    0.201    0.527    3.934
  482.838   81.373    0.188    0.511    3.941
  483.088   79.355    0.200    0.520    4.085
  483.338   75.963    0.204    0.516    4.174
  483.588   73.404    0.215    0.493    4.676
  483.838   71.233    0.234    0.479    5.363
  484.088   73.540    0.241    0.507    6.386
  484.338   75.371    0.217    0.495    7.113
  484.588   77.543    0.195    0.482    7.633
  484.838   69.547    0.166    0.442    8.008
  485.088   63.888    0.126    0.295    7.912
  485.338   71.715    0.098    0.297    6.450
  485.588   81.898    0.180    0.355    5.715
  485.838   85.799    0.221    0.409    5.065
  486.088   90.328    0.245    0.451    4.615
  486.338   94.050    0.243    0.445    4.365
  486.588   95.544    0.229    0.446    4.155
  486.838   96.185    0.212    0.486    4.264
  487.088   96.101    0.206    0.542    4.482
  487.338   96.079    0.199    0.546    4.687
  487.588   96.025    0.201    0.543    4.818
  487.838   97.259    0.201    0.542    4.861
  488.088  100.452    0.188    0.537    4.947
  488.338  102.002    0.180    0.528    4.790
  488.588  100.825    0.197    0.516    4.622
  488.838  100.794    0.215    0.499    4.369
  489.088   99.721    0.232    0.479    4.132
  489.338   94.678    0.234    0.447    4.076
  489.588   90.547    0.216    0.470    3.960
  489.838   87.261    0.207    0.463    4.153
  490.088   84.072    0.202    0.455    4.273
  490.338   84.445    0.191    0.451    4.373
  490.588   83.995    0.179    0.457    3.963
  490.838   86.838    0.160    0.476    3.402
  491.088   90.387    0.172    0.502    2.925
  491.338   91.733    0.205    0.527    2.471
  491.588   90.727    0.215    0.550    2.066
  491.838   89.603    0.224    0.564    1.894
  492.088   88.134    0.237    0.585    1.682
  492.338   87.389    0.255    0.606    1.537
  492.588   88.295    0.250    0.642    1.497
  492.838   90.885    0.234    0.613    1.414
  493.088   92.389    0.219    0.619    1.498
  493.338   94.004    0.222    0.651    1.673
  493.588   93.273    0.232    0.636    1.781
  493.838   89.811    0.212    0.634    2.123
  494.088   87.958    0.210    0.604    2.373
  494.338   87.347    0.213    0.575    2.531
  494.588   87.468    0.197    0.527    2.995
  494.838   88.501    0.181    0.479    3.149
  495.088   89.918    0.183    0.460    3.578
  495.338   89.608    0.173    0.487    3.932
  495.588   87.028    0.157    0.509    4.241
  495.838   85.149    0.135    0.484    4.559
  496.088   84.935    0.113    0.416    4.675
  496.338   85.948    0.141    0.436    4.813
  496.588   85.612    0.162    0.497    4.679
  496.838   83.522    0.165    0.523    4.415
