~VERSION INFORMATION
 VERS.                 2.0:   CWLS LOG ASCII STANDARD -VERSION 2.0
 WRAP.                  NO:   ONE LINE PER DEPTH STEP
~WELL INFORMATION BLOCK
#MNEM.UNIT           DATA                    DESCRIPTION OF MNEMONIC
#---------    -------------------            -------------------------------
# Generated from Intellog Unique Number	CS_67_68/WELL/620
WELL.         AEC FISH CREEK                 : Well_name    - WELL
LOC .         00/01-26-068-08W4/0            : Location     - LOCATION
UWI .         00/01-26-068-08W4/0            : Uwi          - UNIQUE WELL ID
ENTR.         SP                             : Entered      - ENTERED BY
SRVC.         SCHLUMBERGER                   : Scn          - SERVICE COMPANY
STRT.M        270                            : top_depth    - START DEPTH
STOP.M        495                            : bot_depth    - STOP DEPTH
STEP.M        0.25                           : increment    - STEP LENGTH
 NULL. -999.2500:NULL Value
~CURVE INFORMATION BLOCK
#MNEM UNIT       ERCB CURVE CODE    CURVE DESCRIPTION
#-----------   ------------------   ----------------------------------
DEPT.M        00 001 00 00         : DEPTH        - DEPTH
ILD .OHMM     00 120 00 00         : RESD         - DEEP RESISTIVITY (DIL)
DPHI.V/V      00 890 00 00         : PHID         - DENSITY POROSITY (LIMESTONE)
NPHI.V/V      00 330 00 00         : PHIN         - NEUTRON POROSITY (LIMESTONE)
GR  .API      00 310 00 00         : GR           - GAMMA RAY
~PARAMETER INFORMATION
#MNEM.UNIT           DATA             DESCRIPTION OF MNEMONIC
#---------         -----------     ------------------------------
GL  .M        602.15               : gl           - GROUND LEVEL ELEVATION
EREF.M        605.73               : kb           - ELEVATION OF DEPTH REFERENCE
DATM.M        602.15               : datum        - DATUM ELEVATION
TDD .M        505                  : tdd          - TOTAL DEPTH DRILLER
RUN .         ONE                  : Run          - RUN NUMBER
ENG .         BILL                 : Engineer     - RECORDING ENGINEER
WIT .         JIM                  : Witness      - WITNESSED BY
MUD .         GEL                  : Mud_type     - MUD TYPE
MATR.         LIMESTONE            : Logunit      - NEUTRON MATRIX
TMAX.C        22                   : BHT          - MAXIMUM RECORDED TEMPERATURE
BHTD.M        505                  : BHTDEP       - MAXIMUM RECORDED TEMPERATURE
MATR.         1                    : LOGUNIT      - NEUTRON MATRIX
RMT .C        25                   : MDTP         - TEMPERATURE OF MUD
NEUT.         1                    : NEUTRON      - NEUTRON TYPE
RESI.         0                    : RESIST       - RESISTIVITY TYPE
RMC .OHMM     0.25                 : RMC          - RESISTIVITY OF MUD CAKE
RMF .OHMM     0.25                 : RMF          - RESISTIVITY OF MUD FILTRATE
SUFT.C        15                   : SUFT         - SURFACE TEMPERATURE
~A  DEPTH     RESD     PHID     PHIN       GR
# ...
  313.500    5.293    0.275    0.428   96.170
  313.750    5.414    0.271    0.434   91.936
  314.000    5.517    0.285    0.445   88.256
  314.250    5.612    0.294    0.445   94.535
  314.500    5.612    0.279    0.454  104.810
  314.750    5.559    0.278    0.463  109.860
  315.000    5.434    0.292    0.469  102.922
  315.250    5.323    0.299    0.475   96.229
  315.500    5.204    0.292    0.470   95.808
  315.750    5.068    0.284    0.457  102.272
  316.000    4.964    0.271    0.462  101.727
  316.250    4.908    0.250    0.465   99.584
  316.500    4.871    0.223    0.455  100.762
  316.750    4.954    0.187    0.437  101.998
  317.000    5.077    0.160    0.421  100.285
  317.250    5.106    0.205    0.439   94.884
  317.500    5.077    0.259    0.460   96.000
  317.750    5.049    0.281    0.472  102.894
  318.000    5.001    0.294    0.493  101.611
  318.250    4.964    0.291    0.466   97.808
  318.500    4.954    0.282    0.445  103.657
  318.750    4.992    0.273    0.444  106.862
  319.000    5.020    0.262    0.473  109.822
  319.250    5.039    0.289    0.478  102.761
  319.500    5.059    0.312    0.463   91.519
  319.750    5.078    0.328    0.451   81.139
  320.000    5.107    0.337    0.442   79.180
  320.250    5.155    0.344    0.429   81.894
  320.500    5.194    0.340    0.439   77.353
  320.750    5.243    0.342    0.447   75.332
  321.000    5.283    0.349    0.454   79.400
  321.250    5.303    0.342    0.437   80.759
  321.500    5.313    0.333    0.403   78.801
  321.750    5.333    0.323    0.416   74.752
  322.000    5.333    0.322    0.433   69.474
  322.250    5.313    0.334    0.426   64.074
  322.500    5.303    0.340    0.415   59.900
  322.750    5.273    0.334    0.416   54.684
  323.000    5.244    0.329    0.422   53.094
  323.250    5.224    0.331    0.430   55.008
  323.500    5.224    0.336    0.432   55.693
  323.750    5.244    0.334    0.422   54.902
  324.000    5.264    0.326    0.412   57.124
  324.250    5.283    0.323    0.399   62.420
  324.500    5.293    0.333    0.393   64.026
  324.750    5.294    0.344    0.403   58.441
  325.000    5.294    0.344    0.411   60.848
  325.250    5.284    0.334    0.417   65.466
  325.500    5.274    0.342    0.429   61.786
  325.750    5.274    0.351    0.430   58.292
  326.000    5.264    0.345    0.428   58.299
  326.250    5.254    0.340    0.430   59.722
  326.500    5.264    0.335    0.433   61.637
  326.750    5.274    0.334    0.435   64.411
  327.000    5.304    0.334    0.420   62.084
  327.250    5.334    0.331    0.408   57.789
  327.500    5.374    0.323    0.402   56.138
  327.750    5.436    0.315    0.402   61.310
  328.000    5.518    0.309    0.407   64.332
  328.250    5.624    0.307    0.414   63.541
  328.500    5.666    0.320    0.430   59.739
  328.750    5.688    0.325    0.423   57.535
  329.000    5.709    0.320    0.401   56.743
  329.250    5.677    0.316    0.425   63.576
  329.500    5.634    0.321    0.428   64.322
  329.750    5.581    0.329    0.401   61.010
  330.000    5.550    0.336    0.398   57.761
  330.250    5.529    0.340    0.407   56.909
  330.500    5.519    0.340    0.415   57.409
  330.750    5.508    0.325    0.409   59.508
  331.000    5.519    0.318    0.399   64.742
  331.250    5.529    0.310    0.398   71.759
  331.500    5.529    0.305    0.406   77.117
  331.750    5.519    0.303    0.414   79.768
  332.000    5.488    0.301    0.418   84.326
  332.250    5.477    0.300    0.423   90.420
  332.500    5.477    0.302    0.432   91.660
  332.750    5.488    0.307    0.450   86.565
  333.000    5.477    0.312    0.461   82.087
  333.250    5.467    0.309    0.441   79.143
  333.500    5.446    0.315    0.427   77.923
  333.750    5.426    0.323    0.431   71.722
  334.000    5.345    0.329    0.443   64.601
  334.250    5.345    0.331    0.438   59.321
  334.500    5.375    0.326    0.443   54.350
  334.750    5.365    0.327    0.456   53.313
  335.000    5.365    0.338    0.456   56.089
  335.250    5.304    0.347    0.441   58.433
  335.500    5.265    0.354    0.455   60.593
  335.750    5.245    0.362    0.465   61.401
  336.000    5.265    0.367    0.451   58.643
  336.250    5.275    0.371    0.440   56.195
  336.500    5.275    0.361    0.432   54.113
  336.750    5.275    0.356    0.432   51.784
  337.000    5.275    0.351    0.435   49.087
  337.250    5.127    0.352    0.426   46.145
  337.500    5.127    0.358    0.420   51.072
  337.750    5.108    0.360    0.431   54.646
  338.000    5.127    0.359    0.447   54.224
  338.250    5.127    0.357    0.433   54.171
  338.500    5.147    0.356    0.423   57.438
  338.750    5.176    0.358    0.436   56.709
  339.000    5.196    0.360    0.437   55.734
  339.250    5.245    0.360    0.424   54.883
  339.500    5.285    0.353    0.415   54.153
  339.750    5.335    0.352    0.409   52.934
  340.000    5.406    0.343    0.428   51.957
  340.250    5.457    0.328    0.445   50.737
  340.500    5.520    0.311    0.432   50.008
  340.750    5.614    0.319    0.422   50.262
  341.000    5.678    0.330    0.441   57.771
  341.250    5.786    0.317    0.428   66.509
  341.500    5.819    0.296    0.415   73.279
  341.750    5.852    0.281    0.409   80.480
  342.000    5.875    0.268    0.407   88.604
  342.250    5.864    0.262    0.409   86.031
  342.500    5.864    0.263    0.417   87.822
  342.750    5.808    0.264    0.444   90.228
  343.000    5.437    0.288    0.455   87.163
  343.250    5.376    0.319    0.441   79.302
  343.500    5.305    0.339    0.425   70.583
  343.750    5.265    0.348    0.418   67.271
  344.000    5.196    0.345    0.415   67.034
  344.250    5.128    0.342    0.428   69.439
  344.500    5.051    0.341    0.440   73.874
  344.750    4.957    0.340    0.436   70.563
  345.000    4.882    0.334    0.429   67.621
  345.250    4.818    0.328    0.422   66.278
  345.500    4.755    0.323    0.426   69.483
  345.750    4.719    0.318    0.438   70.474
  346.000    4.666    0.319    0.434   69.745
  346.250    4.587    0.328    0.428   69.079
  346.500    4.519    0.334    0.425   67.243
  346.750    4.468    0.337    0.426   64.853
  347.000    4.426    0.338    0.433   61.726
  347.250    4.401    0.337    0.430   64.380
  347.500    4.278    0.331    0.424   67.153
  347.750    4.096    0.326    0.419   69.929
  348.000    3.849    0.324    0.416   67.295
  348.250    3.657    0.329    0.412   70.807
  348.500    3.456    0.328    0.410   78.132
  348.750    3.366    0.325    0.423   85.149
  349.000    3.284    0.331    0.443   90.997
  349.250    3.278    0.327    0.461   94.816
  349.500    3.260    0.322    0.435   89.600
  349.750    3.217    0.318    0.423   82.292
  350.000    3.034    0.317    0.439   80.826
  350.250    2.781    0.338    0.457   84.154
  350.500    2.565    0.363    0.480   87.052
  350.750    2.401    0.385    0.503   92.163
  351.000    2.264    0.400    0.520   95.861
  351.250    2.176    0.420    0.537   98.943
  351.500    2.103    0.443    0.514   96.246
  351.750    2.084    0.420    0.485   93.918
  352.000    2.060    0.391    0.484   99.829
  352.250    2.068    0.376    0.497  103.097
  352.500    2.095    0.362    0.506  102.735
  352.750    2.131    0.352    0.517  101.699
  353.000    2.347    0.383    0.508  102.507
  353.250    2.609    0.406    0.497  103.499
  353.500    3.063    0.415    0.506  102.278
  353.750    3.463    0.378    0.479   91.959
  354.000    3.806    0.341    0.455   83.730
  354.250    4.020    0.326    0.433   77.037
  354.500    4.112    0.360    0.456   82.642
  354.750    4.136    0.377    0.473   84.985
  355.000    4.104    0.381    0.487   87.206
  355.250    4.074    0.386    0.503   88.506
  355.500    4.035    0.393    0.459   83.290
  355.750    3.990    0.403    0.452   81.023
  356.000    3.967    0.359    0.463   78.511
  356.250    3.960    0.336    0.455   81.532
  356.500    3.937    0.369    0.438   84.554
  356.750    3.915    0.400    0.426   86.960
