~VERSION INFORMATION
 VERS.                 2.0:   CWLS LOG ASCII STANDARD -VERSION 2.0
 WRAP.                  NO:   ONE LINE PER DEPTH STEP
~WELL INFORMATION BLOCK
#MNEM.UNIT           DATA                    DESCRIPTION OF MNEMONIC
#---------    -------------------            -------------------------------
# Generated from Intellog Unique Number	CW_73_75/WELL/3516
WELL.         1CGR MAXUS KELLY               : Well_name    - WELL
LOC .         00/02-01-073-19W4/0            : Location     - LOCATION
UWI .         00/02-01-073-19W4/0            : Uwi          - UNIQUE WELL ID
ENTR.         TIM                            : Entered      - ENTERED BY
SRVC.         SCHLUMBERGER                   : Scn          - SERVICE COMPANY
STRT.M        325                            : top_depth    - START DEPTH
STOP.M        555                            : bot_depth    - STOP DEPTH
STEP.M        0.25                           : increment    - STEP LENGTH
 NULL. -999.2500:NULL Value
~CURVE INFORMATION BLOCK
#MNEM UNIT       ERCB CURVE CODE    CURVE DESCRIPTION
#-----------   ------------------   ----------------------------------
DEPT.M        00 001 00 00         : DEPTH        - DEPTH
ILD .OHMM     00 120 00 00         : RESD         - DEEP RESISTIVITY (DIL)
DPHI.V/V      00 890 00 00         : PHID         - DENSITY POROSITY (SANDSTONE)
NPHI.V/V      00 330 00 00         : PHIN         - NEUTRON POROSITY (SANDSTONE)
CALI.MM       00 280 01 00         : CAL          - CALIPER
GR  .API      00 310 00 00         : GR           - GAMMA RAY
~PARAMETER INFORMATION
#MNEM.UNIT           DATA             DESCRIPTION OF MNEMONIC
#---------         -----------     ------------------------------
GL  .M        631.8                : gl           - GROUND LEVEL ELEVATION
EREF.M        635.6                : kb           - ELEVATION OF DEPTH REFERENCE
DATM.M        635.6                : datum        - DATUM ELEVATION
TDD .M        509                  : tdd          - TOTAL DEPTH DRILLER
RUN .         ONE                  : Run          - RUN NUMBER
ENG .         BILL                 : Engineer     - RECORDING ENGINEER
WIT .         JIM                  : Witness      - WITNESSED BY
MUD .         GEL                  : Mud_type     - MUD TYPE
MATR.         SANDSTONE            : Logunit      - NEUTRON MATRIX
TMAX.C        22                   : BHT          - MAXIMUM RECORDED TEMPERATURE
BHTD.M        509                  : BHTDEP       - MAXIMUM RECORDED TEMPERATURE
RMT .C        15                   : MDTP         - TEMPERATURE OF MUD
MUDD.KG/M     1090                 : MWT          - MUD DENSITY
NEUT.         1                    : NEUTRON      - NEUTRON TYPE
RESI.         0                    : RESIST       - RESISTIVITY TYPE
RM  .OHMM     3.11                 : RM           - RESISTIVITY OF MUD
RMC .OHMM     3.5                  : RMC          - RESISTIVITY OF MUD CAKE
RMF .OHMM     3.2                  : RMF          - RESISTIVITY OF MUD FILTRATE
SUFT.C        4                    : SUFT         - SURFACE TEMPERATURE
~A  DEPTH     RESD     PHID     PHIN      CAL       GR
# ...
  434.500    4.268    0.338    0.439  151.680   81.820
  434.750    4.279    0.335    0.434  151.717   83.055
  435.000    4.287    0.331    0.432  151.764   92.222
  435.250    4.221    0.324    0.424  151.801   98.946
  435.500    4.231    0.316    0.422  151.848   92.882
  435.750    4.239    0.312    0.422  151.885   90.461
  436.000    4.171    0.309    0.423  151.922   89.874
  436.250    4.182    0.306    0.424  152.984   91.115
  436.500    4.115    0.304    0.425  153.003   90.528
  436.750    4.049    0.301    0.424  156.095   88.723
  437.000    3.986    0.265    0.423  159.179   88.751
  437.250    3.994    0.226    0.425  161.256   88.773
  437.500    3.786    0.221    0.430  163.306   90.014
  437.750    3.522    0.222    0.438  165.374   90.036
  438.000    3.158    0.227    0.468  167.461   88.846
  438.250    2.830    0.232    0.466  168.495   88.857
  438.500    2.632    0.233    0.457  169.557   88.879
  438.750    2.641    0.230    0.448  169.585   88.901
  439.000    2.746    0.229    0.439  168.625   87.102
  439.250    2.804    0.229    0.435  166.631   84.692
  439.500    3.031    0.230    0.430  164.638   82.272
  439.750    3.277    0.232    0.425  162.644   84.128
  440.000    3.605    0.237    0.416  161.656   89.019
  440.250    4.046    0.240    0.410  158.657   95.743
  440.500    4.291    0.236    0.406  157.678   96.374
  440.750    4.550    0.231    0.416  156.691   86.649
  441.000    4.738    0.229    0.422  156.737   80.578
  441.250    4.750    0.227    0.427  156.765   78.778
  441.500    4.677    0.227    0.432  156.803   84.888
  441.750    4.596    0.226    0.437  156.858   91.003
  442.000    4.439    0.219    0.437  156.896   92.244
  442.250    4.450    0.216    0.430  156.924   91.053
  442.500    4.384    0.213    0.422  156.961   92.288
  442.750    4.392    0.221    0.416  156.998   92.925
  443.000    4.401    0.227    0.413  157.026   93.557
  443.250    4.583    0.225    0.418  158.079   91.752
  443.500    4.678    0.211    0.433  158.116   88.118
  443.750    4.782    0.186    0.448  158.153   83.870
  444.000    4.888    0.094    0.369  158.209   80.237
  444.250    4.897    0.134    0.324  158.246   79.650
  444.500    4.912    0.194    0.364  158.283   88.208
  444.750    4.834    0.207    0.406  157.314   97.375
  445.000    4.846    0.212    0.428  157.342  102.265
  445.250    4.771    0.215    0.421  157.370  107.771
  445.500    4.689    0.222    0.413  157.426  105.971
  445.750    4.700    0.230    0.398  157.445  101.120
  446.000    4.625    0.238    0.386  157.482   97.481
  446.250    4.551    0.239    0.390  157.528   91.416
  446.500    4.481    0.239    0.418  156.550   87.777
  446.750    4.406    0.239    0.427  156.597   83.535
  447.000    4.258    0.236    0.426  156.615   90.259
  447.250    4.192    0.233    0.424  156.671  100.029
  447.500    4.197    0.229    0.422  155.674  100.052
  447.750    4.133    0.229    0.419  155.712   94.591
  448.000    4.140    0.229    0.416  155.749   84.870
  448.250    4.151    0.223    0.414  155.795   86.721
  448.500    4.167    0.213    0.405  154.826   90.398
  448.750    4.177    0.216    0.403  154.854   95.295
  449.000    4.188    0.250    0.405  154.901   92.880
  449.250    4.278    0.276    0.410  154.929   81.936
  449.500    4.370    0.272    0.413  154.966   74.038
  449.750    4.551    0.248    0.421  155.003   78.940
  450.000    4.642    0.243    0.432  155.040   84.440
  450.250    4.926    0.267    0.432  155.078   92.992
  450.500    5.029    0.290    0.428  155.115  100.935
  450.750    5.140    0.289    0.423  155.161  101.566
  451.000    5.250    0.198    0.389  155.189   96.105
  451.250    6.113    0.160    0.386  155.226   86.379
  451.500    6.986    0.102    0.188  155.273   82.148
  451.750    8.450    0.070    0.170  155.301   79.728
  452.000    8.637    0.054    0.166  154.332   73.652
  452.250    7.881    0.058    0.183  154.369   48.700
  452.500    6.803    0.164    0.300  154.416   47.503
  452.750    6.092    0.255    0.329  154.434   50.572
  453.000    5.459    0.295    0.356  154.472   54.250
  453.250    4.801    0.314    0.386  154.527   59.147
  453.500    4.147    0.319    0.396  154.574   60.387
  453.750    4.002    0.323    0.390  154.593   62.841
  454.000    3.728    0.320    0.384  154.639   82.975
  454.250    3.663    0.313    0.390  154.667   89.095
  454.500    3.604    0.308    0.415  154.704   81.192
  454.750    3.483    0.312    0.419  154.751   66.592
  455.000    3.425    0.315    0.417  154.788   75.144
  455.250    3.370    0.324    0.416  154.825   92.835
  455.500    3.318    0.326    0.416  153.838   67.877
  455.750    3.265    0.330    0.420  153.884   55.714
  456.000    3.273    0.328    0.427  153.921   61.220
  456.250    3.281    0.325    0.432  153.968   89.878
  456.500    3.227    0.325    0.433  153.986  100.258
  456.750    3.235    0.326    0.434  154.033   92.359
  457.000    3.304    0.330    0.435  154.061   83.243
  457.250    3.317    0.336    0.446  154.117   77.782
  457.500    3.388    0.343    0.443  154.135   72.930
  457.750    3.397    0.345    0.411  154.191   68.078
  458.000    3.403    0.343    0.406  154.228   75.412
  458.250    3.476    0.340    0.399  154.256   79.090
  458.500    3.487    0.334    0.391  154.312   74.853
  458.750    3.498    0.327    0.386  154.331   71.214
  459.000    3.503    0.322    0.386  154.387   63.321
  459.250    3.580    0.321    0.386  154.405   63.947
  459.500    3.587    0.321    0.390  154.452   66.412
  459.750    3.664    0.321    0.392  154.489   71.314
  460.000    3.676    0.319    0.392  154.517   74.987
  460.250    3.757    0.314    0.392  154.563   82.320
  460.500    3.840    0.312    0.392  154.591   89.654
  460.750    3.776    0.309    0.390  154.647   95.774
  461.000    3.855    0.316    0.389  154.684   90.917
  461.250    3.867    0.320    0.403  154.703   78.145
  461.500    3.874    0.318    0.426  154.740   71.465
  461.750    3.957    0.313    0.427  155.793   65.395
  462.000    4.042    0.312    0.422  156.846   72.728
  462.250    4.212    0.313    0.409  156.883   78.843
  462.500    4.387    0.314    0.389  156.939   81.303
  462.750    4.475    0.307    0.379  157.991   85.595
  463.000    4.658    0.269    0.371  158.019   87.446
  463.250    5.032    0.226    0.361  159.081   88.686
  463.500    5.340    0.198    0.343  160.134   89.318
  463.750    5.160    0.165    0.330  160.162   86.903
  464.000    4.888    0.185    0.343  162.239   77.177
  464.250    4.630    0.229    0.381  163.292   75.372
  464.500    4.307    0.241    0.433  164.354   79.050
  464.750    3.859    0.239    0.441  165.397   84.555
  465.000    3.590    0.238    0.449  166.450   87.624
  465.250    3.340    0.237    0.449  166.478   85.819
  465.500    3.286    0.237    0.451  164.484   85.847
  465.750    3.235    0.233    0.462  160.469   87.093
  466.000    3.242    0.225    0.470  159.491   87.104
  466.250    3.252    0.214    0.467  159.528   87.736
  466.500    3.258    0.229    0.464  160.580   88.982
  466.750    3.266    0.244    0.468  161.633   90.223
  467.000    3.341    0.237    0.490  163.701   92.073
  467.250    3.347    0.227    0.484  165.779   94.538
  467.500    3.421    0.232    0.469  165.807   95.779
  467.750    3.428    0.237    0.458  165.862   95.192
  468.000    3.506    0.244    0.441  165.881   95.824
  468.250    3.510    0.245    0.440  165.918   95.846
  468.500    3.655    0.243    0.438  165.955   94.644
  468.750    3.665    0.217    0.436  166.002   92.844
  469.000    3.814    0.211    0.435  166.039   91.033
  469.250    3.896    0.200    0.432  166.076   88.619
  469.500    4.057    0.184    0.427  166.123   88.032
  469.750    4.142    0.171    0.419  166.151   92.325
  470.000    4.233    0.169    0.420  166.151   95.388
  470.250    4.322    0.195    0.420  168.265   94.801
  470.500    4.500    0.202    0.420  168.293   91.173
  470.750    4.687    0.207    0.421  168.331   91.195
