~VERSION INFORMATION
 VERS.                 2.0:   CWLS LOG ASCII STANDARD -VERSION 2.0
 WRAP.                  NO:   ONE LINE PER DEPTH STEP
~WELL INFORMATION BLOCK
#MNEM.UNIT           DATA                    DESCRIPTION OF MNEMONIC
#---------    -------------------            -------------------------------
# Generated from Intellog Unique Number	CS_67_68/WELL/2184
WELL.         CHIEFCO et al TWEEDIE          : Well_name    - WELL
LOC .         00/08-05-067-12W4/0            : Location     - LOCATION
UWI .         00/08-05-067-12W4/0            : Uwi          - UNIQUE WELL ID
ENTR.         SP                             : Entered      - ENTERED BY
SRVC.         SCHLUMBERGER                   : Scn          - SERVICE COMPANY
STRT.M        280                            : top_depth    - START DEPTH
STOP.M        485                            : bot_depth    - STOP DEPTH
STEP.M        0.25                           : increment    - STEP LENGTH
 NULL. -999.2500:NULL Value
~CURVE INFORMATION BLOCK
#MNEM UNIT       ERCB CURVE CODE    CURVE DESCRIPTION
#-----------   ------------------   ----------------------------------
DEPT.M        00 001 00 00         : DEPTH        - DEPTH
ILD .OHMM     00 120 00 00         : RESD         - DEEP RESISTIVITY (DIL)
DPHI.V/V      00 890 00 00         : PHID         - DENSITY POROSITY (LIMESTONE)
NPHI.V/V      00 330 00 00         : PHIN         - NEUTRON POROSITY (LIMESTONE)
GR  .API      00 310 00 00         : GR           - GAMMA RAY
CALI.MM       00 280 01 00         : CAL          - CALIPER
~PARAMETER INFORMATION
#MNEM.UNIT           DATA             DESCRIPTION OF MNEMONIC
#---------         -----------     ------------------------------
GL  .M        555.5                : gl           - GROUND LEVEL ELEVATION
EREF.M        558.5                : kb           - ELEVATION OF DEPTH REFERENCE
DATM.M        558.5                : datum        - DATUM ELEVATION
TDD .M        488                  : tdd          - TOTAL DEPTH DRILLER
RUN .         ONE                  : Run          - RUN NUMBER
ENG .         BILL                 : Engineer     - RECORDING ENGINEER
WIT .         JIM                  : Witness      - WITNESSED BY
MUD .         GEL                  : Mud_type     - MUD TYPE
MATR.         LIMESTONE            : Logunit      - NEUTRON MATRIX
TMAX.C        19                   : BHT          - MAXIMUM RECORDED TEMPERATURE
BHTD.M        487.4                : BHTDEP       - MAXIMUM RECORDED TEMPERATURE
MATR.         1                    : LOGUNIT      - NEUTRON MATRIX
RMT .C        25                   : MDTP         - TEMPERATURE OF MUD
NEUT.         1                    : NEUTRON      - NEUTRON TYPE
RESI.         0                    : RESIST       - RESISTIVITY TYPE
RMC .OHMM     0.25                 : RMC          - RESISTIVITY OF MUD CAKE
RMF .OHMM     0.25                 : RMF          - RESISTIVITY OF MUD FILTRATE
SUFT.C        15                   : SUFT         - SURFACE TEMPERATURE
~A  DEPTH     RESD     PHID     PHIN       GR      CAL
# ...
  462.500    4.817    0.220    0.293   66.674  177.472
  462.750    4.509    0.201    0.290   63.465  177.298
  463.000    4.639    0.197    0.285   62.448  176.926
  463.250    4.684    0.194    0.279   63.258  176.656
  463.500    4.601    0.180    0.274   62.184  176.482
  463.750    4.283    0.172    0.281   65.003  176.615
  464.000    4.046    0.183    0.288   69.469  176.145
  464.250    3.766    0.201    0.294   74.052  176.171
  464.500    3.551    0.213    0.295   71.088  175.801
  464.750    3.379    0.228    0.295   66.906  175.526
  465.000    3.163    0.243    0.299   62.359  175.455
  465.250    2.961    0.240    0.306   58.664  175.489
  465.500    3.268    0.240    0.305   57.282  175.926
  465.750    3.695    0.231    0.298   63.028  176.261
  466.000    4.337    0.210    0.290   68.219  177.210
  466.250    5.146    0.185    0.284   73.049  177.645
  466.500    5.733    0.171    0.278   79.216  178.186
  466.750    6.110    0.164    0.282   84.593  178.930
  467.000    6.159    0.164    0.290   86.256  179.568
  467.250    6.128    0.171    0.291   86.826  180.108
  467.500    6.132    0.178    0.290   87.330  180.646
  467.750    6.192    0.181    0.292   88.325  180.782
  468.000    6.312    0.174    0.295   89.014  181.019
  468.250    6.481    0.167    0.294   90.128  181.351
  468.500    6.656    0.160    0.296   92.525  182.602
  468.750    6.835    0.153    0.299   94.733  182.735
  469.000    6.954    0.156    0.301   97.249  182.464
  469.250    7.049    0.155    0.307   99.581  182.094
  469.500    7.105    0.143    0.312  100.269  181.721
  469.750    7.136    0.138    0.321   98.766  181.846
  470.000    7.139    0.136    0.329  103.169  181.777
  470.250    7.052    0.131    0.330  106.780  181.708
  470.500    6.939    0.125    0.337  109.906  181.746
  470.750    6.891    0.120    0.339  113.149  181.977
  471.000    6.845    0.133    0.335  111.223  182.008
  471.250    6.735    0.146    0.329  107.892  182.039
  471.500    6.764    0.156    0.323  104.806  182.276
  471.750    6.933    0.155    0.316  105.738  182.508
  472.000    7.132    0.144    0.307  105.757  182.747
  472.250    7.729    0.141    0.299   99.750  182.676
  472.500    8.579    0.149    0.291   96.360  183.114
  472.750   10.603    0.156    0.275   95.953  183.455
  473.000   18.778    0.161    0.262   96.276  183.989
  473.250   29.262    0.105    0.247   94.102  184.122
  473.500   43.533    0.071    0.234   79.632  184.560
  473.750   55.736    0.000    0.220   54.080  184.905
  474.000   65.285    0.000    0.173   47.281  184.927
  474.250   72.066    0.000    0.166   41.455  185.265
  474.500   78.382    0.000    0.173   40.258  185.195
  474.750   82.450    0.000    0.178   43.019  184.820
  475.000   78.909    0.000    0.180   44.558  184.855
  475.250   63.795    0.000    0.181   39.280  184.987
  475.500   45.386    0.000    0.186   42.222  185.321
  475.750   32.709    0.000    0.199   50.522  185.864
  476.000   18.018    0.000    0.228   60.159  186.301
  476.250   10.768    0.005    0.257   73.939  186.942
  476.500    9.002    0.021    0.275   84.429  187.482
  476.750    7.970    0.037    0.307   93.762  187.612
  477.000    7.459    0.047    0.329  101.270  187.543
  477.250    6.982    0.054    0.331  108.656  187.677
  477.500    6.645    0.059    0.334  115.494  187.709
  477.750    6.361    0.060    0.337  115.757  187.745
  478.000    6.235    0.056    0.346  116.938  187.778
  478.250    6.158    0.052    0.350  118.293  187.709
  478.500    6.105    0.054    0.350  119.650  187.738
  478.750    6.051    0.068    0.350  120.826  187.666
  479.000    5.988    0.065    0.352  118.958  187.799
  479.250    5.892    0.070    0.356  116.238  187.831
  479.500    5.820    0.074    0.356  117.717  188.167
  479.750    5.759    0.078    0.352  119.685  188.506
  480.000    5.688    0.082    0.348  119.766  188.952
  480.250    5.639    0.087    0.347  121.063  188.977
  480.500    5.610    0.091    0.357  122.604  188.904
  480.750    5.562    0.087    0.359  122.015  189.037
  481.000    5.463    0.082    0.356  123.375  189.075
  481.250    5.385    0.090    0.352  125.036  189.105
  481.500    5.299    0.086    0.349  125.971  189.134
  481.750    5.234    0.082    0.357  122.946  189.270
  482.000    5.141    0.079    0.362  123.026  189.603
  482.250    5.115    0.092    0.362  126.452  189.747
  482.500    5.090    0.096    0.357  131.646  189.973
  482.750    5.037    0.089    0.351  135.989  189.905
  483.000    5.030    0.086    0.352  140.148  190.248
  483.250    5.015    0.092    0.364  144.310  190.271
  483.500    5.008    0.089    0.373  146.883  190.513
  483.750    4.983    0.104    0.372  146.115  190.538
  484.000    4.940    0.103    0.371  141.870  190.369
  484.250    4.933    0.096    0.372  140.000  190.604
  484.500    4.909    0.091    0.368  143.550  190.434
  484.750    4.912    0.092    0.359  145.943  190.065
  485.000    4.942    0.094    0.356  146.208  189.989
