~VERSION INFORMATION
 VERS.                 2.0:   CWLS LOG ASCII STANDARD -VERSION 2.0
 WRAP.                  NO:   ONE LINE PER DEPTH STEP
~WELL INFORMATION BLOCK
#MNEM.UNIT           DATA                    DESCRIPTION OF MNEMONIC
#---------    -------------------            -------------------------------
# Generated from Intellog Unique Number	CS_69_70/WELL/845
WELL.         BOW VALLEY EXPLORATIONS        : Well_name    - WELL
LOC .         00/07-31-069-13W4/0            : Location     - LOCATION
UWI .         00/07-31-069-13W4/0            : Uwi          - UNIQUE WELL ID
ENTR.         SP                             : Entered      - ENTERED BY
SRVC.         SCHLUMBERGER                   : Scn          - SERVICE COMPANY
STRT.M        265                            : top_depth    - START DEPTH
STOP.M        485                            : bot_depth    - STOP DEPTH
STEP.M        0.25                           : increment    - STEP LENGTH
 NULL. -999.2500:NULL Value
~CURVE INFORMATION BLOCK
#MNEM UNIT       ERCB CURVE CODE    CURVE DESCRIPTION
#-----------   ------------------   ----------------------------------
DEPT.M        00 001 00 00         : DEPTH        - DEPTH
ILD .OHMM     00 120 00 00         : RESD         - DEEP RESISTIVITY (DIL)
DPHI.V/V      00 890 00 00         : PHID         - DENSITY POROSITY (LIMESTONE)
NPHI.V/V      00 330 00 00         : PHIN         - NEUTRON POROSITY (LIMESTONE)
GR  .API      00 310 00 00         : GR           - GAMMA RAY
~PARAMETER INFORMATION
#MNEM.UNIT           DATA             DESCRIPTION OF MNEMONIC
#---------         -----------     ------------------------------
GL  .M        568.8                : gl           - GROUND LEVEL ELEVATION
EREF.M        576.5                : kb           - ELEVATION OF DEPTH REFERENCE
DATM.M        568.8                : datum        - DATUM ELEVATION
TDD .M        486                  : tdd          - TOTAL DEPTH DRILLER
RUN .         ONE                  : Run          - RUN NUMBER
ENG .         BILL                 : Engineer     - RECORDING ENGINEER
WIT .         JIM                  : Witness      - WITNESSED BY
MUD .         GEL                  : Mud_type     - MUD TYPE
MATR.         LIMESTONE            : Logunit      - NEUTRON MATRIX
TMAX.C        20                   : BHT          - MAXIMUM RECORDED TEMPERATURE
BHTD.M        486                  : BHTDEP       - MAXIMUM RECORDED TEMPERATURE
MATR.         1                    : LOGUNIT      - NEUTRON MATRIX
RMT .C        25                   : MDTP         - TEMPERATURE OF MUD
NEUT.         1                    : NEUTRON      - NEUTRON TYPE
RESI.         0                    : RESIST       - RESISTIVITY TYPE
RMC .OHMM     0.25                 : RMC          - RESISTIVITY OF MUD CAKE
RMF .OHMM     0.25                 : RMF          - RESISTIVITY OF MUD FILTRATE
SUFT.C        15                   : SUFT         - SURFACE TEMPERATURE
~A  DEPTH     RESD     PHID     PHIN       GR
# ...
  395.500    3.536    0.276    0.478  102.025
  395.750    3.658    0.275    0.472   95.565
  396.000    3.784    0.286    0.462   90.739
  396.250    3.878    0.299    0.453   89.116
  396.500    3.894    0.289    0.465   88.885
  396.750    3.711    0.273    0.463   92.888
  397.000    3.516    0.253    0.458   96.223
  397.250    3.395    0.258    0.459   99.982
  397.500    3.242    0.268    0.467  103.135
  397.750    3.171    0.260    0.477  106.109
  398.000    3.107    0.267    0.492  108.961
  398.250    2.967    0.258    0.503  108.850
  398.500    2.880    0.260    0.487  107.108
  398.750    2.828    0.247    0.472  107.298
  399.000    2.730    0.261    0.460  108.821
  399.250    2.651    0.272    0.470  109.859
  399.500    2.531    0.272    0.488  109.869
  399.750    2.412    0.280    0.528  106.917
  400.000    2.350    0.275    0.513  105.416
  400.250    2.291    0.268    0.494  104.460
  400.500    2.321    0.288    0.501  104.593
  400.750    2.442    0.301    0.518  104.842
  401.000    2.578    0.305    0.532  104.795
  401.250    2.779    0.289    0.513  104.621
  401.500    2.885    0.284    0.498  104.271
  401.750    3.012    0.307    0.509  103.978
  402.000    3.122    0.322    0.483  100.782
  402.250    3.206    0.280    0.456   93.839
  402.500    3.231    0.302    0.425   90.282
  402.750    3.256    0.272    0.429   87.452
  403.000    3.318    0.238    0.437   85.647
  403.250    3.569    0.236    0.449   83.360
  403.500    4.038    0.243    0.460   84.580
  403.750    4.559    0.234    0.444   85.377
  404.000    5.139    0.087    0.405   84.419
  404.250    5.868    0.055    0.259   83.101
  404.500    7.246    0.033    0.228   77.971
  404.750    8.783    0.018    0.240   70.604
  405.000    9.735    0.013    0.255   65.295
  405.250   10.297    0.028    0.265   60.891
  405.500    9.704    0.061    0.276   63.924
  405.750    8.041    0.090    0.306   72.218
  406.000    7.125    0.090    0.328   78.637
  406.250    6.337    0.070    0.346   78.466
  406.500    5.775    0.130    0.359   79.808
  406.750    5.243    0.171    0.374   89.975
  407.000    5.015    0.191    0.390   96.638
  407.250    4.815    0.190    0.406   99.490
  407.500    4.701    0.189    0.420   99.136
  407.750    4.694    0.207    0.428  100.295
  408.000    4.695    0.198    0.422  101.032
  408.250    4.714    0.192    0.415   99.533
  408.500    4.795    0.188    0.425   97.787
  408.750    4.851    0.191    0.431   94.290
  409.000    4.898    0.195    0.425   92.849
  409.250    4.899    0.195    0.421   93.766
  409.500    4.909    0.209    0.419   97.829
  409.750    4.883    0.214    0.430  100.017
  410.000    4.858    0.209    0.426  101.114
  410.250    4.796    0.201    0.420  100.217
  410.500    4.727    0.199    0.423  101.984
  410.750    4.667    0.203    0.416  103.504
  411.000    4.625    0.207    0.410  105.206
  411.250    4.609    0.217    0.418  106.547
  411.500    4.594    0.221    0.417  107.887
  411.750    4.578    0.215    0.412  106.748
  412.000    4.537    0.211    0.411  108.754
  412.250    4.521    0.206    0.421  108.886
  412.500    4.505    0.204    0.426  105.752
  412.750    4.481    0.203    0.428  103.828
  413.000    4.483    0.209    0.431  102.507
  413.250    4.501    0.208    0.428  101.309
  413.500    4.502    0.204    0.414  102.409
  413.750    4.529    0.200    0.403  103.204
  414.000    4.564    0.198    0.404  103.759
  414.250    4.617    0.196    0.405  104.195
  414.500    4.661    0.196    0.392  104.387
  414.750    4.715    0.209    0.401  104.699
  415.000    4.743    0.218    0.390  105.191
  415.250    4.771    0.223    0.375  106.531
  415.500    4.827    0.219    0.363  108.900
  415.750    4.855    0.215    0.354  110.845
  416.000    4.856    0.206    0.366  110.189
  416.250    4.715    0.196    0.384  104.940
  416.500    4.485    0.184    0.398  102.109
  416.750    4.087    0.173    0.405  100.486
  417.000    3.635    0.193    0.400  100.497
  417.250    3.197    0.220    0.401   99.963
  417.500    2.968    0.247    0.455   99.006
  417.750    2.715    0.274    0.470   97.141
  418.000    2.437    0.294    0.492   94.734
  418.250    2.280    0.286    0.504   96.498
  418.500    2.193    0.281    0.507   99.108
  418.750    2.243    0.290    0.522  100.934
  419.000    2.524    0.300    0.534  101.971
  419.250    2.823    0.314    0.513  102.404
  419.500    3.106    0.274    0.481   99.391
  419.750    3.474    0.255    0.462   95.774
  420.000    3.787    0.240    0.450   92.882
  420.250    4.150    0.258    0.463   90.778
  420.500    4.398    0.245    0.475   89.819
  420.750    4.705    0.208    0.450   88.740
  421.000    5.100    0.162    0.402   83.190
  421.250    5.455    0.170    0.369   84.712
  421.500    5.835    0.190    0.349   86.233
  421.750    5.981    0.118    0.336   85.276
  422.000    6.005    0.135    0.324   84.984
  422.250    5.819    0.199    0.382   90.798
  422.500    5.463    0.237    0.420   95.465
  422.750    5.072    0.234    0.423   98.014
  423.000    4.888    0.198    0.405   95.365
  423.250    4.745    0.194    0.395   96.342
  423.500    4.599    0.203    0.389  100.709
  423.750    4.499    0.181    0.390  102.469
  424.000    4.351    0.217    0.410  104.961
  424.250    4.217    0.256    0.425  105.936
  424.500    4.125    0.263    0.426  104.919
  424.750    4.035    0.273    0.413  101.423
  425.000    3.991    0.251    0.412   98.772
  425.250    3.993    0.212    0.418   99.569
  425.500    4.031    0.215    0.424  100.849
  425.750    4.032    0.242    0.412   98.743
  426.000    3.974    0.274    0.407   99.601
  426.250    3.894    0.295    0.420  102.272
  426.500    3.732    0.274    0.438  106.152
  426.750    3.503    0.243    0.444  110.033
  427.000    3.289    0.266    0.455  111.975
  427.250    3.111    0.246    0.473  108.298
  427.500    2.993    0.234    0.484  105.285
  427.750    2.890    0.243    0.487  106.564
  428.000    2.816    0.229    0.492  109.720
  428.250    2.780    0.258    0.494  111.243
  428.500    2.689    0.249    0.485  111.554
  428.750    2.636    0.240    0.474  110.538
  429.000    2.622    0.230    0.463  109.460
  429.250    2.603    0.207    0.455  109.652
  429.500    2.589    0.158    0.448  111.838
  429.750    2.575    0.162    0.441  115.113
  430.000    2.543    0.205    0.446  119.779
  430.250    2.496    0.221    0.479  123.962
  430.500    2.483    0.230    0.499  125.422
  430.750    2.559    0.237    0.518  115.155
  431.000    2.901    0.238    0.537  107.909
  431.250    3.490    0.229    0.509  100.785
  431.500    4.277    0.214    0.301   94.629
  431.750    5.194    0.195    0.282   86.657
  432.000    6.720    0.178    0.282   75.422
  432.250    8.744    0.120    0.295   72.651
  432.500    9.836    0.139    0.327   77.740
  432.750    9.640    0.198    0.364   81.801
  433.000    8.032    0.241    0.395   85.440
  433.250    7.051    0.229    0.400   87.929
  433.500    6.522    0.221    0.389   90.357
  433.750    6.500    0.217    0.391   80.271
  434.000    6.711    0.255    0.372   72.905
  434.250    7.328    0.258    0.342   68.442
  434.500    7.913    0.249    0.353   69.963
  434.750    8.449    0.240    0.365   70.820
  435.000    9.106    0.234    0.371   70.406
  435.250    9.705    0.234    0.362   67.152
  435.500   10.133    0.231    0.309   63.716
  435.750   10.442    0.181    0.271   61.006
  436.000   10.803    0.097    0.262   58.900
  436.250   10.988    0.068    0.264   57.519
  436.500    8.953    0.051    0.284   67.203
  436.750    7.572    0.146    0.339   89.222
  437.000    6.310    0.193    0.386   98.241
  437.250    5.696    0.221    0.435  105.205
  437.500    5.001    0.225    0.395  100.741
  437.750    4.549    0.198    0.361  102.324
  438.000    4.327    0.186    0.341  104.209
  438.250    4.108    0.205    0.329  101.014
  438.500    4.018    0.208    0.325  104.716
  438.750    3.938    0.209    0.323  106.476
