~VERSION INFORMATION
 VERS.                 2.0:   CWLS LOG ASCII STANDARD -VERSION 2.0
 WRAP.                  NO:   ONE LINE PER DEPTH STEP
~WELL INFORMATION BLOCK
#MNEM.UNIT           DATA                    DESCRIPTION OF MNEMONIC
#---------    -------------------            -------------------------------
# Generated from Intellog Unique Number	CX_WELLS/WELL/2894
WELL.         NOVALTA NEWBY                  : Well_name    - WELL
LOC .         00/05-22-082-04W4/0            : Location     - LOCATION
UWI .         00/05-22-082-04W400            : Uwi          - UNIQUE WELL ID
ENTR.         T                              : Entered      - ENTERED BY
SRVC.         SCHLUMBERGER                   : Scn          - SERVICE COMPANY
STRT.M        90                             : top_depth    - START DEPTH
STOP.M        260                            : bot_depth    - STOP DEPTH
STEP.M        0.25                           : increment    - STEP LENGTH
 NULL. -999.2500:NULL Value
~CURVE INFORMATION BLOCK
#MNEM UNIT       ERCB CURVE CODE    CURVE DESCRIPTION
#-----------   ------------------   ----------------------------------
DEPT.M        00 001 00 00         : DEPTH        - DEPTH
GR  .API      00 310 00 00         : GR           - GAMMA RAY
NPHI.V/V      00 330 00 00         : PHIN         - NEUTRON POROSITY (SANDSTONE)
DPHI.V/V      00 890 00 00         : PHID         - DENSITY POROSITY (SANDSTONE)
ILD .OHMM     00 120 00 00         : RESD         - DEEP RESISTIVITY (OTHER)
~PARAMETER INFORMATION
#MNEM.UNIT           DATA             DESCRIPTION OF MNEMONIC
#---------         -----------     ------------------------------
GL  .M        456.56               : gl           - GROUND LEVEL ELEVATION
EREF.M        460.2                : kb           - ELEVATION OF DEPTH REFERENCE
DATM.M        460.2                : datum        - DATUM ELEVATION
TDD .M        284                  : tdd          - TOTAL DEPTH DRILLER
RUN .         ONE                  : Run          - RUN NUMBER
ENG .         BILL                 : Engineer     - RECORDING ENGINEER
WIT .         JIM                  : Witness      - WITNESSED BY
MUD .         GEL                  : Mud_type     - MUD TYPE
MATR.         SANDSTONE            : Logunit      - NEUTRON MATRIX
TMAX.C        24                   : BHT          - MAXIMUM RECORDED TEMPERATURE
BHTD.M        284                  : BHTDEP       - MAXIMUM RECORDED TEMPERATURE
MATR.         1                    : LOGUNIT      - NEUTRON MATRIX
RMT .C        19                   : MDTP         - TEMPERATURE OF MUD
NEUT.         1                    : NEUTRON      - NEUTRON TYPE
RESI.         3.4                  : RESIST       - RESISTIVITY TYPE
RMC .OHMM     2                    : RMC          - RESISTIVITY OF MUD CAKE
RMF .OHMM     3.5                  : RMF          - RESISTIVITY OF MUD FILTRATE
SUFT.C        4                    : SUFT         - SURFACE TEMPERATURE
~A  DEPTH       GR     PHIN     PHID     RESD
# ...
  220.500   47.609    0.380    0.314    1.398
  220.750   48.855    0.360    0.299    1.453
  221.000   50.727    0.349    0.284    1.539
  221.250   47.627    0.341    0.277    1.540
  221.500   45.767    0.338    0.274    1.570
  221.750   44.530    0.338    0.270    1.571
  222.000   45.158    0.337    0.262    1.572
  222.250   44.545    0.344    0.268    1.543
  222.500   44.550    0.367    0.295    1.486
  222.750   40.826    0.372    0.306    1.459
  223.000   37.722    0.379    0.301    1.432
  223.250   40.840    0.384    0.299    1.379
  223.500   37.737    0.387    0.309    1.354
  223.750   34.637    0.387    0.321    1.329
  224.000   34.019    0.384    0.332    1.280
  224.250   33.403    0.374    0.339    1.256
  224.500   33.412    0.362    0.341    1.233
  224.750   33.420    0.357    0.343    1.234
  225.000   33.423    0.358    0.343    1.211
  225.250   33.432    0.359    0.341    1.212
  225.500   33.439    0.355    0.339    1.190
  225.750   32.822    0.353    0.335    1.190
  226.000   32.209    0.354    0.333    1.190
  226.250   32.214    0.357    0.328    1.191
  226.500   32.842    0.358    0.327    1.192
  226.750   32.849    0.358    0.323    1.192
  227.000   33.477    0.358    0.319    1.193
  227.250   34.106    0.353    0.317    1.194
  227.500   35.356    0.349    0.315    1.194
  227.750   35.986    0.348    0.315    1.195
  228.000   35.991    0.342    0.317    1.195
  228.250   35.998    0.340    0.320    1.196
  228.500   34.763    0.343    0.328    1.197
  228.750   34.766    0.346    0.334    1.197
  229.000   34.151    0.347    0.334    1.198
  229.250   34.157    0.347    0.334    1.198
  229.500   34.789    0.348    0.331    1.199
  229.750   35.414    0.350    0.329    1.177
  230.000   35.421    0.353    0.320    1.155
  230.250   34.808    0.355    0.314    1.156
  230.500   34.191    0.356    0.308    1.135
  230.750   33.576    0.360    0.313    1.135
  231.000   32.964    0.362    0.320    1.114
  231.250   32.969    0.363    0.327    1.115
  231.500   32.974    0.366    0.333    1.115
  231.750   32.981    0.368    0.337    1.116
  232.000   33.611    0.366    0.333    1.116
  232.250   33.616    0.361    0.330    1.117
  232.500   34.246    0.366    0.330    1.118
  232.750   34.875    0.375    0.331    1.162
  233.000   36.125    0.385    0.333    1.184
  233.250   36.752    0.396    0.336    1.279
  233.500   45.463    0.408    0.335    1.407
  233.750   57.905    0.393    0.299    1.671
  234.000   72.213    0.396    0.275    1.770
  234.250   83.411    0.421    0.255    1.986
  234.500   83.419    0.430    0.239    2.270
  234.750   84.668    0.426    0.235    2.498
  235.000   89.027    0.403    0.222    2.646
  235.250   91.522    0.395    0.206    2.750
  235.500   89.040    0.389    0.193    2.752
  235.750   86.558    0.393    0.200    2.701
  236.000   83.458    0.398    0.205    2.602
  236.250   82.221    0.395    0.210    2.506
  236.500   82.230    0.392    0.212    2.413
  236.750   82.233    0.388    0.215    2.280
  237.000   77.889    0.386    0.218    2.114
  237.250   74.165    0.386    0.223    2.036
  237.500   71.061    0.378    0.230    1.888
  237.750   66.094    0.375    0.241    1.818
  238.000   58.639    0.390    0.253    1.654
  238.250   53.050    0.377    0.264    1.593
  238.500   49.950    0.377    0.258    1.505
  238.750   49.334    0.388    0.245    1.449
  239.000   46.234    0.399    0.235    1.344
  239.250   44.372    0.405    0.236    1.319
  239.500   41.270    0.403    0.263    1.270
  239.750   36.303    0.377    0.289    1.247
  240.000   33.820    0.364    0.296    1.201
  240.250   34.451    0.367    0.307    1.179
  240.500   34.457    0.371    0.317    1.157
  240.750   31.977    0.377    0.332    1.136
  241.000   30.738    0.379    0.333    1.137
  241.250   35.721    0.377    0.329    1.116
  241.500   38.213    0.360    0.328    1.116
  241.750   39.463    0.350    0.332    1.117
  242.000   38.228    0.363    0.343    1.117
  242.250   36.991    0.368    0.345    1.118
  242.500   36.374    0.367    0.346    1.118
  242.750   35.138    0.368    0.348    1.119
  243.000   33.903    0.375    0.348    1.098
  243.250   33.287    0.379    0.337    1.099
  243.500   32.672    0.380    0.326    1.100
  243.750   33.299    0.361    0.322    1.100
  244.000   35.795    0.350    0.320    1.100
  244.250   37.667    0.355    0.322    1.080
  244.500   37.053    0.364    0.326    1.081
  244.750   35.815    0.370    0.327    1.081
  245.000   34.576    0.367    0.327    1.082
  245.250   33.341    0.367    0.330    1.082
  245.500   33.348    0.366    0.338    1.083
  245.750   33.973    0.366    0.342    1.083
  246.000   38.334    0.366    0.341    1.084
  246.250   41.447    0.370    0.334    1.085
  246.500   45.806    0.370    0.331    1.085
  246.750   44.571    0.369    0.325    1.086
  247.000   32.766    0.368    0.322    1.086
  247.250   31.526    0.366    0.321    1.087
  247.500   27.804    0.366    0.322    1.087
  247.750   25.323    0.369    0.323    1.088
  248.000   23.465    0.372    0.323    1.088
  248.250   22.848    0.364    0.323    1.089
  248.500   22.233    0.358    0.328    1.089
  248.750   20.998    0.361    0.324    1.090
  249.000   21.003    0.365    0.319    1.091
  249.250   21.633    0.367    0.315    1.091
  249.500   22.261    0.368    0.318    1.071
  249.750   22.890    0.365    0.324    1.071
  250.000   24.140    0.360    0.329    1.072
  250.250   24.767    0.355    0.330    1.073
  250.500   26.639    0.360    0.330    1.073
  250.750   29.136    0.368    0.330    1.074
  251.000   31.628    0.378    0.318    1.116
  251.250   34.742    0.375    0.125    1.228
  251.500   37.856    0.369    0.106    1.404
  251.750   42.837    0.357    0.091    1.636
  252.000   47.818    0.331    0.071    1.906
  252.250   49.691    0.324    0.047    2.537
  252.500   46.587    0.319    0.036    3.252
  252.750   40.998    0.192    0.021    4.412
  253.000   36.031    0.174    0.012    5.548
  253.250   36.037    0.196    0.008    7.247
  253.500   42.883    0.221    0.018    8.285
  253.750   49.730    0.227    0.022    8.291
  254.000   47.873    0.241    0.020    8.137
  254.250   44.149    0.247    0.015    8.141
  254.500   40.423    0.205    0.013    8.625
  254.750   38.566    0.188    0.009    9.313
  255.000   37.328    0.167    0.009    9.677
  255.250   36.091    0.165    0.009   10.649
  255.500   34.232    0.174    0.009   11.720
  255.750   32.375    0.174    0.007   12.180
  256.000   30.517    0.173    0.004   12.904
  256.250   29.278    0.169    0.004   13.412
  256.500   28.043    0.168    0.004   13.941
  256.750   26.808    0.170    0.006   14.213
  257.000   26.811    0.169    0.008   14.774
  257.250   26.195    0.166    0.009   15.357
  257.500   26.205    0.165    0.009   15.659
  257.750   26.210    0.165    0.007   15.966
  258.000   26.215    0.165    0.006   16.279
  258.250   26.843    0.165    0.005   16.289
  258.500   28.097    0.166    0.005   16.613
  258.750   28.722    0.166    0.005   16.303
  259.000   31.216    0.169    0.006   16.008
  259.250   35.576    0.178    0.009   15.710
  259.500   38.069    0.182    0.010   15.134
  259.750   39.941    0.188    0.011   14.574
  260.000   43.678    0.196    0.012   14.304
