~VERSION INFORMATION
 VERS.                 2.0:   CWLS LOG ASCII STANDARD -VERSION 2.0
 WRAP.                  NO:   ONE LINE PER DEPTH STEP
~WELL INFORMATION BLOCK
#MNEM.UNIT           DATA                    DESCRIPTION OF MNEMONIC
#---------    -------------------            -------------------------------
# Generated from Intellog Unique Number	CW_70_72/WELL/3013
NULL.         -999.25                        : NULL_VALUE
WELL.         MESA MEYER 06-33               : Well_name    - WELL              
LOC .         06-33-070-24W4                 : Location     - LOCATION          
UWI .         00/06-33-070-24W4/0            : Uwi          - UNIQUE WELL ID    
ENTR.         J                              : Entered      - ENTERED BY        
SRVC.         SCHLUMBERGER                   : Scn          - SERVICE COMPANY   
DATE.         20 FEB 76                      : Date         - LOG DATE          
STRT.M        390.144                        : top_depth    - START DEPTH       
STOP.M        606.644                        : bot_depth    - STOP DEPTH        
STEP.M        0.25                           : increment    - STEP LENGTH       
~CURVE INFORMATION BLOCK
#MNEM UNIT       ERCB CURVE CODE    CURVE DESCRIPTION
#-----------   ------------------   ----------------------------------
DEPT.M        00 001 00 00         : DEPTH        - DEPTH                       
ILD .OHMM     00 120 00 00         : RESD         - DEEP RESISTIVITY (DIL)      
CALI.MM       00 280 01 00         : CAL          - CALIPER                     
GR  .API      00 310 00 00         : GR           - GAMMA RAY                   
NPHI.V/V      00 330 00 00         : PHIN         - NEUTRON POROSITY (SANDSTONE)
DPHI.V/V      00 890 00 00         : PHID         - DENSITY POROSITY (SANDSTONE)
~PARAMETER INFORMATION       
#MNEM.UNIT           DATA             DESCRIPTION OF MNEMONIC
#---------         -----------     ------------------------------
GL  .M        601.98               : gl           - GROUND LEVEL ELEVATION      
EREF.M        605.638              : kb           - ELEVATION OF DEPTH REFERENCE
DATM.M        601.98               : datum        - DATUM ELEVATION             
TDD .M        624.84               : tdd          - TOTAL DEPTH DRILLER         
RUN .         ONE                  : Run          - RUN NUMBER                  
ENG .         SLUSARCHUK           : Engineer     - RECORDING ENGINEER          
WIT .         HOVER                : Witness      - WITNESSED BY                
BASE.         EDM                  : Branch       - HOME BASE OF LOGGING UNIT   
MUD .         GEL CHEM             : Mud_type     - MUD TYPE                    
MATR.         SANDSTONE            : Logunit      - NEUTRON MATRIX              
TMAX.C        28.3333              : BHT          - MAXIMUM RECORDED TEMPERATURE
BHTD.M        625.45               : BHTDEP       - MAXIMUM RECORDED TEMPERATURE
RMT .C        16.1111              : MDTP         - TEMPERATURE OF MUD          
MUDD.KG/M     1080                 : MWT          - MUD DENSITY                 
NEUT.         1                    : NEUTRON      - NEUTRON TYPE                
RESI.         0                    : RESIST       - RESISTIVITY TYPE            
RM  .OHMM     4.6                  : RM           - RESISTIVITY OF MUD          
RMC .OHMM     0.25                 : RMC          - RESISTIVITY OF MUD CAKE     
RMF .OHMM     4.22                 : RMF          - RESISTIVITY OF MUD FILTRATE 
SUFT.C        -17.7778             : SUFT         - SURFACE TEMPERATURE         
~A  DEPTH     RESD      CAL       GR     PHIN     PHID
# ...
  426.644    3.561  161.631  112.673    0.419    0.226
  426.894    3.500  159.021  115.541    0.429    0.244
  427.144    3.527  158.417  130.821    0.420    0.251
  427.394    3.524  162.427  143.245    0.415    0.221
  427.644    3.539  169.071  136.618    0.428    0.192
  427.894    3.510  173.926  125.396    0.446    0.153
  428.144    3.558  175.839  115.603    0.468    0.196
  428.394    3.760  169.031  106.866    0.502    0.233
  428.644    4.116  163.585  100.113    0.480    0.248
  428.894    4.565  158.774   91.685    0.457    0.236
  429.144    5.063  157.638   89.218    0.401    0.286
  429.394    5.627  157.664   92.396    0.375    0.308
  429.644    5.922  157.998   93.524    0.364    0.313
  429.894    5.378  158.124   93.721    0.369    0.299
  430.144    4.128  158.147   93.113    0.390    0.287
  430.394    3.735  158.171   93.438    0.421    0.281
  430.644    3.449  158.191   99.531    0.435    0.283
  430.894    3.257  158.316  100.413    0.448    0.276
  431.144    3.365  158.543   93.225    0.455    0.257
  431.394    3.768  158.673   90.755    0.438    0.229
  431.644    4.171  158.480   94.434    0.401    0.192
  431.894    5.005  158.503   96.800    0.380    0.160
  432.144    5.762  158.522   95.262    0.382    0.156
  432.394    6.214  158.650   93.849    0.407    0.199
  432.644    6.312  159.513   95.597    0.413    0.189
  432.894    5.819  159.533   95.299    0.380    0.161
  433.144    5.324  159.870  101.580    0.374    0.176
  433.394    4.799  159.575  108.358    0.405    0.187
  433.644    4.482  158.862  111.102    0.435    0.182
  433.894    4.233  157.199  106.584    0.460    0.173
  434.144    4.150  155.123  104.671    0.470    0.200
  434.394    4.122  154.510  105.058    0.428    0.229
  434.644    4.188  153.905  105.627    0.413    0.206
  434.894    4.303  153.607  108.247    0.414    0.197
  435.144    4.346  153.312  108.817    0.421    0.218
  435.394    4.261  152.918   99.830    0.428    0.238
  435.644    4.225  153.354   97.984    0.415    0.268
  435.894    4.142  154.426  101.844    0.407    0.273
  436.144    4.177  156.969  106.136    0.421    0.266
  436.394    4.212  161.198  112.668    0.435    0.259
  436.644    4.223  161.746  115.471    0.422    0.198
  436.894    4.227  161.872  115.049    0.432    0.202
  437.144    4.229  161.473  101.470    0.455    0.226
  437.394    4.273  161.385  102.665    0.462    0.204
  437.644    4.292  162.982  105.718    0.440    0.174
  437.894    4.296  164.795  109.203    0.415    0.147
  438.144    4.300  165.655  115.115    0.413    0.157
  438.394    4.271  166.413  114.320    0.428    0.167
  438.644    4.156  166.644  111.229    0.439    0.173
  438.894    3.999  166.557  106.586    0.453    0.185
  439.144    3.776  165.635  102.069    0.483    0.215
  439.394    3.547  162.186   97.300    0.454    0.285
  439.644    3.388  158.216   90.488    0.418    0.304
  439.894    3.260  156.243   90.439    0.400    0.297
  440.144    3.120  155.417   88.091    0.387    0.272
  440.394    3.058  154.394   82.085    0.390    0.255
  440.644    2.982  154.098   72.414    0.418    0.256
  440.894    2.951  153.593   61.256    0.421    0.271
  441.144    2.899  153.509   53.945    0.413    0.280
  441.394    2.869  153.423   57.436    0.412    0.277
  441.644    2.845  153.551   62.848    0.406    0.279
  441.894    2.758  153.888   67.762    0.399    0.290
  442.144    2.605  154.642   71.932    0.398    0.296
  442.394    2.515  156.136   72.316    0.402    0.299
  442.644    2.443  157.629   71.958    0.418    0.318
  442.894    2.419  158.804   71.782    0.425    0.313
  443.144    2.457  160.410   72.231    0.423    0.297
  443.394    2.562  161.579   73.734    0.419    0.291
  443.644    2.737  163.387   76.599    0.418    0.285
  443.894    2.991  165.409   83.127    0.417    0.277
  444.144    3.262  166.058   90.650    0.414    0.262
  444.394    3.492  165.660   97.429    0.409    0.240
  444.644    3.662  163.369   91.234    0.411    0.251
  444.894    3.659  158.557   80.634    0.430    0.331
  445.144    3.621  155.740   75.868    0.449    0.371
  445.394    3.616  156.076   77.122    0.471    0.359
  445.644    3.640  159.563   79.370    0.478    0.315
  445.894    3.697  160.216   80.684    0.464    0.292
  446.144    3.791  155.930   74.739    0.445    0.245
  446.394    3.983  155.847   58.739    0.430    0.285
  446.644    4.543  159.337   66.882    0.408    0.301
  446.894    4.992  162.191   72.976    0.471    0.336
  447.144    5.139  165.050   75.969    0.537    0.384
  447.394    4.954  165.073   80.573    0.587    0.501
  447.644    4.541  160.048   87.102    0.583    0.348
  447.894    3.980  156.919   90.404    0.476    0.281
  448.144    3.329  156.310   90.416    0.399    0.263
  448.394    3.307  156.435   89.063    0.403    0.258
  448.644    3.384  157.190   87.400    0.414    0.253
  448.894    3.477  159.741   90.703    0.424    0.249
  449.144    3.592  160.912   95.372    0.420    0.240
  449.394    3.711  161.987  100.720    0.424    0.230
  449.644    3.806  161.803  102.719    0.434    0.210
  449.894    3.844  161.720  102.855    0.423    0.229
  450.144    3.854  162.049  100.948    0.419    0.228
  450.394    3.829  162.488   99.038    0.425    0.225
  450.644    3.725  161.777   97.865    0.436    0.244
  450.894    3.552  157.172   94.836    0.448    0.230
  451.144    3.443  154.359   87.835    0.458    0.248
  451.394    3.283  154.066   78.416    0.473    0.294
  451.644    3.207  154.508   79.297    0.461    0.304
  451.894    3.127  154.842   81.358    0.445    0.308
  452.144    3.083  155.181   80.441    0.441    0.300
  452.394    3.074  155.093   77.907    0.445    0.298
  452.644    3.058  155.327   74.320    0.450    0.306
  452.894    3.061  154.924   72.534    0.457    0.291
  453.144    3.070  154.210   71.803    0.465    0.300
  453.394    3.101  154.131   70.635    0.454    0.296
  453.644    3.209  156.038   69.903    0.443    0.280
  453.894    3.384  159.739   70.042    0.404    0.184
  454.144    3.768  160.919   67.259    0.375    0.131
  454.394    4.163  161.777   62.491    0.335    0.070
  454.644    4.609  161.379   55.554    0.263    0.156
  454.894    5.122  160.561   52.587    0.312    0.193
  455.144    5.474  157.637   62.843    0.358    0.232
  455.394    5.591  158.817   68.189    0.417    0.194
  455.644    5.441  160.307   73.727    0.338    0.185
  455.894    5.167  161.485   77.399    0.304    0.144
  456.144    4.737  160.352   84.426    0.277    0.137
  456.394    4.246  157.327   96.479    0.300    0.201
  456.644    3.884  156.086   97.856    0.356    0.234
  456.894    3.634  157.472   96.999    0.401    0.240
  457.144    3.395  160.019   96.205    0.427    0.250
  457.394    3.397  161.615   97.273    0.420    0.258
  457.644    3.543  161.634  101.137    0.422    0.230
  457.894    3.680  161.234  103.135    0.415    0.205
  458.144    3.874  157.787  104.140    0.419    0.217
  458.394    4.086  157.602  103.965    0.428    0.211
  458.644    4.228  160.565  103.424    0.418    0.183
  458.894    4.248  163.424  103.368    0.411    0.161
  459.144    4.164  164.600  100.526    0.413    0.166
  459.394    3.941  164.725   95.262    0.437    0.178
  459.644    3.701  164.432   85.224    0.469    0.208
  459.894    3.323  163.193   79.899    0.460    0.231
  460.144    2.996  160.274   76.435    0.432    0.248
  460.394    2.756  157.244   78.497    0.409    0.238
  460.644    2.531  155.057   76.833    0.422    0.243
  460.894    2.377  155.709   74.609    0.424    0.297
  461.144    2.279  159.304   76.484    0.414    0.292
  461.394    2.247  159.432   79.663    0.414    0.292
  461.644    2.245  156.192   82.715    0.408    0.295
  461.894    2.272  154.433   83.783    0.413    0.301
  462.144    2.330  153.932   82.060    0.426    0.290
  462.394    2.380  153.851   82.255    0.444    0.292
  462.644    2.473  153.861   80.283    0.442    0.290
  462.894    2.545  153.886   77.875    0.431    0.277
