~VERSION INFORMATION
 VERS.                 2.0:   CWLS LOG ASCII STANDARD -VERSION 2.0
 WRAP.                  NO:   ONE LINE PER DEPTH STEP
~WELL INFORMATION BLOCK
#MNEM.UNIT           DATA                    DESCRIPTION OF MNEMONIC
#---------    -------------------            -------------------------------
# Generated from Intellog Unique Number	CW_76_78/WELL/529
WELL.         CHIEFCO RR ET AL PELICAN 06-21 : Well_name    - WELL
LOC .         00/06-21-077-22W4/0            : Location     - LOCATION
UWI .         00/06-21-077-22W4/0            : Uwi          - UNIQUE WELL ID
ENTR.         jj                             : Entered      - ENTERED BY
SRVC.         SCHLUMBERGER                   : Scn          - SERVICE COMPANY
DATE.         24 FEB 1973                    : Date         - LOG DATE
STRT.M        377.952                        : top_depth    - START DEPTH
STOP.M        600.452                        : bot_depth    - STOP DEPTH
STEP.M        0.25                           : increment    - STEP LENGTH
 NULL. -999.2500:NULL Value
~CURVE INFORMATION BLOCK
#MNEM UNIT       ERCB CURVE CODE    CURVE DESCRIPTION
#-----------   ------------------   ----------------------------------
DEPT.M        00 001 00 00         : DEPTH        - DEPTH
ILD .OHMM     00 120 00 00         : RESD         - DEEP RESISTIVITY (DIL)
NPHI.V/V      00 330 00 00         : PHIN         - NEUTRON POROSITY (SANDSTONE)
DPHI.V/V      00 890 00 00         : PHID         - DENSITY POROSITY (SANDSTONE)
GR  .API      00 310 00 00         : GR           - GAMMA RAY
CALI.MM       00 280 01 00         : CAL          - CALIPER
~PARAMETER INFORMATION
#MNEM.UNIT           DATA             DESCRIPTION OF MNEMONIC
#---------         -----------     ------------------------------
GL  .M        701.954              : gl           - GROUND LEVEL ELEVATION
EREF.M        704.088              : kb           - ELEVATION OF DEPTH REFERENCE
DATM.M        701.954              : datum        - DATUM ELEVATION
TDD .M        601.066              : tdd          - TOTAL DEPTH DRILLER
RUN .         ONE                  : Run          - RUN NUMBER
ENG .         XXXXX                : Engineer     - RECORDING ENGINEER
WIT .         XXXXX                : Witness      - WITNESSED BY
BASE.         EDMONTON             : Branch       - HOME BASE OF LOGGING UNIT
MUD .         GEL CHEM             : Mud_type     - MUD TYPE
MATR.         SANDSTONE            : Logunit      - NEUTRON MATRIX
TMAX.C        20                   : BHT          - MAXIMUM RECORDED TEMPERATURE
BHTD.M        598.932              : BHTDEP       - MAXIMUM RECORDED TEMPERATURE
RMT .C        15.5556              : MDTP         - TEMPERATURE OF MUD
MUDD.KG/M     1080                 : MWT          - MUD DENSITY
NEUT.         1                    : NEUTRON      - NEUTRON TYPE
RESI.         0                    : RESIST       - RESISTIVITY TYPE
RM  .OHMM     3.57                 : RM           - RESISTIVITY OF MUD
RMC .OHMM     2.5                  : RMC          - RESISTIVITY OF MUD CAKE
RMF .OHMM     3.51                 : RMF          - RESISTIVITY OF MUD FILTRATE
SUFT.C        4.5                  : SUFT         - SURFACE TEMPERATURE
~A  DEPTH     RESD     PHIN     PHID       GR      CAL
# ...
  414.452    7.426    0.461    0.241   89.764  156.564
  414.702    7.774    0.472    0.275   86.524  158.230
  414.952    8.216    0.503    0.288   79.181  157.202
  415.202    9.200    0.524    0.279   61.185  156.585
  415.452    9.776    0.483    0.295   59.721  158.769
  415.702   10.273    0.476    0.312   60.827  159.606
  415.952   10.656    0.476    0.301   60.586  158.473
  416.202    9.098    0.470    0.311   60.712  157.547
  416.452    7.000    0.462    0.306   66.044  156.932
  416.702    5.086    0.456    0.294   73.578  157.769
  416.952    4.001    0.474    0.267   89.868  159.333
  417.202    3.291    0.498    0.239   92.505  160.167
  417.452    3.021    0.524    0.244   88.836  161.524
  417.702    3.157    0.517    0.246   80.820  162.567
  417.952    3.635    0.478    0.242   76.600  163.610
  418.202    4.498    0.440    0.234   72.624  163.825
  418.452    5.391    0.369    0.262   69.322  162.795
  418.702    6.428    0.318    0.279   67.735  160.419
  418.952    7.567    0.371    0.307   66.821  158.559
  419.202    9.140    0.462    0.317   65.785  157.427
  419.452   10.291    0.487    0.317   64.013  157.848
  419.702   10.559    0.500    0.328   61.813  159.307
  419.952   10.455    0.504    0.316   63.899  160.039
  420.202   10.016    0.496    0.303   65.005  158.908
  420.452    9.610    0.478    0.306   65.439  157.774
  420.702    8.837    0.457    0.307   68.626  155.707
  420.952    8.156    0.447    0.318   70.835  154.989
  421.202    7.612    0.490    0.295   72.063  155.306
  421.452    7.305    0.576    0.284   72.680  156.041
  421.702    7.383    0.577    0.285   74.949  157.189
  421.952    7.645    0.549    0.313   74.892  157.713
  422.202    8.081    0.512    0.341   72.570  158.655
  422.452    8.524    0.498    0.341   71.105  159.386
  422.702    9.007    0.495    0.326   68.109  160.015
  422.952    9.329    0.485    0.312   67.501  160.229
  423.202    9.535    0.475    0.299   65.485  160.445
  423.452    9.657    0.466    0.297   65.305  160.349
  423.702    9.743    0.455    0.297   63.534  160.148
  423.952    9.737    0.486    0.301   61.334  159.429
  424.202    9.526    0.516    0.300   59.869  158.399
  424.452    9.465    0.500    0.332   56.078  157.267
  424.702    9.288    0.486    0.338   52.592  159.660
  424.952    9.163    0.485    0.329   53.025  160.702
  425.202    8.962    0.501    0.342   54.193  160.605
  425.452    8.953    0.481    0.327   53.769  158.853
  425.702    8.933    0.473    0.320   52.855  157.823
  425.952    8.997    0.470    0.315   52.002  157.206
  426.202    8.981    0.456    0.292   52.557  156.177
  426.452    8.972    0.439    0.295   52.071  155.045
  426.702    9.006    0.400    0.305   52.136  155.050
  426.952    8.983    0.370    0.320   53.978  156.612
  427.202    8.932    0.401    0.326   55.941  160.248
  427.452    8.846    0.505    0.335   55.762  161.810
  427.702    8.793    0.487    0.352   55.092  161.404
  427.952    8.870    0.463    0.334   52.402  160.685
  428.202    8.998    0.430    0.309   52.713  160.278
  428.452    9.164    0.425    0.305   54.554  160.701
  428.702    9.245    0.411    0.317   54.436  160.914
  428.952    9.333    0.372    0.319   53.705  161.232
  429.202    9.309    0.353    0.327   51.996  161.552
  429.452    9.185    0.375    0.332   51.204  161.974
  429.702    8.952    0.405    0.325   53.963  162.190
  429.952    8.798    0.469    0.316   57.825  161.988
  430.202    8.692    0.468    0.316   58.012  161.374
  430.452    8.580    0.496    0.324   56.792  160.654
  430.702    8.532    0.523    0.338   57.715  159.727
  430.952    8.496    0.531    0.332   55.148  158.076
  431.202    8.434    0.549    0.349   53.989  156.321
  431.452    8.376    0.544    0.368   53.136  156.018
  431.702    8.341    0.526    0.362   54.916  157.060
  431.952    8.262    0.512    0.360   58.409  159.142
  432.202    8.259    0.493    0.359   60.189  159.772
  432.452    8.289    0.488    0.357   58.173  159.674
  432.702    8.351    0.480    0.351   58.300  159.268
  432.952    8.377    0.483    0.340   56.039  159.482
  433.202    8.384    0.496    0.328   55.860  160.422
  433.452    8.413    0.511    0.320   56.231  160.947
  433.702    8.431    0.508    0.311   57.950  161.577
  433.952    8.453    0.501    0.327   57.648  162.101
  434.202    8.530    0.486    0.330   57.836  161.592
  434.452    8.608    0.475    0.326   56.799  160.768
  434.702    8.653    0.455    0.331   56.803  158.599
  434.952    8.646    0.422    0.339   56.991  156.843
  435.202    8.584    0.361    0.351   56.199  157.576
  435.452    8.482    0.338    0.339   57.858  160.073
  435.702    8.202    0.386    0.340   59.392  160.911
  435.952    8.033    0.542    0.350   56.335  159.778
  436.202    7.953    0.546    0.361   53.828  158.745
  436.452    7.982    0.491    0.356   54.812  156.472
  436.702    8.128    0.480    0.346   56.102  155.442
  436.952    8.183    0.485    0.333   57.332  157.007
  437.202    8.243    0.488    0.326   57.642  158.567
  437.452    8.244    0.477    0.329   57.524  161.582
  437.702    8.250    0.479    0.332   57.712  161.899
  437.952    8.216    0.487    0.344   57.471  160.869
  438.202    8.245    0.478    0.339   58.639  159.219
  438.452    8.289    0.468    0.323   58.949  159.329
  438.702    8.269    0.472    0.330   59.444  158.093
  438.952    8.268    0.492    0.327   60.426  156.960
  439.202    8.281    0.508    0.333   63.798  157.277
  439.452    8.249    0.498    0.336   66.680  158.427
  439.702    8.184    0.503    0.337   63.623  158.432
  439.952    8.130    0.502    0.333   63.321  158.024
  440.202    8.026    0.488    0.327   62.101  157.099
  440.452    8.247    0.493    0.328   60.575  155.967
  440.702    8.304    0.507    0.325   59.845  155.456
  440.952    8.331    0.506    0.332   59.909  155.362
  441.202    8.469    0.502    0.325   62.975  155.365
  441.452    8.514    0.497    0.329   62.551  155.890
  441.702    8.509    0.464    0.340   61.086  157.659
  441.952    8.431    0.420    0.327   58.703  159.948
  442.202    8.400    0.427    0.337   58.645  161.097
  442.452    8.406    0.505    0.328   59.446  161.102
  442.702    8.546    0.481    0.340   57.797  159.763
  442.952    8.815    0.441    0.359   57.740  158.525
  443.202    9.318    0.428    0.346   57.989  155.839
  443.452    9.977    0.421    0.326   56.891  156.366
  443.702   10.698    0.407    0.307   54.324  157.512
  443.952   12.203    0.307    0.282   55.307  158.970
  444.202   13.633    0.355    0.243   59.536  161.155
  444.452   13.940    0.411    0.257   60.581  161.782
  444.702   12.940    0.498    0.320   60.586  160.029
  444.952   11.829    0.531    0.332   61.570  157.133
  445.202   10.480    0.571    0.346   62.186  155.275
  445.452    9.512    0.546    0.352   63.782  155.488
  445.702    8.681    0.514    0.355   62.256  157.258
  445.952    8.162    0.475    0.353   60.240  158.612
  446.202    8.085    0.425    0.336   56.938  160.382
  446.452    8.158    0.454    0.330   57.677  160.390
  446.702    8.170    0.476    0.325   60.436  159.050
  446.952    8.123    0.482    0.319   64.114  157.915
  447.202    8.044    0.502    0.303   65.832  156.057
  447.452    7.923    0.507    0.322   65.776  154.612
  447.702    7.858    0.511    0.307   65.045  154.827
  447.952    7.711    0.531    0.313   65.846  155.664
  448.202    7.455    0.543    0.328   68.911  156.914
  448.452    7.128    0.554    0.336   73.813  159.825
  448.702    6.839    0.573    0.298   79.205  161.076
  448.952    6.394    0.563    0.291   80.556  160.669
  449.202    5.665    0.547    0.296   83.132  159.016
  449.452    4.837    0.552    0.251   90.177  156.536
  449.702    4.414    0.562    0.241  100.160  158.721
  449.952    4.135    0.567    0.265  109.655  160.904
  450.202    4.181    0.538    0.251  106.414  162.156
  450.452    4.536    0.538    0.231  106.969  162.682
  450.702    4.855    0.566    0.239  106.545  162.481
