~VERSION INFORMATION
 VERS.                 2.0:   CWLS LOG ASCII STANDARD -VERSION 2.0
 WRAP.                  NO:   ONE LINE PER DEPTH STEP
~WELL INFORMATION BLOCK
#MNEM.UNIT           DATA                    DESCRIPTION OF MNEMONIC
#---------    -------------------            -------------------------------
# Generated from Intellog Unique Number	CN_94_101/WELL/2618
WELL.         PARAMOUNT RESOURCES LTD.       : Well_name    - WELL
LOC .         00/07-05-094-18W4/0            : Location     - LOCATION
UWI .         00/07-05-094-18W400            : Uwi          - UNIQUE WELL ID
ENTR.         JOETTE                         : Entered      - ENTERED BY
SRVC.         COMPUTALOG                     : Scn          - SERVICE COMPANY
DATE.         06\18\92                       : Date         - LOG DATE
STRT.M        100                            : top_depth    - START DEPTH
STOP.M        254                            : bot_depth    - STOP DEPTH
STEP.M        0.25                           : increment    - STEP LENGTH
 NULL. -999.2500:NULL Value
~CURVE INFORMATION BLOCK
#MNEM UNIT       ERCB CURVE CODE    CURVE DESCRIPTION
#-----------   ------------------   ----------------------------------
DEPT.M        00 001 00 00         : DEPTH        - DEPTH
CALI.MM       00 280 01 00         : CAL          - CALIPER
GR  .API      00 310 00 00         : GR           - GAMMA RAY
NPHI.V/V      00 330 00 00         : PHIN         - NEUTRON POROSITY (SANDSTONE)
DPHI.V/V      00 890 00 00         : PHID         - DENSITY POROSITY (SANDSTONE)
ILD .OHMM     00 120 00 00         : RESD         - DEEP RESISTIVITY (DIL)
~PARAMETER INFORMATION
#MNEM.UNIT           DATA             DESCRIPTION OF MNEMONIC
#---------         -----------     ------------------------------
GL  .M        522                  : gl           - GROUND LEVEL ELEVATION
EREF.M        525.8                : kb           - ELEVATION OF DEPTH REFERENCE
DATM.M        525.8                : datum        - DATUM ELEVATION
TDD .M        253                  : tdd          - TOTAL DEPTH DRILLER
RUN .         ONE                  : Run          - RUN NUMBER
ENG .         JO                   : Engineer     - RECORDING ENGINEER
WIT .         TIM                  : Witness      - WITNESSED BY
MUD .         GEL                  : Mud_type     - MUD TYPE
MATR.         SANDSTONE            : Logunit      - NEUTRON MATRIX
TMAX.C        26                   : BHT          - MAXIMUM RECORDED TEMPERATURE
BHTD.M        253                  : BHTDEP       - MAXIMUM RECORDED TEMPERATURE
RMT .C        16                   : MDTP         - TEMPERATURE OF MUD
MUDD.KG/M     1090                 : MWT          - MUD DENSITY
NEUT.         1                    : NEUTRON      - NEUTRON TYPE
RESI.         0                    : RESIST       - RESISTIVITY TYPE
RM  .OHMM     3.4                  : RM           - RESISTIVITY OF MUD
RMC .OHMM     3.4                  : RMC          - RESISTIVITY OF MUD CAKE
RMF .OHMM     3.4                  : RMF          - RESISTIVITY OF MUD FILTRATE
SUFT.C        4                    : SUFT         - SURFACE TEMPERATURE
~A  DEPTH      CAL       GR     PHIN     PHID     RESD
# ...
  136.500  168.796   99.787    0.511    0.247    4.957
  136.750  168.005  102.270    0.529    0.248    5.156
  137.000  167.132  104.729    0.529    0.251    5.366
  137.250  164.353  110.219    0.495    0.255    5.381
  137.500  163.480  111.533    0.484    0.259    5.289
  137.750  162.648  105.617    0.474    0.254    4.734
  138.000  160.863  103.925    0.460    0.245    4.322
  138.250  163.054  102.830    0.464    0.248    4.327
  138.500  165.123  104.716    0.475    0.257    4.594
  138.750  172.284  106.603    0.524    0.258    4.962
  139.000  177.457  103.718    0.545    0.251    7.254
  139.250  177.579   99.044    0.515    0.237    7.689
  139.500  173.765   87.212    0.490    0.207    8.314
  139.750  170.904   84.303    0.459    0.223    8.328
  140.000  164.148   81.418    0.441    0.265    8.355
  140.250  160.374   85.714    0.444    0.285    8.208
  140.500  159.461   87.601    0.433    0.275    8.073
  140.750  158.629   86.530    0.428    0.245    7.939
  141.000  158.792   85.385    0.465    0.198    7.524
  141.250  160.982   83.097    0.449    0.166    7.257
  141.500  163.092   77.254    0.381    0.131    6.877
  141.750  166.237   89.877    0.376    0.109    6.513
  142.000  169.462   98.324    0.353    0.139    6.286
  142.250  169.584  108.586    0.436    0.189    6.063
  142.500  168.711  106.894    0.474    0.198    5.852
  142.750  164.978  109.401    0.466    0.173    5.755
  143.000  164.065  112.481    0.487    0.171    5.557
  143.250  163.233  111.361    0.481    0.180    5.363
  143.500  163.395  108.476    0.472    0.176    5.082
  143.750  163.598  106.784    0.464    0.150    4.900
  144.000  163.800  108.074    0.466    0.161    4.556
  144.250  163.882  110.557    0.483    0.210    4.393
  144.500  165.078  111.251    0.515    0.231    4.006
  144.750  165.200  110.155    0.539    0.261    3.455
  145.000  165.443  107.270    0.531    0.269    3.211
  145.250  166.559  105.627    0.500    0.269    2.930
  145.500  166.559  106.272    0.484    0.269    2.880
  145.750  160.006  108.183    0.488    0.271    2.833
  146.000  161.081  107.659    0.523    0.274    3.121
  146.250  161.202  104.178    0.537    0.280    3.245
  146.500  161.364  100.100    0.541    0.290    3.573
  146.750  162.561   97.215    0.557    0.260    4.012
  147.000  165.746   94.926    0.512    0.250    4.418
  147.250  169.925   92.638    0.473    0.255    4.959
  147.500  171.000   89.132    0.451    0.259    6.723
  147.750  172.197   83.861    0.457    0.251    7.269
  148.000  168.342   77.994    0.447    0.236    7.701
  148.250  160.552   73.892    0.396    0.239    8.647
  148.500  155.743   68.621    0.378    0.272    9.522
  148.750  154.952   71.701    0.372    0.295   10.487
  149.000  155.033   78.383    0.356    0.232   11.555
  149.250  157.264   88.048    0.358    0.164   11.364
  149.500  159.374   89.910    0.397    0.211   10.359
  149.750  163.553   93.014    0.414    0.218    8.762
  150.000  165.663   93.111    0.423    0.244    7.272
  150.250  167.813   89.630    0.428    0.237    7.022
  150.500  170.004   86.124    0.426    0.238    7.168
  150.750  170.126   80.853    0.421    0.244    7.324
  151.000  170.328   79.782    0.412    0.256    6.940
  151.250  168.502   82.837    0.407    0.254    6.566
  151.500  167.630   96.129    0.411    0.245    6.099
  151.750  165.885   97.967    0.440    0.236    5.669
  152.000  166.006  102.289    0.452    0.235    5.899
  152.250  167.122   99.355    0.464    0.247    6.754
  152.500  168.278   85.113    0.464    0.259    7.438
  152.750  167.446   76.860    0.459    0.232    7.736
  153.000  163.673   71.565    0.445    0.223    8.529
  153.250  161.847   68.680    0.433    0.273    8.871
  153.500  159.980   70.567    0.429    0.285    9.227
  153.750  158.235   70.688    0.433    0.309    9.791
  154.000  158.357   70.165    0.432    0.319    9.994
  154.250  158.519   65.539    0.427    0.318   10.605
  154.500  158.681   63.798    0.417    0.270   10.830
  154.750  159.837   62.106    0.392    0.158   10.257
  155.000  160.040   66.975    0.336    0.178    8.509
  155.250  160.121   80.815    0.422    0.206    4.408
  155.500  161.277   85.708    0.522    0.260    3.943
  155.750  162.433   91.794    0.537    0.270    3.273
  156.000  164.624   92.488    0.510    0.267    3.219
  156.250  166.896   91.989    0.500    0.262    3.614
  156.500  168.012   93.255    0.472    0.256    4.716
  156.750  168.133   95.762    0.467    0.253    4.905
  157.000  168.255   94.642    0.469    0.240    5.105
  157.250  167.464   94.740    0.474    0.218    5.316
  157.500  167.626   99.633    0.482    0.219    5.432
  157.750  166.794  100.923    0.485    0.220    5.345
  158.000  166.996   98.634    0.479    0.212    5.254
  158.250  168.072  101.714    0.473    0.207    5.363
  158.500  168.234  104.793    0.470    0.213    6.025
  158.750  169.390   95.944    0.476    0.212    6.631
  159.000  168.639   88.859    0.304    0.190    7.167
  159.250  168.761   59.086    0.256    0.077    7.741
  159.500  167.888   57.990    0.274    0.100    8.209
  159.750  166.062   73.047    0.395    0.169    8.227
  160.000  162.288   79.109    0.448    0.229    8.096
  160.250  162.410   86.364    0.457    0.251    7.962
  160.500  162.572   84.075    0.423    0.251    7.980
  160.750  163.809   82.383    0.413    0.253    8.149
  161.000  164.925   82.480    0.409    0.254    8.652
  161.250  167.035   85.584    0.412    0.250    8.999
  161.500  170.260   88.639    0.423    0.243    9.186
  161.750  172.370   93.533    0.433    0.240    9.932
  162.000  173.526   88.262    0.450    0.235   10.331
  162.250  169.672   78.195    0.462    0.231   10.764
  162.500  162.916   72.900    0.457    0.221   10.781
  162.750  161.090   74.835    0.428    0.187   10.799
  163.000  161.252   78.511    0.421    0.160   10.621
  163.250  161.373   81.591    0.415    0.172   10.457
  163.500  162.651   84.646    0.418    0.214   10.086
  163.750  163.726   84.147    0.408    0.228    9.735
  164.000  164.842   82.455    0.394    0.259    9.390
  164.250  165.998   83.745    0.403    0.247    8.732
  164.500  166.201   86.252    0.430    0.244    7.815
  164.750  166.323   83.988    0.430    0.241    7.397
  165.000  166.525   84.061    0.423    0.235    7.006
  165.250  166.647   86.544    0.425    0.244    7.434
  165.500  165.855   87.238    0.412    0.254    7.880
  165.750  165.023   86.142    0.410    0.243    7.897
  166.000  164.191   87.457    0.461    0.228    7.068
  166.250  163.319   91.133    0.478    0.235    4.589
  166.500  163.522   95.381    0.473    0.245    4.185
  166.750  165.672   99.081    0.464    0.252    3.678
  167.000  165.915   89.014    0.473    0.253    3.754
  167.250  166.077   81.358    0.502    0.254    5.804
  167.500  165.286   77.256    0.512    0.261    6.768
  167.750  164.413   70.792    0.482    0.274    8.190
  168.000  164.535   72.107    0.478    0.219    9.366
  168.250  163.703   73.969    0.464    0.209    9.747
  168.500  163.825   74.687    0.459    0.207    8.724
  168.750  163.987   75.381    0.456    0.230    7.523
  169.000  163.155   77.267    0.428    0.240    6.858
  169.250  163.398   80.347    0.420    0.261    6.023
  169.500  163.520   84.023    0.421    0.263    5.499
  169.750  163.682   85.313    0.425    0.253    5.505
  170.000  163.844   87.224    0.434    0.250    5.626
  170.250  164.006   89.707    0.444    0.251    5.745
  170.500  164.128   93.407    0.451    0.254    6.090
  170.750  164.290   91.070    0.461    0.245    6.968
  171.000  165.446   87.017    0.479    0.235    7.815
  171.250  166.724   87.138    0.465    0.236    8.770
  171.500  167.839   87.783    0.453    0.229    9.659
  171.750  167.961   87.881    0.463    0.223   11.268
  172.000  168.083   82.013    0.470    0.247   12.409
  172.250  166.338   74.978    0.418    0.125   13.160
  172.500  165.425   72.044    0.325    0.063   13.696
  172.750  162.645   70.376    0.300    0.050   13.980
