~VERSION INFORMATION
 VERS.                 2.0:   CWLS LOG ASCII STANDARD -VERSION 2.0
 WRAP.                  NO:   ONE LINE PER DEPTH STEP
~WELL INFORMATION BLOCK
#MNEM.UNIT           DATA                    DESCRIPTION OF MNEMONIC
#---------    -------------------            -------------------------------
# Generated from Intellog Unique Number	CW_73_75/WELL/2736
WELL.         MANNVILLE ALGAS MARTEN S 09-30 : Well_name    - WELL
LOC .         00/09-30-073-24W4/0            : Location     - LOCATION
UWI .         00/09-30-073-24W4/0            : Uwi          - UNIQUE WELL ID
ENTR.         JAYE                           : Entered      - ENTERED BY
SRVC.         WESTERN ATLAS                  : Scn          - SERVICE COMPANY
DATE.         15 MAR 79                      : Date         - LOG DATE
STRT.M        375                            : top_depth    - START DEPTH
STOP.M        595                            : bot_depth    - STOP DEPTH
STEP.M        0.25                           : increment    - STEP LENGTH
 NULL. -999.2500:NULL Value
~CURVE INFORMATION BLOCK
#MNEM UNIT       ERCB CURVE CODE    CURVE DESCRIPTION
#-----------   ------------------   ----------------------------------
DEPT.M        00 001 00 00         : DEPTH        - DEPTH
DPHI.V/V      00 890 00 00         : PHID         - DENSITY POROSITY (SANDSTONE)
NPHI.V/V      00 330 00 00         : PHIN         - NEUTRON POROSITY (SANDSTONE)
GR  .API      00 310 00 00         : GR           - GAMMA RAY
CALI.MM       00 280 01 00         : CAL          - CALIPER
ILD .OHMM     00 120 00 00         : RESD         - DEEP RESISTIVITY (DIL)
~PARAMETER INFORMATION
#MNEM.UNIT           DATA             DESCRIPTION OF MNEMONIC
#---------         -----------     ------------------------------
GL  .M        633.3                : gl           - GROUND LEVEL ELEVATION
EREF.M        636.3                : kb           - ELEVATION OF DEPTH REFERENCE
DATM.M        633.3                : datum        - DATUM ELEVATION
TDD .M        593                  : tdd          - TOTAL DEPTH DRILLER
RUN .         ONE                  : Run          - RUN NUMBER
ENG .         GRIEVE               : Engineer     - RECORDING ENGINEER
WIT .         MURYNKA              : Witness      - WITNESSED BY
BASE.         R.D.                 : Branch       - HOME BASE OF LOGGING UNIT
MUD .         GEL-CHEM             : Mud_type     - MUD TYPE
MATR.         SANDSTONE            : Logunit      - NEUTRON MATRIX
TMAX.C        22                   : BHT          - MAXIMUM RECORDED TEMPERATURE
BHTD.M        594                  : BHTDEP       - MAXIMUM RECORDED TEMPERATURE
RMT .C        11.1                 : MDTP         - TEMPERATURE OF MUD
MUDD.KG/M     1120                 : MWT          - MUD DENSITY
NEUT.         1                    : NEUTRON      - NEUTRON TYPE
RESI.         0                    : RESIST       - RESISTIVITY TYPE
RM  .OHMM     4.4                  : RM           - RESISTIVITY OF MUD
RMC .OHMM     0                    : RMC          - RESISTIVITY OF MUD CAKE
RMF .OHMM     4                    : RMF          - RESISTIVITY OF MUD FILTRATE
SUFT.C        0                    : SUFT         - SURFACE TEMPERATURE
~A  DEPTH     PHID     PHIN       GR      CAL     RESD
# ...
  411.500    0.269    0.382   86.937  178.128    3.803
  411.750    0.284    0.370   82.345  177.650    3.823
  412.000    0.301    0.378   75.570  178.215    3.939
  412.250    0.312    0.393   72.789  179.401    4.089
  412.500    0.322    0.399   73.377  180.805    4.181
  412.750    0.286    0.396   76.462  180.637    4.148
  413.000    0.199    0.377   76.177  179.950    4.108
  413.250    0.125    0.342   74.455  180.099    4.052
  413.500    0.071    0.329   72.859  182.641    3.998
  413.750    0.066    0.313   71.263  184.872    3.907
  414.000    0.093    0.347   71.851  183.355    3.884
  414.250    0.200    0.393   78.244  182.256    3.810
  414.500    0.241    0.433   86.942  181.776    3.866
  414.750    0.259    0.425   91.401  181.722    4.184
  415.000    0.253    0.389   93.486  182.386    4.502
  415.250    0.232    0.404   95.948  183.263    4.862
  415.500    0.213    0.386  101.402  184.248    5.361
  415.750    0.200    0.373  108.417  186.471    4.932
  416.000    0.188    0.382  109.693  189.435    4.538
  416.250    0.166    0.368  104.726  188.534    4.005
  416.500    0.162    0.376   97.389  185.147    3.529
  416.750    0.178    0.396   90.677  182.906    3.365
  417.000    0.191    0.417   90.017  186.176    3.408
  417.250    0.199    0.391   88.359  185.489    3.723
  417.500    0.206    0.374   84.829  181.897    4.082
  417.750    0.198    0.386   81.111  180.691    4.278
  418.000    0.179    0.388   79.080  180.112    4.374
  418.250    0.190    0.410   79.480  179.535    4.473
  418.500    0.250    0.432   87.680  179.052    4.497
  418.750    0.280    0.410   91.887  181.906    4.395
  419.000    0.347    0.421   92.787  196.302    4.254
  419.250    0.281    0.421   89.821  208.097    3.989
  419.500    0.280    0.380   84.792  202.943    3.588
  419.750    0.316    0.372   76.643  193.522    2.987
  420.000    0.341    0.369   69.681  185.977    2.572
  420.250    0.340    0.368   58.039  180.196    2.133
  420.500    0.308    0.355   58.315  176.290    2.034
  420.750    0.299    0.347   57.718  174.051    2.112
  421.000    0.286    0.356   56.433  173.573    2.255
  421.250    0.278    0.343   59.206  173.924    2.482
  421.500    0.272    0.340   63.103  174.493    2.711
  421.750    0.266    0.328   68.436  174.954    2.873
  422.000    0.252    0.342   71.457  175.617    2.977
  422.250    0.235    0.358   75.414  176.707    3.039
  422.500    0.214    0.369   80.555  177.994    3.119
  422.750    0.200    0.386   84.952  180.226    3.268
  423.000    0.188    0.395   90.718  183.495    3.457
  423.250    0.193    0.391   96.172  186.866    3.589
  423.500    0.191    0.377   96.389  190.343    3.804
  423.750    0.182    0.367   93.480  191.112    4.009
  424.000    0.172    0.350   89.701  187.619    4.225
  424.250    0.161    0.333   85.485  182.049    4.419
  424.500    0.161    0.328   80.519  181.372    4.238
  424.750    0.156    0.320   79.733  182.038    4.064
  425.000    0.167    0.301   79.198  183.019    3.994
  425.250    0.152    0.286   76.043  182.126    4.108
  425.500   -0.004    0.203   71.577  180.921    4.478
  425.750   -0.004    0.160   67.362  180.757    4.994
  426.000    0.026    0.199   64.516  182.051    5.676
  426.250    0.053    0.276   65.168  181.470    6.294
  426.500    0.126    0.302   67.065  179.534    6.967
  426.750    0.220    0.322   69.463  177.295    8.750
  427.000    0.244    0.364   73.421  176.092   11.762
  427.250    0.232    0.367   76.820  174.994   16.111
  427.500    0.211    0.368   80.090  174.102   17.500
  427.750    0.178    0.386   84.547  173.518   16.100
  428.000    0.173    0.390   88.629  174.812   12.762
  428.250    0.164    0.377   95.082  177.453    9.240
  428.500    0.145    0.362  102.970  179.789    7.160
  428.750    0.128    0.362   99.567  181.914    6.074
  429.000    0.119    0.375   99.219  180.917    5.464
  429.250    0.153    0.368   98.495  180.439    5.142
  429.500    0.182    0.391   97.776  184.021    4.912
  429.750    0.220    0.413   96.864  186.768    4.819
  430.000    0.254    0.445   93.147  185.146    4.701
  430.250    0.237    0.441   86.558  178.953    4.525
  430.500    0.228    0.408   84.964  176.812    4.356
  430.750    0.226    0.381   86.050  177.898    4.201
  431.000    0.222    0.368   85.266  180.544    4.075
  431.250    0.220    0.360   82.922  180.379    3.864
  431.500    0.272    0.375   76.521  179.488    3.692
  431.750    0.292    0.386   71.618  179.221    3.520
  432.000    0.343    0.426   70.335  179.265    3.460
  432.250    0.395    0.498   70.797  179.619    3.478
  432.500    0.478    0.543   74.130  180.079    3.584
  432.750    0.474    0.576   70.538  181.265    3.784
  433.000    0.204    0.483   73.310  184.846    3.973
  433.250    0.223    0.409   76.768  182.917    4.187
  433.500    0.247    0.381   78.107  179.220    4.496
  433.750    0.271    0.380   77.570  177.908    5.090
  434.000    0.274    0.388   77.598  177.853    5.688
  434.250    0.272    0.371   77.876  178.003    6.476
  434.500    0.262    0.363   77.465  176.064    7.074
  434.750    0.250    0.373   76.371  174.134    7.655
  435.000    0.247    0.382   75.456  175.218    7.667
  435.250    0.260    0.398   75.109  176.096    7.606
  435.500    0.271    0.403   74.824  176.035    7.504
  435.750    0.278    0.395   75.102  176.080    7.196
  436.000    0.279    0.382   77.373  176.026    6.824
  436.250    0.242    0.384   77.962  176.374    6.544
  436.500    0.226    0.378   77.301  176.733    6.276
  436.750    0.221    0.380   81.259  177.303    5.951
  437.000    0.229    0.393   83.598  177.247    5.590
  437.250    0.234    0.402   84.182  177.176    5.201
  437.500    0.229    0.406   84.461  176.914    4.988
  437.750    0.216    0.398   87.232  176.750    4.730
  438.000    0.208    0.409   85.636  176.998    4.536
  438.250    0.210    0.414   84.415  176.213    4.400
  438.500    0.225    0.406   84.253  175.218    4.340
  438.750    0.213    0.399   85.153  174.217    4.331
  439.000    0.193    0.390   86.053  173.120    4.354
  439.250    0.181    0.387   89.200  173.893    4.410
  439.500    0.178    0.380   92.533  175.079    4.535
  439.750    0.178    0.384   93.935  177.413    4.682
  440.000    0.180    0.377   94.771  180.683    4.787
  440.250    0.178    0.369   94.550  179.583    4.776
  440.500    0.170    0.346   92.827  178.377    4.712
  440.750    0.172    0.345   90.546  177.176    4.675
  441.000    0.186    0.358   88.263  176.800    4.709
  441.250    0.203    0.361   89.102  176.848    4.833
  441.500    0.202    0.366   91.376  180.321    5.036
  441.750    0.194    0.370   93.273  182.554    5.228
  442.000    0.195    0.378   92.300  183.430    5.256
  442.250    0.193    0.386   91.829  184.100    5.165
  442.500    0.190    0.399   93.479  184.869    4.991
  442.750    0.186    0.407   95.312  185.333    4.813
  443.000    0.177    0.391   98.026  184.019    4.713
  443.250    0.166    0.386   98.922  180.945    4.606
  443.500    0.152    0.376   97.639  181.930    4.485
  443.750    0.139    0.390   96.293  183.528    4.366
  444.000    0.142    0.399   95.136  185.548    4.307
  444.250    0.155    0.389   93.478  186.636    4.266
  444.500    0.155    0.380   91.006  184.285    4.232
  444.750    0.121    0.378   87.478  181.416    4.175
  445.000    0.147    0.383   84.820  181.773    4.088
  445.250    0.185    0.388   82.849  183.170    3.935
  445.500    0.223    0.378   78.446  182.175    3.868
  445.750    0.228    0.369   73.417  180.038    3.940
  446.000    0.234    0.362   67.954  178.104    4.137
  446.250    0.239    0.374   66.294  176.693    4.359
  446.500    0.238    0.382   64.449  177.566    4.753
  446.750    0.239    0.388   58.049  178.449    5.291
  447.000    0.237    0.388   55.204  178.596    6.116
  447.250    0.230    0.368   54.794  178.334    6.680
  447.500    0.228    0.358   60.623  177.952    6.728
  447.750    0.242    0.370   60.839  177.476    6.701
