~VERSION INFORMATION
 VERS.                 2.0:   CWLS LOG ASCII STANDARD -VERSION 2.0
 WRAP.                  NO:   ONE LINE PER DEPTH STEP
~WELL INFORMATION BLOCK
#MNEM.UNIT           DATA                    DESCRIPTION OF MNEMONIC
#---------    -------------------            -------------------------------
# Generated from Intellog Unique Number	CC_80_83/WELL/1045
LOC .         00/02-29-080-13W4/0            : Location     - LOCATION
UWI .         00/02-29-080-13W4/0            : Uwi          - UNIQUE WELL ID
ENTR.         DW                             : Entered      - ENTERED BY
SRVC.         SCHLUMBERGER                   : Scn          - SERVICE COMPANY
STRT.M        275                            : top_depth    - START DEPTH
STOP.M        504.75                         : bot_depth    - STOP DEPTH
STEP.M        0.25                           : increment    - STEP LENGTH
 NULL. -999.2500:NULL Value
~CURVE INFORMATION BLOCK
#MNEM UNIT       ERCB CURVE CODE    CURVE DESCRIPTION
#-----------   ------------------   ----------------------------------
DEPT.M        00 001 00 00         : DEPTH        - DEPTH
GR  .API      00 310 00 00         : GR           - GAMMA RAY
DPHI.V/V      00 890 00 00         : PHID         - DENSITY POROSITY (SANDSTONE)
NPHI.V/V      00 330 00 00         : PHIN         - NEUTRON POROSITY (SANDSTONE)
ILD .OHMM     00 120 00 00         : RESD         - DEEP RESISTIVITY (DIL)
~PARAMETER INFORMATION
#MNEM.UNIT           DATA             DESCRIPTION OF MNEMONIC
#---------         -----------     ------------------------------
GL  .M        698.4                : gl           - GROUND LEVEL ELEVATION
EREF.M        701.6                : kb           - ELEVATION OF DEPTH REFERENCE
DATM.M        701.6                : datum        - DATUM ELEVATION
TDD .M        509.5                : tdd          - TOTAL DEPTH DRILLER
RUN .         ONE                  : Run          - RUN NUMBER
ENG .         BILL                 : Engineer     - RECORDING ENGINEER
WIT .         JIM                  : Witness      - WITNESSED BY
MUD .         GEL                  : Mud_type     - MUD TYPE
MATR.         SANDSTONE            : Logunit      - NEUTRON MATRIX
TMAX.C        21.2                 : BHT          - MAXIMUM RECORDED TEMPERATURE
BHTD.M        509                  : BHTDEP       - MAXIMUM RECORDED TEMPERATURE
MATR.         1                    : LOGUNIT      - NEUTRON MATRIX
RMT .C        25                   : MDTP         - TEMPERATURE OF MUD
NEUT.         1                    : NEUTRON      - NEUTRON TYPE
RESI.         0                    : RESIST       - RESISTIVITY TYPE
RMC .OHMM     0.25                 : RMC          - RESISTIVITY OF MUD CAKE
RMF .OHMM     0.25                 : RMF          - RESISTIVITY OF MUD FILTRATE
SUFT.C        15                   : SUFT         - SURFACE TEMPERATURE
~A  DEPTH       GR     PHID     PHIN     RESD
# ...
  405.500   92.214    0.240    0.456    6.999
  405.750   86.901    0.163    0.467    8.993
  406.000   78.218    0.118    0.444    9.971
  406.250   73.936    0.201    0.375    9.980
  406.500   77.008    0.293    0.378    9.691
  406.750   87.177    0.285    0.451    8.818
  407.000   98.488    0.250    0.463    7.197
  407.250   95.232    0.232    0.482    6.006
  407.500   91.194    0.233    0.482    5.280
  407.750   94.748    0.236    0.475    4.952
  408.000  101.848    0.235    0.470    4.931
  408.250  105.396    0.231    0.461    5.029
  408.500  103.211    0.227    0.457    5.105
  408.750   99.282    0.229    0.465    5.238
  409.000  100.039    0.229    0.475    5.755
  409.250  103.924    0.244    0.482    6.127
  409.500  106.272    0.258    0.481    6.535
  409.750  104.229    0.247    0.469    7.438
  410.000   98.822    0.237    0.451    8.764
  410.250   94.155    0.243    0.431   10.368
  410.500   89.701    0.188    0.391   11.102
  410.750   87.566    0.175    0.363   11.331
  411.000   91.753    0.214    0.365   10.857
  411.250   97.836    0.235    0.381   10.080
  411.500   98.260    0.244    0.383    9.568
  411.750   98.343    0.250    0.380    7.633
  412.000   96.843    0.242    0.403    6.632
  412.250   93.910    0.237    0.434    6.386
  412.500   94.139    0.240    0.446    6.239
  412.750   96.629    0.237    0.442    6.325
  413.000   95.715    0.227    0.438    6.524
  413.250   95.343    0.224    0.435    6.418
  413.500   99.519    0.223    0.439    6.379
  413.750  102.619    0.226    0.447    6.409
  414.000   98.446    0.237    0.446    6.364
  414.250   89.448    0.258    0.448    6.658
  414.500   81.962    0.272    0.467    7.465
  414.750   75.632    0.243    0.469    7.815
  415.000   71.838    0.203    0.435    8.459
  415.250   72.926    0.213    0.390    8.834
  415.500   75.544    0.257    0.386    8.875
  415.750   75.808    0.284    0.416    8.793
  416.000   75.298    0.285    0.424    8.337
  416.250   76.693    0.289    0.420    7.914
  416.500   79.448    0.299    0.418    7.871
  416.750   80.653    0.294    0.414    7.800
  417.000   81.271    0.278    0.410    7.728
  417.250   84.194    0.259    0.419    7.940
  417.500   88.931    0.236    0.431    8.179
  417.750   91.040    0.229    0.406    8.053
  418.000   86.481    0.258    0.396    7.862
  418.250   85.847    0.277    0.409    7.315
  418.500   89.664    0.269    0.420    6.946
  418.750   91.448    0.260    0.427    6.996
  419.000   91.226    0.256    0.439    7.007
  419.250   89.411    0.254    0.445    7.579
  419.500   84.752    0.270    0.442    8.305
  419.750   82.004    0.274    0.440    9.390
  420.000   80.418    0.256    0.434   11.019
  420.250   76.635    0.220    0.431   12.437
  420.500   71.313    0.166    0.405   12.945
  420.750   67.017    0.126    0.280   13.199
  421.000   72.018    0.167    0.232   12.679
  421.250   79.403    0.237    0.309   11.150
  421.500   84.577    0.291    0.400    9.874
  421.750   86.900    0.308    0.447    9.698
  422.000   80.987    0.260    0.454    9.867
  422.250   67.082    0.189    0.341    9.859
  422.500   68.794    0.217    0.323    9.921
  422.750   75.616    0.277    0.369    9.501
  423.000   76.981    0.296    0.407    8.488
  423.250   76.201    0.289    0.424    7.738
  423.500   76.963    0.289    0.423    7.826
  423.750   79.527    0.288    0.438    8.080
  424.000   80.976    0.275    0.465    8.489
  424.250   75.706    0.264    0.464   10.267
  424.500   67.600    0.206    0.418   12.599
  424.750   61.250    0.110    0.341   13.779
  425.000   57.120    0.088    0.264   13.626
  425.250   60.947    0.155    0.255   12.491
  425.500   67.397    0.219    0.344   10.120
  425.750   74.829    0.251    0.410    8.379
  426.000   80.630    0.266    0.435    7.327
  426.250   81.510    0.272    0.450    6.432
  426.500   79.256    0.272    0.433    6.310
  426.750   79.118    0.271    0.414    6.409
  427.000   80.180    0.277    0.417    6.519
  427.250   80.891    0.284    0.433    6.580
  427.500   82.996    0.285    0.452    6.481
  427.750   85.818    0.280    0.460    6.249
  428.000   85.371    0.270    0.442    6.057
  428.250   83.524    0.267    0.424    5.948
  428.500   85.462    0.253    0.416    5.919
  428.750   85.207    0.236    0.413    5.475
  429.000   86.107    0.237    0.411    4.617
  429.250   94.587    0.246    0.415    4.074
  429.500  104.013    0.239    0.432    4.290
  429.750  104.324    0.230    0.465    4.662
  430.000  101.607    0.234    0.493    4.879
  430.250   96.950    0.233    0.456    5.307
  430.500   92.308    0.218    0.438    6.034
  430.750   87.705    0.192    0.473    6.831
  431.000   82.830    0.172    0.458    7.631
  431.250   86.093    0.183    0.439    8.432
  431.500   91.921    0.179    0.439    8.825
  431.750   93.869    0.168    0.435    8.888
  432.000   91.145    0.175    0.428    8.842
  432.250   86.866    0.194    0.426    8.615
  432.500   85.315    0.209    0.428    8.198
  432.750   87.003    0.212    0.434    8.052
  433.000   80.282    0.218    0.432    8.047
  433.250   80.635    0.222    0.422    8.032
  433.500   86.314    0.209    0.415    8.087
  433.750   87.187    0.195    0.420    8.222
  434.000   88.374    0.200    0.426    8.359
  434.250   91.405    0.206    0.422    8.635
  434.500   94.666    0.213    0.409    8.861
  434.750   97.130    0.214    0.393    9.458
  435.000   98.750    0.218    0.380   10.209
  435.250   97.309    0.207    0.371   10.537
  435.500   92.497    0.157    0.371   10.505
  435.750   90.529    0.120    0.405   10.384
  436.000   87.394    0.120    0.432    9.574
  436.250   89.022    0.156    0.389    8.582
  436.500   93.660    0.196    0.363    7.956
  436.750   97.174    0.212    0.392    7.406
  437.000  101.278    0.207    0.384    6.590
  437.250  103.803    0.204    0.373    6.055
  437.500  106.552    0.211    0.401    5.812
  437.750  104.790    0.220    0.423    5.213
  438.000   99.554    0.220    0.419    4.253
  438.250   94.358    0.213    0.415    3.277
  438.500   89.964    0.225    0.421    2.458
  438.750   88.616    0.282    0.441    2.110
  439.000   84.287    0.302    0.554    1.983
  439.250   81.311    0.307    0.600    1.974
  439.500   81.724    0.302    0.582    2.241
  439.750   80.670    0.269    0.599    2.816
  440.000   76.312    0.238    0.605    3.661
  440.250   76.111    0.226    0.544    4.857
  440.500   84.126    0.222    0.485    5.629
  440.750   85.512    0.221    0.447    6.366
  441.000   82.490    0.219    0.414    7.146
  441.250   82.387    0.214    0.388    7.596
  441.500   79.972    0.194    0.376    7.515
  441.750   76.263    0.154    0.365    6.829
  442.000   74.835    0.160    0.336    6.207
  442.250   79.393    0.205    0.330    5.483
  442.500   86.815    0.233    0.361    4.731
  442.750   94.203    0.236    0.396    4.337
  443.000  100.464    0.241    0.415    4.303
  443.250   98.791    0.230    0.441    4.421
  443.500   92.824    0.207    0.448    4.770
  443.750   87.593    0.192    0.409    4.658
  444.000   91.125    0.191    0.374    3.973
  444.250   98.912    0.206    0.381    3.394
  444.500   99.088    0.237    0.422    3.280
  444.750   99.099    0.257    0.512    3.225
  445.000   99.280    0.249    0.534    3.229
  445.250  103.894    0.224    0.485    3.443
  445.500  104.750    0.215    0.439    3.702
  445.750  101.554    0.229    0.415    3.857
  446.000  105.338    0.237    0.407    3.972
  446.250  105.890    0.223    0.458    3.972
  446.500  100.626    0.184    0.479    3.975
  446.750  104.707    0.157    0.450    3.939
  447.000  112.417    0.164    0.423    4.066
  447.250  114.182    0.197    0.427    4.323
  447.500  115.697    0.230    0.447    4.365
  447.750  115.707    0.241    0.490    4.359
  448.000  115.081    0.237    0.501    4.478
  448.250  109.359    0.218    0.489    5.021
  448.500   99.719    0.197    0.461    5.585
  448.750   87.844    0.196    0.407    6.493
