~VERSION INFORMATION
 VERS.                 2.0:   CWLS LOG ASCII STANDARD -VERSION 2.0
 WRAP.                  NO:   ONE LINE PER DEPTH STEP
~WELL INFORMATION BLOCK
#MNEM.UNIT           DATA                    DESCRIPTION OF MNEMONIC
#---------    -------------------            -------------------------------
# Generated from Intellog Unique Number	CS_77_79/WELL/868
WELL.         CAVALIER ET AL PORTAGE         : Well_name    - WELL
LOC .         00/06-10-078-15W4/0            : Location     - LOCATION
UWI .         00/06-10-078-15W4/0            : Uwi          - UNIQUE WELL ID
ENTR.         JHS                            : Entered      - ENTERED BY
SRVC.         SCHLUMBERGER                   : Scn          - SERVICE COMPANY
STRT.M        225                            : top_depth    - START DEPTH
STOP.M        453                            : bot_depth    - STOP DEPTH
STEP.M        0.25                           : increment    - STEP LENGTH
 NULL. -999.2500:NULL Value
~CURVE INFORMATION BLOCK
#MNEM UNIT       ERCB CURVE CODE    CURVE DESCRIPTION
#-----------   ------------------   ----------------------------------
DEPT.M        00 001 00 00         : DEPTH        - DEPTH
DPHI.V/V      00 890 00 00         : PHID         - DENSITY POROSITY (LIMESTONE)
NPHI.V/V      00 330 00 00         : PHIN         - NEUTRON POROSITY (LIMESTONE)
GR  .API      00 310 00 00         : GR           - GAMMA RAY
ILD .OHMM     00 120 00 00         : RESD         - DEEP RESISTIVITY (DIL)
~PARAMETER INFORMATION
#MNEM.UNIT           DATA             DESCRIPTION OF MNEMONIC
#---------         -----------     ------------------------------
GL  .M        631.2                : gl           - GROUND LEVEL ELEVATION
EREF.M        635.2                : kb           - ELEVATION OF DEPTH REFERENCE
DATM.M        635.2                : datum        - DATUM ELEVATION
TDD .M        453.7                : tdd          - TOTAL DEPTH DRILLER
RUN .         ONE                  : Run          - RUN NUMBER
ENG .         BILL                 : Engineer     - RECORDING ENGINEER
WIT .         JIM                  : Witness      - WITNESSED BY
MUD .         GEL                  : Mud_type     - MUD TYPE
MATR.         LIMESTONE            : Logunit      - NEUTRON MATRIX
TMAX.C        21                   : BHT          - MAXIMUM RECORDED TEMPERATURE
BHTD.M        453.7                : BHTDEP       - MAXIMUM RECORDED TEMPERATURE
MATR.         1                    : LOGUNIT      - NEUTRON MATRIX
RMT .C        25                   : MDTP         - TEMPERATURE OF MUD
NEUT.         1                    : NEUTRON      - NEUTRON TYPE
RESI.         0                    : RESIST       - RESISTIVITY TYPE
RMC .OHMM     0.25                 : RMC          - RESISTIVITY OF MUD CAKE
RMF .OHMM     0.25                 : RMF          - RESISTIVITY OF MUD FILTRATE
SUFT.C        15                   : SUFT         - SURFACE TEMPERATURE
~A  DEPTH     PHID     PHIN       GR     RESD
# ...
  399.000    0.163    0.415   91.051    8.906
  399.250    0.170    0.405   93.501    8.915
  399.500    0.169    0.398   95.344    9.094
  399.750    0.174    0.380   98.403    9.275
  400.000    0.183    0.371   98.411    9.638
  400.250    0.175    0.364   95.983    9.830
  400.500    0.181    0.365   91.722   10.025
  400.750    0.189    0.378   92.954    9.847
  401.000    0.192    0.388   93.573    9.492
  401.250    0.201    0.414   96.632    8.814
  401.500    0.207    0.427   99.082    8.031
  401.750    0.192    0.432   98.482    7.598
  402.000    0.192    0.424  104.592    7.056
  402.250    0.186    0.397  105.825    6.930
  402.500    0.186    0.392  105.831    6.808
  402.750    0.184    0.389  104.621    6.688
  403.000    0.184    0.381  102.804    6.446
  403.250    0.176    0.377  100.374    6.215
  403.500    0.182    0.382   99.167    5.990
  403.750    0.170    0.390   98.564    5.667
  404.000    0.171    0.399   96.745    4.975
  404.250    0.182    0.409   99.196    4.285
  404.500    0.198    0.421   97.987    3.690
  404.750    0.217    0.442   98.608    2.949
  405.000    0.234    0.474   96.178    2.540
  405.250    0.257    0.508   97.408    2.272
  405.500    0.268    0.531   94.979    2.190
  405.750    0.273    0.540   96.208    2.192
  406.000    0.268    0.547   97.440    2.236
  406.250    0.262    0.537   93.790    2.367
  406.500    0.243    0.523   98.069    2.602
  406.750    0.214    0.502   96.859    3.263
  407.000    0.180    0.458   88.333    3.941
  407.250    0.149    0.421   88.345    4.497
  407.500    0.126    0.402   89.574    5.330
  407.750    0.122    0.395   95.681    5.970
  408.000    0.110    0.379   93.862    6.688
  408.250    0.107    0.363   93.265    7.216
  408.500    0.124    0.351   94.493    7.501
  408.750    0.140    0.351   96.946    7.793
  409.000    0.123    0.370   97.565    7.949
  409.250    0.110    0.378   94.524    8.262
  409.500    0.115    0.345   89.047    8.424
  409.750    0.115    0.329   84.180    8.275
  410.000    0.114    0.326   81.139    7.829
  410.250    0.140    0.332   88.469    6.872
  410.500    0.149    0.358   93.355    6.145
  410.750    0.143    0.395  100.685    5.495
  411.000    0.138    0.422  101.304    5.104
  411.250    0.136    0.435   99.485    5.013
  411.500    0.141    0.418   94.618    5.018
  411.750    0.157    0.412   90.970    4.928
  412.000    0.171    0.401   91.589    4.491
  412.250    0.179    0.420   95.868    4.170
  412.500    0.190    0.450   99.536    4.020
  412.750    0.163    0.444  104.425    3.949
  413.000    0.157    0.419  107.484    4.027
  413.250    0.155    0.407  102.617    4.264
  413.500    0.141    0.392  108.114    4.601
  413.750    0.129    0.387  108.125    4.965
  414.000    0.126    0.403  108.745    5.159
  414.250    0.123    0.423  106.927    5.566
  414.500    0.130    0.419  101.448    5.784
  414.750    0.136    0.414  109.995    6.125
  415.000    0.147    0.437  111.836    6.365
  415.250    0.162    0.444  116.114    6.741
  415.500    0.172    0.401  113.684    7.005
  415.750    0.173    0.372   92.963    6.881
  416.000    0.170    0.321   82.607    6.632
  416.250    0.181    0.310   71.032    6.638
  416.500    0.190    0.315   80.189    6.899
  416.750    0.183    0.342   86.909    7.444
  417.000    0.174    0.319   88.747    8.498
  417.250    0.174    0.279   75.342    9.517
  417.500    0.179    0.263   70.475   11.493
  417.750    0.186    0.269   70.486   13.118
  418.000    0.203    0.296   74.762   14.425
  418.250    0.213    0.328   77.822   14.988
  418.500    0.217    0.350   74.783   16.172
  418.750    0.209    0.358   68.695   16.806
  419.000    0.187    0.358   69.317   16.203
  419.250    0.169    0.351   80.302   15.044
  419.500    0.159    0.343   90.069   14.231
  419.750    0.176    0.339  101.054   13.464
  420.000    0.164    0.342  113.870   14.531
  420.250    0.155    0.337  118.148   16.276
  420.500    0.146    0.334  114.504   18.576
  420.750    0.138    0.332  101.705   21.204
  421.000    0.124    0.318   81.593   22.044
  421.250    0.131    0.321   78.556   21.644
  421.500    0.152    0.332   86.495   20.105
  421.750    0.183    0.350   91.385   19.016
  422.000    0.198    0.366   92.612   17.659
  422.250    0.199    0.374   88.963   17.025
  422.500    0.182    0.359   87.143   16.409
  422.750    0.167    0.344   92.034   16.428
  423.000    0.158    0.327   95.093   17.069
  423.250    0.136    0.318   96.931   17.737
  423.500    0.106    0.313   97.552   19.140
  423.750    0.098    0.306   85.976   20.650
  424.000    0.114    0.300   77.449   21.864
  424.250    0.113    0.296   74.410   22.298
  424.500    0.104    0.300   72.591   21.902
  424.750    0.151    0.309   78.090   21.517
  425.000    0.170    0.325   84.199   20.743
  425.250    0.172    0.331   87.867   20.376
  425.500    0.186    0.326   87.880   20.016
  425.750    0.198    0.323   86.058   19.663
  426.000    0.181    0.322   84.851   19.681
  426.250    0.192    0.322   87.298   19.704
  426.500    0.181    0.318   95.236   19.715
  426.750    0.177    0.320   91.588   19.737
  427.000    0.170    0.326   87.941   19.386
  427.250    0.171    0.340   89.170   19.402
  427.500    0.152    0.350   91.620   19.055
  427.750    0.145    0.345   91.631   18.032
  428.000    0.161    0.334   89.200   17.060
  428.250    0.167    0.327   86.162   16.442
  428.500    0.177    0.347   84.343   16.151
  428.750    0.181    0.332   88.013   16.786
  429.000    0.192    0.324   88.632   17.777
  429.250    0.194    0.320   87.423   18.824
  429.500    0.195    0.314   87.433   19.930
  429.750    0.206    0.321   86.223   21.501
  430.000    0.211    0.318   83.187   23.641
  430.250    0.204    0.311   80.150   26.001
  430.500    0.205    0.310   81.987   26.012
  430.750    0.217    0.308   89.314   27.036
  431.000    0.223    0.302   94.204   28.632
  431.250    0.229    0.294   95.434   30.314
  431.500    0.245    0.283   94.224   32.702
  431.750    0.259    0.271   96.062   36.635
  432.000    0.268    0.261  100.951   41.045
  432.250    0.278    0.254   96.694   45.990
  432.500    0.293    0.245   88.166   48.686
  432.750    0.303    0.243   73.543   51.561
  433.000    0.304    0.239   67.454   52.578
  433.250    0.297    0.244   69.904   53.619
  433.500    0.287    0.255   76.623   55.737
  433.750    0.289    0.270   80.901   55.788
  434.000    0.278    0.289   82.132   55.839
  434.250    0.265    0.304   77.873   55.892
  434.500    0.260    0.320   74.837   54.896
  434.750    0.252    0.336   74.845   53.917
  435.000    0.235    0.340   77.904   52.969
  435.250    0.230    0.338   82.184   52.031
  435.500    0.240    0.339   80.363   50.164
  435.750    0.236    0.342   74.886   48.359
  436.000    0.235    0.337   72.456   47.492
  436.250    0.247    0.333   68.810   44.934
  436.500    0.236    0.344   78.576   43.319
  436.750    0.235    0.351   85.903   42.545
  437.000    0.244    0.357   91.402   41.799
  437.250    0.251    0.349   97.510   43.442
  437.500    0.257    0.348   90.203   46.007
  437.750    0.268    0.353   82.285   46.913
  438.000    0.267    0.354   73.761   46.952
  438.250    0.261    0.360   70.111   46.123
  438.500    0.250    0.356   73.779   42.819
  438.750    0.242    0.354   83.546   37.583
  439.000    0.242    0.351   91.485   34.247
  439.250    0.240    0.340   95.764   33.019
  439.500    0.236    0.332   94.554   33.670
  439.750    0.239    0.333   89.076   35.663
  440.000    0.257    0.335   81.769   37.047
  440.250    0.265    0.345   76.293   39.975
  440.500    0.285    0.346   73.256   40.775
  440.750    0.289    0.339   71.435   41.587
  441.000    0.281    0.333   71.445   37.892
  441.250    0.243    0.347   77.553   30.273
  441.500    0.182    0.357   84.269   24.192
  441.750    0.159    0.349   87.941   21.636
  442.000    0.144    0.333   87.951   19.717
  442.250    0.148    0.314   91.010   19.005
