~VERSION INFORMATION
 VERS.                 2.0:   CWLS LOG ASCII STANDARD -VERSION 2.0
 WRAP.                  NO:   ONE LINE PER DEPTH STEP
~WELL INFORMATION BLOCK
#MNEM.UNIT           DATA                    DESCRIPTION OF MNEMONIC
#---------    -------------------            -------------------------------
# Generated from Intellog Unique Number	CW_79_81/WELL/3692
WELL.         GULF CANADA RESOURCES LTD.     : Well_name    - WELL
LOC .         00/06-14-079-03W5/0            : Location     - LOCATION
UWI .         00/06-14-079-03W5/0            : Uwi          - UNIQUE WELL ID
ENTR.         JOETTE                         : Entered      - ENTERED BY
SRVC.         SCHLUMBERGER                   : Scn          - SERVICE COMPANY
DATE.         08-26-92                       : Date         - LOG DATE
STRT.M        345                            : top_depth    - START DEPTH
STOP.M        535                            : bot_depth    - STOP DEPTH
STEP.M        0.25                           : increment    - STEP LENGTH
 NULL. -999.2500:NULL Value
~CURVE INFORMATION BLOCK
#MNEM UNIT       ERCB CURVE CODE    CURVE DESCRIPTION
#-----------   ------------------   ----------------------------------
DEPT.M        00 001 00 00         : DEPTH        - DEPTH
ILD .OHMM     00 120 00 00         : RESD         - DEEP RESISTIVITY (DIL)
DPHI.V/V      00 890 00 00         : PHID         - DENSITY POROSITY (SANDSTONE)
NPHI.V/V      00 330 00 00         : PHIN         - NEUTRON POROSITY (SANDSTONE)
GR  .API      00 310 00 00         : GR           - GAMMA RAY
~PARAMETER INFORMATION
#MNEM.UNIT           DATA             DESCRIPTION OF MNEMONIC
#---------         -----------     ------------------------------
GL  .M        645.2                : gl           - GROUND LEVEL ELEVATION
EREF.M        648.9                : kb           - ELEVATION OF DEPTH REFERENCE
DATM.M        648.9                : datum        - DATUM ELEVATION
TDD .M        620                  : tdd          - TOTAL DEPTH DRILLER
RUN .         ONE                  : Run          - RUN NUMBER
ENG .         BILL                 : Engineer     - RECORDING ENGINEER
WIT .         JIM                  : Witness      - WITNESSED BY
MUD .         GEL                  : Mud_type     - MUD TYPE
MATR.         SANDSTONE            : Logunit      - NEUTRON MATRIX
TMAX.C        23                   : BHT          - MAXIMUM RECORDED TEMPERATURE
BHTD.M        620                  : BHTDEP       - MAXIMUM RECORDED TEMPERATURE
MATR.         1                    : LOGUNIT      - NEUTRON MATRIX
RMT .C        17                   : MDTP         - TEMPERATURE OF MUD
NEUT.         1                    : NEUTRON      - NEUTRON TYPE
RESI.         0                    : RESIST       - RESISTIVITY TYPE
RMC .OHMM     2.02                 : RMC          - RESISTIVITY OF MUD CAKE
RMF .OHMM     2.02                 : RMF          - RESISTIVITY OF MUD FILTRATE
SUFT.C        5                    : SUFT         - SURFACE TEMPERATURE
~A  DEPTH     RESD     PHID     PHIN       GR
# ...
  475.500    5.824    0.365    0.586   79.776
  475.750    5.615    0.380    0.578   81.584
  476.000    5.414    0.378    0.558   85.781
  476.250    5.416    0.372    0.557   89.383
  476.500    5.419    0.369    0.552   93.587
  476.750    5.421    0.364    0.553   94.210
  477.000    5.629    0.362    0.559   93.046
  477.250    6.065    0.360    0.555   91.888
  477.500    6.656    0.360    0.547   90.717
  477.750    7.304    0.357    0.535   90.744
  478.000    8.167    0.357    0.541   91.374
  478.250    9.134    0.359    0.559   92.579
  478.500   10.023    0.364    0.558   90.230
  478.750   10.797    0.376    0.548   83.102
  479.000   12.072    0.399    0.539   77.171
  479.250   13.006    0.423    0.536   73.028
  479.500   14.014    0.435    0.561   69.474
  479.750   13.511    0.443    0.596   65.331
  480.000   13.029    0.439    0.594   64.763
  480.250   12.793    0.437    0.584   63.605
  480.500   12.566    0.440    0.557   63.044
  480.750   12.572    0.449    0.560   63.057
  481.000   12.577    0.455    0.552   61.297
  481.250   12.583    0.460    0.542   59.544
  481.500   12.828    0.451    0.551   58.975
  481.750   13.567    0.441    0.579   59.002
  482.000   14.345    0.438    0.599   60.221
  482.250   15.744    0.438    0.606   60.837
  482.500   16.652    0.432    0.605   61.460
  482.750   16.056    0.421    0.588   63.282
  483.000   14.916    0.392    0.515   65.692
  483.250   12.174    0.328    0.501   69.293
  483.500    9.400    0.291    0.501   71.108
  483.750    8.110    0.321    0.585   70.539
  484.000    7.261    0.416    0.575   69.375
  484.250    6.746    0.406    0.543   70.600
  484.500    6.386    0.395    0.530   73.004
  484.750    6.157    0.398    0.559   77.797
  485.000    6.160    0.388    0.574   81.405
  485.250    6.162    0.374    0.584   82.631
  485.500    6.281    0.354    0.560   83.254
  485.750    6.643    0.359    0.552   83.267
  486.000    6.897    0.360    0.568   85.082
  486.250    7.161    0.360    0.582   86.903
  486.500    7.434    0.363    0.580   85.739
  486.750    7.718    0.374    0.564   79.802
  487.000    8.013    0.370    0.549   76.261
  487.250    8.475    0.370    0.547   75.097
  487.500    8.964    0.369    0.542   73.933
  487.750    8.804    0.361    0.528   72.761
  488.000    8.646    0.347    0.498   69.214
  488.250    7.741    0.333    0.529   69.844
  488.500    7.062    0.346    0.542   73.439
  488.750    7.064    0.356    0.539   75.253
  489.000    7.067    0.357    0.535   75.287
  489.250    7.071    0.359    0.537   75.308
  489.500    7.207    0.363    0.561   75.931
  489.750    7.211    0.369    0.579   77.745
  490.000    7.214    0.374    0.585   80.155
  490.250    7.087    0.374    0.585   78.991
  490.500    6.833    0.369    0.578   80.805
  490.750    6.467    0.363    0.568   82.620
  491.000    6.120    0.353    0.558   80.860
  491.250    6.011    0.347    0.543   80.291
  491.500    6.013    0.350    0.546   83.893
  491.750    6.243    0.356    0.552   94.054
  492.000    6.603    0.364    0.549   90.500
  492.250    7.114    0.365    0.551   88.145
  492.500    7.386    0.367    0.583   91.150
  492.750    7.122    0.372    0.594   92.965
  493.000    6.259    0.383    0.593   93.588
  493.250    5.301    0.402    0.584   88.849
  493.500    7.001    0.396    0.591   82.919
  493.750    8.586    0.364    0.593   77.584
  494.000    8.915    0.296    0.523   66.888
  494.250    8.920    0.241    0.475   63.341
  494.500    8.920    0.371    0.526   68.737
  494.750    7.846    0.385    0.553   73.523
  495.000    9.442    0.382    0.563   78.912
  495.250    8.613    0.376    0.553   83.705
  495.500    8.002    0.374    0.560   83.732
  495.750    7.574    0.370    0.592   82.575
  496.000    7.168    0.373    0.604   82.602
  496.250    6.911    0.372    0.606   82.636
  496.500    6.540    0.371    0.597   82.650
  496.750    6.191    0.371    0.587   83.868
  497.000    5.968    0.371    0.579   90.449
  497.250    5.862    0.371    0.591   94.646
  497.500    5.865    0.367    0.602   95.269
  497.750    6.318    0.363    0.616   95.310
  498.000    6.935    0.360    0.614   96.522
  498.250    8.046    0.362    0.606   94.755
  498.500    8.509    0.397    0.591   84.059
  498.750    9.169    0.397    0.573   83.497
  499.000    9.520    0.380    0.544   82.333
  499.250    9.701    0.387    0.573   80.566
  499.500    9.707    0.385    0.580   81.195
  499.750    9.532    0.376    0.598   84.195
  500.000    9.537    0.376    0.595   88.399
  500.250    9.367    0.376    0.549   84.845
  500.500    9.201    0.376    0.532   84.879
  500.750    8.872    0.371    0.539   87.289
  501.000    8.555    0.370    0.568   87.316
  501.250    8.558    0.367    0.581   89.137
  501.500    8.406    0.367    0.598   89.151
  501.750    8.254    0.379    0.597   89.774
  502.000    8.260    0.380    0.586   91.588
  502.250    8.262    0.374    0.563   94.601
  502.500    8.266    0.367    0.548   91.649
  502.750    8.272    0.359    0.557   85.712
  503.000    8.277    0.355    0.569   82.165
  503.250    8.279    0.363    0.577   82.788
  503.500    8.284    0.367    0.583   83.411
  503.750    8.442    0.366    0.582   82.247
  504.000    8.447    0.365    0.543   81.082
  504.250    8.451    0.367    0.526   82.897
  504.500    8.454    0.371    0.540   85.314
  504.750    8.460    0.372    0.551   84.752
  505.000    8.464    0.366    0.568   84.170
  505.250    8.468    0.364    0.578   85.402
  505.500    8.472    0.372    0.580   89.011
  505.750    8.477    0.377    0.574   91.407
  506.000    8.324    0.377    0.564   91.434
  506.250    8.328    0.373    0.570   87.894
  506.500    8.334    0.368    0.564   86.730
  506.750    8.338    0.361    0.565   85.565
  507.000    8.341    0.362    0.571   89.160
  507.250    8.501    0.362    0.564   94.549
  507.500    8.666    0.356    0.560   88.619
  507.750    8.830    0.350    0.575   82.689
  508.000    9.000    0.345    0.576   82.113
  508.250    9.174    0.357    0.563   84.530
  508.500    9.350    0.368    0.546   85.153
  508.750    9.355    0.363    0.534   83.393
  509.000    9.358    0.361    0.538   84.023
  509.250    9.362    0.357    0.544   84.639
  509.500    9.195    0.351    0.542   86.460
  509.750    8.543    0.348    0.535   87.672
  510.000    7.938    0.344    0.520   90.089
  510.250    7.653    0.344    0.526   94.882
  510.500    7.658    0.349    0.536   96.101
  510.750    8.099    0.348    0.545   96.717
  511.000    8.409    0.343    0.533   95.560
  511.250    8.412    0.338    0.523   90.821
  511.500    8.263    0.336    0.516   89.650
  511.750    7.820    0.336    0.508   93.258
  512.000    6.747    0.336    0.505   95.668
  512.250    5.929    0.337    0.510   97.483
  512.500    5.933    0.338    0.521  100.482
  512.750    6.756    0.342    0.562  102.303
  513.000    7.988    0.346    0.573   98.160
  513.250    8.292    0.348    0.560   91.032
  513.500    9.101    0.340    0.548   86.300
  513.750   10.364    0.322    0.560   86.320
  514.000   16.471    0.287    0.530   80.390
  514.250   19.830    0.282    0.502   74.460
  514.500   22.585    0.278    0.457   73.289
  514.750   23.889    0.267    0.425   76.897
  515.000   23.463    0.350    0.519   77.527
  515.250   23.471    0.365    0.536   75.774
  515.500   23.483    0.370    0.548   74.007
  515.750   27.757    0.365    0.543   71.644
  516.000   31.033    0.348    0.539   68.693
  516.250   35.339    0.317    0.525   67.522
  516.500   39.510    0.276    0.489   63.981
  516.750   45.850    0.246    0.380   61.619
  517.000   46.742    0.176    0.335   58.667
  517.250   45.896    0.162    0.302   53.928
  517.500   45.071    0.145    0.303   50.984
  517.750   40.359    0.144    0.321   51.011
  518.000   35.467    0.152    0.360   54.010
  518.250   30.601    0.163    0.387   58.803
  518.500   27.906    0.178    0.406   65.390
  518.750   25.458    0.363    0.458   67.205
