~VERSION INFORMATION
 VERS.                 2.0:   CWLS LOG ASCII STANDARD -VERSION 2.0
 WRAP.                  NO:   ONE LINE PER DEPTH STEP
~WELL INFORMATION BLOCK
#MNEM.UNIT           DATA                    DESCRIPTION OF MNEMONIC
#---------    -------------------            -------------------------------
# Generated from Intellog Unique Number	CS_73_76/WELL/2169
WELL.         CANADA CITIES SERVICE LTD      : Well_name    - WELL
LOC .         00/06-26-074-03W4/0            : Location     - LOCATION
UWI .         00/06-26-074-03W4/0            : Uwi          - UNIQUE WELL ID
ENTR.         SP                             : Entered      - ENTERED BY
SRVC.         SCHLUMBERGER                   : Scn          - SERVICE COMPANY
STRT.M        310                            : top_depth    - START DEPTH
STOP.M        555                            : bot_depth    - STOP DEPTH
STEP.M        0.25                           : increment    - STEP LENGTH
 NULL. -999.2500:NULL Value
~CURVE INFORMATION BLOCK
#MNEM UNIT       ERCB CURVE CODE    CURVE DESCRIPTION
#-----------   ------------------   ----------------------------------
DEPT.M        00 001 00 00         : DEPTH        - DEPTH
ILD .OHMM     00 120 00 00         : RESD         - DEEP RESISTIVITY (DIL)
DPHI.V/V      00 890 00 00         : PHID         - DENSITY POROSITY (LIMESTONE)
NPHI.V/V      00 330 00 00         : PHIN         - NEUTRON POROSITY (LIMESTONE)
GR  .API      00 310 00 00         : GR           - GAMMA RAY
~PARAMETER INFORMATION
#MNEM.UNIT           DATA             DESCRIPTION OF MNEMONIC
#---------         -----------     ------------------------------
GL  .M        657.2                : gl           - GROUND LEVEL ELEVATION
EREF.M        660.66               : kb           - ELEVATION OF DEPTH REFERENCE
DATM.M        657.2                : datum        - DATUM ELEVATION
TDD .M        570                  : tdd          - TOTAL DEPTH DRILLER
RUN .         ONE                  : Run          - RUN NUMBER
ENG .         BILL                 : Engineer     - RECORDING ENGINEER
WIT .         JIM                  : Witness      - WITNESSED BY
MUD .         GEL                  : Mud_type     - MUD TYPE
MATR.         LIMESTONE            : Logunit      - NEUTRON MATRIX
TMAX.C        10                   : BHT          - MAXIMUM RECORDED TEMPERATURE
BHTD.M        570                  : BHTDEP       - MAXIMUM RECORDED TEMPERATURE
MATR.         1                    : LOGUNIT      - NEUTRON MATRIX
RMT .C        25                   : MDTP         - TEMPERATURE OF MUD
NEUT.         1                    : NEUTRON      - NEUTRON TYPE
RESI.         0                    : RESIST       - RESISTIVITY TYPE
RMC .OHMM     0.25                 : RMC          - RESISTIVITY OF MUD CAKE
RMF .OHMM     0.25                 : RMF          - RESISTIVITY OF MUD FILTRATE
SUFT.C        15                   : SUFT         - SURFACE TEMPERATURE
~A  DEPTH     RESD     PHID     PHIN       GR
# ...
  397.000    6.445    0.293    0.396   56.718
  397.250    6.451    0.298    0.437   56.096
  397.500    6.335    0.307    0.445   54.253
  397.750    6.222    0.307    0.452   53.021
  398.000    6.001    0.299    0.451   53.611
  398.250    5.893    0.300    0.430   54.805
  398.500    5.897    0.292    0.439   55.402
  398.750    5.901    0.292    0.442   56.602
  399.000    5.904    0.298    0.435   57.799
  399.250    5.908    0.312    0.438   59.603
  399.500    5.912    0.317    0.419   60.798
  399.750    5.806    0.309    0.424   59.569
  400.000    5.811    0.311    0.434   57.732
  400.250    5.815    0.312    0.430   56.498
  400.500    5.711    0.315    0.433   55.875
  400.750    5.714    0.309    0.441   55.860
  401.000    5.827    0.317    0.436   57.665
  401.250    5.939    0.323    0.450   60.075
  401.500    6.172    0.326    0.457   61.881
  401.750    6.291    0.313    0.439   64.294
  402.000    6.414    0.303    0.428   68.524
  402.250    6.300    0.288    0.441   68.511
  402.500    6.187    0.281    0.461   67.282
  402.750    5.965    0.274    0.481   66.654
  403.000    5.858    0.264    0.463   66.032
  403.250    5.442    0.237    0.434   64.191
  403.500    5.343    0.191    0.409   62.964
  403.750    4.871    0.183    0.382   65.984
  404.000    4.524    0.237    0.405   72.645
  404.250    4.279    0.254    0.455   79.308
  404.500    4.049    0.250    0.490   82.328
  404.750    3.903    0.248    0.506   81.090
  405.000    3.907    0.270    0.523   79.862
  405.250    3.910    0.273    0.542   79.240
  405.500    3.912    0.251    0.520   79.829
  405.750    3.915    0.247    0.484   80.421
  406.000    3.990    0.261    0.491   80.403
  406.250    4.069    0.257    0.476   79.169
  406.500    4.148    0.261    0.468   77.938
  406.750    4.309    0.259    0.474   76.706
  407.000    4.394    0.268    0.484   75.474
  407.250    4.480    0.268    0.484   75.461
  407.500    4.482    0.264    0.496   75.448
  407.750    4.402    0.257    0.516   76.036
  408.000    4.324    0.250    0.510   76.017
  408.250    4.168    0.252    0.498   79.647
  408.500    4.019    0.249    0.508   83.874
  408.750    3.946    0.243    0.498   84.472
  409.000    3.805    0.239    0.500   81.415
  409.250    3.807    0.250    0.509   78.970
  409.500    3.811    0.255    0.519   78.350
  409.750    3.813    0.258    0.529   79.548
  410.000    3.744    0.234    0.533   81.959
  410.250    3.679    0.227    0.539   83.760
  410.500    3.613    0.241    0.538   85.561
  410.750    3.548    0.241    0.521   86.765
  411.000    3.550    0.231    0.507   88.571
  411.250    3.552    0.212    0.515   86.734
  411.500    3.554    0.214    0.527   87.930
  411.750    3.557    0.216    0.522   86.698
  412.000    3.627    0.215    0.518   88.502
  412.250    3.699    0.218    0.518   90.915
  412.500    3.701    0.199    0.497   92.718
  412.750    3.703    0.205    0.487   95.129
  413.000    3.638    0.203    0.484   94.507
  413.250    3.572    0.218    0.492   91.457
  413.500    3.508    0.222    0.504   87.797
  413.750    3.382    0.219    0.475   92.029
  414.000    3.322    0.210    0.483   95.050
  414.250    3.086    0.211    0.517   98.063
  414.500    2.975    0.209    0.537   98.655
  414.750    2.814    0.204    0.532   98.643
  415.000    2.662    0.202    0.530   99.840
  415.250    2.566    0.219    0.534  101.643
  415.500    2.384    0.222    0.555  101.019
  415.750    2.341    0.211    0.566  104.032
  416.000    2.342    0.197    0.568  104.630
  416.250    2.526    0.200    0.560  104.615
  416.500    2.625    0.205    0.548  102.775
  416.750    2.675    0.199    0.543  103.363
  417.000    2.628    0.192    0.533  103.349
  417.250    2.629    0.190    0.525  100.903
  417.500    2.489    0.194    0.544   99.673
  417.750    2.444    0.204    0.564   99.048
  418.000    2.400    0.207    0.571   98.419
  418.250    2.357    0.227    0.570   98.409
  418.500    2.358    0.233    0.575   99.000
  418.750    2.592    0.225    0.565   97.161
  419.000    2.742    0.227    0.567   92.894
  419.250    2.958    0.239    0.561   89.841
  419.500    3.131    0.210    0.531   87.393
  419.750    3.252    0.199    0.525   86.772
  420.000    3.316    0.201    0.541   86.145
  420.250    3.317    0.208    0.516   85.522
  420.500    3.198    0.215    0.503   87.934
  420.750    3.141    0.238    0.518   89.738
  421.000    2.971    0.238    0.533   89.722
  421.250    2.864    0.229    0.530   88.489
  421.500    2.711    0.232    0.508   87.258
  421.750    2.712    0.237    0.510   85.420
  422.000    2.817    0.237    0.506   83.585
  422.250    3.038    0.241    0.492   81.136
  422.500    3.276    0.246    0.484   78.694
  422.750    3.340    0.251    0.487   78.676
  423.000    3.405    0.252    0.485   81.689
  423.250    3.407    0.258    0.490   81.072
  423.500    3.224    0.262    0.490   76.198
  423.750    3.108    0.251    0.507   71.931
  424.000    2.941    0.247    0.491   68.272
  424.250    2.783    0.260    0.484   70.683
  424.500    2.733    0.276    0.483   74.306
  424.750    2.735    0.268    0.484   76.722
  425.000    2.788    0.260    0.480   79.135
  425.250    3.007    0.254    0.505   81.543
  425.500    3.122    0.257    0.512   82.743
  425.750    3.305    0.248    0.489   83.329
  426.000    3.370    0.241    0.479   83.924
  426.250    3.372    0.230    0.475   83.300
  426.500    3.191    0.235    0.471   79.031
  426.750    3.076    0.240    0.462   75.373
  427.000    3.021    0.253    0.456   75.354
  427.250    2.967    0.234    0.471   77.768
  427.500    3.026    0.216    0.474   81.391
  427.750    3.142    0.211    0.470   83.199
  428.000    3.326    0.216    0.470   83.182
  428.250    3.390    0.200    0.463   82.558
  428.500    3.393    0.206    0.471   82.542
  428.750    3.271    0.241    0.490   86.165
  429.000    3.037    0.247    0.523   88.578
  429.250    2.769    0.258    0.546   90.385
  429.500    2.524    0.277    0.573   89.761
  429.750    2.344    0.258    0.563   92.171
  430.000    2.301    0.234    0.572   94.583
  430.250    2.179    0.223    0.587   96.391
  430.500    2.140    0.222    0.591   97.589
  430.750    1.914    0.233    0.583   96.966
  431.000    2.102    0.224    0.575   94.519
  431.250    2.144    0.217    0.568   92.074
  431.500    2.145    0.233    0.569   89.021
  431.750    2.187    0.246    0.575   84.147
  432.000    2.230    0.256    0.585   78.665
  432.250    2.273    0.269    0.577   71.361
  432.500    2.317    0.301    0.554   65.881
  432.750    2.408    0.317    0.456   61.007
  433.000    2.501    0.333    0.442   57.954
  433.250    2.598    0.334    0.446   57.933
  433.500    2.648    0.340    0.449   59.132
  433.750    2.751    0.339    0.455   60.940
  434.000    2.805    0.334    0.459   62.136
  434.250    2.860    0.327    0.463   60.299
  434.500    2.863    0.329    0.474   59.068
  434.750    2.864    0.334    0.483   57.225
  435.000    2.919    0.334    0.477   55.995
  435.250    2.976    0.330    0.465   56.589
  435.500    3.036    0.327    0.463   58.998
  435.750    3.095    0.322    0.468   59.587
  436.000    3.097    0.299    0.466   58.353
  436.250    3.157    0.305    0.455   57.733
  436.500    3.220    0.311    0.464   57.107
  436.750    3.282    0.322    0.460   57.095
  437.000    3.346    0.313    0.455   58.899
  437.250    3.349    0.310    0.447   59.487
  437.500    3.414    0.301    0.445   60.686
  437.750    3.481    0.296    0.446   61.278
  438.000    3.483    0.293    0.451   60.047
  438.250    3.485    0.293    0.460   57.601
  438.500    3.488    0.306    0.465   56.370
  438.750    3.490    0.321    0.466   56.955
  439.000    3.427    0.328    0.477   58.757
  439.250    3.305    0.323    0.475   59.353
  439.500    3.186    0.316    0.481   59.339
  439.750    3.187    0.321    0.491   58.108
  440.000    3.131    0.326    0.490   56.877
  440.250    3.076    0.322    0.479   58.075
