~VERSION INFORMATION
 VERS.                 2.0:   CWLS LOG ASCII STANDARD -VERSION 2.0
 WRAP.                  NO:   ONE LINE PER DEPTH STEP
~WELL INFORMATION BLOCK
#MNEM.UNIT           DATA                    DESCRIPTION OF MNEMONIC
#---------    -------------------            -------------------------------
# Generated from Intellog Unique Number	CS_69_70/WELL/905
NULL.         -999.25                        : NULL_VALUE
WELL.         HUSKY OIL OPERATIONS LTD.      : Well_name    - WELL              
LOC .         00/09-35-070-06W4/0            : Location     - LOCATION          
UWI .         00/09-35-070-06W4/0            : Uwi          - UNIQUE WELL ID    
ENTR.         SP                             : Entered      - ENTERED BY        
SRVC.         SCHLUMBERGER                   : Scn          - SERVICE COMPANY   
STRT.M        310                            : top_depth    - START DEPTH       
STOP.M        560                            : bot_depth    - STOP DEPTH        
STEP.M        0.25                           : increment    - STEP LENGTH       
~CURVE INFORMATION BLOCK
#MNEM UNIT       ERCB CURVE CODE    CURVE DESCRIPTION
#-----------   ------------------   ----------------------------------
DEPT.M        00 001 00 00         : DEPTH        - DEPTH                       
ILD .OHMM     00 120 00 00         : RESD         - DEEP RESISTIVITY (DIL)      
DPHI.V/V      00 890 00 00         : PHID         - DENSITY POROSITY (LIMESTONE)
NPHI.V/V      00 330 00 00         : PHIN         - NEUTRON POROSITY (LIMESTONE)
GR  .API      00 310 00 00         : GR           - GAMMA RAY                   
~PARAMETER INFORMATION       
#MNEM.UNIT           DATA             DESCRIPTION OF MNEMONIC
#---------         -----------     ------------------------------
GL  .M        664.6                : gl           - GROUND LEVEL ELEVATION      
EREF.M        668.7                : kb           - ELEVATION OF DEPTH REFERENCE
DATM.M        664.6                : datum        - DATUM ELEVATION             
TDD .M        566                  : tdd          - TOTAL DEPTH DRILLER         
RUN .         ONE                  : Run          - RUN NUMBER                  
ENG .         BILL                 : Engineer     - RECORDING ENGINEER          
WIT .         JIM                  : Witness      - WITNESSED BY                
MUD .         GEL                  : Mud_type     - MUD TYPE                    
MATR.         LIMESTONE            : Logunit      - NEUTRON MATRIX              
TMAX.C        25                   : BHT          - MAXIMUM RECORDED TEMPERATURE
BHTD.M        566                  : BHTDEP       - MAXIMUM RECORDED TEMPERATURE
MATR.         1                    : LOGUNIT      - NEUTRON MATRIX              
RMT .C        25                   : MDTP         - TEMPERATURE OF MUD          
NEUT.         1                    : NEUTRON      - NEUTRON TYPE                
RESI.         0                    : RESIST       - RESISTIVITY TYPE            
RMC .OHMM     0.25                 : RMC          - RESISTIVITY OF MUD CAKE     
RMF .OHMM     0.25                 : RMF          - RESISTIVITY OF MUD FILTRATE 
SUFT.C        15                   : SUFT         - SURFACE TEMPERATURE         
~A  DEPTH     RESD     PHID     PHIN       GR
  310.000    3.139    0.245    0.496   92.045
  310.250    3.186    0.241    0.506   91.327
  310.500    3.239    0.242    0.512   94.598
  310.750    3.293    0.236    0.515   97.326
  311.000    3.386    0.232    0.484   99.811
  311.250    3.489    0.230    0.470  102.356
  311.500    3.580    0.228    0.503  103.390
  311.750    3.730    0.221    0.525  101.283
  312.000    3.828    0.214    0.508   97.664
  312.250    3.936    0.208    0.486   96.099
  312.500    3.906    0.208    0.500   95.925
  312.750    3.749    0.223    0.502   94.301
  313.000    3.441    0.238    0.509   94.732
  313.250    3.241    0.239    0.527   98.426
  313.500    3.019    0.239    0.524  101.334
  313.750    2.963    0.251    0.514   98.802
  314.000    3.002    0.261    0.523   96.031
  314.250    3.121    0.265    0.515   96.641
  314.500    3.276    0.253    0.496   99.671
  314.750    3.477    0.243    0.483  100.343
  315.000    3.676    0.235    0.491   97.267
  315.250    3.873    0.231    0.520   96.369
  315.500    4.087    0.233    0.520   93.898
  315.750    4.195    0.230    0.484   93.422
  316.000    4.202    0.228    0.464   97.297
  316.250    3.981    0.231    0.454  102.925
  316.500    3.593    0.235    0.472  103.536
  316.750    3.316    0.239    0.489   98.407
  317.000    3.106    0.243    0.489   96.601
  317.250    3.390    0.247    0.485   97.817
  317.500    3.898    0.242    0.488   93.533
  317.750    4.713    0.240    0.472   71.964
  318.000    5.667    0.273    0.433   60.489
  318.250    6.243    0.300    0.383   62.854
  318.500    6.455    0.284    0.394   69.992
  318.750    6.242    0.253    0.419   76.466
  319.000    6.069    0.233    0.442   82.698
  319.250    5.957    0.223    0.453   89.716
  319.500    5.868    0.221    0.459   94.135
  319.750    5.966    0.223    0.434   84.896
  320.000    6.181    0.225    0.429   82.486
  320.250    6.261    0.219    0.450   87.630
  320.500    6.088    0.214    0.464   88.967
  320.750    6.236    0.217    0.470   87.766
  321.000    6.582    0.223    0.456   87.834
  321.250    6.934    0.230    0.440   85.302
  321.500    7.156    0.225    0.431   82.771
  321.750    7.222    0.220    0.436   82.115
  322.000    7.221    0.220    0.444   78.556
  322.250    7.074    0.232    0.450   73.003
  322.500    6.840    0.254    0.402   69.988
  322.750    6.492    0.267    0.390   69.451
  323.000    6.116    0.267    0.440   86.079
  323.250    5.761    0.227    0.476   95.091
  323.500    5.529    0.211    0.491  100.598
  323.750    5.287    0.217    0.504  103.748
  324.000    5.055    0.211    0.499  105.811
  324.250    4.744    0.204    0.485  106.664
  324.500    4.744    0.200    0.482  104.677
  324.750    5.206    0.202    0.483   99.909
  325.000    5.225    0.211    0.481  101.851
  325.250    4.950    0.206    0.486   98.655
  325.500    4.689    0.208    0.490   94.552
  325.750    4.534    0.205    0.492   94.318
  326.000    4.602    0.201    0.484   95.232
  326.250    4.857    0.199    0.474   96.689
  326.500    5.088    0.204    0.463   98.026
  326.750    5.270    0.206    0.450   97.249
  327.000    5.379    0.201    0.439   94.415
  327.250    5.459    0.202    0.439   88.802
  327.500    5.582    0.196    0.434   85.545
  327.750    5.707    0.192    0.428   85.190
  328.000    5.879    0.199    0.426   88.340
  328.250    5.901    0.204    0.424   88.650
  328.500    5.824    0.210    0.410   84.487
  328.750    5.977    0.218    0.399   88.846
  329.000    6.226    0.211    0.458   94.292
  329.250    6.547    0.201    0.476   96.414
  329.500    6.961    0.205    0.485   88.202
  329.750    7.388    0.253    0.492   74.914
  330.000    7.768    0.299    0.494   54.554
  330.250    8.062    0.323    0.435   41.930
  330.500    8.167    0.318    0.403   36.316
  330.750    8.258    0.276    0.381   38.198
  331.000    8.105    0.185    0.366   45.034
  331.250    7.808    0.153    0.366   56.041
  331.500    7.341    0.167    0.397   72.548
  331.750    7.007    0.193    0.421   83.252
  332.000    6.687    0.214    0.432   89.846
  332.250    6.466    0.219    0.413   91.969
  332.500    6.513    0.215    0.419   93.246
  332.750    6.685    0.211    0.425   96.517
  333.000    6.810    0.209    0.427   99.607
  333.250    6.835    0.217    0.435  101.124
  333.500    6.621    0.225    0.421   94.605
  333.750    6.414    0.222    0.429   91.409
  334.000    6.330    0.209    0.439   96.131
  334.250    6.400    0.204    0.438   98.495
  334.500    6.424    0.212    0.427   97.898
  334.750    6.165    0.216    0.416   95.910
  335.000    5.669    0.213    0.422   97.610
  335.250    5.350    0.221    0.426   99.007
  335.500    5.078    0.234    0.432  101.311
  335.750    5.030    0.244    0.448  102.104
  336.000    5.459    0.252    0.470  101.507
  336.250    5.815    0.247    0.498   97.525
  336.500    6.161    0.239    0.458   93.846
  336.750    6.394    0.235    0.445   91.798
  337.000    6.710    0.236    0.448   90.476
  337.250    7.108    0.228    0.417   87.160
  337.500    7.601    0.217    0.417   82.635
  337.750    7.918    0.210    0.457   77.263
  338.000    8.218    0.239    0.439   73.522
  338.250    8.418    0.261    0.416   82.837
  338.500    8.528    0.266    0.411   91.849
  338.750    8.511    0.261    0.407   96.994
  339.000    8.463    0.258    0.389   95.974
  339.250    8.290    0.254    0.384   79.180
  339.500    8.091    0.279    0.394   71.270
  339.750    8.030    0.295    0.409   73.211
  340.000    7.969    0.302    0.415   72.916
  340.250    7.909    0.307    0.405   71.352
  340.500    7.909    0.320    0.407   67.250
  340.750    7.878    0.323    0.410   64.719
  341.000    7.922    0.318    0.410   64.182
  341.250    8.010    0.318    0.410   61.470
  341.500    8.129    0.324    0.410   57.488
  341.750    8.250    0.330    0.411   54.655
  342.000    8.342    0.335    0.416   52.971
  342.250    8.467    0.340    0.429   55.516
  342.500    8.625    0.343    0.421   61.204
  342.750    8.672    0.336    0.405   66.530
  343.000    8.769    0.330    0.401   69.862
  343.250    8.850    0.324    0.405   71.319
  343.500    8.882    0.316    0.409   72.173
  343.750    8.964    0.308    0.413   72.723
  344.000    8.963    0.296    0.407   75.632
  344.250    8.863    0.283    0.395   78.661
  344.500    8.796    0.269    0.391   81.267
  344.750    8.894    0.266    0.406   82.604
  345.000    9.213    0.274    0.408   82.128
  345.250    9.778    0.275    0.420   86.184
  345.500   10.456    0.264    0.442   91.027
  345.750   10.811    0.238    0.457   92.605
  346.000   11.054    0.160    0.328   74.663
  346.250   11.115    0.121    0.321   64.275
  346.500   10.808    0.194    0.360   62.529
  346.750   10.431    0.236    0.393   76.377
  347.000    9.826    0.272    0.409   88.471
  347.250    9.326    0.286    0.415   95.792
  347.500    8.851    0.280    0.427   95.799
  347.750    8.526    0.279    0.439   94.960
  348.000    8.430    0.276    0.433   92.671
  348.250    8.477    0.275    0.402   85.607
  348.500    8.700    0.317    0.395   79.812
  348.750    8.862    0.339    0.402   72.809
  349.000    8.978    0.345    0.411   67.196
  349.250    8.977    0.340    0.413   68.231
  349.500    8.909    0.329    0.410   69.749
  349.750    8.711    0.317    0.405   73.080
  350.000    8.470    0.318    0.393   83.241
  350.250    8.267    0.310    0.384   93.764
  350.500    7.831    0.267    0.398   99.815
  350.750    7.377    0.234    0.409  104.113
  351.000    7.041    0.232    0.420  108.774
  351.250    6.757    0.239    0.445  112.045
  351.500    6.449    0.244    0.454  111.871
  351.750    6.224    0.248    0.469  106.681
  352.000    6.097    0.249    0.488  101.611
  352.250    6.063    0.251    0.479   96.240
  352.500    6.096    0.249    0.464   93.407
  352.750    6.210    0.243    0.450   92.507
  353.000    6.433    0.242    0.463   92.333
  353.250    6.689    0.250    0.463   98.082
