~VERSION INFORMATION
 VERS.                 2.0:   CWLS LOG ASCII STANDARD -VERSION 2.0
 WRAP.                  NO:   ONE LINE PER DEPTH STEP
~WELL INFORMATION BLOCK
#MNEM.UNIT           DATA                    DESCRIPTION OF MNEMONIC
#---------    -------------------            -------------------------------
# Generated from Intellog Unique Number	CS_73_76/WELL/886
WELL.         WAINOCO ET AL GROUSE           : Well_name    - WELL
LOC .         00/05-31-074-11W4/0            : Location     - LOCATION
UWI .         00/05-31-074-11W4/0            : Uwi          - UNIQUE WELL ID
ENTR.         TIM                            : Entered      - ENTERED BY
SRVC.         SCHLUMBERGER                   : Scn          - SERVICE COMPANY
STRT.M        400                            : top_depth    - START DEPTH
STOP.M        520                            : bot_depth    - STOP DEPTH
STEP.M        0.25                           : increment    - STEP LENGTH
 NULL. -999.2500:NULL Value
~CURVE INFORMATION BLOCK
#MNEM UNIT       ERCB CURVE CODE    CURVE DESCRIPTION
#-----------   ------------------   ----------------------------------
DEPT.M        00 001 00 00         : DEPTH        - DEPTH
GR  .API      00 310 00 00         : GR           - GAMMA RAY
NPHI.V/V      00 330 00 00         : PHIN         - NEUTRON POROSITY (LIMESTONE)
DPHI.V/V      00 890 00 00         : PHID         - DENSITY POROSITY (LIMESTONE)
ILD .OHMM     00 120 00 00         : RESD         - DEEP RESISTIVITY (DIL)
~PARAMETER INFORMATION
#MNEM.UNIT           DATA             DESCRIPTION OF MNEMONIC
#---------         -----------     ------------------------------
GL  .M        656.1                : gl           - GROUND LEVEL ELEVATION
EREF.M        660.1                : kb           - ELEVATION OF DEPTH REFERENCE
DATM.M        660.1                : datum        - DATUM ELEVATION
TDD .M        529                  : tdd          - TOTAL DEPTH DRILLER
RUN .         ONE                  : Run          - RUN NUMBER
ENG .         BILL                 : Engineer     - RECORDING ENGINEER
WIT .         JIM                  : Witness      - WITNESSED BY
MUD .         GEL                  : Mud_type     - MUD TYPE
MATR.         LIMESTONE            : Logunit      - NEUTRON MATRIX
TMAX.C        22                   : BHT          - MAXIMUM RECORDED TEMPERATURE
BHTD.M        43529                : BHTDEP       - MAXIMUM RECORDED TEMPERATURE
MATR.         1                    : LOGUNIT      - NEUTRON MATRIX
RMT .C        23                   : MDTP         - TEMPERATURE OF MUD
NEUT.         1                    : NEUTRON      - NEUTRON TYPE
RESI.         0                    : RESIST       - RESISTIVITY TYPE
RMC .OHMM     3.52                 : RMC          - RESISTIVITY OF MUD CAKE
RMF .OHMM     1                    : RMF          - RESISTIVITY OF MUD FILTRATE
SUFT.C        15                   : SUFT         - SURFACE TEMPERATURE
~A  DEPTH       GR     PHIN     PHID     RESD
# ...
  443.500   97.515    0.574    0.284    3.000
  443.750   96.536    0.564    0.274    3.135
  444.000   95.273    0.556    0.222    3.466
  444.250   93.392    0.549    0.206    3.976
  444.500   91.210    0.478    0.214    4.602
  444.750   90.558    0.469    0.226    5.040
  445.000   90.791    0.460    0.237    5.515
  445.250   95.527    0.460    0.243    6.094
  445.500   94.858    0.460    0.242    6.431
  445.750   92.083    0.456    0.231    6.719
  446.000   90.519    0.448    0.218    6.955
  446.250   88.329    0.442    0.188    7.067
  446.500   87.066    0.444    0.171    7.111
  446.750   87.901    0.450    0.181    7.026
  447.000   91.752    0.477    0.215    6.626
  447.250   94.391    0.491    0.221    6.249
  447.500   94.933    0.488    0.219    5.950
  447.750   94.857    0.490    0.220    5.607
  448.000   95.992    0.495    0.223    5.337
  448.250   97.428    0.507    0.227    5.082
  448.500   98.271    0.512    0.234    4.616
  448.750   99.699    0.511    0.244    4.195
  449.000   99.932    0.503    0.253    3.438
  449.250   99.872    0.527    0.256    2.981
  449.500   99.805    0.538    0.251    2.491
  449.750   98.534    0.538    0.242    2.159
  450.000   97.262    0.544    0.233    2.094
  450.250   96.275    0.544    0.207    2.127
  450.500   96.224    0.538    0.193    2.285
  450.750   97.660    0.533    0.198    2.411
  451.000  100.308    0.524    0.208    2.616
  451.250  100.533    0.546    0.212    2.784
  451.500   99.554    0.553    0.206    2.964
  451.750   97.097    0.549    0.200    3.011
  452.000   93.712    0.529    0.197    3.059
  452.250   96.660    0.513    0.188    3.052
  452.500  101.396    0.529    0.207    3.014
  452.750   98.028    0.548    0.220    2.951
  453.000   96.757    0.557    0.224    2.705
  453.250   96.380    0.573    0.225    2.624
  453.500   98.710    0.571    0.230    2.569
  453.750   99.545    0.547    0.234    2.585
  454.000   99.485    0.529    0.233    2.702
  454.250   98.824    0.534    0.233    2.850
  454.500   96.952    0.548    0.232    3.091
  454.750   94.778    0.553    0.231    3.140
  455.000   91.702    0.557    0.228    2.959
  455.250   91.935    0.572    0.226    2.819
  455.500   94.575    0.568    0.222    2.608
  455.750   97.214    0.554    0.221    2.348
  456.000   98.349    0.558    0.235    1.962
  456.250   96.468    0.564    0.234    1.654
  456.500   97.603    0.562    0.235    1.574
  456.750   99.950    0.527    0.237    1.630
  457.000  100.484    0.514    0.237    1.767
  457.250   97.709    0.526    0.236    1.935
  457.500   95.535    0.531    0.233    2.241
  457.750   96.370    0.541    0.229    2.643
  458.000   98.107    0.553    0.225    3.090
  458.250   98.950    0.552    0.222    3.748
  458.500  101.280    0.499    0.217    4.545
  458.750  102.123    0.490    0.224    5.025
  459.000  103.241    0.466    0.234    5.761
  459.250  103.792    0.440    0.230    6.369
  459.500  104.618    0.445    0.222    7.168
  459.750  105.160    0.449    0.213    7.779
  460.000  105.702    0.450    0.208    8.672
  460.250  107.130    0.449    0.215    9.235
  460.500  108.867    0.447    0.223    9.736
  460.750  109.108    0.442    0.226   10.085
  461.000  101.220    0.436    0.226   10.537
  461.250   94.225    0.427    0.213   10.903
  461.500   92.954    0.391    0.197   11.186
  461.750   92.285    0.381    0.197   11.475
  462.000   88.607    0.386    0.243   11.990
  462.250   81.913    0.384    0.264   12.763
  462.500   74.008    0.378    0.289   13.451
  462.750   70.640    0.386    0.309   13.804
  463.000   68.449    0.393    0.307   14.418
  463.250   70.203    0.403    0.295   14.796
  463.500   74.037    0.406    0.286   15.316
  463.750   78.498    0.399    0.277   15.855
  464.000   80.235    0.391    0.271   17.029
  464.250   77.159    0.380    0.277   18.481
  464.500   72.579    0.381    0.285   20.797
  464.750   67.983    0.392    0.290   21.737
  465.000   66.720    0.406    0.293   23.582
  465.250   79.595    0.399    0.284   24.639
  465.500   87.055    0.411    0.269   23.895
  465.750   85.776    0.407    0.254   21.702
  466.000   85.708    0.395    0.243   19.902
  466.250   86.852    0.388    0.230   17.914
  466.500   87.978    0.384    0.234   17.052
  466.750   83.708    0.392    0.254   17.320
  467.000   76.412    0.399    0.290   17.768
  467.250   72.434    0.408    0.273   18.386
  467.500   80.789    0.414    0.260   19.039
  467.750   86.445    0.413    0.244   19.351
  468.000   91.198    0.417    0.185   18.942
  468.250   91.121    0.413    0.169   16.886
  468.500   88.346    0.404    0.182   14.508
  468.750   87.376    0.398    0.198   13.546
  469.000   87.918    0.392    0.207   13.259
  469.250   88.753    0.392    0.210   13.105
  469.500   91.083    0.393    0.210   12.824
  469.750   97.650    0.393    0.210   12.553
  470.000  105.110    0.391    0.209   12.291
  470.250  117.383    0.391    0.205   11.912
  470.500  124.844    0.396    0.200   11.660
  470.750  135.613    0.404    0.195   11.524
  471.000  147.577    0.401    0.195   11.281
  471.250  145.412    0.404    0.203   11.150
  471.500  139.320    0.411    0.204   11.112
  471.750  130.821    0.416    0.202   11.193
  472.000  125.038    0.407    0.206   11.475
  472.250  118.946    0.393    0.223   11.989
  472.500  113.464    0.391    0.243   12.535
  472.750  106.469    0.390    0.256   13.469
  473.000   96.466    0.394    0.265   14.607
  473.250   83.155    0.403    0.276   15.847
  473.500   74.356    0.397    0.287   17.673
  473.750   68.873    0.389    0.298   20.081
  474.000   63.984    0.394    0.312   23.038
  474.250   62.103    0.398    0.326   27.434
  474.500   61.743    0.404    0.335   31.758
  474.750   61.675    0.412    0.321   33.817
  475.000   61.607    0.410    0.292   34.041
  475.250   61.230    0.404    0.257   33.936
  475.500   61.772    0.399    0.225   33.844
  475.750   65.314    0.389    0.206   32.226
  476.000   69.758    0.391    0.247   29.820
  476.250   71.813    0.406    0.261   27.602
  476.500   72.338    0.416    0.273   25.070
  476.750   75.888    0.424    0.274   23.431
  477.000   80.324    0.420    0.257   22.089
  477.250   79.061    0.404    0.244   20.831
  477.500   74.481    0.398    0.240   20.007
  477.750   69.893    0.394    0.256   20.342
  478.000   68.020    0.391    0.265   21.446
  478.250   67.652    0.408    0.290   21.994
  478.500   67.893    0.422    0.291   22.759
  478.750   68.728    0.419    0.289   23.356
  479.000   70.765    0.404    0.273   23.945
  479.250   71.892    0.399    0.264   24.778
  479.500   71.833    0.399    0.245   25.419
  479.750   72.366    0.391    0.241   25.367
  480.000   76.217    0.385    0.244   24.601
  480.250   85.173    0.378    0.248   23.192
  480.500   93.227    0.371    0.244   21.460
  480.750   91.956    0.379    0.233   20.057
  481.000   90.075    0.385    0.229   18.740
  481.250   91.820    0.389    0.237   17.334
  481.500   93.875    0.384    0.239   16.353
  481.750   93.489    0.379    0.231   15.560
  482.000   91.023    0.378    0.237   15.374
  482.250   88.841    0.374    0.241   15.481
  482.500   88.464    0.375    0.237   15.729
  482.750   88.413    0.379    0.232   16.277
  483.000   88.036    0.376    0.221   16.395
  483.250   87.676    0.375    0.220   16.808
  483.500   85.503    0.377    0.225   17.232
  483.750   84.232    0.382    0.232   17.844
  484.000   86.269    0.388    0.229   18.293
  484.250   88.307    0.384    0.226   18.599
  484.500   88.849    0.380    0.245   19.074
  484.750   88.781    0.376    0.262   19.562
  485.000   86.591    0.380    0.266   19.882
  485.250   85.913    0.387    0.263   20.014
  485.500   86.764    0.391    0.256   20.146
  485.750   88.192    0.395    0.253   20.091
  486.000   89.336    0.403    0.256   20.217
  486.250   88.666    0.411    0.261   20.541
  486.500   85.900    0.409    0.273   20.878
  486.750   80.409    0.399    0.279   22.018
