~VERSION INFORMATION
 VERS.                 2.0:   CWLS LOG ASCII STANDARD -VERSION 2.0
 WRAP.                  NO:   ONE LINE PER DEPTH STEP
~WELL INFORMATION BLOCK
#MNEM.UNIT           DATA                    DESCRIPTION OF MNEMONIC
#---------    -------------------            -------------------------------
# Generated from Intellog Unique Number	CW_79_81/WELL/554
WELL.         07-21-079-22W4                 : Well_name    - WELL
LOC .         00/07-21-079-22W4/0            : Location     - LOCATION
UWI .         00/07-21-079-22W4/0            : Uwi          - UNIQUE WELL ID
ENTR.         MAX                            : Entered      - ENTERED BY
SRVC.         SCHLUMBERGER                   : Scn          - SERVICE COMPANY
STRT.M        210.312                        : top_depth    - START DEPTH
STOP.M        435.812                        : bot_depth    - STOP DEPTH
STEP.M        0.25                           : increment    - STEP LENGTH
 NULL. -999.2500:NULL Value
~CURVE INFORMATION BLOCK
#MNEM UNIT       ERCB CURVE CODE    CURVE DESCRIPTION
#-----------   ------------------   ----------------------------------
DEPT.M        00 001 00 00         : DEPTH        - DEPTH
ILD .OHMM     00 120 00 00         : RESD         - DEEP RESISTIVITY (DIL)
NPHI.V/V      00 330 00 00         : PHIN         - NEUTRON POROSITY (SANDSTONE)
DPHI.V/V      00 890 00 00         : PHID         - DENSITY POROSITY (SANDSTONE)
CALI.MM       00 280 01 00         : CAL          - CALIPER
GR  .API      00 310 00 00         : GR           - GAMMA RAY
~PARAMETER INFORMATION
#MNEM.UNIT           DATA             DESCRIPTION OF MNEMONIC
#---------         -----------     ------------------------------
GL  .M        560.222              : gl           - GROUND LEVEL ELEVATION
EREF.M        562.966              : kb           - ELEVATION OF DEPTH REFERENCE
DATM.M        560.222              : datum        - DATUM ELEVATION
TDD .M        439.826              : tdd          - TOTAL DEPTH DRILLER
RUN .         ONE                  : Run          - RUN NUMBER
ENG .         BILL                 : Engineer     - RECORDING ENGINEER
WIT .         JIM                  : Witness      - WITNESSED BY
MUD .         GEL                  : Mud_type     - MUD TYPE
MATR.         SANDSTONE            : Logunit      - NEUTRON MATRIX
TMAX.C        22.2222              : BHT          - MAXIMUM RECORDED TEMPERATURE
BHTD.M        492081               : BHTDEP       - MAXIMUM RECORDED TEMPERATURE
RMT .C        18.3333              : MDTP         - TEMPERATURE OF MUD
MUDD.KG/M     9300                 : MWT          - MUD DENSITY
NEUT.         1                    : NEUTRON      - NEUTRON TYPE
RESI.         0                    : RESIST       - RESISTIVITY TYPE
RM  .OHMM     6.1                  : RM           - RESISTIVITY OF MUD
RMC .OHMM     0.25                 : RMC          - RESISTIVITY OF MUD CAKE
RMF .OHMM     6.02                 : RMF          - RESISTIVITY OF MUD FILTRATE
SUFT.C        -12.2222             : SUFT         - SURFACE TEMPERATURE
~A  DEPTH     RESD     PHIN     PHID      CAL       GR
  210.312    4.835    0.536    0.320  210.377   77.291
  210.562    6.147    0.458    0.326  208.345   64.452
  210.812   12.390    0.443    0.331  206.310   53.701
  211.062   18.942    0.423    0.335  204.783   54.588
  211.312   22.375    0.422    0.338  203.759   61.445
  211.562   20.988    0.438    0.331  204.250   72.181
  211.812   18.122    0.455    0.326  205.752   77.844
  212.062   13.502    0.467    0.322  206.752   83.507
  212.312   12.550    0.481    0.318  208.254   81.410
  212.562   12.794    0.497    0.314  209.256   76.329
  212.812   15.249    0.494    0.330  211.263   68.264
  213.062   16.577    0.482    0.338  213.270   63.184
  213.312   20.313    0.476    0.352  214.777   59.296
  213.562   21.090    0.475    0.355  216.785   59.290
  213.812   20.154    0.485    0.353  218.794   59.580
  214.062   19.436    0.488    0.351  220.297   59.871
  214.312   19.991    0.491    0.350  221.801   59.564
  214.562   24.498    0.504    0.344  224.314   59.260
  214.812   30.302    0.504    0.341  225.817   57.462
  215.062   36.792    0.500    0.360  227.828   53.575
  215.312   46.354    0.486    0.373  229.331   53.567
  215.562   53.746    0.494    0.377  231.339   53.561
  215.812   59.514    0.483    0.359  232.336   52.658
  216.062   57.930    0.474    0.357  233.336   51.755
  216.312   54.340    0.464    0.362  234.334   52.344
  216.562   44.806    0.468    0.370  234.827   52.635
  216.812   34.958    0.472    0.370  234.813   52.927
  217.062   20.879    0.467    0.373  234.791   54.111
  217.312   16.593    0.466    0.376  235.294   55.598
  217.562   12.027    0.472    0.375  235.283   58.873
  217.812    9.470    0.477    0.362  235.269   63.343
  218.062    6.926    0.479    0.348  235.257   69.304
  218.312    5.764    0.488    0.333  234.234   86.605
  218.562    4.977    0.521    0.301  232.704  107.487
  218.812    3.919    0.542    0.292  230.670  109.865
  219.062    3.995    0.492    0.274  228.638  103.890
  219.312    4.851    0.470    0.256  226.098   98.511
  219.562    5.999    0.474    0.248  224.066   97.013
  219.812    6.892    0.480    0.256  221.525   91.335
  220.062    7.156    0.484    0.257  219.492   85.359
  220.312    6.965    0.473    0.257  217.458   82.965
  220.562    6.594    0.468    0.245  215.426   76.392
  220.812    6.477    0.496    0.235  213.391   75.190
  221.062    6.485    0.520    0.253  210.849   83.240
  221.312    6.729    0.537    0.281  208.815   84.726
  221.562    8.246    0.540    0.306  208.815   78.153
  221.812   10.013    0.534    0.317  207.778   72.177
  222.062   12.047    0.512    0.331  205.242   64.708
  222.312   14.761    0.497    0.344  205.242   62.015
  222.562   20.580    0.481    0.345  204.205   58.426
  222.812   23.000    0.468    0.339  202.680   56.927
  223.062   25.005    0.455    0.317  202.680   55.129
  223.312   23.893    0.416    0.292  202.149   53.928
  223.562   20.070    0.401    0.266  202.136   54.220
  223.812   18.656    0.355    0.207  202.629   53.914
  224.062   16.107    0.383    0.185  203.122   55.099
  224.312   15.109    0.450    0.277  203.122   57.480
  224.562   13.915    0.467    0.316  204.102   58.964
  224.812   13.297    0.470    0.326  205.107   58.660
  225.062   13.297    0.474    0.335  206.609   61.039
  225.312   12.600    0.478    0.335  206.609   63.718
  225.562   10.777    0.475    0.328  208.094   66.993
  225.812   10.016    0.481    0.311  209.602   67.582
  226.062    9.224    0.488    0.310  209.602   68.172
  226.312    8.495    0.472    0.319  211.087   69.657
  226.562    7.896    0.457    0.327  212.092   72.633
  226.812    7.409    0.442    0.330  213.597   79.490
  227.062    7.144    0.441    0.327  215.604   83.064
  227.312    6.763    0.469    0.291  217.615   88.726
  227.562    6.706    0.484    0.274  218.612   98.269
  227.812    6.834    0.469    0.256  219.612  100.946
  228.062    7.362    0.450    0.244  220.605  100.044
  228.312    8.077    0.449    0.233  221.101   97.947
  228.562    9.718    0.451    0.232  220.078   94.957
  228.812   11.801    0.468    0.255  216.022   84.206
  229.062   14.460    0.464    0.271  211.966   70.768
  229.312   17.886    0.451    0.322  211.966   63.003
  229.562   19.625    0.433    0.339  209.918   57.326
  229.812   20.186    0.425    0.355  207.887   53.439
  230.062   20.011    0.416    0.359  207.887   51.641
  230.312   20.011    0.429    0.345  206.341   57.006
  230.562   18.964    0.442    0.328  206.838   62.667
  230.812   16.219    0.447    0.312  207.835   63.555
  231.062   15.077    0.441    0.312  208.331   67.129
  231.312   13.758    0.421    0.316  208.317   75.776
  231.562   12.788    0.434    0.291  208.317   79.647
  231.812   11.995    0.449    0.275  208.798   81.431
  232.062   10.168    0.455    0.258  209.796   85.005
  232.312    8.540    0.460    0.244  209.796   90.070
  232.562    8.086    0.470    0.231  210.277   94.540
  232.812    6.917    0.473    0.223  212.791   99.307
  233.062    5.704    0.481    0.221  215.303  102.582
  233.312    5.451    0.494    0.226  216.808  108.246
  233.562    5.020    0.516    0.209  217.805  114.804
  233.812    4.178    0.545    0.175  218.301  114.498
  234.062    4.029    0.526    0.190  218.281  113.892
  234.312    3.957    0.529    0.191  218.781  115.078
  234.562    3.996    0.542    0.213  218.769  118.951
  234.812    4.036    0.561    0.217  218.769  119.539
  235.062    3.928    0.554    0.211  218.743  119.830
  235.312    3.823    0.571    0.185  218.729  122.211
  235.562    3.653    0.570    0.184  218.729  125.487
  235.812    3.427    0.565    0.189  218.193  127.271
  236.062    3.127    0.569    0.205  217.681  125.771
  236.312    3.127    0.574    0.228  217.681  122.482
  236.562    3.018    0.577    0.244  217.145  117.400
  236.812    3.020    0.573    0.254  217.141  112.618
  237.062    3.700    0.538    0.257  217.141  109.924
  237.312    5.304    0.484    0.243  217.613  109.917
  237.562    6.037    0.473    0.233  218.616  111.103
  237.812    6.385    0.473    0.227  218.616  112.588
  238.062    6.330    0.467    0.228  220.102  113.477
  238.312    6.048    0.462    0.230  221.610  113.766
  238.562    5.469    0.468    0.233  223.117  113.164
  238.812    5.084    0.480    0.237  223.117  111.365
  239.062    5.084    0.492    0.241  224.103  109.269
  239.312    5.043    0.515    0.245  226.614  105.382
  239.562    5.140    0.536    0.275  228.121   98.213
  239.812    6.183    0.540    0.300  231.136   84.180
  240.062    9.195    0.537    0.333  233.650   73.430
  240.312   23.122    0.513    0.352  236.167   67.452
  240.562   39.118    0.479    0.378  239.692   62.969
  240.812   48.385    0.473    0.391  243.217   60.276
  241.062   53.581    0.471    0.398  248.255   59.670
  241.312   55.630    0.500    0.401  252.285   59.366
  241.562   57.219    0.507    0.397  256.821   59.059
  241.812   57.249    0.493    0.391  266.410   59.352
  242.062   57.291    0.491    0.389  267.411   59.940
  242.312   56.821    0.491    0.397  271.945   59.933
  242.562   56.829    0.486    0.404  275.977   59.628
  242.812   54.813    0.496    0.403  280.006   61.709
  243.062   54.813    0.501    0.400  280.006   64.685
  243.312   54.367    0.505    0.404  280.479   64.379
  243.562   52.924    0.508    0.406  279.969   64.075
  243.812   51.989    0.508    0.403  279.969   64.068
  244.062   51.062    0.494    0.394  278.420   63.165
  244.312   48.792    0.504    0.390  276.395   61.365
  244.562   46.195    0.492    0.393  276.395   61.955
  244.812   42.944    0.498    0.394  274.347   63.737
  245.062   39.913    0.510    0.390  270.796   64.029
  245.312   37.792    0.512    0.375  270.796   62.828
  245.562   37.792    0.508    0.375  268.748   61.627
  245.812   36.805    0.507    0.368  265.707   60.725
  246.062   36.154    0.504    0.379  262.663   64.001
  246.312   36.154    0.497    0.384  259.112   66.381
  246.562   36.200    0.486    0.389  255.562   67.567
