~VERSION INFORMATION
 VERS.                 2.0:   CWLS LOG ASCII STANDARD -VERSION 2.0
 WRAP.                  NO:   ONE LINE PER DEPTH STEP
~WELL INFORMATION BLOCK
#MNEM.UNIT           DATA                    DESCRIPTION OF MNEMONIC
#---------    -------------------            -------------------------------
# Generated from Intellog Unique Number	CW_79_81/WELL/2457
WELL.         SHELL MISTEHAE                 : Well_name    - WELL
LOC .         00/07-09-081-02W5/0            : Location     - LOCATION
UWI .         00/07-09-081-02W5/0            : Uwi          - UNIQUE WELL ID
ENTR.         MAX                            : Entered      - ENTERED BY
SRVC.         SCHLUMBERGER                   : Scn          - SERVICE COMPANY
STRT.M        243.84                         : top_depth    - START DEPTH
STOP.M        490.59                         : bot_depth    - STOP DEPTH
STEP.M        0.25                           : increment    - STEP LENGTH
 NULL. -999.2500:NULL Value
~CURVE INFORMATION BLOCK
#MNEM UNIT       ERCB CURVE CODE    CURVE DESCRIPTION
#-----------   ------------------   ----------------------------------
DEPT.M        00 001 00 00         : DEPTH        - DEPTH
ILD .OHMM     00 120 00 00         : RESD         - DEEP RESISTIVITY (DIL)
NPHI.V/V      00 330 00 00         : PHIN         - NEUTRON POROSITY (SANDSTONE)
DPHI.V/V      00 890 00 00         : PHID         - DENSITY POROSITY (SANDSTONE)
GR  .API      00 310 00 00         : GR           - GAMMA RAY
CALI.MM       00 280 01 00         : CAL          - CALIPER
~PARAMETER INFORMATION
#MNEM.UNIT           DATA             DESCRIPTION OF MNEMONIC
#---------         -----------     ------------------------------
GL  .M        607.771              : gl           - GROUND LEVEL ELEVATION
EREF.M        612.023              : kb           - ELEVATION OF DEPTH REFERENCE
DATM.M        607.771              : datum        - DATUM ELEVATION
TDD .M        492.557              : tdd          - TOTAL DEPTH DRILLER
RUN .         ONE                  : Run          - RUN NUMBER
ENG .         BILL                 : Engineer     - RECORDING ENGINEER
WIT .         JIM                  : Witness      - WITNESSED BY
MUD .         GEL                  : Mud_type     - MUD TYPE
MATR.         SANDSTONE            : Logunit      - NEUTRON MATRIX
TMAX.C        25.5556              : BHT          - MAXIMUM RECORDED TEMPERATURE
BHTD.M        492.557              : BHTDEP       - MAXIMUM RECORDED TEMPERATURE
MATR.         1                    : LOGUNIT      - NEUTRON MATRIX
RMT .C        21.1111              : MDTP         - TEMPERATURE OF MUD
NEUT.         1                    : NEUTRON      - NEUTRON TYPE
RESI.         0                    : RESIST       - RESISTIVITY TYPE
RMC .OHMM     3.28                 : RMC          - RESISTIVITY OF MUD CAKE
RMF .OHMM     4.9                  : RMF          - RESISTIVITY OF MUD FILTRATE
SUFT.C        -18.3333             : SUFT         - SURFACE TEMPERATURE
~A  DEPTH     RESD     PHIN     PHID       GR      CAL
# ...
  389.840    8.855    0.492    0.247   68.112  301.283
  390.090    8.575    0.499    0.245   67.044  301.482
  390.340    8.440    0.512    0.249   66.925  301.080
  390.590    8.557    0.521    0.256   67.774  300.091
  390.840    9.172    0.529    0.272   67.279  297.160
  391.090   10.078    0.526    0.273   65.618  293.544
  391.340   11.485    0.524    0.265   64.135  289.627
  391.590   12.635    0.518    0.258   64.490  286.010
  391.840   12.851    0.513    0.250   66.683  283.800
  392.090   11.892    0.517    0.234   68.511  284.853
  392.340   10.170    0.528    0.259   65.792  286.107
  392.590    9.736    0.518    0.277   62.944  283.695
  392.840    9.955    0.500    0.274   63.478  279.778
  393.090   10.661    0.487    0.267   65.612  274.956
  393.340   11.829    0.481    0.260   67.509  270.135
  393.590   13.892    0.485    0.247   65.937  265.682
  393.840   16.090    0.512    0.243   59.264  261.496
  394.090   17.931    0.504    0.220   59.975  252.256
  394.340   19.381    0.463    0.185   59.263  248.741
  394.590   20.706    0.397    0.146   58.313  246.731
  394.840   22.423    0.329    0.116   58.312  244.420
  395.090   26.034    0.290    0.113   61.188  242.327
  395.340   29.455    0.299    0.111   64.893  241.907
  395.590   34.002    0.324    0.139   66.790  242.307
  395.840   33.465    0.345    0.162   67.620  243.009
  396.090   28.580    0.369    0.188   68.331  243.811
  396.340   21.791    0.397    0.214   69.279  244.613
  396.590   14.153    0.433    0.238   70.721  245.666
  396.840   10.260    0.457    0.271   73.191  246.920
  397.090    9.258    0.470    0.269   72.479  248.525
  397.340    9.188    0.481    0.253   69.632  250.131
  397.590    9.497    0.462    0.235   67.733  251.536
  397.840    9.857    0.423    0.219   68.385  252.740
  398.090    9.963    0.416    0.195   72.594  254.194
  398.340    9.743    0.454    0.180   77.041  255.448
  398.590    9.192    0.472    0.216   78.464  256.652
  398.840    8.382    0.473    0.212   78.285  257.555
  399.090    7.482    0.467    0.205   77.929  258.557
  399.340    6.686    0.460    0.210   77.216  259.761
  399.590    6.078    0.453    0.221   74.616  261.299
  399.840    5.811    0.467    0.215   75.851  262.972
  400.090    5.900    0.479    0.213   76.799  263.774
  400.340    6.054    0.490    0.215   76.502  264.576
  400.590    6.214    0.499    0.220   76.145  265.780
  400.840    6.343    0.509    0.229   76.500  267.084
  401.090    6.450    0.522    0.242   78.021  267.652
  401.340    6.502    0.515    0.247   78.515  268.487
  401.590    6.506    0.515    0.258   78.988  273.306
  401.840    6.544    0.511    0.281   78.573  274.510
  402.090    6.690    0.493    0.254   77.623  274.508
  402.340    7.015    0.467    0.193   76.377  273.604
  402.590    7.766    0.454    0.186   74.706  269.904
  402.840    8.652    0.464    0.190   73.469  269.484
  403.090    9.574    0.470    0.192   73.706  271.089
  403.340    9.840    0.474    0.195   74.298  273.900
  403.590    9.773    0.473    0.204   74.891  275.907
  403.840    9.617    0.469    0.210   75.246  276.608
  404.090    9.372    0.464    0.192   75.344  277.009
  404.340    9.165    0.466    0.195   75.837  277.007
  404.590    8.971    0.475    0.202   75.836  277.006
  404.840    8.732    0.476    0.206   75.835  277.005
  405.090    8.517    0.477    0.210   75.835  277.004
  405.340    8.352    0.481    0.213   75.834  277.003
  405.590    8.210    0.481    0.211   75.833  277.001
  405.840    8.091    0.485    0.214   75.833  277.000
  406.090    8.095    0.485    0.210   75.120  276.999
  406.340    8.322    0.489    0.212   74.052  276.997
  406.590    8.726    0.489    0.215   72.391  276.394
  406.840    9.396    0.484    0.217   69.959  274.685
  407.090   11.118    0.466    0.223   65.698  271.303
  407.340   14.151    0.454    0.240   61.002  270.465
  407.590   16.682    0.435    0.229   61.239  270.464
  407.840   18.921    0.424    0.217   63.076  270.161
  408.090   19.821    0.434    0.208   65.922  269.758
  408.340   19.068    0.462    0.206   68.768  269.456
  408.590   16.301    0.485    0.217   70.141  269.454
  408.840   12.156    0.474    0.216   69.893  269.453
  409.090   10.094    0.465    0.200   70.367  269.452
  409.340    9.581    0.456    0.199   70.129  269.450
  409.590    9.758    0.446    0.195   70.365  269.248
  409.840   10.294    0.440    0.188   71.373  268.846
  410.090   10.958    0.455    0.188   72.113  268.442
  410.340   11.130    0.456    0.184   69.889  268.441
  410.590   11.298    0.442    0.179   69.176  268.440
  410.840   11.656    0.429    0.183   69.353  268.439
  411.090   11.923    0.430    0.191   68.879  268.638
  411.340   12.038    0.439    0.195   67.692  268.938
  411.590   12.349    0.428    0.182   67.463  269.020
  411.840   13.033    0.419    0.177   68.698  269.438
  412.090   12.851    0.426    0.173   70.121  269.838
  412.340   12.255    0.443    0.178   71.365  269.937
  412.590   11.654    0.459    0.197   72.076  269.334
  412.840   11.053    0.468    0.220   72.313  268.729
  413.090   10.137    0.470    0.221   72.895  269.933
  413.340    9.765    0.472    0.205   74.624  269.932
  413.590    9.628    0.467    0.173   75.809  270.332
  413.840    9.597    0.469    0.164   75.393  271.335
  414.090    9.637    0.473    0.172   74.325  271.736
  414.340    9.747    0.473    0.188   73.553  271.333
  414.590    9.954    0.466    0.197   74.076  271.013
  414.840    9.884    0.465    0.183   74.323  271.430
  415.090    9.674    0.472    0.171   74.322  273.839
  415.340    9.416    0.471    0.173   74.677  274.742
  415.590    9.115    0.466    0.179   75.032  274.138
  415.840    8.828    0.459    0.185   75.209  272.932
  416.090    8.642    0.451    0.186   75.159  272.930
  416.340    8.646    0.459    0.185   74.911  272.929
  416.590    8.650    0.470    0.185   74.910  272.526
  416.840    8.701    0.465    0.185   74.910  271.822
  417.090    8.769    0.468    0.198   74.909  271.218
  417.340    8.806    0.479    0.220   74.849  270.916
  417.590    8.733    0.472    0.234   74.611  271.082
  417.840    8.671    0.469    0.219   74.610  271.917
  418.090    8.549    0.477    0.219   74.847  271.916
  418.340    8.476    0.485    0.211   76.862  270.710
  418.590    8.418    0.483    0.207   77.336  269.303
  418.840    8.407    0.477    0.205   75.971  268.197
  419.090    8.624    0.490    0.187   75.545  267.308
  419.340    9.103    0.486    0.183   75.791  266.889
  419.590    9.860    0.480    0.193   75.317  265.682
  419.840   11.135    0.475    0.184   72.885  263.874
  420.090   12.922    0.463    0.171   68.733  262.065
  420.340   15.156    0.444    0.160   63.691  260.758
  420.590   18.255    0.425    0.142   58.492  260.522
  420.840   22.511    0.382    0.118   55.032  261.358
  421.090   27.285    0.355    0.120   52.184  262.160
  421.340   31.862    0.354    0.151   50.227  262.661
  421.590   33.790    0.383    0.206   51.648  263.262
  421.840   32.205    0.432    0.255   56.747  264.064
  422.090   29.309    0.481    0.245   64.120  265.284
  422.340   30.231    0.461    0.233   66.590  267.375
  422.590   32.978    0.446    0.203   61.135  269.382
  422.840   34.499    0.425    0.151   56.390  271.992
  423.090   34.771    0.410    0.141   56.507  275.003
  423.340   33.698    0.416    0.175   60.716  278.115
  423.590   30.608    0.457    0.198   63.424  281.176
  423.840   28.186    0.468    0.201   63.917  282.430
  424.090   25.811    0.456    0.200   64.866  282.831
  424.340   22.712    0.447    0.203   66.881  282.930
  424.590   17.932    0.444    0.210   69.727  282.929
  424.840   13.342    0.447    0.211   72.928  283.228
  425.090    9.565    0.460    0.196   76.367  284.767
  425.340    7.606    0.483    0.226   79.331  286.439
  425.590    7.018    0.504    0.239   80.280  297.283
  425.840    6.887    0.491    0.251   80.516  303.307
  426.090    7.015    0.483    0.256   79.567  302.303
