~VERSION INFORMATION
 VERS.                 2.0:   CWLS LOG ASCII STANDARD -VERSION 2.0
 WRAP.                  NO:   ONE LINE PER DEPTH STEP
~WELL INFORMATION BLOCK
#MNEM.UNIT           DATA                    DESCRIPTION OF MNEMONIC
#---------    -------------------            -------------------------------
# Generated from Intellog Unique Number	CS_69_70/WELL/618
WELL.         HUSKY AEC FISHER               : Well_name    - WELL
LOC .         00/05-12-069-06W4/0            : Location     - LOCATION
UWI .         00/05-12-069-06W4/0            : Uwi          - UNIQUE WELL ID
ENTR.         T                              : Entered      - ENTERED BY
SRVC.         SCHLUMBERGER                   : Scn          - SERVICE COMPANY
STRT.M        365                            : top_depth    - START DEPTH
STOP.M        570                            : bot_depth    - STOP DEPTH
STEP.M        0.25                           : increment    - STEP LENGTH
 NULL. -999.2500:NULL Value
~CURVE INFORMATION BLOCK
#MNEM UNIT       ERCB CURVE CODE    CURVE DESCRIPTION
#-----------   ------------------   ----------------------------------
DEPT.M        00 001 00 00         : DEPTH        - DEPTH
GR  .API      00 310 00 00         : GR           - GAMMA RAY
NPHI.V/V      00 330 00 00         : PHIN         - NEUTRON POROSITY (SANDSTONE)
DPHI.V/V      00 890 00 00         : PHID         - DENSITY POROSITY (SANDSTONE)
ILD .OHMM     00 120 00 00         : RESD         - DEEP RESISTIVITY (DIL)
~PARAMETER INFORMATION
#MNEM.UNIT           DATA             DESCRIPTION OF MNEMONIC
#---------         -----------     ------------------------------
GL  .M        716                  : gl           - GROUND LEVEL ELEVATION
EREF.M        719.6                : kb           - ELEVATION OF DEPTH REFERENCE
DATM.M        719.6                : datum        - DATUM ELEVATION
TDD .M        581                  : tdd          - TOTAL DEPTH DRILLER
RUN .         ONE                  : Run          - RUN NUMBER
ENG .         TIM                  : Engineer     - RECORDING ENGINEER
WIT .         JIM                  : Witness      - WITNESSED BY
MUD .         GEL                  : Mud_type     - MUD TYPE
MATR.         SANDSTONE            : Logunit      - NEUTRON MATRIX
TMAX.C        24                   : BHT          - MAXIMUM RECORDED TEMPERATURE
BHTD.M        581                  : BHTDEP       - MAXIMUM RECORDED TEMPERATURE
MATR.         1                    : LOGUNIT      - NEUTRON MATRIX
RMT .C        20                   : MDTP         - TEMPERATURE OF MUD
NEUT.         1                    : NEUTRON      - NEUTRON TYPE
RESI.         9.3                  : RESIST       - RESISTIVITY TYPE
RMC .OHMM     8.5                  : RMC          - RESISTIVITY OF MUD CAKE
RMF .OHMM     9.2                  : RMF          - RESISTIVITY OF MUD FILTRATE
SUFT.C        15                   : SUFT         - SURFACE TEMPERATURE
~A  DEPTH       GR     PHIN     PHID     RESD
# ...
  539.000   80.831    0.394    0.295   31.147
  539.250   81.461    0.383    0.274   23.959
  539.500   83.317    0.373    0.262   18.087
  539.750   85.783    0.369    0.256   13.653
  540.000   89.468    0.366    0.252    9.203
  540.250   92.550    0.364    0.246    7.081
  540.500   93.790    0.369    0.244    6.574
  540.750   93.207    0.373    0.241    6.338
  541.000   91.404    0.375    0.237    6.230
  541.250   88.998    0.380    0.236    6.237
  541.500   85.359    0.398    0.241    6.245
  541.750   69.531    0.406    0.266    6.998
  542.000   56.746    0.420    0.283    8.782
  542.250   45.186    0.432    0.308   20.521
  542.500   40.944    0.420    0.330   24.339
  542.750   51.337    0.407    0.347   29.426
  543.000   54.413    0.405    0.352   31.173
  543.250   56.886    0.412    0.341   32.418
  543.500   57.522    0.417    0.325   31.852
  543.750   57.549    0.418    0.312   30.712
  544.000   60.014    0.408    0.309   28.519
  544.250   63.090    0.403    0.315   25.503
  544.500   64.946    0.395    0.315   22.375
  544.750   66.802    0.386    0.301   19.636
  545.000   71.714    0.380    0.286   17.554
  545.250   75.393    0.383    0.255   14.564
  545.500   79.688    0.406    0.259   12.076
  545.750   83.373    0.408    0.259   10.598
  546.000   86.449    0.407    0.245    9.477
  546.250   91.354    0.381    0.224    8.636
  546.500   95.046    0.368    0.216    8.019
  546.750   96.895    0.356    0.216    7.310
  547.000   98.765    0.361    0.222    7.182
  547.250   98.778    0.379    0.225    7.191
  547.500   97.599    0.388    0.223    7.618
  547.750   96.399    0.382    0.209    8.070
  548.000   95.199    0.359    0.190    8.550
  548.250   94.623    0.357    0.180    8.557
  548.500   94.656    0.358    0.208    8.408
  548.750   94.073    0.361    0.215    7.956
  549.000   93.477    0.372    0.234    7.671
  549.250   92.284    0.405    0.249    7.259
  549.500   90.487    0.414    0.254    7.134
  549.750   88.678    0.416    0.221    7.419
  550.000   88.705    0.385    0.204    7.857
  550.250   91.780    0.369    0.198    8.643
  550.500   93.033    0.351    0.194    9.333
  550.750   92.450    0.346    0.200    9.345
  551.000   90.037    0.345    0.211    9.010
  551.250   88.235    0.350    0.219    8.526
  551.500   88.268    0.355    0.214    8.221
  551.750   88.898    0.356    0.207    8.075
  552.000   90.137    0.346    0.201    8.084
  552.250   90.171    0.341    0.203    8.248
  552.500   90.204    0.342    0.208    8.258
  552.750   90.217    0.347    0.214    8.268
  553.000   89.031    0.356    0.212    8.124
  553.250   88.441    0.360    0.209    8.133
  553.500   87.865    0.364    0.208    8.458
  553.750   87.898    0.370    0.202    8.630
  554.000   87.925    0.373    0.198    8.479
  554.250   88.561    0.365    0.196    8.489
  554.500   88.581    0.359    0.201    8.499
  554.750   88.005    0.350    0.204    9.175
  555.000   86.805    0.356    0.216    9.720
  555.250   85.619    0.371    0.220    9.914
  555.500   85.029    0.373    0.231   10.506
  555.750   85.056    0.374    0.235   10.518
  556.000   83.869    0.381    0.223   10.735
  556.250   79.614    0.408    0.245   11.365
  556.500   54.639    0.425    0.274   15.676
  556.750   36.372    0.397    0.314   22.444
  557.000   26.642    0.388    0.337   52.444
  557.250   24.229    0.375    0.329   80.961
  557.500   22.426    0.365    0.329  145.343
  557.750   20.623    0.364    0.330  172.388
  558.000   20.034    0.364    0.324  189.690
  558.250   19.451    0.364    0.318  186.378
  558.500   18.867    0.360    0.305  176.303
  558.750   20.737    0.353    0.311  163.711
  559.000   23.209    0.352    0.322  154.956
  559.250   23.223    0.357    0.330  158.092
  559.500   23.256    0.367    0.334  164.356
  559.750   23.276    0.366    0.329  170.870
  560.000   22.706    0.361    0.318  167.886
  560.250   22.719    0.355    0.291  155.848
  560.500   22.143    0.350    0.295  139.370
  560.750   22.176    0.355    0.299  139.539
  561.000   22.189    0.357    0.304  145.069
  561.250   22.839    0.356    0.308  150.817
  561.500   23.469    0.355    0.314  156.841
  561.750   23.489    0.358    0.320  163.057
  562.000   22.296    0.362    0.315  172.740
  562.250   21.720    0.362    0.305  172.897
  562.500   21.130    0.358    0.305  173.106
  562.750   20.547    0.357    0.310  176.716
  563.000   19.963    0.356    0.312  180.238
  563.250   19.997    0.356    0.317  170.547
  563.500   20.017    0.358    0.319  155.413
  563.750   20.653    0.354    0.322  144.314
  564.000   20.680    0.349    0.323  136.554
  564.250   19.494    0.363    0.325  126.802
  564.500   18.910    0.383    0.340  124.550
  564.750   18.327    0.407    0.348  124.700
  565.000   18.347    0.412    0.347  129.720
  565.250   18.990    0.411    0.339  132.346
  565.500   19.024    0.385    0.335  127.610
  565.750   19.044    0.382    0.335  120.711
  566.000   19.077    0.383    0.339  101.990
  566.250   19.097    0.383    0.344   68.767
  566.500   19.740    0.383    0.345   44.653
  566.750   19.753    0.383    0.343   29.546
  567.000   19.780    0.384    0.342   24.041
  567.250   19.203    0.384    0.337   18.493
  567.500   19.224    0.391    0.334   12.706
  567.750   18.030    0.397    0.336    9.592
  568.000   18.064    0.404    0.350    8.261
  568.250   18.700    0.413    0.357    7.114
  568.500   18.727    0.423    0.348    6.481
  568.750   18.760    0.428    0.337    6.018
  569.000   18.177    0.422    0.335    6.140
  569.250   17.581    0.401    0.352    6.264
  569.500   16.997    0.383    0.360    6.274
  569.750   16.414    0.387    0.351    6.281
  570.000   16.441    0.388    0.349    6.289
