~VERSION INFORMATION
 VERS.                 2.0:   CWLS LOG ASCII STANDARD -VERSION 2.0
 WRAP.                  NO:   ONE LINE PER DEPTH STEP
~WELL INFORMATION BLOCK
#MNEM.UNIT           DATA                    DESCRIPTION OF MNEMONIC
#---------    -------------------            -------------------------------
# Generated from Intellog Unique Number	CS_73_76/WELL/2171
WELL.         UNIVERSAL EXPLORATIONS LT      : Well_name    - WELL
LOC .         00/06-33-074-13W4/0            : Location     - LOCATION
UWI .         00/06-33-074-13W4/0            : Uwi          - UNIQUE WELL ID
ENTR.         SP                             : Entered      - ENTERED BY
SRVC.         SCHLUMBERGER                   : Scn          - SERVICE COMPANY
STRT.M        371.856                        : top_depth    - START DEPTH
STOP.M        600.106                        : bot_depth    - STOP DEPTH
STEP.M        0.25                           : increment    - STEP LENGTH
 NULL. -999.2500:NULL Value
~CURVE INFORMATION BLOCK
#MNEM UNIT       ERCB CURVE CODE    CURVE DESCRIPTION
#-----------   ------------------   ----------------------------------
DEPT.M        00 001 00 00         : DEPTH        - DEPTH
GR  .API      00 310 00 00         : GR           - GAMMA RAY
DPHI.V/V      00 890 00 00         : PHID         - DENSITY POROSITY (SANDSTONE)
NPHI.V/V      00 330 00 00         : PHIN         - NEUTRON POROSITY (SANDSTONE)
ILD .OHMM     00 120 00 00         : RESD         - DEEP RESISTIVITY (DIL)
~PARAMETER INFORMATION
#MNEM.UNIT           DATA             DESCRIPTION OF MNEMONIC
#---------         -----------     ------------------------------
GL  .M        731.672              : gl           - GROUND LEVEL ELEVATION
EREF.M        734.873              : kb           - ELEVATION OF DEPTH REFERENCE
DATM.M        731.672              : datum        - DATUM ELEVATION
TDD .M        614.172              : tdd          - TOTAL DEPTH DRILLER
RUN .         ONE                  : Run          - RUN NUMBER
ENG .         BILL                 : Engineer     - RECORDING ENGINEER
WIT .         JIM                  : Witness      - WITNESSED BY
MUD .         GEL                  : Mud_type     - MUD TYPE
MATR.         SANDSTONE            : Logunit      - NEUTRON MATRIX
TMAX.C        25.5556              : BHT          - MAXIMUM RECORDED TEMPERATURE
BHTD.M        611.124              : BHTDEP       - MAXIMUM RECORDED TEMPERATURE
MATR.         1                    : LOGUNIT      - NEUTRON MATRIX
RMT .C        25                   : MDTP         - TEMPERATURE OF MUD
NEUT.         1                    : NEUTRON      - NEUTRON TYPE
RESI.         0                    : RESIST       - RESISTIVITY TYPE
RMC .OHMM     0.25                 : RMC          - RESISTIVITY OF MUD CAKE
RMF .OHMM     0.25                 : RMF          - RESISTIVITY OF MUD FILTRATE
SUFT.C        15                   : SUFT         - SURFACE TEMPERATURE
~A  DEPTH       GR     PHID     PHIN     RESD
# ...
  458.856   88.840    0.288    0.442    4.051
  459.106   98.181    0.284    0.459    3.254
  459.356  104.719    0.269    0.459    2.797
  459.606  111.640    0.243    0.473    2.525
  459.856  111.376    0.227    0.500    2.252
  460.106  105.043    0.228    0.542    2.265
  460.356   97.481    0.241    0.556    2.688
  460.606   90.841    0.259    0.540    3.199
  460.856   86.385    0.268    0.516    3.870
  461.106   84.036    0.279    0.464    4.603
  461.356   81.958    0.279    0.424    5.026
  461.606   83.156    0.292    0.418    5.412
  461.856   85.230    0.298    0.441    5.648
  462.106   85.608    0.277    0.460    5.759
  462.356   85.147    0.255    0.472    5.753
  462.606   83.007    0.269    0.468    5.801
  462.856   85.271    0.281    0.448    5.860
  463.106   88.697    0.288    0.439    5.863
  463.356   91.154    0.276    0.450    5.864
  463.606   85.702    0.272    0.463    5.865
  463.856   86.863    0.281    0.470    5.867
  464.106   89.370    0.289    0.467    5.867
  464.356   92.839    0.301    0.441    5.870
  464.606   95.998    0.276    0.447    5.935
  464.856   95.214    0.255    0.453    5.979
  465.106   92.117    0.245    0.451    5.983
  465.356   89.615    0.253    0.447    5.987
  465.606   87.994    0.258    0.455    5.997
  465.856   86.521    0.255    0.449    6.097
  466.106   85.219    0.257    0.443    6.278
  466.356   86.930    0.269    0.456    6.336
  466.606   85.702    0.284    0.452    6.542
  466.856   86.462    0.279    0.442    6.754
  467.106   83.903    0.265    0.446    6.827
  467.356   80.548    0.243    0.437    6.974
  467.606   81.563    0.228    0.421    6.992
  467.856   82.077    0.232    0.417    7.088
  468.106   80.584    0.233    0.415    7.241
  468.356   77.490    0.232    0.401    7.230
  468.606   76.578    0.236    0.377    7.232
  468.856   77.441    0.214    0.354    7.254
  469.106   78.396    0.207    0.376    6.945
  469.356   79.889    0.226    0.409    6.749
  469.606   81.218    0.243    0.409    6.544
  469.856   82.610    0.242    0.419    6.347
  470.106   84.299    0.263    0.427    6.157
  470.356   84.394    0.255    0.436    5.968
  470.606   84.398    0.230    0.432    5.895
  470.856   84.378    0.213    0.427    5.832
  471.106   84.274    0.216    0.423    5.793
  471.356   83.788    0.224    0.423    5.789
  471.606   84.420    0.223    0.434    5.738
  471.856   85.086    0.224    0.443    5.688
  472.106   86.772    0.230    0.433    5.689
  472.356   87.013    0.230    0.443    5.732
  472.606   87.332    0.232    0.451    5.794
  472.856   84.671    0.244    0.430    5.883
  473.106   82.734    0.243    0.420    5.940
  473.356   80.733    0.228    0.413    6.021
  473.606   79.687    0.228    0.406    6.100
  473.856   79.522    0.221    0.393    6.162
  474.106   79.472    0.219    0.402    6.250
  474.356   80.421    0.208    0.412    6.385
  474.606   82.284    0.225    0.420    6.379
  474.856   83.877    0.216    0.416    6.271
  475.106   82.132    0.217    0.412    6.216
  475.356   81.946    0.212    0.422    6.020
  475.606   83.394    0.231    0.428    5.749
  475.856   85.219    0.226    0.425    5.522
  476.106   86.164    0.230    0.431    5.814
  476.356   86.060    0.238    0.441    5.587
  476.606   86.665    0.248    0.451    5.460
  476.856   85.576    0.265    0.447    5.302
  477.106   83.800    0.275    0.458    5.183
  477.356   84.484    0.277    0.453    5.307
  477.606   85.418    0.262    0.442    5.306
  477.856   87.430    0.241    0.442    5.193
  478.106   92.503    0.248    0.454    5.204
  478.356   93.237    0.254    0.466    5.205
  478.606   93.894    0.258    0.469    5.197
  478.856   92.100    0.258    0.460    5.308
  479.106   89.700    0.251    0.457    5.383
  479.356   86.695    0.254    0.467    5.440
  479.606   83.680    0.261    0.451    5.510
  479.856   82.713    0.267    0.434    5.694
  480.106   81.779    0.272    0.417    5.722
  480.356   82.392    0.268    0.416    5.718
  480.606   82.838    0.279    0.429    5.839
  480.856   81.915    0.278    0.423    5.816
  481.106   82.421    0.264    0.430    5.723
  481.356   83.065    0.254    0.440    5.723
  481.606   83.722    0.250    0.446    5.716
  481.856   85.265    0.257    0.442    5.703
  482.106   85.675    0.273    0.438    5.727
  482.356   86.075    0.268    0.427    5.732
  482.606   85.624    0.267    0.418    5.736
  482.856   85.297    0.276    0.425    5.766
  483.106   84.850    0.276    0.429    5.843
  483.356   85.214    0.278    0.426    5.783
  483.606   85.376    0.259    0.433    5.385
  483.856   86.543    0.267    0.430    4.465
  484.106   88.108    0.261    0.425    3.716
  484.356   91.165    0.255    0.426    3.169
  484.606   95.164    0.271    0.438    2.761
  484.856  100.787    0.252    0.455    2.475
  485.106  105.037    0.243    0.509    2.336
  485.356  108.308    0.241    0.540    2.228
  485.606  107.988    0.237    0.550    2.179
  485.856  104.849    0.243    0.532    2.347
  486.106  104.163    0.249    0.498    2.551
  486.356  104.922    0.244    0.488    3.077
  486.606  104.333    0.246    0.491    3.393
  486.856  101.675    0.248    0.481    3.833
  487.106   99.813    0.252    0.465    4.325
  487.356   98.823    0.258    0.456    4.666
  487.606   96.904    0.264    0.450    4.824
  487.856   95.702    0.255    0.454    4.864
  488.106   95.066    0.235    0.459    4.865
  488.356   94.947    0.234    0.463    4.831
  488.606   93.216    0.245    0.462    4.778
  488.856   91.260    0.253    0.454    4.845
  489.106   88.209    0.256    0.444    5.084
  489.356   84.267    0.260    0.447    5.445
  489.606   79.507    0.269    0.443    6.379
  489.856   75.656    0.277    0.437    7.574
  490.106   72.291    0.256    0.431    9.408
  490.356   68.427    0.235    0.364   11.340
  490.606   63.019    0.133    0.287   13.062
  490.856   60.748    0.014    0.220   12.285
  491.106   60.133    0.106    0.191    9.732
  491.356   69.840    0.189    0.277    7.391
  491.606   63.024    0.213    0.334    6.299
  491.856   59.392    0.292    0.405    5.423
  492.106   58.643    0.304    0.418    5.162
  492.356   60.311    0.308    0.411    5.164
  492.606   60.193    0.299    0.416    5.165
  492.856   58.038    0.305    0.401    5.166
  493.106   57.673    0.317    0.401    5.177
  493.356   62.179    0.317    0.401    5.063
  493.606   63.353    0.320    0.418    5.074
  493.856   63.761    0.315    0.403    5.075
  494.106   63.274    0.310    0.402    5.078
  494.356   61.601    0.315    0.415    4.999
  494.606   60.931    0.320    0.415    4.986
  494.856   61.714    0.325    0.430    4.984
  495.106   64.273    0.330    0.431    4.994
  495.356   66.804    0.323    0.420    4.884
  495.606   67.681    0.315    0.406    4.895
  495.856   69.108    0.310    0.402    4.896
  496.106   70.586    0.302    0.400    4.896
  496.356   71.888    0.312    0.407    4.897
  496.606   74.693    0.323    0.417    4.898
  496.856   78.222    0.314    0.427    4.899
  497.106   82.295    0.315    0.427    4.900
  497.356   83.010    0.312    0.423    4.901
  497.606   81.045    0.302    0.428    4.902
  497.856   83.549    0.289    0.434    4.905
  498.106   85.848    0.276    0.441    4.939
  498.356   80.273    0.267    0.432    4.998
  498.606   85.279    0.265    0.421    5.154
  498.856   86.803    0.258    0.436    5.280
  499.106   82.963    0.248    0.444    5.573
  499.356   79.166    0.273    0.453    6.431
  499.606   77.740    0.272    0.452    7.788
  499.856   75.758    0.251    0.436    9.955
  500.106   71.978    0.204    0.412   12.849
  500.356   65.726    0.118    0.344   13.915
  500.606   61.961    0.016    0.224   11.705
  500.856   55.737    0.026    0.191    9.275
  501.106   63.773    0.041    0.212    7.625
  501.356   66.977    0.069    0.254    5.893
  501.606   70.834    0.123    0.336    5.085
  501.856   72.466    0.229    0.407    4.652
  502.106   74.101    0.287    0.430    4.415
