~VERSION INFORMATION
 VERS.                 2.0:   CWLS LOG ASCII STANDARD -VERSION 2.0
 WRAP.                  NO:   ONE LINE PER DEPTH STEP
~WELL INFORMATION BLOCK
#MNEM.UNIT           DATA                    DESCRIPTION OF MNEMONIC
#---------    -------------------            -------------------------------
# Generated from Intellog Unique Number	CC_80_83/WELL/2299
NULL.         -999.25                        : NULL_VALUE
WELL.         HB HORSER                      : Well_name    - WELL              
LOC .         07-23-083-13W4                 : Location     - LOCATION          
UWI .         00/07-23-083-13W400            : Uwi          - UNIQUE WELL ID    
ENTR.         DW                             : Entered      - ENTERED BY        
SRVC.         SCHLUMBERGER                   : Scn          - SERVICE COMPANY   
DATE.         17 MAR 75                      : Date         - LOG DATE
STRT.M        91.44                          : top_depth    - START DEPTH       
STOP.M        338.328                        : bot_depth    - STOP DEPTH        
STEP.M        0.3048                         : increment    - STEP LENGTH       
~CURVE INFORMATION BLOCK
#MNEM UNIT       ERCB CURVE CODE    CURVE DESCRIPTION
#-----------   ------------------   ----------------------------------
DEPT.M        00 001 00 00         : DEPTH        - DEPTH                       
DPHI.V/V      00 890 00 00         : PHID         - DENSITY POROSITY (LIMESTONE)
NPHI.V/V      00 330 00 00         : PHIN         - NEUTRON POROSITY (LIMESTONE)
GR  .API      00 310 00 00         : GR           - GAMMA RAY                   
ILD .OHMM     00 120 00 00         : RESD         - DEEP RESISTIVITY (DIL)      
~PARAMETER INFORMATION       
#MNEM.UNIT           DATA             DESCRIPTION OF MNEMONIC
#---------         -----------     ------------------------------
GL  .M        561.442              : gl           - GROUND LEVEL ELEVATION      
EREF.M        563.88               : kb           - ELEVATION OF DEPTH REFERENCE
DATM.M        563.88               : datum        - DATUM ELEVATION             
TDD .M        353.263              : tdd          - TOTAL DEPTH DRILLER         
RUN .         ONE                  : Run          - RUN NUMBER                  
ENG .         BILL                 : Engineer     - RECORDING ENGINEER          
WIT .         JIM                  : Witness      - WITNESSED BY                
MUD .         GEL                  : Mud_type     - MUD TYPE                    
MATR.         LIMESTONE            : Logunit      - NEUTRON MATRIX              
TMAX.C        23.8889              : BHT          - MAXIMUM RECORDED TEMPERATURE
BHTD.M        353.263              : BHTDEP       - MAXIMUM RECORDED TEMPERATURE
MATR.         1                    : LOGUNIT      - NEUTRON MATRIX              
RMT .C        25                   : MDTP         - TEMPERATURE OF MUD          
NEUT.         1                    : NEUTRON      - NEUTRON TYPE                
RESI.         0                    : RESIST       - RESISTIVITY TYPE            
RMC .OHMM     0.25                 : RMC          - RESISTIVITY OF MUD CAKE     
RMF .OHMM     0.25                 : RMF          - RESISTIVITY OF MUD FILTRATE 
SUFT.C        4                    : SUFT         - SURFACE TEMPERATURE         
~A  DEPTH     PHID     PHIN       GR     RESD
# ...
  197.509    0.227    0.485   96.697    4.193
  197.814    0.225    0.488  102.341    3.896
  198.119    0.270    0.526  102.705    3.827
  198.424    0.241    0.554   99.817    3.828
  198.729    0.237    0.598   94.899    3.976
  199.033    0.281    0.592   92.826    4.206
  199.338    0.272    0.553   95.219    4.619
  199.643    0.274    0.544   95.175    5.071
  199.948    0.272    0.551   90.258    5.672
  200.252    0.277    0.575   90.215    6.345
  200.557    0.281    0.594   88.952    6.713
  200.862    0.272    0.564   89.716    6.595
  201.167    0.291    0.532   91.710    6.125
  201.472    0.288    0.567   94.106    4.998
  201.776    0.258    0.506   99.344    4.153
  202.081    0.237    0.511  102.136    3.265
  202.386    0.245    0.557  108.194    2.978
  202.691    0.269    0.582  108.144    2.871
  202.996    0.243    0.607  106.072    3.095
  203.300    0.250    0.586   99.127    3.592
  203.605    0.265    0.584   89.332    5.611
  203.910    0.282    0.606   78.730    6.514
  204.215    0.282    0.551   81.125    6.641
  204.520    0.288    0.466   86.765    6.403
  204.824    0.275    0.502   90.787    5.950
  205.129    0.272    0.509   92.772    5.737
  205.434    0.270    0.529   90.286    5.739
  205.739    0.255    0.518   91.469    5.744
  206.044    0.249    0.518   92.640    5.856
  206.348    0.242    0.524   92.193    5.646
  206.653    0.244    0.506   94.177    5.545
  206.958    0.267    0.513   90.079    5.758
  207.263    0.287    0.550   79.474    6.323
  207.568    0.293    0.562   82.272    7.072
  207.872    0.289    0.516   86.288    8.058
  208.177    0.286    0.508   78.528    9.184
  208.482    0.311    0.509   71.174    9.898
  208.787    0.294    0.491   66.664   10.090
  209.092    0.309    0.462   68.645    9.729
  209.396    0.299    0.461   69.014    9.733
  209.701    0.302    0.472   71.813    9.563
  210.006    0.316    0.484   69.742    9.567
  210.311    0.346    0.483   70.102   10.509
  210.615    0.338    0.457   70.063   10.910
  210.920    0.298    0.496   67.174   11.759
  211.225    0.193    0.407   61.445   11.767
  211.530    0.177    0.329   67.083   11.773
  211.835    0.332    0.441   66.233   12.688
  212.139    0.315    0.466   60.910   16.164
  212.444    0.029    0.468   58.833   18.080
  212.749    0.069    0.314   57.975   17.434
  213.054    0.141    0.264   66.466   15.037
  213.359    0.214    0.405   70.486   11.389
  213.663    0.276    0.457   70.439   10.007
  213.968    0.287    0.490   66.336    9.829
  214.273    0.286    0.508   68.322   10.995
  214.578    0.241    0.479   67.466   14.005
  214.883    0.016    0.428   59.709   17.190
  215.187    0.082    0.177   49.507   18.529
  215.492    0.129    0.211   52.309   16.587
  215.797    0.266    0.291   58.767   14.305
  216.102    0.293    0.386   68.067   10.439
  216.407    0.313    0.463   71.679    9.174
  216.711    0.308    0.443   76.102    8.846
  217.016    0.300    0.445   67.933    9.018
  217.321    0.294    0.457   67.484    9.025
  217.626    0.295    0.473   71.507    9.199
  217.931    0.283    0.466   69.840    9.913
  218.235    0.259    0.468   67.358   11.088
  218.540    0.242    0.496   64.872   13.864
  218.845    0.030    0.500   53.461   16.096
  219.150    0.072    0.236   48.136   15.519
  219.455    0.138    0.254   51.341   13.386
  219.759    0.247    0.294   64.298   11.982
  220.064    0.305    0.351   67.505   11.992
  220.369    0.308    0.481   65.428   12.686
  220.674    0.257    0.486   55.636   13.671
  220.979    0.230    0.381   55.189   13.431
  221.283    0.276    0.361   60.833   12.948
  221.588    0.308    0.421   70.536   11.168
  221.893    0.280    0.499   68.869    9.456
  222.198    0.291    0.508   67.602    8.466
  222.502    0.301    0.492   72.437    8.011
  222.807    0.306    0.477   75.243    7.726
  223.112    0.296    0.478   74.792    7.729
  223.417    0.272    0.480   73.124    7.880
  223.722    0.284    0.508   73.884    8.033
  224.026    0.295    0.522   72.630    8.038
  224.331    0.282    0.512   75.024    7.895
  224.636    0.283    0.484   77.015    7.611
  224.941    0.287    0.493   79.002    7.205
  225.246    0.262    0.508   81.394    7.210
  225.550    0.255    0.522   76.885    7.213
  225.855    0.263    0.504   78.871    7.492
  226.160    0.282    0.515   83.296    7.224
  226.465    0.259    0.479   84.065    6.966
  226.770    0.254    0.485   92.553    6.968
  227.074    0.227    0.522   90.475    6.975
  227.379    0.231    0.521   89.624    6.978
  227.684    0.226    0.493   87.142    7.115
  227.989    0.200    0.505   88.316    7.251
  228.294    0.216    0.504   89.088    7.531
  228.598    0.229    0.501   91.889    7.677
  228.903    0.247    0.498   87.376    7.541
  229.208    0.254    0.494   86.112    7.005
  229.513    0.209    0.479   91.355    6.272
  229.818    0.214    0.476  102.279    6.046
  230.122    0.235    0.502  107.108    5.412
  230.427    0.249    0.526  102.191    4.936
  230.732    0.229    0.547   99.708    5.032
  231.037    0.240    0.570   94.385    5.525
  231.342    0.261    0.521   86.626    6.295
  231.646    0.267    0.508   81.696    6.784
  231.951    0.254    0.529   81.658    7.178
  232.256    0.267    0.507   81.215    7.318
  232.561    0.244    0.476   76.705    7.188
  232.865    0.204    0.479   71.786    7.328
  233.170    0.220    0.518   76.619    7.611
  233.475    0.255    0.567   86.728    7.756
  233.780    0.275    0.561   89.126    7.761
  234.085    0.255    0.488   92.332    7.625
  234.389    0.262    0.495   86.598    7.774
  234.694    0.256    0.521   80.060    7.777
  234.999    0.263    0.501   75.952    7.927
  235.304    0.278    0.516   75.496    8.083
  235.609    0.266    0.498   79.113    8.088
  235.913    0.265    0.490   88.416    7.513
  236.218    0.248    0.505   86.747    7.380
  236.523    0.274    0.519   83.858    7.665
  236.828    0.269    0.528   84.628    7.813
  237.133    0.258    0.520   89.867    7.675
  237.437    0.243    0.501   93.076    7.539
  237.742    0.234    0.487   97.092    7.543
  238.047    0.217    0.468   93.397    7.410
  238.352    0.219    0.455   97.004    7.413
  238.657    0.254    0.481  101.023    7.148
  238.961    0.232    0.487   98.951    7.154
  239.266    0.265    0.450   96.063    7.027
  239.571    0.235    0.480   93.177    6.902
  239.876    0.230    0.499   93.132    6.533
  240.181    0.231    0.510   95.525    6.182
  240.485    0.228    0.520  101.988    5.533
  240.790    0.222    0.530  108.039    4.953
  241.095    0.228    0.534  105.150    4.434
  241.400    0.234    0.502  101.045    4.355
  241.705    0.237    0.538   99.367    4.523
  242.009    0.227    0.571   99.333    5.059
  242.314    0.235    0.564  100.913    6.095
  242.619    0.245    0.539  104.120    7.482
  242.924    0.225    0.475  106.108    7.214
  243.228    0.194    0.473  108.502    6.701
  243.533    0.222    0.501  110.493    6.000
  243.838    0.201    0.495  112.888    5.678
  244.143    0.199    0.476  114.054    5.374
  244.448    0.214    0.510  113.202    5.279
  244.752    0.247    0.545  108.696    5.381
  245.057    0.230    0.564  106.619    5.587
  245.362    0.211    0.553  115.108    6.858
  245.667    0.201    0.539  115.067    7.671
  245.972    0.184    0.476  109.337    9.072
  246.276    0.143    0.463   96.294   10.338
  246.581    0.071    0.450   85.688   11.352
  246.886    0.094    0.411  103.114   11.787
  247.191    0.150    0.318  105.911   11.159
  247.496    0.199    0.386  107.090   10.760
  247.800    0.182    0.460  107.851   10.565
  248.105    0.201    0.450  107.406    9.286
  248.410    0.206    0.438  103.707    8.468
  248.715    0.197    0.431  104.071    7.867
  249.020    0.227    0.441  106.060    7.174
  249.324    0.234    0.491  110.892    6.789
  249.629    0.220    0.512  116.531    6.547
  249.934    0.222    0.518  111.211    6.673
  250.239    0.227    0.512  105.480    7.327
