~VERSION INFORMATION
 VERS.                 2.0:   CWLS LOG ASCII STANDARD -VERSION 2.0
 WRAP.                  NO:   ONE LINE PER DEPTH STEP
~WELL INFORMATION BLOCK
#MNEM.UNIT           DATA                    DESCRIPTION OF MNEMONIC
#---------    -------------------            -------------------------------
# Generated from Intellog Unique Number	CS_73_76/WELL/2914
WELL.         HOME HB LEISMER                : Well_name    - WELL
LOC .         00/07-35-075-08W4/0            : Location     - LOCATION
UWI .         00/07-35-075-08W4/0            : Uwi          - UNIQUE WELL ID
ENTR.         SP                             : Entered      - ENTERED BY
SRVC.         SCHLUMBERGER                   : Scn          - SERVICE COMPANY
STRT.M        235                            : top_depth    - START DEPTH
STOP.M        465                            : bot_depth    - STOP DEPTH
STEP.M        0.25                           : increment    - STEP LENGTH
 NULL. -999.2500:NULL Value
~CURVE INFORMATION BLOCK
#MNEM UNIT       ERCB CURVE CODE    CURVE DESCRIPTION
#-----------   ------------------   ----------------------------------
DEPT.M        00 001 00 00         : DEPTH        - DEPTH
ILD .OHMM     00 120 00 00         : RESD         - DEEP RESISTIVITY (DIL)
DPHI.V/V      00 890 00 00         : PHID         - DENSITY POROSITY (LIMESTONE)
NPHI.V/V      00 330 00 00         : PHIN         - NEUTRON POROSITY (LIMESTONE)
GR  .API      00 310 00 00         : GR           - GAMMA RAY
~PARAMETER INFORMATION
#MNEM.UNIT           DATA             DESCRIPTION OF MNEMONIC
#---------         -----------     ------------------------------
GL  .M        637.83               : gl           - GROUND LEVEL ELEVATION
EREF.M        641.29               : kb           - ELEVATION OF DEPTH REFERENCE
DATM.M        637.83               : datum        - DATUM ELEVATION
TDD .M        407                  : tdd          - TOTAL DEPTH DRILLER
RUN .         ONE                  : Run          - RUN NUMBER
ENG .         BILL                 : Engineer     - RECORDING ENGINEER
WIT .         JIM                  : Witness      - WITNESSED BY
MUD .         GEL                  : Mud_type     - MUD TYPE
MATR.         LIMESTONE            : Logunit      - NEUTRON MATRIX
TMAX.C        21                   : BHT          - MAXIMUM RECORDED TEMPERATURE
BHTD.M        407                  : BHTDEP       - MAXIMUM RECORDED TEMPERATURE
MATR.         1                    : LOGUNIT      - NEUTRON MATRIX
RMT .C        25                   : MDTP         - TEMPERATURE OF MUD
NEUT.         1                    : NEUTRON      - NEUTRON TYPE
RESI.         0                    : RESIST       - RESISTIVITY TYPE
RMC .OHMM     0.25                 : RMC          - RESISTIVITY OF MUD CAKE
RMF .OHMM     0.25                 : RMF          - RESISTIVITY OF MUD FILTRATE
SUFT.C        15                   : SUFT         - SURFACE TEMPERATURE
~A  DEPTH     RESD     PHID     PHIN       GR
# ...
  278.500   12.159    0.237    0.318  144.398
  278.750   11.075    0.227    0.336  141.962
  279.000    9.900    0.220    0.347  135.867
  279.250    9.187    0.220    0.357  138.918
  279.500    8.848    0.218    0.338  124.897
  279.750    8.846    0.216    0.344  117.582
  280.000    9.010    0.217    0.351  114.536
  280.250    9.349    0.223    0.397  115.758
  280.500   10.257    0.229    0.409  105.396
  280.750   11.047    0.234    0.409  106.008
  281.000   11.897    0.230    0.403  112.718
  281.250   12.346    0.245    0.372  118.819
  281.500   13.295    0.245    0.395  121.261
  281.750   13.543    0.250    0.417  113.947
  282.000   14.315    0.256    0.441  109.681
  282.250   14.852    0.254    0.380  104.806
  282.500   15.413    0.260    0.319  107.857
  282.750   15.991    0.260    0.286  117.617
  283.000   15.988    0.254    0.286  117.010
  283.250   15.686    0.251    0.302  113.354
  283.500   15.393    0.260    0.312  112.137
  283.750   14.827    0.254    0.328  112.749
  284.000   13.756    0.249    0.345  111.533
  284.250   13.251    0.245    0.360  110.316
  284.500   12.529    0.239    0.353  118.856
  284.750   11.625    0.230    0.346  121.907
  285.000   11.408    0.220    0.363  123.739
  285.250   11.405    0.225    0.367  121.303
  285.500   11.834    0.211    0.372  124.355
  285.750   12.509    0.179    0.378  112.163
  286.000   13.224    0.160    0.389   94.482
  286.250   13.722    0.188    0.415   88.387
  286.500   14.237    0.259    0.456   92.658
  286.750   14.235    0.304    0.429   99.369
  287.000   13.967    0.305    0.322   97.542
  287.250   12.960    0.298    0.339   92.667
  287.500   12.484    0.278    0.359   93.280
  287.750   10.752    0.157    0.385   96.941
  288.000    9.262    0.185    0.407  106.700
  288.250    7.830    0.221    0.426  121.337
  288.500    6.745    0.261    0.384  129.877
  288.750    6.029    0.248    0.314  127.441
  289.000    5.701    0.258    0.343  120.126
  289.250    5.290    0.279    0.416  117.080
  289.500    5.001    0.253    0.446  121.961
  289.750    4.640    0.239    0.441  128.061
  290.000    4.470    0.252    0.420  119.528
  290.250    4.226    0.248    0.400  112.823
  290.500    3.921    0.234    0.396  114.656
  290.750    3.848    0.231    0.445  112.219
  291.000    3.993    0.239    0.466  106.124
  291.250    4.381    0.238    0.500  100.639
  291.500    4.631    0.256    0.518   93.934
  291.750    5.274    0.271    0.572   91.498
  292.000    5.680    0.260    0.487   95.160
  292.250    6.469    0.241    0.469   95.772
  292.500    7.367    0.249    0.414   92.116
  292.750    8.548    0.245    0.424   86.021
  293.000   11.727    0.253    0.436   71.999
  293.250   19.382    0.261    0.411   60.417
  293.500   27.599    0.260    0.416   65.298
  293.750   35.803    0.279    0.433   68.960
  294.000   37.851    0.313    0.373   73.840
  294.250   40.009    0.330    0.325   66.526
  294.500   41.514    0.340    0.345   60.431
  294.750   43.081    0.350    0.372   60.434
  295.000   44.702    0.346    0.379   67.144
  295.250   46.373    0.351    0.370   64.708
  295.500   47.229    0.347    0.353   62.272
  295.750   47.216    0.344    0.373   62.275
  296.000   48.092    0.346    0.387   63.497
  296.250   48.078    0.346    0.400   68.379
  296.500   48.067    0.341    0.384   72.040
  296.750   47.162    0.350    0.385   71.433
  297.000   47.151    0.350    0.371   64.118
  297.250   45.410    0.341    0.366   56.803
  297.500   44.561    0.347    0.355   58.026
  297.750   42.922    0.345    0.331   63.517
  298.000   40.576    0.351    0.313   64.129
  298.250   37.656    0.347    0.335   67.181
  298.500   34.299    0.341    0.346   62.915
  298.750   31.242    0.337    0.356   61.089
  299.000   28.454    0.345    0.371   67.189
  299.250   28.446    0.351    0.387   69.021
  299.500   28.970    0.354    0.411   65.366
  299.750   30.063    0.366    0.436   62.929
  300.000   31.780    0.366    0.430   71.470
  300.250   34.869    0.361    0.411   70.863
  300.500   36.862    0.357    0.397   72.694
  300.750   38.968    0.353    0.400   71.478
  301.000   39.688    0.358    0.398   65.383
  301.250   40.422    0.358    0.387   58.678
  301.500   40.410    0.352    0.399   59.900
  301.750   39.651    0.351    0.404   66.001
  302.000   38.906    0.355    0.420   62.346
  302.250   38.179    0.366    0.430   64.787
  302.500   36.773    0.373    0.395   75.156
  302.750   36.082    0.368    0.363   70.891
  303.000   35.400    0.359    0.372   61.748
  303.250   36.056    0.355    0.388   58.700
  303.500   36.048    0.351    0.386   62.972
  303.750   36.711    0.340    0.393   60.536
  304.000   36.704    0.342    0.399   58.709
  304.250   36.689    0.346    0.434   65.420
  304.500   36.679    0.346    0.420   64.813
  304.750   36.672    0.346    0.374   64.206
  305.000   36.655    0.348    0.365   62.989
  305.250   36.648    0.348    0.381   67.260
  305.500   35.965    0.350    0.406   71.532
  305.750   35.286    0.353    0.433   67.876
  306.000   34.629    0.347    0.413   66.049
  306.250   33.347    0.342    0.415   69.100
  306.500   33.339    0.346    0.424   72.762
  306.750   32.715    0.348    0.408   69.106
  307.000   32.105    0.347    0.378   61.183
  307.250   31.500    0.346    0.339   58.136
  307.500   31.489    0.342    0.354   61.188
  307.750   30.901    0.336    0.369   63.020
  308.000   30.890    0.344    0.418   59.974
  308.250   30.311    0.333    0.355   60.586
  308.500   29.743    0.253    0.330   70.956
  308.750   29.187    0.209    0.346   73.398
  309.000   28.113    0.313    0.355   67.913
  309.250   27.075    0.231    0.311   63.647
  309.500   26.570    0.235    0.344   64.869
  309.750   26.072    0.295    0.448   63.653
  310.000   26.062    0.321    0.421   69.143
  310.250   26.057    0.333    0.377   76.464
  310.500   26.534    0.336    0.350   80.125
  310.750   26.530    0.337    0.360   74.640
  311.000   27.020    0.337    0.351   64.886
  311.250   24.610    0.337    0.363   64.889
  311.500   20.047    0.336    0.389   67.941
  311.750   15.732    0.335    0.406   96.603
  312.000   14.066    0.331    0.427   89.899
  312.250   12.115    0.314    0.372   82.584
  312.500   11.243    0.271    0.357   74.659
  312.750   13.044    0.277    0.422   80.760
  313.000   16.304    0.277    0.439   81.373
  313.250   19.274    0.301    0.401   74.059
  313.500   21.951    0.336    0.372   67.963
  313.750   24.083    0.349    0.393   69.796
  314.000   24.529    0.348    0.425   70.408
  314.250   22.762    0.348    0.431   69.191
  314.500   21.122    0.347    0.393   66.755
  314.750   18.883    0.341    0.355   72.856
  315.000   17.523    0.322    0.360   80.176
  315.250   16.564    0.305    0.414   78.349
  315.500   15.956    0.305    0.445   75.303
  315.750   15.368    0.309    0.423   89.331
  316.000   14.800    0.324    0.415   92.993
  316.250   14.797    0.328    0.423   86.897
  316.500   14.519    0.335    0.416   80.192
  316.750   13.985    0.335    0.374   89.951
  317.000   13.220    0.330    0.362   84.467
  317.250   12.734    0.325    0.362   86.909
  317.500   12.496    0.317    0.417   80.814
  317.750   11.594    0.322    0.432   91.792
  318.000   11.592    0.311    0.414  102.771
  318.250   11.165    0.309    0.404   99.115
  318.500   10.754    0.317    0.396   94.241
  318.750    9.092    0.324    0.397   93.023
  319.000    7.269    0.323    0.404   97.904
  319.250    5.705    0.311    0.377  102.785
  319.500    4.914    0.267    0.397  106.446
  319.750    4.312    0.266    0.422  102.791
  320.000    4.001    0.278    0.456  108.282
  320.250    3.783    0.268    0.455  114.992
  320.500    3.576    0.261    0.429  114.995
  320.750    3.509    0.231    0.399  111.949
  321.000    3.574    0.223    0.413  108.903
  321.250    3.640    0.228    0.435  107.076
  321.500    3.847    0.238    0.439  110.128
  321.750    3.992    0.236    0.439  114.399
