~VERSION INFORMATION
 VERS.                 2.0:   CWLS LOG ASCII STANDARD -VERSION 2.0
 WRAP.                  NO:   ONE LINE PER DEPTH STEP
~WELL INFORMATION BLOCK
#MNEM.UNIT           DATA                    DESCRIPTION OF MNEMONIC
#---------    -------------------            -------------------------------
# Generated from Intellog Unique Number	CS_77_79/WELL/851
WELL.         BOW VALLEY INDUSTRIES LTD      : Well_name    - WELL
LOC .         00/04-26-077-15W4/0            : Location     - LOCATION
UWI .         00/04-26-077-15W4/0            : Uwi          - UNIQUE WELL ID
ENTR.         SP                             : Entered      - ENTERED BY
SRVC.         SCHLUMBERGER                   : Scn          - SERVICE COMPANY
STRT.M        270                            : top_depth    - START DEPTH
STOP.M        515                            : bot_depth    - STOP DEPTH
STEP.M        0.25                           : increment    - STEP LENGTH
 NULL. -999.2500:NULL Value
~CURVE INFORMATION BLOCK
#MNEM UNIT       ERCB CURVE CODE    CURVE DESCRIPTION
#-----------   ------------------   ----------------------------------
DEPT.M        00 001 00 00         : DEPTH        - DEPTH
ILD .OHMM     00 120 00 00         : RESD         - DEEP RESISTIVITY (DIL)
DPHI.V/V      00 890 00 00         : PHID         - DENSITY POROSITY (LIMESTONE)
NPHI.V/V      00 330 00 00         : PHIN         - NEUTRON POROSITY (LIMESTONE)
GR  .API      00 310 00 00         : GR           - GAMMA RAY
~PARAMETER INFORMATION
#MNEM.UNIT           DATA             DESCRIPTION OF MNEMONIC
#---------         -----------     ------------------------------
GL  .M        662.4                : gl           - GROUND LEVEL ELEVATION
EREF.M        665.7                : kb           - ELEVATION OF DEPTH REFERENCE
DATM.M        662.4                : datum        - DATUM ELEVATION
TDD .M        524.6                : tdd          - TOTAL DEPTH DRILLER
RUN .         ONE                  : Run          - RUN NUMBER
ENG .         BILL                 : Engineer     - RECORDING ENGINEER
WIT .         JIM                  : Witness      - WITNESSED BY
MUD .         GEL                  : Mud_type     - MUD TYPE
MATR.         LIMESTONE            : Logunit      - NEUTRON MATRIX
TMAX.C        26.1                 : BHT          - MAXIMUM RECORDED TEMPERATURE
BHTD.M        524.6                : BHTDEP       - MAXIMUM RECORDED TEMPERATURE
MATR.         1                    : LOGUNIT      - NEUTRON MATRIX
RMT .C        25                   : MDTP         - TEMPERATURE OF MUD
NEUT.         1                    : NEUTRON      - NEUTRON TYPE
RESI.         0                    : RESIST       - RESISTIVITY TYPE
RMC .OHMM     0.25                 : RMC          - RESISTIVITY OF MUD CAKE
RMF .OHMM     0.25                 : RMF          - RESISTIVITY OF MUD FILTRATE
SUFT.C        15                   : SUFT         - SURFACE TEMPERATURE
~A  DEPTH     RESD     PHID     PHIN       GR
# ...
  313.500    5.763    0.250    0.500  103.217
  313.750    5.982    0.253    0.509   99.562
  314.000    6.690    0.267    0.492   95.909
  314.250    7.075    0.286    0.463   94.693
  314.500    7.344    0.291    0.443   93.479
  314.750    7.209    0.297    0.453   94.092
  315.000    6.693    0.303    0.465   91.658
  315.250    6.330    0.294    0.480   89.224
  315.500    6.214    0.279    0.487   86.789
  315.750    6.331    0.274    0.504   83.134
  316.000    6.822    0.280    0.492   77.651
  316.250    7.214    0.307    0.458   72.168
  316.500    9.021    0.313    0.437   66.684
  316.750   11.073    0.315    0.457   61.810
  317.000   12.383    0.328    0.480   59.985
  317.250   13.593    0.339    0.492   58.770
  317.500   15.488    0.350    0.499   56.335
  317.750   17.001    0.362    0.506   56.950
  318.000   17.979    0.368    0.487   59.394
  318.250   19.736    0.363    0.478   61.228
  318.500   21.265    0.358    0.472   60.622
  318.750   22.074    0.362    0.471   58.188
  319.000   23.346    0.361    0.469   55.754
  319.250   23.786    0.360    0.470   55.758
  319.500   24.235    0.362    0.479   56.981
  319.750   24.238    0.366    0.467   56.985
  320.000   23.355    0.364    0.453   53.941
  320.250   22.504    0.360    0.443   52.726
  320.500   21.685    0.358    0.438   53.951
  320.750   22.095    0.358    0.455   55.786
  321.000   22.097    0.363    0.461   56.399
  321.250   22.515    0.364    0.455   59.454
  321.500   22.940    0.360    0.456   61.287
  321.750   23.374    0.358    0.462   62.509
  322.000   23.376    0.360    0.468   64.344
  322.250   22.947    0.369    0.467   64.959
  322.500   22.110    0.362    0.467   63.742
  322.750   20.912    0.358    0.467   61.917
  323.000   19.413    0.362    0.467   59.484
  323.250   16.729    0.359    0.464   61.318
  323.500   15.243    0.353    0.456   61.931
  323.750   14.688    0.347    0.450   61.934
  324.000   14.152    0.345    0.443   58.890
  324.250   14.420    0.344    0.433   55.847
  324.500   14.421    0.347    0.430   57.071
  324.750   14.423    0.347    0.437   58.294
  325.000   14.159    0.344    0.439   59.519
  325.250   13.643    0.350    0.437   60.132
  325.500   12.903    0.351    0.434   60.138
  325.750   12.666    0.349    0.436   60.141
  326.000   12.434    0.352    0.450   58.927
  326.250   12.206    0.355    0.442   57.102
  326.500   12.438    0.352    0.430   57.715
  326.750   12.439    0.346    0.425   58.939
  327.000   12.674    0.338    0.428   59.554
  327.250   12.913    0.334    0.437   59.559
  327.500   13.158    0.329    0.434   57.734
  327.750   13.159    0.318    0.432   53.470
  328.000   13.660    0.304    0.392   50.425
  328.250   13.661    0.283    0.353   45.552
  328.500   13.662    0.284    0.351   40.068
  328.750   12.922    0.312    0.375   37.635
  329.000   12.221    0.334    0.417   38.248
  329.250   11.776    0.365    0.440   39.473
  329.500   11.137    0.371    0.438   38.868
  329.750   10.933    0.375    0.445   37.653
  330.000   10.732    0.381    0.456   37.048
  330.250   10.734    0.385    0.460   37.052
  330.500   10.735    0.383    0.452   37.665
  330.750   10.736    0.380    0.451   39.500
  331.000   10.939    0.377    0.456   40.112
  331.250   10.941    0.374    0.460   41.946
  331.500   11.147    0.358    0.454   40.731
  331.750   11.149    0.351    0.447   39.516
  332.000   11.150    0.352    0.443   39.520
  332.250   11.151    0.353    0.439   41.354
  332.500   11.153    0.357    0.438   40.139
  332.750   11.154    0.363    0.456   38.924
  333.000   11.155    0.369    0.466   38.320
  333.250   11.156    0.374    0.467   38.934
  333.500   11.158    0.377    0.469   38.937
  333.750   11.159    0.375    0.458   37.722
  334.000   11.160    0.374    0.451   38.337
  334.250   11.161    0.370    0.453   39.561
  334.500   11.162    0.363    0.458   41.394
  334.750   11.164    0.360    0.465   40.180
  335.000   11.165    0.369    0.461   39.573
  335.250   11.166    0.365    0.461   37.751
  335.500   10.962    0.355    0.471   37.145
  335.750   10.963    0.357    0.480   36.539
  336.000   10.964    0.360    0.487   35.934
  336.250   10.966    0.354    0.480   35.939
  336.500   10.967    0.361    0.474   35.943
  336.750   10.968    0.359    0.474   35.947
  337.000   10.969    0.358    0.473   36.560
  337.250   10.970    0.365    0.454   37.785
  337.500   10.971    0.370    0.450   37.789
  337.750   10.973    0.358    0.453   35.964
  338.000   10.975    0.354    0.461   35.359
  338.250   10.774    0.360    0.474   35.363
  338.500   10.977    0.361    0.483   37.197
  338.750   10.775    0.361    0.476   35.373
  339.000   10.777    0.361    0.460   34.158
  339.250   10.778    0.359    0.442   34.771
  339.500   10.779    0.360    0.456   35.387
  339.750   10.582    0.359    0.468   36.610
  340.000   10.583    0.359    0.476   36.614
  340.250   10.584    0.358    0.488   36.008
  340.500   10.784    0.352    0.498   35.404
  340.750   10.786    0.344    0.495   36.017
  341.000   10.787    0.350    0.488   37.244
  341.250   10.991    0.356    0.477   37.856
  341.500   10.992    0.362    0.476   38.470
  341.750   10.993    0.359    0.477   37.255
  342.000   10.791    0.354    0.458   36.650
  342.250   10.793    0.360    0.447   37.265
  342.500   10.794    0.355    0.447   37.878
  342.750   10.795    0.350    0.453   39.102
  343.000   10.402    0.347    0.452   40.326
  343.250   10.403    0.355    0.465   41.550
  343.500   10.404    0.354    0.470   42.164
  343.750   10.600    0.353    0.470   41.559
  344.000   10.407    0.356    0.445   42.783
  344.250   10.408    0.353    0.451   44.006
  344.500   10.216    0.347    0.460   41.573
  344.750   10.218    0.354    0.466   41.579
  345.000   10.219    0.354    0.467   40.972
  345.250   10.220    0.353    0.465   42.196
  345.500   10.413    0.353    0.473   42.809
  345.750   10.415    0.354    0.482   44.644
  346.000   10.223    0.355    0.483   45.867
  346.250   10.225    0.357    0.481   46.482
  346.500   10.225    0.359    0.480   47.707
  346.750   10.227    0.354    0.477   48.930
  347.000   10.040    0.351    0.467   50.154
  347.250   10.041    0.350    0.452   50.157
  347.500   10.042    0.354    0.458   49.552
  347.750   10.042    0.354    0.463   48.340
  348.000   10.233    0.349    0.458   47.732
  348.250   10.234    0.349    0.467   47.737
  348.500   10.235    0.350    0.479   48.961
  348.750   10.236    0.352    0.487   48.965
  349.000   10.430    0.355    0.493   49.581
  349.250   10.431    0.357    0.487   49.585
  349.500   10.433    0.352    0.478   49.590
  349.750   10.241    0.343    0.470   49.593
  350.000   10.242    0.335    0.464   49.597
  350.250   10.243    0.332    0.468   49.602
  350.500   10.055    0.338    0.461   50.216
  350.750   10.056    0.344    0.462   50.831
  351.000    9.872    0.345    0.461   51.444
  351.250   10.059    0.349    0.456   52.668
  351.500   10.638    0.352    0.458   53.282
  351.750   10.640    0.355    0.466   52.678
  352.000   10.640    0.347    0.480   52.682
  352.250   10.445    0.349    0.471   53.296
  352.500   10.446    0.355    0.466   55.741
  352.750   10.447    0.355    0.468   56.964
  353.000   10.255    0.359    0.471   57.577
  353.250   10.257    0.358    0.471   58.803
  353.500   11.259    0.350    0.468   59.416
  353.750   11.260    0.346    0.473   59.420
  354.000   11.262    0.347    0.465   56.986
  354.250   11.055    0.346    0.461   55.771
  354.500   11.056    0.342    0.462   55.165
  354.750   11.057    0.334    0.473   57.001
  355.000   11.059    0.326    0.477   57.614
  355.250   11.060    0.306    0.472   57.618
  355.500   10.657    0.267    0.461   57.622
  355.750   10.462    0.229    0.426   58.239
  356.000   10.463    0.230    0.449   59.463
  356.250   10.464    0.272    0.472   60.077
  356.500   10.465    0.338    0.485   61.300
  356.750   10.663    0.353    0.495   62.523
