~VERSION INFORMATION
 VERS.                 2.0:   CWLS LOG ASCII STANDARD -VERSION 2.0
 WRAP.                  NO:   ONE LINE PER DEPTH STEP
~WELL INFORMATION BLOCK
#MNEM.UNIT           DATA                    DESCRIPTION OF MNEMONIC
#---------    -------------------            -------------------------------
# Generated from Intellog Unique Number	CW_73_75/WELL/2734
WELL.         CAVALIER FRANCIS 07-33         : Well_name    - WELL
LOC .         00/07-33-073-20W4/0            : Location     - LOCATION
UWI .         00/07-33-073-20W4/0            : Uwi          - UNIQUE WELL ID
ENTR.         JAYE                           : Entered      - ENTERED BY
SRVC.         SCHLUMBERGER                   : Scn          - SERVICE COMPANY
DATE.         24 MAR 74                      : Date         - LOG DATE
STRT.M        411.48                         : top_depth    - START DEPTH
STOP.M        627.98                         : bot_depth    - STOP DEPTH
STEP.M        0.25                           : increment    - STEP LENGTH
 NULL. -999.2500:NULL Value
~CURVE INFORMATION BLOCK
#MNEM UNIT       ERCB CURVE CODE    CURVE DESCRIPTION
#-----------   ------------------   ----------------------------------
DEPT.M        00 001 00 00         : DEPTH        - DEPTH
ILD .OHMM     00 120 00 00         : RESD         - DEEP RESISTIVITY (DIL)
NPHI.V/V      00 330 00 00         : PHIN         - NEUTRON POROSITY (SANDSTONE)
DPHI.V/V      00 890 00 00         : PHID         - DENSITY POROSITY (SANDSTONE)
GR  .API      00 310 00 00         : GR           - GAMMA RAY
CALI.MM       00 280 01 00         : CAL          - CALIPER
~PARAMETER INFORMATION
#MNEM.UNIT           DATA             DESCRIPTION OF MNEMONIC
#---------         -----------     ------------------------------
GL  .M        719.938              : gl           - GROUND LEVEL ELEVATION
EREF.M        722.986              : kb           - ELEVATION OF DEPTH REFERENCE
DATM.M        719.938              : datum        - DATUM ELEVATION
TDD .M        630.936              : tdd          - TOTAL DEPTH DRILLER
RUN .         ONE                  : Run          - RUN NUMBER
ENG .         CORLE                : Engineer     - RECORDING ENGINEER
WIT .         CONNELLY             : Witness      - WITNESSED BY
BASE.         EDM                  : Branch       - HOME BASE OF LOGGING UNIT
MUD .         GEL CHEM             : Mud_type     - MUD TYPE
MATR.         SANDSTONE            : Logunit      - NEUTRON MATRIX
TMAX.C        30                   : BHT          - MAXIMUM RECORDED TEMPERATURE
BHTD.M        632.155              : BHTDEP       - MAXIMUM RECORDED TEMPERATURE
RMT .C        26.6667              : MDTP         - TEMPERATURE OF MUD
MUDD.KG/M     1116                 : MWT          - MUD DENSITY
NEUT.         1                    : NEUTRON      - NEUTRON TYPE
RESI.         0                    : RESIST       - RESISTIVITY TYPE
RM  .OHMM     4.39                 : RM           - RESISTIVITY OF MUD
RMC .OHMM     0                    : RMC          - RESISTIVITY OF MUD CAKE
RMF .OHMM     4.01                 : RMF          - RESISTIVITY OF MUD FILTRATE
SUFT.C        -17.7778             : SUFT         - SURFACE TEMPERATURE
~A  DEPTH     RESD     PHIN     PHID       GR      CAL
# ...
  484.480    5.115    0.434    0.304   47.893  164.872
  484.730    5.122    0.444    0.313   48.152  164.898
  484.980    5.127    0.453    0.312   48.595  165.032
  485.230    5.133    0.465    0.305   50.198  165.160
  485.480    5.140    0.471    0.294   51.801  165.185
  485.730    5.150    0.457    0.303   52.549  165.311
  485.980    5.152    0.450    0.324   52.137  165.444
  486.230    5.120    0.446    0.327   53.495  165.367
  486.480    5.124    0.441    0.306   50.212  165.289
  486.730    5.090    0.453    0.311   48.579  165.108
  486.980    5.096    0.477    0.307   48.779  164.928
  487.230    5.062    0.503    0.295   49.281  164.738
  487.480    5.068    0.530    0.287   50.150  164.562
  487.730    5.036    0.487    0.294   51.510  164.377
  487.980    5.041    0.477    0.302   53.112  164.095
  488.230    5.047    0.433    0.306   53.921  163.914
  488.480    4.936    0.435    0.297   55.403  163.630
  488.730    4.941    0.459    0.312   57.739  163.550
  488.980    4.941    0.451    0.320   56.471  163.161
  489.230    4.954    0.437    0.312   56.486  163.186
  489.480    4.998    0.449    0.302   55.707  163.112
  489.730    5.008    0.467    0.292   58.227  163.238
  489.980    5.009    0.481    0.288   58.851  163.368
  490.230    5.017    0.496    0.283   59.539  163.596
  490.480    5.021    0.501    0.291   60.836  163.726
  490.730    5.029    0.477    0.298   61.645  163.854
  490.980    5.034    0.500    0.302   61.478  163.885
  491.230    5.039    0.505    0.307   60.882  164.118
  491.480    5.046    0.486    0.317   60.408  163.935
  491.730    4.972    0.478    0.313   61.157  163.853
  491.980    4.900    0.490    0.304   64.837  163.782
  492.230    4.827    0.483    0.294   69.188  163.906
  492.480    4.754    0.446    0.284   72.867  164.136
  492.730    4.564    0.440    0.266   77.218  163.958
  492.980    4.571    0.469    0.238   82.791  163.982
  493.230    4.773    0.495    0.232   87.388  162.457
  493.480    5.171    0.509    0.239   88.440  161.033
  493.730    5.572    0.194    0.111   84.180  161.991
  493.980    5.419    0.265    0.057   78.393  166.359
  494.230    4.993    0.305    0.097   70.407  169.383
  494.480    4.802    0.371    0.164   69.262  167.031
  494.730    4.887    0.425    0.187   80.576  162.407
  494.980    4.971    0.444    0.213   89.996  160.674
  495.230    4.971    0.451    0.236   95.019  160.184
  495.480    5.064    0.458    0.222   94.485  160.414
  495.730    5.186    0.455    0.198   94.073  160.646
  495.980    5.230    0.458    0.201   91.889  160.981
  496.230    5.276    0.471    0.202   91.172  161.326
  496.480    5.282    0.479    0.205   89.659  161.447
  496.730    5.282    0.475    0.200   91.323  161.985
  496.980    5.217    0.447    0.209   93.781  162.013
  497.230    5.064    0.455    0.221   94.470  162.243
  497.480    4.951    0.454    0.208   94.117  162.167
  497.730    4.840    0.445    0.183   92.972  162.502
  497.980    4.689    0.455    0.160   94.086  163.668
  498.230    4.577    0.484    0.179   95.811  165.557
  498.480    4.386    0.488    0.210   97.170  167.751
  498.730    4.273    0.502    0.218   95.903  170.154
  498.980    4.122    0.518    0.221   96.162  171.214
  499.230    3.971    0.478    0.234   97.948  169.480
  499.480    3.781    0.476    0.222   97.596  168.577
  499.730    3.588    0.496    0.180   94.314  169.427
  499.980    3.162    0.507    0.201   93.779  170.901
  500.230    2.892    0.524    0.218   94.162  172.585
  500.480    2.781    0.559    0.197   96.008  173.747
  500.730    2.865    0.637    0.188  100.299  174.909
  500.980    2.911    0.636    0.203  107.093  176.175
  501.230    2.955    0.622    0.197  108.148  177.133
  501.480    3.041    0.594    0.210  106.330  177.054
  501.730    3.164    0.548    0.221  102.496  176.252
  501.980    3.249    0.483    0.206   97.320  174.727
  502.230    3.334    0.496    0.206   96.175  172.684
  502.480    3.378    0.486    0.208   93.930  170.951
  502.730    3.345    0.479    0.198   88.937  169.120
  502.980    3.273    0.501    0.225   85.289  168.106
  503.230    3.239    0.511    0.264   86.403  166.688
  503.480    3.166    0.482    0.283   86.173  165.572
  503.730    3.174    0.470    0.298   82.280  163.947
  503.980    3.218    0.438    0.290   75.699  162.934
  504.230    3.224    0.422    0.286   70.095  162.133
  504.480    3.273    0.432    0.298   71.271  161.433
  504.730    3.275    0.437    0.305   72.386  160.948
  504.980    3.320    0.451    0.291   70.995  160.761
  505.230    3.326    0.466    0.277   71.438  160.687
  505.480    3.333    0.457    0.303   72.249  160.403
  505.730    3.337    0.434    0.302   71.834  160.116
  505.980    3.383    0.452    0.287   70.507  160.140
  506.230    3.389    0.461    0.313   69.729  159.962
  506.480    3.434    0.435    0.327   68.215  160.191
  506.730    3.440    0.426    0.321   65.848  160.533
  506.980    3.446    0.449    0.323   67.208  160.864
  507.230    3.492    0.450    0.315   66.918  160.888
  507.480    3.502    0.456    0.297   64.367  161.021
  507.730    3.504    0.460    0.289   64.383  160.938
  507.980    3.510    0.437    0.279   64.825  160.757
  508.230    3.510    0.461    0.283   67.649  160.580
  508.480    3.484    0.464    0.282   71.023  160.085
  508.730    3.449    0.448    0.278   68.230  159.597
  508.980    3.414    0.428    0.278   65.130  159.313
  509.230    3.414    0.441    0.292   65.755  159.027
  509.480    3.389    0.440    0.293   66.625  158.944
  509.730    3.394    0.446    0.283   66.457  158.771
  509.980    3.399    0.453    0.298   65.067  158.685
  510.230    3.404    0.434    0.306   63.739  158.298
  510.480    3.404    0.433    0.294   62.350  158.326
  510.730    3.419    0.443    0.277   60.349  158.144
  510.980    3.422    0.424    0.279   60.611  157.966
  511.230    3.429    0.436    0.275   62.578  157.676
  511.480    3.438    0.455    0.266   65.524  157.703
  511.730    3.440    0.448    0.261   66.150  157.520
  511.980    3.447    0.434    0.253   65.677  157.546
  512.230    3.453    0.440    0.292   66.793  157.573
  512.480    3.459    0.447    0.302   69.434  157.805
  512.730    3.464    0.466    0.311   70.486  157.933
  512.980    3.472    0.478    0.306   68.731  158.165
  513.230    3.436    0.484    0.289   70.762  158.607
  513.480    3.443    0.482    0.295   71.998  158.629
  513.730    3.409    0.471    0.308   72.378  158.660
  513.980    3.376    0.457    0.297   72.393  158.685
  514.230    3.343    0.467    0.284   71.493  159.018
  514.480    3.348    0.483    0.284   69.370  159.256
  514.730    3.315    0.460    0.290   66.088  159.278
  514.980    3.321    0.465    0.301   65.247  159.094
  515.230    3.366    0.440    0.285   65.018  159.119
  515.480    3.412    0.413    0.271   65.949  159.149
  515.730    3.496    0.434    0.273   64.621  159.173
  515.980    3.619    0.447    0.280   66.163  159.197
  516.230    3.863    0.435    0.283   68.622  159.119
  516.480    4.262    0.448    0.289   69.186  159.148
  516.730    4.622    0.458    0.273   66.452  159.376
  516.980    4.942    0.470    0.252   67.690  160.436
  517.230    5.381    0.364    0.198   71.001  162.426
  517.480    5.387    0.302    0.112   73.704  165.555
  517.730    5.156    0.300    0.137   71.948  170.754
  517.980    4.415    0.349    0.193   72.697  173.155
  518.230    4.120    0.422    0.241   73.810  166.150
  518.480    4.125    0.495    0.254   75.842  163.593
  518.730    4.131    0.487    0.234   78.421  163.306
  518.980    4.176    0.469    0.243   81.062  163.126
  519.230    4.181    0.471    0.247   83.826  163.251
  519.480    4.186    0.494    0.262   85.245  163.278
  519.730    4.191    0.513    0.249   80.986  163.407
  519.980    4.196    0.479    0.230   80.635  163.741
  520.230    4.163    0.455    0.228   82.910  164.079
  520.480    4.128    0.465    0.223   83.658  164.416
  520.730    3.937    0.469    0.213   85.078  164.645
