~VERSION INFORMATION
 VERS.                 2.0:   CWLS LOG ASCII STANDARD -VERSION 2.0
 WRAP.                  NO:   ONE LINE PER DEPTH STEP
~WELL INFORMATION BLOCK
#MNEM.UNIT           DATA                    DESCRIPTION OF MNEMONIC
#---------    -------------------            -------------------------------
# Generated from Intellog Unique Number	CS_73_76/WELL/2159
WELL.         WAINOCO OIL & GAS LIMITED      : Well_name    - WELL
LOC .         00/06-05-074-12W4/0            : Location     - LOCATION
UWI .         00/06-05-074-12W4/0            : Uwi          - UNIQUE WELL ID
ENTR.         SP                             : Entered      - ENTERED BY
SRVC.         SCHLUMBERGER                   : Scn          - SERVICE COMPANY
STRT.M        295                            : top_depth    - START DEPTH
STOP.M        530                            : bot_depth    - STOP DEPTH
STEP.M        0.25                           : increment    - STEP LENGTH
 NULL. -999.2500:NULL Value
~CURVE INFORMATION BLOCK
#MNEM UNIT       ERCB CURVE CODE    CURVE DESCRIPTION
#-----------   ------------------   ----------------------------------
DEPT.M        00 001 00 00         : DEPTH        - DEPTH
ILD .OHMM     00 120 00 00         : RESD         - DEEP RESISTIVITY (DIL)
DPHI.V/V      00 890 00 00         : PHID         - DENSITY POROSITY (LIMESTONE)
NPHI.V/V      00 330 00 00         : PHIN         - NEUTRON POROSITY (LIMESTONE)
GR  .API      00 310 00 00         : GR           - GAMMA RAY
~PARAMETER INFORMATION
#MNEM.UNIT           DATA             DESCRIPTION OF MNEMONIC
#---------         -----------     ------------------------------
GL  .M        661.2                : gl           - GROUND LEVEL ELEVATION
EREF.M        664.2                : kb           - ELEVATION OF DEPTH REFERENCE
DATM.M        661.2                : datum        - DATUM ELEVATION
TDD .M        543                  : tdd          - TOTAL DEPTH DRILLER
RUN .         ONE                  : Run          - RUN NUMBER
ENG .         BILL                 : Engineer     - RECORDING ENGINEER
WIT .         JIM                  : Witness      - WITNESSED BY
MUD .         GEL                  : Mud_type     - MUD TYPE
MATR.         LIMESTONE            : Logunit      - NEUTRON MATRIX
TMAX.C        23                   : BHT          - MAXIMUM RECORDED TEMPERATURE
BHTD.M        5432                 : BHTDEP       - MAXIMUM RECORDED TEMPERATURE
MATR.         1                    : LOGUNIT      - NEUTRON MATRIX
RMT .C        25                   : MDTP         - TEMPERATURE OF MUD
NEUT.         1                    : NEUTRON      - NEUTRON TYPE
RESI.         0                    : RESIST       - RESISTIVITY TYPE
RMC .OHMM     0.25                 : RMC          - RESISTIVITY OF MUD CAKE
RMF .OHMM     0.25                 : RMF          - RESISTIVITY OF MUD FILTRATE
SUFT.C        15                   : SUFT         - SURFACE TEMPERATURE
~A  DEPTH     RESD     PHID     PHIN       GR
# ...
  469.000    3.740    0.189    0.435   83.239
  469.250    3.338    0.189    0.440   86.877
  469.500    3.037    0.203    0.458   95.373
  469.750    2.763    0.211    0.502   99.620
  470.000    2.661    0.210    0.526  103.258
  470.250    2.611    0.203    0.543  100.823
  470.500    2.611    0.191    0.548   95.352
  470.750    2.661    0.183    0.530   91.703
  471.000    2.712    0.175    0.513   89.270
  471.250    2.712    0.171    0.500   89.264
  471.500    2.712    0.174    0.500   89.867
  471.750    2.661    0.183    0.505   92.898
  472.000    2.612    0.193    0.512   92.891
  472.250    2.612    0.202    0.521   92.888
  472.500    2.713    0.212    0.529   93.489
  472.750    2.926    0.216    0.518   91.054
  473.000    3.341    0.207    0.504   89.835
  473.250    3.814    0.199    0.493   90.438
  473.500    4.355    0.187    0.466   90.430
  473.750    4.972    0.180    0.438   89.820
  474.000    5.895    0.188    0.409   86.779
  474.250    6.731    0.175    0.382   81.307
  474.500    7.260    0.153    0.351   76.444
  474.750    7.832    0.135    0.326   72.189
  475.000    8.289    0.138    0.319   67.326
  475.250    8.774    0.157    0.329   65.499
  475.500    9.113    0.191    0.335   66.100
  475.750    9.288    0.215    0.359   65.487
  476.000    9.288    0.231    0.375   64.269
  476.250    8.776    0.244    0.380   61.834
  476.500    7.687    0.207    0.376   62.437
  476.750    6.994    0.195    0.366   64.858
  477.000    6.734    0.189    0.361   66.677
  477.250    6.484    0.196    0.362   72.135
  477.500    6.363    0.206    0.371   76.988
  477.750    6.244    0.189    0.386   80.022
  478.000    6.244    0.190    0.388   83.660
  478.250    6.127    0.198    0.382   81.832
  478.500    6.128    0.214    0.376   86.079
  478.750    6.245    0.214    0.374   93.359
  479.000    6.365    0.205    0.374   92.141
  479.250    6.365    0.201    0.378   87.277
  479.500    6.129    0.209    0.385   85.450
  479.750    6.014    0.202    0.387   86.659
  480.000    5.791    0.178    0.382   90.904
  480.250    5.683    0.139    0.381   92.723
  480.500    5.683    0.142    0.387   98.180
  480.750    5.683    0.159    0.404  101.211
  481.000    5.903    0.179    0.425  103.028
  481.250    6.367    0.189    0.435  104.238
  481.500    6.868    0.186    0.425  104.842
  481.750    7.409    0.189    0.417  102.406
  482.000    8.620    0.204    0.409   99.974
  482.250    9.842    0.210    0.402   89.037
  482.500   10.222    0.217    0.397   74.457
  482.750   10.820    0.226    0.388   67.164
  483.000   11.027    0.229    0.388   62.910
  483.250   10.821    0.234    0.393   62.902
  483.500   10.224    0.229    0.397   67.149
  483.750    9.660    0.217    0.390   70.787
  484.000    9.479    0.213    0.379   70.176
  484.250    9.302    0.213    0.368   62.882
  484.500    9.302    0.224    0.364   64.092
  484.750    9.481    0.229    0.352   68.945
  485.000    9.662    0.207    0.344   72.583
  485.250    9.663    0.199    0.327   74.400
  485.500    9.663    0.184    0.318   75.610
  485.750    9.482    0.184    0.313   74.390
  486.000    9.483    0.184    0.318   74.385
  486.250    9.665    0.184    0.330   76.202
  486.500    9.665    0.176    0.341   74.374
  486.750   10.038    0.171    0.354   71.333
  487.000   10.230    0.187    0.368   67.077
  487.250   10.039    0.200    0.378   68.894
  487.500   10.040    0.207    0.376   71.923
  487.750   10.232    0.211    0.367   73.741
  488.000   10.627    0.203    0.351   70.700
  488.250   11.248    0.220    0.343   61.585
  488.500   11.683    0.234    0.336   56.722
  488.750   11.907    0.257    0.342   51.858
  489.000   11.684    0.275    0.352   50.032
  489.250   11.466    0.285    0.363   50.634
  489.500   10.833    0.287    0.374   54.273
  489.750    9.671    0.295    0.384   63.375
  490.000    8.471    0.270    0.377   68.229
  490.250    7.707    0.219    0.378   74.297
  490.500    7.282    0.192    0.380   80.364
  490.750    6.880    0.182    0.382   82.181
  491.000    6.625    0.173    0.373   85.213
  491.250    6.625    0.172    0.367   88.244
  491.500    6.625    0.170    0.372   90.060
  491.750    6.626    0.166    0.383   90.661
  492.000    6.626    0.160    0.389   91.264
  492.250    6.753    0.158    0.391   93.081
  492.500    6.753    0.165    0.385   94.898
  492.750    6.883    0.170    0.378   96.107
  493.000    6.883    0.175    0.376   95.494
  493.250    7.015    0.180    0.387   94.274
  493.500    7.149    0.183    0.394   93.662
  493.750    7.149    0.187    0.399   96.691
  494.000    7.016    0.185    0.398   97.902
  494.250    7.016    0.182    0.392   99.720
  494.500    6.885    0.177    0.388  101.535
  494.750    6.885    0.175    0.395  102.138
  495.000    6.886    0.182    0.403  102.133
  495.250    6.886    0.183    0.399  102.733
  495.500    6.886    0.180    0.384  103.337
  495.750    7.018    0.185    0.376  103.938
  496.000    7.152    0.186    0.367   98.469
  496.250    7.153    0.179    0.362   95.428
  496.500    7.290    0.159    0.359  101.495
  496.750    7.290    0.144    0.366  105.134
  497.000    7.291    0.135    0.368  106.343
  497.250    7.291    0.144    0.367  100.872
  497.500    7.154    0.157    0.366   94.187
  497.750    7.155    0.158    0.364   91.145
  498.000    7.155    0.165    0.359   90.532
  498.250    7.155    0.170    0.361   90.526
  498.500    7.156    0.174    0.368   91.130
  498.750    7.156    0.170    0.378   88.088
  499.000    7.156    0.157    0.386   83.225
  499.250    7.022    0.155    0.377   80.791
  499.500    7.023    0.157    0.372   80.786
  499.750    7.023    0.157    0.366   81.994
  500.000    7.070    0.148    0.340   93.296
  500.250    7.197    0.136    0.334   95.129
  500.500    6.918    0.144    0.340   95.134
  500.750    6.913    0.163    0.334   89.042
  501.000    7.168    0.162    0.333   89.657
  501.250    7.865    0.165    0.337   92.710
  501.500    8.629    0.175    0.330   81.741
  501.750   10.201    0.189    0.335   71.379
  502.000   11.196    0.232    0.345   63.457
  502.250   12.994    0.258    0.344   56.145
  502.500   13.221    0.270    0.349   52.491
  502.750   13.209    0.280    0.356   52.496
  503.000   11.782    0.262    0.358   59.209
  503.250   10.314    0.255    0.368   67.751
  503.500    9.030    0.248    0.373   75.073
  503.750    8.054    0.248    0.376   79.955
  504.000    6.916    0.249    0.359   78.740
  504.250    6.287    0.249    0.346   79.359
  504.500    5.609    0.243    0.341   78.143
  504.750    5.297    0.241    0.332   76.316
  505.000    4.722    0.259    0.326   65.345
  505.250    4.292    0.269    0.320   48.887
  505.500    4.130    0.283    0.319   46.454
  505.750    3.753    0.289    0.326   45.240
  506.000    3.542    0.303    0.344   47.073
  506.250    3.472    0.306    0.358   55.005
  506.500    3.338    0.285    0.362   51.961
  506.750    3.336    0.293    0.359   51.356
  507.000    3.330    0.284    0.346   46.483
  507.250    3.262    0.281    0.334   42.831
  507.500    3.259    0.283    0.330   41.615
  507.750    3.193    0.273    0.337   42.231
  508.000    3.190    0.270    0.345   44.066
  508.250    3.125    0.267    0.351   44.681
  508.500    3.064    0.268    0.344   45.295
  508.750    3.001    0.267    0.323   44.689
  509.000    2.943    0.273    0.313   42.866
  509.250    2.935    0.288    0.308   39.821
  509.500    2.878    0.292    0.309   36.168
  509.750    2.874    0.293    0.315   38.003
  510.000    2.926    0.292    0.318   41.056
  510.250    2.922    0.280    0.320   44.721
  510.500    2.917    0.278    0.320   47.166
  510.750    2.913    0.272    0.329   47.779
  511.000    2.964    0.271    0.340   45.344
  511.250    2.961    0.288    0.346   38.642
  511.500    2.957    0.303    0.351   38.646
  511.750    2.897    0.314    0.359   39.872
  512.000    2.840    0.319    0.362   44.755
  512.250    2.784    0.311    0.359   47.808
