~VERSION INFORMATION
 VERS.                 2.0:   CWLS LOG ASCII STANDARD -VERSION 2.0
 WRAP.                  NO:   ONE LINE PER DEPTH STEP
~WELL INFORMATION BLOCK
#MNEM.UNIT           DATA                    DESCRIPTION OF MNEMONIC
#---------    -------------------            -------------------------------
# Generated from Intellog Unique Number	CS_77_79/WELL/923
WELL.         ANDERSON EXPLORATION LTD.      : Well_name    - WELL
LOC .         00/09-11-077-11W4/0            : Location     - LOCATION
UWI .         00/09-11-077-11W4/0            : Uwi          - UNIQUE WELL ID
ENTR.         SP                             : Entered      - ENTERED BY
SRVC.         SCHLUMBERGER                   : Scn          - SERVICE COMPANY
STRT.M        270                            : top_depth    - START DEPTH
STOP.M        515                            : bot_depth    - STOP DEPTH
STEP.M        0.25                           : increment    - STEP LENGTH
 NULL. -999.2500:NULL Value
~CURVE INFORMATION BLOCK
#MNEM UNIT       ERCB CURVE CODE    CURVE DESCRIPTION
#-----------   ------------------   ----------------------------------
DEPT.M        00 001 00 00         : DEPTH        - DEPTH
ILD .OHMM     00 120 00 00         : RESD         - DEEP RESISTIVITY (DIL)
DPHI.V/V      00 890 00 00         : PHID         - DENSITY POROSITY (LIMESTONE)
NPHI.V/V      00 330 00 00         : PHIN         - NEUTRON POROSITY (LIMESTONE)
GR  .API      00 310 00 00         : GR           - GAMMA RAY
~PARAMETER INFORMATION
#MNEM.UNIT           DATA             DESCRIPTION OF MNEMONIC
#---------         -----------     ------------------------------
GL  .M        678.1                : gl           - GROUND LEVEL ELEVATION
EREF.M        681.6                : kb           - ELEVATION OF DEPTH REFERENCE
DATM.M        678.1                : datum        - DATUM ELEVATION
TDD .M        515                  : tdd          - TOTAL DEPTH DRILLER
RUN .         ONE                  : Run          - RUN NUMBER
ENG .         BILL                 : Engineer     - RECORDING ENGINEER
WIT .         JIM                  : Witness      - WITNESSED BY
MUD .         GEL                  : Mud_type     - MUD TYPE
MATR.         LIMESTONE            : Logunit      - NEUTRON MATRIX
TMAX.C        25                   : BHT          - MAXIMUM RECORDED TEMPERATURE
BHTD.M        515                  : BHTDEP       - MAXIMUM RECORDED TEMPERATURE
MATR.         1                    : LOGUNIT      - NEUTRON MATRIX
RMT .C        25                   : MDTP         - TEMPERATURE OF MUD
NEUT.         1                    : NEUTRON      - NEUTRON TYPE
RESI.         0                    : RESIST       - RESISTIVITY TYPE
RMC .OHMM     0.25                 : RMC          - RESISTIVITY OF MUD CAKE
RMF .OHMM     0.25                 : RMF          - RESISTIVITY OF MUD FILTRATE
SUFT.C        15                   : SUFT         - SURFACE TEMPERATURE
~A  DEPTH     RESD     PHID     PHIN       GR
# ...
  357.000   18.392    0.301    0.479   69.844
  357.250   16.473    0.319    0.485   69.851
  357.500   14.486    0.318    0.473   71.069
  357.750   13.214    0.319    0.462   72.282
  358.000   11.196    0.334    0.478   73.501
  358.250    9.663    0.355    0.489   74.111
  358.500    9.673    0.345    0.495   74.119
  358.750   11.655    0.319    0.489   74.132
  359.000   13.036    0.308    0.476   75.350
  359.250   13.792    0.308    0.462   75.356
  359.500   14.332    0.313    0.454   74.765
  359.750   14.343    0.319    0.460   72.364
  360.000   13.838    0.334    0.496   74.786
  360.250   13.345    0.339    0.490   77.210
  360.500   12.635    0.349    0.480   77.213
  360.750   11.964    0.368    0.500   75.417
  361.000   11.539    0.374    0.502   74.825
  361.250   10.532    0.368    0.491   74.840
  361.500    9.433    0.334    0.474   75.448
  361.750    8.607    0.298    0.475   76.668
  362.000    7.999    0.282    0.493   77.880
  362.250    7.574    0.306    0.505   78.491
  362.500    7.172    0.320    0.509   79.707
  362.750    6.792    0.303    0.479   80.921
  363.000    6.429    0.317    0.489   85.152
  363.250    5.976    0.335    0.524   86.365
  363.500    5.452    0.375    0.543   88.787
  363.750    4.795    0.368    0.543   88.191
  364.000    4.216    0.325    0.546   84.588
  364.250    3.847    0.325    0.561   88.816
  364.500    3.509    0.334    0.563   94.852
  364.750    3.262    0.284    0.552   96.666
  365.000    3.205    0.263    0.548   96.077
  365.250    3.330    0.255    0.521   95.486
  365.500    3.395    0.250    0.514   96.098
  365.750    3.463    0.269    0.563   96.110
  366.000    3.530    0.269    0.572   95.513
  366.250    3.470    0.273    0.556   93.717
  366.500    3.536    0.293    0.564   90.716
  366.750    3.812    0.363    0.602   88.315
  367.000    4.344    0.389    0.617   85.915
  367.250    5.234    0.277    0.435   85.927
  367.500    5.642    0.254    0.424   87.743
  367.750    5.342    0.287    0.470   91.369
  368.000    4.699    0.332    0.489   89.573
  368.250    4.447    0.392    0.509   93.199
  368.500    3.983    0.446    0.524   94.411
  368.750    3.503    0.321    0.550   96.231
  369.000    3.572    0.329    0.536   97.450
  369.250    3.576    0.344    0.519   98.061
  369.500    3.578    0.361    0.505   98.672
  369.750    3.453    0.352    0.518   99.285
  370.000    3.329    0.341    0.505  100.498
  370.250    3.152    0.329    0.500  102.919
  370.500    3.040    0.304    0.557  104.737
  370.750    2.988    0.320    0.580  107.760
  371.000    2.935    0.324    0.569  108.974
  371.250    2.832    0.327    0.551  102.959
  371.500    2.732    0.336    0.540  100.559
  371.750    2.684    0.357    0.526   96.955
  372.000    2.637    0.378    0.576   94.558
  372.250    2.689    0.379    0.598   96.374
  372.500    2.899    0.343    0.607   98.792
  372.750    3.124    0.337    0.605  103.019
  373.000    3.495    0.320    0.589  108.455
  373.250    4.210    0.321    0.569   99.425
  373.500    5.264    0.332    0.531   95.218
  373.750    6.111    0.307    0.477   93.424
  374.000    6.465    0.269    0.479   92.231
  374.250    6.841    0.257    0.485   92.237
  374.500    6.976    0.262    0.491   92.249
  374.750    7.247    0.269    0.475   91.656
  375.000    7.390    0.277    0.489   91.666
  375.250    7.399    0.293    0.498   91.679
  375.500    7.403    0.309    0.486   92.292
  375.750    7.413    0.300    0.465   92.901
  376.000    7.418    0.293    0.455   94.719
  376.250    7.291    0.291    0.450   96.539
  376.500    7.161    0.280    0.463   96.547
  376.750    6.781    0.263    0.478   91.740
  377.000    6.541    0.257    0.486   89.940
  377.250    6.920    0.256    0.492   85.133
  377.500    8.035    0.213    0.490   80.924
  377.750    8.988    0.187    0.475   64.066
  378.000    9.688    0.165    0.245   57.449
  378.250   10.253    0.072    0.228   52.640
  378.500   10.075    0.115    0.292   58.675
  378.750    9.718    0.200    0.351   71.338
  379.000    9.030    0.235    0.404   83.396
  379.250    7.796    0.246    0.458   88.827
  379.500    7.245    0.254    0.474   90.044
  379.750    7.119    0.257    0.482   88.848
  380.000    7.394    0.240    0.490   83.439
  380.250    7.403    0.237    0.485   81.040
  380.500    7.274    0.247    0.471   81.051
  380.750    6.888    0.260    0.448   84.677
  381.000    6.522    0.266    0.468   86.490
  381.250    6.293    0.262    0.495   90.718
  381.500    6.296    0.243    0.504   94.343
  381.750    6.075    0.236    0.487   94.959
  382.000    6.078    0.238    0.470   95.569
  382.250    5.865    0.243    0.485   97.388
  382.500    5.870    0.235    0.503  102.218
  382.750    5.767    0.235    0.516  105.238
  383.000    5.776    0.237    0.523  103.440
  383.250    5.673    0.230    0.505  100.438
  383.500    5.681    0.224    0.494   99.246
  383.750    5.684    0.247    0.475   99.255
  384.000    5.794    0.263    0.471   96.854
  384.250    5.695    0.279    0.463   92.651
  384.500    5.492    0.329    0.472   89.046
  384.750    4.741    0.510    0.511   86.643
  385.000    3.870    0.550    0.535   89.672
  385.250    3.103    0.459    0.537   91.489
  385.500    2.678    0.405    0.530   93.906
  385.750    2.311    0.403    0.584   95.721
  386.000    2.188    0.356    0.598   94.528
  386.250    2.072    0.331    0.587   98.756
  386.500    2.074    0.318    0.581  101.174
  386.750    2.154    0.331    0.583   91.548
  387.000    2.456    0.345    0.606   89.145
  387.250    2.695    0.366    0.610   91.568
  387.500    3.248    0.380    0.598   90.373
  387.750    3.770    0.299    0.600   89.779
  388.000    4.377    0.284    0.524   84.971
  388.250    4.896    0.279    0.461   86.185
  388.500    5.376    0.296    0.459   81.982
  388.750    5.584    0.308    0.486   81.386
  389.000    5.910    0.304    0.488   82.602
  389.250    6.024    0.302    0.457   82.614
  389.500    6.376    0.300    0.440   79.009
  389.750    6.626    0.317    0.443   76.006
  390.000    6.754    0.332    0.443   70.596
  390.250    6.759    0.349    0.439   65.784
  390.500    6.765    0.358    0.408   60.978
  390.750    6.771    0.369    0.391   59.177
  391.000    6.783    0.376    0.391   58.585
  391.250    6.665    0.381    0.396   57.993
  391.500    6.670    0.382    0.388   64.633
  391.750    6.551    0.375    0.384   59.822
  392.000    6.557    0.373    0.387   58.629
  392.250    6.445    0.390    0.394   57.435
  392.500    6.452    0.396    0.388   56.840
  392.750    6.340    0.382    0.385   55.046
  393.000    6.345    0.373    0.394   55.054
  393.250    6.350    0.381    0.400   55.066
  393.500    6.356    0.376    0.405   55.678
  393.750    6.249    0.373    0.414   56.292
  394.000    6.255    0.387    0.414   56.901
  394.250    6.259    0.393    0.411   58.719
  394.500    6.264    0.381    0.432   59.332
  394.750    6.269    0.368    0.426   60.549
  395.000    6.277    0.377    0.412   60.556
  395.250    6.284    0.382    0.405   59.970
  395.500    6.287    0.377    0.412   59.376
  395.750    6.293    0.370    0.430   58.781
  396.000    7.172    0.336    0.451   56.986
  396.250    8.801    0.184    0.445   55.186
  396.500   10.800    0.060    0.211   53.993
  396.750   11.859    0.058    0.161   52.799
  397.000   12.787    0.075    0.184   53.410
  397.250   12.563    0.166    0.318   58.843
  397.500   11.251    0.302    0.385   60.659
  397.750    7.635    0.346    0.401   61.875
  398.000    7.096    0.365    0.396   61.890
  398.250    6.719    0.361    0.405   62.500
  398.500    6.600    0.365    0.422   63.715
  398.750    6.369    0.366    0.432   64.325
  399.000    6.374    0.366    0.435   63.733
  399.250    6.266    0.371    0.423   63.142
  399.500    6.271    0.371    0.426   62.553
  399.750    6.274    0.364    0.443   63.166
  400.000    6.280    0.356    0.443   62.569
  400.250    5.947    0.364    0.440   59.569
