~VERSION INFORMATION
 VERS.                 2.0:   CWLS LOG ASCII STANDARD -VERSION 2.0
 WRAP.                  NO:   ONE LINE PER DEPTH STEP
~WELL INFORMATION BLOCK
#MNEM.UNIT           DATA                    DESCRIPTION OF MNEMONIC
#---------    -------------------            -------------------------------
# Generated from Intellog Unique Number	CS_77_79/WELL/869
WELL.         AMOCO                          : Well_name    - WELL
LOC .         00/06-11-077-09W4/0            : Location     - LOCATION
UWI .         00/06-11-077-09W4/0            : Uwi          - UNIQUE WELL ID
ENTR.         SP                             : Entered      - ENTERED BY
SRVC.         SCHLUMBERGER                   : Scn          - SERVICE COMPANY
STRT.M        228.6                          : top_depth    - START DEPTH
STOP.M        438.6                          : bot_depth    - STOP DEPTH
STEP.M        0.25                           : increment    - STEP LENGTH
 NULL. -999.2500:NULL Value
~CURVE INFORMATION BLOCK
#MNEM UNIT       ERCB CURVE CODE    CURVE DESCRIPTION
#-----------   ------------------   ----------------------------------
DEPT.M        00 001 00 00         : DEPTH        - DEPTH
GR  .API      00 310 00 00         : GR           - GAMMA RAY
DPHI.V/V      00 890 00 00         : PHID         - DENSITY POROSITY (SANDSTONE)
NPHI.V/V      00 330 00 00         : PHIN         - NEUTRON POROSITY (SANDSTONE)
ILD .OHMM     00 120 00 00         : RESD         - DEEP RESISTIVITY (DIL)
~PARAMETER INFORMATION
#MNEM.UNIT           DATA             DESCRIPTION OF MNEMONIC
#---------         -----------     ------------------------------
GL  .M        631.7                : gl           - GROUND LEVEL ELEVATION
EREF.M        635.8                : kb           - ELEVATION OF DEPTH REFERENCE
DATM.M        631.7                : datum        - DATUM ELEVATION
TDD .M        442                  : tdd          - TOTAL DEPTH DRILLER
RUN .         ONE                  : Run          - RUN NUMBER
ENG .         BILL                 : Engineer     - RECORDING ENGINEER
WIT .         JIM                  : Witness      - WITNESSED BY
MUD .         GEL                  : Mud_type     - MUD TYPE
MATR.         SANDSTONE            : Logunit      - NEUTRON MATRIX
TMAX.C        60                   : BHT          - MAXIMUM RECORDED TEMPERATURE
BHTD.M        2072                 : BHTDEP       - MAXIMUM RECORDED TEMPERATURE
MATR.         1                    : LOGUNIT      - NEUTRON MATRIX
RMT .C        25                   : MDTP         - TEMPERATURE OF MUD
NEUT.         1                    : NEUTRON      - NEUTRON TYPE
RESI.         0                    : RESIST       - RESISTIVITY TYPE
RMC .OHMM     0.25                 : RMC          - RESISTIVITY OF MUD CAKE
RMF .OHMM     0.25                 : RMF          - RESISTIVITY OF MUD FILTRATE
SUFT.C        15                   : SUFT         - SURFACE TEMPERATURE
~A  DEPTH       GR     PHID     PHIN     RESD
# ...
  272.100   63.471    0.356    0.442   41.421
  272.350   64.469    0.356    0.435   41.181
  272.600   64.833    0.352    0.439   41.748
  272.850   65.831    0.346    0.436   41.934
  273.100   66.806    0.341    0.428   41.964
  273.350   67.754    0.340    0.440   41.971
  273.600   68.585    0.344    0.437   41.977
  273.850   66.323    0.347    0.432   41.984
  274.100   67.113    0.348    0.432   41.995
  274.350   64.647    0.350    0.445   42.026
  274.600   64.848    0.348    0.449   41.345
  274.850   65.604    0.351    0.451   41.269
  275.100   65.547    0.356    0.444   41.255
  275.350   65.581    0.358    0.447   41.241
  275.600   64.656    0.367    0.448   40.996
  275.850   64.337    0.368    0.445   40.534
  276.100   63.886    0.358    0.451   40.017
  276.350   63.568    0.362    0.446   39.827
  276.600   63.108    0.364    0.446   39.804
  276.850   63.088    0.365    0.447   39.357
  277.100   63.009    0.357    0.445   38.983
  277.350   61.938    0.359    0.448   38.366
  277.600   61.887    0.361    0.452   38.045
  277.850   62.733    0.361    0.440   37.749
  278.100   66.849    0.359    0.433   37.153
  278.350   69.341    0.354    0.441   37.045
  278.600   72.641    0.357    0.452   37.014
  278.850   73.243    0.365    0.456   36.323
  279.100   71.210    0.372    0.458   36.169
  279.350   67.189    0.374    0.455   35.734
  279.600   66.176    0.373    0.452   35.321
  279.850   65.992    0.358    0.457   35.183
  280.100   65.940    0.379    0.448   33.940
  280.350   66.955    0.374    0.449   32.688
  280.600   67.221    0.359    0.453   30.057
  280.850   67.746    0.358    0.444   28.809
  281.100   67.775    0.348    0.439   28.162
  281.350   67.084    0.374    0.463   28.207
  281.600   66.600    0.384    0.473   28.267
  281.850   67.539    0.386    0.483   27.656
  282.100   69.500    0.374    0.471   27.715
  282.350   69.774    0.368    0.468   27.680
  282.600   68.130    0.368    0.495   28.451
  282.850   68.257    0.362    0.498   28.750
  283.100   67.705    0.375    0.477   29.343
  283.350   66.231    0.372    0.466   29.310
  283.600   65.267    0.366    0.472   29.273
  283.850   66.472    0.359    0.485   29.956
  284.100   67.703    0.364    0.496   29.274
  284.350   68.204    0.366    0.474   29.318
  284.600   68.126    0.359    0.449   29.274
  284.850   68.788    0.355    0.459   29.894
  285.100   71.148    0.355    0.454   29.808
  285.350   71.282    0.357    0.458   30.483
  285.600   69.923    0.358    0.466   30.431
  285.850   69.426    0.357    0.468   30.493
  286.100   68.115    0.355    0.464   29.832
  286.350   65.926    0.359    0.473   29.896
  286.600   63.553    0.363    0.486   29.956
  286.850   62.685    0.369    0.481   29.315
  287.100   63.148    0.372    0.475   29.370
  287.350   64.021    0.375    0.479   29.370
  287.600   63.288    0.376    0.475   29.376
  287.850   62.200    0.374    0.468   29.380
  288.100   62.317    0.370    0.464   29.384
  288.350   62.646    0.363    0.473   29.387
  288.600   61.010    0.361    0.486   29.393
  288.850   61.257    0.364    0.494   29.397
  289.100   62.056    0.364    0.484   29.401
  289.350   62.717    0.362    0.490   29.407
  289.600   62.736    0.361    0.495   29.418
  289.850   63.785    0.359    0.488   29.383
  290.100   63.904    0.359    0.476   30.019
  290.350   62.433    0.362    0.469   29.989
  290.600   62.006    0.366    0.469   29.503
  290.850   62.261    0.364    0.485   29.247
  291.100   62.580    0.372    0.502   28.327
  291.350   62.177    0.376    0.512   27.898
  291.600   61.282    0.370    0.508   27.312
  291.850   61.964    0.373    0.490   27.375
  292.100   63.397    0.375    0.477   27.380
  292.350   63.797    0.378    0.470   27.383
  292.600   65.411    0.381    0.461   27.387
  292.850   66.776    0.383    0.458   27.391
  293.100   66.737    0.378    0.469   27.389
  293.350   68.318    0.376    0.471   27.434
  293.600   69.867    0.371    0.473   26.860
  293.850   72.177    0.369    0.477   26.923
  294.100   73.276    0.364    0.476   26.525
  294.350   72.319    0.360    0.476   26.494
  294.600   71.337    0.357    0.483   25.950
  294.850   71.127    0.357    0.494   25.326
  295.100   72.082    0.360    0.500   24.413
  295.350   70.777    0.366    0.503   24.141
  295.600   69.749    0.360    0.496   23.396
  295.850   69.558    0.357    0.519   23.311
  296.100   69.563    0.357    0.505   22.891
  296.350   70.440    0.354    0.485   22.832
  296.600   72.845    0.354    0.497   23.325
  296.850   76.362    0.350    0.495   23.282
  297.100   79.098    0.348    0.484   23.132
  297.350   80.321    0.346    0.477   21.879
  297.600   81.091    0.339    0.457   18.608
  297.850   79.323    0.332    0.454   17.288
  298.100   78.389    0.336    0.463   15.285
  298.350   78.756    0.341    0.485   11.754
  298.600   79.740    0.342    0.497    9.155
  298.850   84.613    0.356    0.519    7.417
  299.100   91.365    0.326    0.537    5.657
  299.350   98.365    0.296    0.562    4.658
  299.600  102.669    0.304    0.570    4.151
  299.850  100.315    0.324    0.545    3.791
  300.100   97.948    0.360    0.558    3.473
  300.350   99.618    0.347    0.592    3.374
  300.600   99.065    0.352    0.588    3.357
  300.850   99.163    0.349    0.597    3.498
  301.100  101.369    0.344    0.589    3.812
  301.350   99.918    0.365    0.592    4.199
  301.600  100.280    0.359    0.572    5.599
  301.850  101.314    0.335    0.526    7.448
  302.100   99.217    0.330    0.473    9.028
  302.350   91.684    0.328    0.458    9.364
  302.600   86.265    0.322    0.489    9.389
  302.850   84.971    0.321    0.523    9.198
  303.100   88.066    0.328    0.513    9.062
  303.350   89.884    0.330    0.500    8.988
  303.600   90.116    0.325    0.506    8.718
  303.850   89.213    0.323    0.497    8.493
  304.100   86.765    0.321    0.478    8.275
  304.350   84.713    0.319    0.465    7.956
  304.600   84.945    0.317    0.466    7.339
  304.850   87.381    0.304    0.480    8.223
  305.100   88.231    0.316    0.495    7.970
  305.350   89.618    0.311    0.502    7.731
  305.600   91.192    0.319    0.501    7.468
  305.850   94.708    0.318    0.492    6.794
  306.100   93.875    0.327    0.507    6.258
  306.350   93.197    0.331    0.514    5.237
  306.600   98.308    0.335    0.535    4.497
  306.850  101.857    0.308    0.549    4.109
  307.100  106.160    0.296    0.548    3.755
  307.350  106.096    0.284    0.541    3.593
  307.600  107.698    0.278    0.552    3.434
  307.850  108.990    0.297    0.546    3.380
  308.100  107.688    0.292    0.566    3.381
  308.350  104.867    0.299    0.576    3.377
  308.600  105.821    0.311    0.575    3.440
  308.850  107.825    0.323    0.563    3.472
  309.100  108.861    0.346    0.567    3.576
  309.350  105.722    0.400    0.559    3.878
  309.600  102.423    0.438    0.548    4.047
  309.850   99.126    0.436    0.526    4.309
  310.100   96.058    0.394    0.520    4.582
  310.350   95.929    0.427    0.536    4.725
  310.600   99.398    0.411    0.556    4.971
  310.850   98.582    0.404    0.552    5.101
  311.100   96.491    0.377    0.532    5.180
  311.350   92.865    0.386    0.519    5.250
  311.600   91.162    0.399    0.520    5.363
  311.850   90.994    0.341    0.526    5.207
  312.100   90.983    0.338    0.537    4.988
  312.350   91.296    0.353    0.538    4.492
  312.600   91.619    0.343    0.542    3.950
  312.850   92.170    0.345    0.557    3.499
  313.100   92.193    0.376    0.569    3.211
  313.350   91.505    0.403    0.587    3.098
  313.600   91.097    0.439    0.583    3.374
  313.850   91.257    0.450    0.571    4.057
  314.100   92.682    0.398    0.561    5.170
  314.350   90.163    0.348    0.548    6.318
  314.600   86.681    0.326    0.540    7.105
  314.850   84.900    0.324    0.529    7.427
  315.100   86.971    0.321    0.516    7.528
  315.350   91.316    0.315    0.510    7.313
