~VERSION INFORMATION
 VERS.                 2.0:   CWLS LOG ASCII STANDARD -VERSION 2.0
 WRAP.                  NO:   ONE LINE PER DEPTH STEP
~WELL INFORMATION BLOCK
#MNEM.UNIT           DATA                    DESCRIPTION OF MNEMONIC
#---------    -------------------            -------------------------------
# Generated from Intellog Unique Number	CW_73_75/WELL/3520
WELL.         MANNVILLE OIL                  : Well_name    - WELL
LOC .         00/07-08-073-03W5/0            : Location     - LOCATION
UWI .         00/07-08-073-03W5/0            : Uwi          - UNIQUE WELL ID
ENTR.         TIM                            : Entered      - ENTERED BY
SRVC.         SCHLUMBERGER                   : Scn          - SERVICE COMPANY
DATE.         05\15\92                       : Date         - LOG DATE
STRT.M        350                            : top_depth    - START DEPTH
STOP.M        620                            : bot_depth    - STOP DEPTH
STEP.M        0.25                           : increment    - STEP LENGTH
 NULL. -999.2500:NULL Value
~CURVE INFORMATION BLOCK
#MNEM UNIT       ERCB CURVE CODE    CURVE DESCRIPTION
#-----------   ------------------   ----------------------------------
DEPT.M        00 001 00 00         : DEPTH        - DEPTH
GR  .API      00 310 00 00         : GR           - GAMMA RAY
NPHI.V/V      00 330 00 00         : PHIN         - NEUTRON POROSITY (SANDSTONE)
DPHI.V/V      00 890 00 00         : PHID         - DENSITY POROSITY (SANDSTONE)
ILD .OHMM     00 120 00 00         : RESD         - DEEP RESISTIVITY (DIL)
~PARAMETER INFORMATION
#MNEM.UNIT           DATA             DESCRIPTION OF MNEMONIC
#---------         -----------     ------------------------------
GL  .M        590                  : gl           - GROUND LEVEL ELEVATION
EREF.M        593.5                : kb           - ELEVATION OF DEPTH REFERENCE
DATM.M        593.5                : datum        - DATUM ELEVATION
TDD .M        621                  : tdd          - TOTAL DEPTH DRILLER
RUN .         ONE                  : Run          - RUN NUMBER
ENG .         JO                   : Engineer     - RECORDING ENGINEER
WIT .         TIM                  : Witness      - WITNESSED BY
MUD .         GEL                  : Mud_type     - MUD TYPE
MATR.         SANDSTONE            : Logunit      - NEUTRON MATRIX
TMAX.C        28                   : BHT          - MAXIMUM RECORDED TEMPERATURE
BHTD.M        620                  : BHTDEP       - MAXIMUM RECORDED TEMPERATURE
RMT .C        15                   : MDTP         - TEMPERATURE OF MUD
MUDD.KG/M     1080                 : MWT          - MUD DENSITY
NEUT.         1                    : NEUTRON      - NEUTRON TYPE
RESI.         0                    : RESIST       - RESISTIVITY TYPE
RM  .OHMM     2.53                 : RM           - RESISTIVITY OF MUD
RMC .OHMM     2.78                 : RMC          - RESISTIVITY OF MUD CAKE
RMF .OHMM     2.33                 : RMF          - RESISTIVITY OF MUD FILTRATE
SUFT.C        4                    : SUFT         - SURFACE TEMPERATURE
~A  DEPTH       GR     PHIN     PHID     RESD
# ...
  480.500   73.767    0.420    0.275    3.641
  480.750   74.897    0.408    0.246    3.703
  481.000   75.423    0.414    0.235    3.759
  481.250   77.126    0.424    0.248    3.822
  481.500   78.240    0.427    0.254    3.886
  481.750   77.000    0.404    0.237    3.947
  482.000   80.469    0.396    0.221    3.941
  482.250   83.937    0.426    0.215    4.001
  482.500   84.463    0.428    0.222    3.994
  482.750   82.046    0.400    0.228    3.985
  483.000   80.218    0.390    0.225    3.974
  483.250   80.139    0.388    0.222    3.968
  483.500   83.577    0.395    0.220    3.955
  483.750   84.738    0.447    0.219    3.948
  484.000   87.618    0.471    0.218    3.940
  484.250   86.967    0.464    0.217    3.931
  484.500   84.519    0.452    0.215    3.922
  484.750   83.294    0.448    0.216    3.914
  485.000   82.627    0.448    0.216    3.836
  485.250   83.169    0.448    0.216    3.690
  485.500   83.075    0.450    0.217    3.549
  485.750   82.455    0.458    0.222    3.350
  486.000   81.200    0.466    0.249    3.164
  486.250   80.564    0.476    0.255    3.100
  486.500   78.736    0.441    0.292    2.978
  486.750   72.183    0.427    0.314    2.921
  487.000   67.412    0.420    0.317    2.860
  487.250   66.173    0.430    0.321    2.854
  487.500   65.521    0.449    0.327    2.899
  487.750   64.281    0.440    0.343    3.004
  488.000   61.849    0.413    0.350    3.223
  488.250   63.536    0.409    0.326    3.338
  488.500   67.005    0.417    0.299    3.584
  488.750   69.328    0.421    0.267    3.913
  489.000   76.327    0.425    0.251    4.055
  489.250   80.957    0.427    0.230    4.275
  489.500   79.113    0.436    0.216    4.344
  489.750   78.493    0.435    0.205    4.334
  490.000   80.180    0.379    0.213    4.246
  490.250   81.279    0.361    0.226    4.160
  490.500   81.248    0.334    0.236    3.925
  490.750   80.581    0.329    0.258    3.777
  491.000   78.737    0.358    0.275    3.500
  491.250   78.101    0.375    0.274    3.308
  491.500   76.862    0.390    0.258    3.065
  491.750   76.799    0.411    0.236    2.949
  492.000   77.309    0.437    0.244    2.835
  492.250   76.085    0.454    0.264    2.779
  492.500   67.178    0.443    0.287    2.724
  492.750   57.111    0.436    0.322    2.668
  493.000   54.105    0.438    0.334    2.663
  493.250   58.751    0.438    0.335    2.703
  493.500   62.808    0.437    0.333    2.748
  493.750   65.068    0.437    0.328    2.795
  494.000   65.609    0.437    0.324    2.893
  494.250   66.739    0.433    0.322    2.994
  494.500   66.073    0.428    0.329    3.099
  494.750   60.697    0.423    0.323    3.208
  495.000   57.692    0.424    0.316    3.378
  495.250   55.275    0.422    0.313    3.433
  495.500   54.035    0.427    0.320    3.488
  495.750   53.957    0.418    0.328    3.543
  496.000   53.925    0.404    0.339    3.537
  496.250   56.790    0.408    0.344    3.467
  496.500   60.847    0.415    0.330    3.395
  496.750   63.154    0.420    0.319    3.268
  497.000   66.018    0.421    0.317    3.083
  497.250   67.133    0.417    0.317    2.967
  497.500   68.247    0.416    0.318    2.906
  497.750   69.377    0.416    0.320    2.743
  498.000   71.653    0.417    0.315    2.637
  498.250   72.194    0.417    0.290    2.584
  498.500   73.309    0.417    0.287    2.677
  498.750   73.819    0.419    0.315    2.872
  499.000   72.579    0.426    0.313    3.029
  499.250   70.162    0.471    0.288    3.137
  499.500   72.454    0.462    0.281    3.366
  499.750   76.479    0.487    0.291    3.423
  500.000   77.036    0.499    0.309    3.606
  500.250   74.620    0.497    0.314    3.665
  500.500   71.010    0.459    0.312    3.725
  500.750   70.947    0.428    0.307    3.787
  501.000   70.296    0.423    0.301    3.708
  501.250   68.468    0.403    0.295    3.635
  501.500   67.816    0.391    0.295    3.429
  501.750   68.931    0.396    0.296    3.237
  502.000   70.649    0.407    0.293    3.115
  502.250   74.118    0.418    0.291    2.998
  502.500   78.763    0.426    0.292    2.936
  502.750   83.393    0.430    0.294    2.876
  503.000   85.669    0.431    0.294    2.868
  503.250   86.226    0.416    0.293    2.863
  503.500   84.971    0.391    0.292    2.857
  503.750   79.023    0.384    0.297    2.905
  504.000   73.075    0.412    0.302    2.952
  504.250   73.012    0.442    0.309    2.999
  504.500   76.481    0.462    0.308    2.990
  504.750   75.241    0.448    0.272    3.041
  505.000   72.220    0.418    0.226    3.085
  505.250   69.771    0.391    0.182    3.137
  505.500   70.329    0.365    0.173    3.190
  505.750   73.209    0.393    0.234    3.238
  506.000   78.458    0.400    0.279    3.293
  506.250   84.870    0.394    0.279    3.350
  506.500   88.322    0.394    0.278    3.465
  506.750   84.156    0.390    0.278    3.460
  507.000   71.114    0.392    0.285    3.516
  507.250   73.994    0.405    0.274    3.637
  507.500   78.639    0.406    0.269    3.765
  507.750   81.535    0.375    0.247    3.969
  508.000   80.884    0.380    0.239    4.110
  508.250   82.587    0.377    0.230    4.411
  508.500   84.878    0.377    0.225    4.485
  508.750   84.211    0.383    0.231    4.468
  509.000   83.544    0.393    0.236    4.463
  509.250   82.924    0.383    0.235    4.453
  509.500   82.257    0.367    0.229    4.446
  509.750   77.486    0.368    0.220    4.433
  510.000   72.127    0.371    0.218    4.503
  510.250   73.830    0.372    0.218    4.835
  510.500   77.871    0.365    0.217    5.194
  510.750   79.590    0.345    0.214    5.785
  511.000   82.470    0.351    0.212    6.447
  511.250   82.995    0.359    0.210    7.181
  511.500   82.933    0.374    0.209    8.297
  511.750   81.693    0.382    0.204    9.758
  512.000   78.099    0.335    0.182   10.483
  512.250   69.193    0.310    0.093   10.264
  512.500   61.463    0.300    0.064    9.523
  512.750   64.359    0.208    0.065    8.201
  513.000   70.181    0.314    0.154    7.331
  513.250   77.770    0.413    0.196    6.553
  513.500   81.827    0.435    0.235    5.966
  513.750   74.702    0.434    0.253    5.330
  514.000   73.462    0.415    0.259    4.943
  514.250   73.972    0.408    0.262    4.495
  514.500   75.086    0.415    0.262    4.326
  514.750   76.216    0.439    0.263    4.083
  515.000   78.492    0.452    0.265    4.077
  515.250   79.034    0.430    0.260    4.070
  515.500   80.132    0.416    0.246    4.061
  515.750   81.820    0.398    0.227    4.203
  516.000   82.965    0.388    0.215    4.344
  516.250   87.611    0.389    0.209    4.417
  516.500   91.079    0.390    0.207    4.654
  516.750   90.428    0.386    0.199    4.732
  517.000   88.584    0.375    0.189    4.724
  517.250   87.360    0.371    0.185    4.796
  517.500   86.105    0.375    0.192    4.790
  517.750   86.042    0.380    0.194    4.693
  518.000   87.141    0.377    0.198    4.514
  518.250   88.859    0.379    0.198    4.342
  518.500   91.739    0.385    0.197    4.177
  518.750   94.603    0.401    0.196    4.090
  519.000   93.936    0.417    0.198    3.931
  519.250   93.285    0.397    0.201    3.921
  519.500   93.254    0.394    0.205    3.843
  519.750   89.660    0.395    0.205    3.837
  520.000   73.103    0.400    0.200    3.824
  520.250   74.217    0.436    0.205    3.820
  520.500   81.217    0.435    0.219    3.812
  520.750   88.201    0.417    0.190    3.801
  521.000   88.727    0.415    0.185    3.793
  521.250   88.664    0.414    0.189    3.787
  521.500   88.601    0.401    0.198    3.848
  521.750   88.554    0.390    0.198    3.838
  522.000   89.637    0.383    0.199    3.972
  522.250   90.194    0.409    0.195    4.183
  522.500   90.132    0.417    0.190    4.256
  522.750   90.069    0.416    0.183    4.564
  523.000   90.006    0.390    0.182    4.644
  523.250   89.943    0.382    0.186    4.895
  523.500   85.172    0.373    0.188    5.067
  523.750   85.094    0.373    0.191    5.242
