~VERSION INFORMATION
 VERS.                 2.0:   CWLS LOG ASCII STANDARD -VERSION 2.0
 WRAP.                  NO:   ONE LINE PER DEPTH STEP
~WELL INFORMATION BLOCK
#MNEM.UNIT           DATA                    DESCRIPTION OF MNEMONIC
#---------    -------------------            -------------------------------
# Generated from Intellog Unique Number	CS_67_68/WELL/774
WELL.         MERLAND EXPLORATION            : Well_name    - WELL
LOC .         00/07-20-068-10W4/0            : Location     - LOCATION
UWI .         00/07-20-068-10W4/0            : Uwi          - UNIQUE WELL ID
ENTR.         SP                             : Entered      - ENTERED BY
SRVC.         SCHLUMBERGER                   : Scn          - SERVICE COMPANY
STRT.M        375                            : top_depth    - START DEPTH
STOP.M        615                            : bot_depth    - STOP DEPTH
STEP.M        0.25                           : increment    - STEP LENGTH
 NULL. -999.2500:NULL Value
~CURVE INFORMATION BLOCK
#MNEM UNIT       ERCB CURVE CODE    CURVE DESCRIPTION
#-----------   ------------------   ----------------------------------
DEPT.M        00 001 00 00         : DEPTH        - DEPTH
ILD .OHMM     00 120 00 00         : RESD         - DEEP RESISTIVITY (DIL)
DPHI.V/V      00 890 00 00         : PHID         - DENSITY POROSITY (LIMESTONE)
NPHI.V/V      00 330 00 00         : PHIN         - NEUTRON POROSITY (LIMESTONE)
GR  .API      00 310 00 00         : GR           - GAMMA RAY
~PARAMETER INFORMATION
#MNEM.UNIT           DATA             DESCRIPTION OF MNEMONIC
#---------         -----------     ------------------------------
GL  .M        690.3                : gl           - GROUND LEVEL ELEVATION
EREF.M        693.05               : kb           - ELEVATION OF DEPTH REFERENCE
DATM.M        690.3                : datum        - DATUM ELEVATION
TDD .M        616                  : tdd          - TOTAL DEPTH DRILLER
RUN .         ONE                  : Run          - RUN NUMBER
ENG .         BILL                 : Engineer     - RECORDING ENGINEER
WIT .         JIM                  : Witness      - WITNESSED BY
MUD .         GEL                  : Mud_type     - MUD TYPE
MATR.         LIMESTONE            : Logunit      - NEUTRON MATRIX
TMAX.C        26                   : BHT          - MAXIMUM RECORDED TEMPERATURE
BHTD.M        616                  : BHTDEP       - MAXIMUM RECORDED TEMPERATURE
MATR.         1                    : LOGUNIT      - NEUTRON MATRIX
RMT .C        25                   : MDTP         - TEMPERATURE OF MUD
NEUT.         1                    : NEUTRON      - NEUTRON TYPE
RESI.         0                    : RESIST       - RESISTIVITY TYPE
RMC .OHMM     0.25                 : RMC          - RESISTIVITY OF MUD CAKE
RMF .OHMM     0.25                 : RMF          - RESISTIVITY OF MUD FILTRATE
SUFT.C        15                   : SUFT         - SURFACE TEMPERATURE
~A  DEPTH     RESD     PHID     PHIN       GR
# ...
  505.500    3.840    0.236    0.441   89.701
  505.750    3.782    0.223    0.432   91.899
  506.000    3.733    0.228    0.430   94.525
  506.250    3.691    0.219    0.444   95.871
  506.500    3.622    0.223    0.457   96.181
  506.750    3.594    0.227    0.464   95.091
  507.000    3.587    0.229    0.468   94.368
  507.250    3.606    0.236    0.465   94.010
  507.500    3.618    0.233    0.465   94.442
  507.750    3.637    0.230    0.467   95.484
  508.000    3.650    0.224    0.470   94.821
  508.250    3.710    0.223    0.470   95.315
  508.500    3.751    0.223    0.459   97.209
  508.750    3.806    0.223    0.455   98.495
  509.000    3.833    0.220    0.451   99.292
  509.250    3.839    0.195    0.450   99.786
  509.500    3.839    0.193    0.456   97.722
  509.750    3.816    0.199    0.465   93.893
  510.000    3.801    0.224    0.481   91.891
  510.250    3.800    0.238    0.489   92.689
  510.500    3.834    0.243    0.490   93.975
  510.750    3.891    0.230    0.472   93.859
  511.000    3.977    0.220    0.455   89.909
  511.250    4.036    0.225    0.462   89.550
  511.500    4.020    0.230    0.476   94.305
  511.750    4.026    0.216    0.482   96.139
  512.000    4.003    0.205    0.474   96.937
  512.250    3.878    0.214    0.469   98.222
  512.500    3.481    0.218    0.460  100.421
  512.750    3.167    0.220    0.453   96.652
  513.000    2.951    0.214    0.447  100.617
  513.250    2.719    0.205    0.446  104.277
  513.500    2.552    0.215    0.472  107.145
  513.750    2.352    0.240    0.512  108.916
  514.000    2.196    0.256    0.554  110.627
  514.250    2.046    0.263    0.557  111.060
  514.500    1.903    0.249    0.566  105.953
  514.750    1.776    0.259    0.574  107.238
  515.000    1.695    0.264    0.562  110.289
  515.250    1.639    0.271    0.546  113.523
  515.500    1.633    0.292    0.537  115.660
  515.750    1.675    0.278    0.563  111.649
  516.000    1.732    0.265    0.586  107.637
  516.250    1.833    0.254    0.596  105.452
  516.500    1.923    0.246    0.583  105.945
  516.750    2.048    0.240    0.540  102.664
  517.000    2.137    0.222    0.518  100.540
  517.250    2.213    0.228    0.508  101.582
  517.500    2.326    0.242    0.514  103.415
  517.750    2.536    0.253    0.519  104.457
  518.000    3.024    0.219    0.504  100.141
  518.250    3.707    0.219    0.481   94.121
  518.500    4.435    0.213    0.455   97.111
  518.750    5.190    0.170    0.418   94.865
  519.000    5.789    0.138    0.402   87.445
  519.250    6.420    0.110    0.393   81.059
  519.500    6.835    0.102    0.413   74.977
  519.750    7.144    0.050    0.362   67.861
  520.000    6.534    0.035    0.260   63.850
  520.250    5.540    0.072    0.292   71.285
  520.500    4.551    0.122    0.389   78.963
  520.750    4.019    0.143    0.427   85.056
  521.000    3.575    0.156    0.459   91.395
  521.250    3.437    0.182    0.473   94.384
  521.500    3.342    0.214    0.462   96.886
  521.750    3.286    0.217    0.453   97.319
  522.000    3.285    0.219    0.444   92.760
  522.250    3.303    0.218    0.436   93.498
  522.500    3.326    0.212    0.431   94.478
  522.750    3.375    0.210    0.442   95.642
  523.000    3.419    0.216    0.442   96.076
  523.250    3.488    0.219    0.430   96.082
  523.500    3.546    0.213    0.422   95.844
  523.750    3.598    0.218    0.434   95.670
  524.000    3.684    0.218    0.445   95.736
  524.250    3.773    0.203    0.442   95.804
  524.500    3.915    0.187    0.432   96.114
  524.750    4.069    0.167    0.423   95.817
  525.000    4.053    0.132    0.423   93.449
  525.250    3.956    0.170    0.436   94.064
  525.500    3.810    0.200    0.448   93.037
  525.750    3.712    0.209    0.457   91.278
  526.000    3.596    0.209    0.449   95.242
  526.250    3.555    0.197    0.446   93.970
  526.500    3.568    0.202    0.451   93.794
  526.750    3.593    0.211    0.454   94.836
  527.000    3.612    0.218    0.458   95.999
  527.250    3.618    0.237    0.458   97.284
  527.500    3.637    0.231    0.456   98.021
  527.750    3.637    0.220    0.456   98.272
  528.000    3.622    0.223    0.461   98.705
  528.250    3.634    0.217    0.454   99.016
  528.500    3.620    0.204    0.438   99.022
  528.750    3.599    0.195    0.419   96.898
  529.000    3.571    0.189    0.403   98.001
  529.250    3.551    0.193    0.420  100.929
  529.500    3.543    0.214    0.436   99.962
  529.750    3.536    0.220    0.449   98.630
  530.000    3.535    0.224    0.459   98.028
  530.250    3.534    0.229    0.468   98.643
  530.500    3.520    0.235    0.480  101.268
  530.750    3.539    0.242    0.415  104.319
  531.000    3.598    0.239    0.408  106.455
  531.250    3.739    0.186    0.408  109.141
  531.500    3.923    0.180    0.409  111.217
  531.750    4.070    0.187    0.416  108.485
  532.000    4.262    0.134    0.424  105.447
  532.250    4.364    0.139    0.435  103.140
  532.500    4.267    0.163    0.395   92.250
  532.750    4.043    0.086    0.353   82.334
  533.000    3.816    0.048    0.296   77.409
  533.250    3.636    0.085    0.282   84.295
  533.500    3.490    0.138    0.390   91.363
  533.750    3.431    0.184    0.424   94.840
  534.000    3.527    0.211    0.433   93.326
  534.250    3.632    0.210    0.412   92.053
  534.500    3.672    0.198    0.382   89.808
  534.750    3.564    0.166    0.362   87.136
  535.000    3.159    0.116    0.347   80.506
  535.250    2.619    0.126    0.365   77.286
  535.500    2.241    0.176    0.382   81.493
  535.750    2.034    0.217    0.399   88.624
  536.000    1.864    0.197    0.419   93.805
  536.250    1.786    0.199    0.437   97.708
  536.500    1.721    0.237    0.466   98.688
  536.750    1.676    0.266    0.505   96.808
  537.000    1.660    0.275    0.538   96.754
  537.250    1.657    0.251    0.528   98.891
  537.500    1.694    0.261    0.520  101.516
  537.750    1.754    0.248    0.514  103.836
  538.000    1.806    0.249    0.534  105.303
  538.250    1.877    0.251    0.538  105.066
  538.500    1.977    0.240    0.538  107.327
  538.750    2.032    0.236    0.518  108.916
  539.000    2.046    0.244    0.508  105.940
  539.250    2.057    0.237    0.528  105.642
  539.500    2.076    0.206    0.523  102.543
  539.750    2.202    0.180    0.502  102.186
  540.000    2.511    0.234    0.507  102.009
  540.250    2.719    0.238    0.520   93.188
  540.500    3.089    0.232    0.531   88.020
  540.750    3.588    0.216    0.519   94.358
  541.000    3.987    0.147    0.426   87.912
  541.250    4.229    0.064    0.361   85.057
  541.500    3.790    0.142    0.331   88.473
  541.750    3.492    0.187    0.374   95.602
  542.000    3.309    0.197    0.400  104.073
  542.250    3.200    0.189    0.417  107.671
  542.500    3.094    0.188    0.434  109.077
  542.750    3.070    0.199    0.445  107.014
  543.000    2.990    0.195    0.455  104.646
  543.250    2.935    0.185    0.460  105.323
  543.500    2.796    0.165    0.478  107.278
  543.750    2.724    0.136    0.494  110.329
  544.000    2.658    0.209    0.515  112.709
  544.250    2.604    0.234    0.514  113.385
  544.500    2.551    0.223    0.507  112.236
  544.750    2.531    0.214    0.492  112.425
  545.000    2.498    0.208    0.485  113.892
  545.250    2.484    0.207    0.474  116.882
  545.500    2.465    0.210    0.503  120.847
  545.750    2.450    0.207    0.544  120.549
  546.000    2.445    0.218    0.544  118.365
  546.250    2.431    0.202    0.532  116.544
  546.500    2.439    0.192    0.521  114.420
  546.750    2.475    0.186    0.532  113.513
  547.000    2.558    0.219    0.543  113.459
  547.250    2.699    0.209    0.538  106.525
  547.500    2.982    0.218    0.525   97.461
  547.750    3.369    0.229    0.529  104.590
  548.000    3.758    0.219    0.538  115.860
  548.250    4.137    0.203    0.527  106.978
  548.500    4.673    0.179    0.498   96.940
  548.750    5.183    0.152    0.433   89.276
