~VERSION INFORMATION
 VERS.                 2.0:   CWLS LOG ASCII STANDARD -VERSION 2.0
 WRAP.                  NO:   ONE LINE PER DEPTH STEP
~WELL INFORMATION BLOCK
#MNEM.UNIT           DATA                    DESCRIPTION OF MNEMONIC
#---------    -------------------            -------------------------------
# Generated from Intellog Unique Number	CS_77_79/WELL/842
WELL.         DOME PETROLEUM LIMITED         : Well_name    - WELL
LOC .         00/02-25-077-10W4/0            : Location     - LOCATION
UWI .         00/02-25-077-10W4/0            : Uwi          - UNIQUE WELL ID
ENTR.         SP                             : Entered      - ENTERED BY
SRVC.         SCHLUMBERGER                   : Scn          - SERVICE COMPANY
STRT.M        190                            : top_depth    - START DEPTH
STOP.M        430                            : bot_depth    - STOP DEPTH
STEP.M        0.25                           : increment    - STEP LENGTH
 NULL. -999.2500:NULL Value
~CURVE INFORMATION BLOCK
#MNEM UNIT       ERCB CURVE CODE    CURVE DESCRIPTION
#-----------   ------------------   ----------------------------------
DEPT.M        00 001 00 00         : DEPTH        - DEPTH
GR  .API      00 310 00 00         : GR           - GAMMA RAY
DPHI.V/V      00 890 00 00         : PHID         - DENSITY POROSITY (LIMESTONE)
NPHI.V/V      00 330 00 00         : PHIN         - NEUTRON POROSITY (LIMESTONE)
ILD .OHMM     00 120 00 00         : RESD         - DEEP RESISTIVITY (DIL)
~PARAMETER INFORMATION
#MNEM.UNIT           DATA             DESCRIPTION OF MNEMONIC
#---------         -----------     ------------------------------
GL  .M        610.6                : gl           - GROUND LEVEL ELEVATION
EREF.M        614.26               : kb           - ELEVATION OF DEPTH REFERENCE
DATM.M        610.6                : datum        - DATUM ELEVATION
TDD .M        450.3                : tdd          - TOTAL DEPTH DRILLER
RUN .         ONE                  : Run          - RUN NUMBER
ENG .         BILL                 : Engineer     - RECORDING ENGINEER
WIT .         JIM                  : Witness      - WITNESSED BY
MUD .         GEL                  : Mud_type     - MUD TYPE
MATR.         LIMESTONE            : Logunit      - NEUTRON MATRIX
TMAX.C        22                   : BHT          - MAXIMUM RECORDED TEMPERATURE
BHTD.M        450.3                : BHTDEP       - MAXIMUM RECORDED TEMPERATURE
MATR.         1                    : LOGUNIT      - NEUTRON MATRIX
RMT .C        25                   : MDTP         - TEMPERATURE OF MUD
NEUT.         1                    : NEUTRON      - NEUTRON TYPE
RESI.         0                    : RESIST       - RESISTIVITY TYPE
RMC .OHMM     0.25                 : RMC          - RESISTIVITY OF MUD CAKE
RMF .OHMM     0.25                 : RMF          - RESISTIVITY OF MUD FILTRATE
SUFT.C        15                   : SUFT         - SURFACE TEMPERATURE
~A  DEPTH       GR     PHID     PHIN     RESD
# ...
  277.000   71.133    0.268    0.483   19.281
  277.250   72.380    0.276    0.464   15.910
  277.500   73.012    0.290    0.436   14.451
  277.750   71.207    0.309    0.428   11.699
  278.000   70.618    0.293    0.418   10.228
  278.250   85.287    0.257    0.438    9.288
  278.500   89.569    0.235    0.459    7.814
  278.750   93.865    0.233    0.482    6.206
  279.000   94.500    0.240    0.502    5.529
  279.250   95.138    0.247    0.491    4.925
  279.500   96.991    0.244    0.498    4.388
  279.750   98.835    0.242    0.514    3.984
  280.000  102.520    0.251    0.502    3.760
  280.250  104.374    0.254    0.493    3.413
  280.500  103.788    0.259    0.492    3.283
  280.750  102.592    0.263    0.528    3.097
  281.000  105.059    0.258    0.552    3.037
  281.250  106.304    0.253    0.564    2.863
  281.500  103.882    0.254    0.536    2.861
  281.750  102.082    0.260    0.521    2.859
  282.000  103.938    0.265    0.510    2.856
  282.250  102.125    0.270    0.500    2.854
  282.500   96.053    0.282    0.491    2.963
  282.750   93.028    0.289    0.480    3.257
  283.000   91.221    0.300    0.472    4.015
  283.250   88.196    0.309    0.458    5.446
  283.500   82.127    0.314    0.441    6.587
  283.750   79.710    0.311    0.442    7.104
  284.000   76.688    0.309    0.456    7.517
  284.250   75.491    0.306    0.456    7.953
  284.500   75.508    0.305    0.459    8.099
  284.750   77.977    0.310    0.464    7.937
  285.000   80.439    0.311    0.479    7.635
  285.250   81.075    0.311    0.485    7.067
  285.500   80.485    0.315    0.493    6.541
  285.750   81.122    0.304    0.503    5.716
  286.000   83.588    0.290    0.510    5.093
  286.250   87.267    0.278    0.519    4.625
  286.500   91.559    0.274    0.525    4.200
  286.750   94.022    0.274    0.521    3.813
  287.000   94.657    0.260    0.486    3.667
  287.250   95.287    0.252    0.495    3.328
  287.500   99.585    0.247    0.501    3.201
  287.750  100.824    0.247    0.500    3.139
  288.000  100.853    0.247    0.498    3.076
  288.250  100.262    0.250    0.494    3.074
  288.500   98.454    0.255    0.521    3.072
  288.750   97.873    0.258    0.513    3.250
  289.000   97.291    0.263    0.496    3.438
  289.250   96.088    0.283    0.478    3.780
  289.500   91.844    0.305    0.471    4.236
  289.750   88.821    0.293    0.475    4.837
  290.000   89.454    0.279    0.483    5.022
  290.250   90.086    0.270    0.483    5.018
  290.500   93.765    0.255    0.480    4.734
  290.750   96.230    0.245    0.475    4.381
  291.000   95.046    0.239    0.464    4.213
  291.250   95.060    0.232    0.454    4.129
  291.500   93.867    0.228    0.445    4.127
  291.750   92.063    0.233    0.436    4.284
  292.000   91.472    0.234    0.426    4.279
  292.250   91.503    0.239    0.422    4.194
  292.500   92.749    0.237    0.457    4.111
  292.750   93.982    0.232    0.472    3.952
  293.000   97.057    0.231    0.477    3.876
  293.250  100.133    0.245    0.497    3.726
  293.500  101.988    0.247    0.504    3.584
  293.750  102.011    0.252    0.499    3.446
  294.000  101.418    0.256    0.497    3.379
  294.250  104.494    0.265    0.504    3.249
  294.500  107.564    0.275    0.556    3.125
  294.750  109.421    0.281    0.575    3.004
  295.000  108.224    0.282    0.580    3.002
  295.250  107.025    0.274    0.556    3.058
  295.500  107.057    0.269    0.535    3.361
  295.750  106.469    0.255    0.527    3.695
  296.000  103.438    0.250    0.504    4.140
  296.250   95.541    0.247    0.469    4.639
  296.500   92.511    0.245    0.469    5.400
  296.750   88.273    0.248    0.469    6.406
  297.000   88.903    0.255    0.462    7.044
  297.250   88.321    0.261    0.456    8.044
  297.500   84.679    0.241    0.442    8.843
  297.750   77.386    0.153    0.418    9.178
  298.000   70.097    0.104    0.322    8.175
  298.250   63.410    0.104    0.327    8.016
  298.500   62.830    0.169    0.348    7.563
  298.750   75.045    0.262    0.363    6.999
  299.000   86.657    0.270    0.442    6.476
  299.250   87.897    0.268    0.441    6.350
  299.500   87.920    0.269    0.437    6.106
  299.750   87.336    0.263    0.438    5.986
  300.000   88.585    0.256    0.442    5.868
  300.250   90.434    0.252    0.448    5.752
  300.500   88.626    0.249    0.451    5.745
  300.750   84.386    0.249    0.455    5.852
  301.000   86.848    0.247    0.455    5.960
  301.250   90.542    0.239    0.452    6.070
  301.500   91.781    0.249    0.451    6.181
  301.750   92.406    0.268    0.441    6.416
  302.000   91.820    0.274    0.439    6.535
  302.250   86.973    0.274    0.439    6.655
  302.500   85.773    0.275    0.457    6.777
  302.750   87.021    0.280    0.451    6.770
  303.000   88.875    0.277    0.445    6.764
  303.250   90.108    0.268    0.453    6.758
  303.500   88.915    0.268    0.461    6.881
  303.750   85.282    0.268    0.448    7.009
  304.000   85.912    0.252    0.452    7.003
  304.250   88.378    0.245    0.449    6.733
  304.500   92.065    0.243    0.452    6.113
  304.750   94.523    0.240    0.454    5.770
  305.000   96.376    0.238    0.460    5.341
  305.250   95.787    0.235    0.475    5.038
  305.500   92.163    0.233    0.479    4.938
  305.750   92.185    0.229    0.475    4.841
  306.000   92.816    0.225    0.470    4.654
  306.250   92.838    0.223    0.465    4.651
  306.500   98.358    0.231    0.466    4.473
  306.750   98.981    0.246    0.464    4.299
  307.000   95.958    0.282    0.454    4.136
  307.250   98.425    0.293    0.483    3.902
  307.500  102.721    0.293    0.499    3.544
  307.750  105.174    0.293    0.509    3.157
  308.000  107.028    0.295    0.515    2.759
  308.250  105.226    0.304    0.528    2.554
  308.500  100.976    0.302    0.538    2.275
  308.750   94.297    0.299    0.546    2.106
  309.000   91.885    0.298    0.539    2.025
  309.250   88.860    0.299    0.528    2.227
  309.500   85.229    0.292    0.493    2.693
  309.750   83.422    0.287    0.444    3.516
  310.000   83.437    0.289    0.430    4.503
  310.250   84.685    0.330    0.411    5.446
  310.500   82.267    0.359    0.386    6.460
  310.750   80.466    0.360    0.369    6.582
  311.000   81.097    0.343    0.355    6.574
  311.250   81.119    0.331    0.359    6.446
  311.500   78.096    0.307    0.374    6.195
  311.750   76.291    0.290    0.432    6.075
  312.000   77.531    0.279    0.448    6.071
  312.250   79.994    0.291    0.441    5.951
  312.500   78.800    0.307    0.446    5.944
  312.750   75.773    0.312    0.436    5.939
  313.000   73.365    0.313    0.423    5.934
  313.250   71.563    0.316    0.410    5.814
  313.500   70.368    0.320    0.396    5.811
  313.750   70.380    0.353    0.381    5.695
  314.000   69.188    0.383    0.363    5.691
  314.250   66.162    0.375    0.372    5.686
  314.500   61.918    0.362    0.417    5.572
  314.750   61.333    0.357    0.449    5.569
  315.000   60.140    0.353    0.441    5.459
  315.250   58.337    0.346    0.434    5.349
  315.500   57.139    0.345    0.421    5.245
  315.750   56.548    0.360    0.413    5.240
  316.000   57.182    0.355    0.411    5.235
  316.250   59.651    0.351    0.414    5.231
  316.500   61.504    0.349    0.422    5.227
  316.750   60.912    0.352    0.426    5.323
  317.000   58.508    0.361    0.431    5.420
  317.250   57.920    0.365    0.441    5.518
  317.500   57.326    0.367    0.443    5.513
  317.750   56.738    0.366    0.425    5.615
  318.000   57.378    0.362    0.423    5.610
  318.250   58.620    0.356    0.427    5.713
  318.500   60.472    0.362    0.430    5.708
  318.750   61.103    0.364    0.422    5.813
  319.000   59.917    0.362    0.419    5.808
  319.250   59.940    0.362    0.420    5.915
  319.500   59.958    0.365    0.432    5.911
  319.750   60.590    0.377    0.434    5.905
  320.000   61.228    0.379    0.438    5.899
  320.250   61.248    0.376    0.433    5.783
