~VERSION INFORMATION
 VERS.                 2.0:   CWLS LOG ASCII STANDARD -VERSION 2.0
 WRAP.                  NO:   ONE LINE PER DEPTH STEP
~WELL INFORMATION BLOCK
#MNEM.UNIT           DATA                    DESCRIPTION OF MNEMONIC
#---------    -------------------            -------------------------------
# Generated from Intellog Unique Number	CW_70_72/WELL/3006
NULL.         -999.25                        : NULL_VALUE
WELL.         GAO HONDO 06-14                : Well_name    - WELL              
LOC .         06-14-070-01W5                 : Location     - LOCATION          
UWI .         00/06-14-070-01W5/0              : Uwi          - UNIQUE WELL ID    
ENTR.         J                              : Entered      - ENTERED BY        
SRVC.         SCHLUMBERGER                   : Scn          - SERVICE COMPANY   
DATE.         1 JAN 76                       : Date         - LOG DATE          
STRT.M        438.912                        : top_depth    - START DEPTH       
STOP.M        676.662                        : bot_depth    - STOP DEPTH        
STEP.M        0.25                           : increment    - STEP LENGTH       
~CURVE INFORMATION BLOCK
#MNEM UNIT       ERCB CURVE CODE    CURVE DESCRIPTION
#-----------   ------------------   ----------------------------------
DEPT.M        00 001 00 00         : DEPTH        - DEPTH                       
ILD .OHMM     00 120 00 00         : RESD         - DEEP RESISTIVITY (DIL)      
CALI.MM       00 280 01 00         : CAL          - CALIPER                     
GR  .API      00 310 00 00         : GR           - GAMMA RAY                   
NPHI.V/V      00 330 00 00         : PHIN         - NEUTRON POROSITY (SANDSTONE)
DPHI.V/V      00 890 00 00         : PHID         - DENSITY POROSITY (SANDSTONE)
~PARAMETER INFORMATION       
#MNEM.UNIT           DATA             DESCRIPTION OF MNEMONIC
#---------         -----------     ------------------------------
GL  .M        604.723              : gl           - GROUND LEVEL ELEVATION      
EREF.M        607.771              : kb           - ELEVATION OF DEPTH REFERENCE
DATM.M        604.723              : datum        - DATUM ELEVATION             
TDD .M        688.848              : tdd          - TOTAL DEPTH DRILLER         
RUN .         ONE                  : Run          - RUN NUMBER                  
ENG .         SAWASE               : Engineer     - RECORDING ENGINEER          
WIT .         CUMMIN               : Witness      - WITNESSED BY                
BASE.         EDM                  : Branch       - HOME BASE OF LOGGING UNIT   
MATR.         SANDSTONE            : Logunit      - NEUTRON MATRIX              
TMAX.C        29.4444              : BHT          - MAXIMUM RECORDED TEMPERATURE
BHTD.M        690.067              : BHTDEP       - MAXIMUM RECORDED TEMPERATURE
RMT .C        17.7778              : MDTP         - TEMPERATURE OF MUD          
MUDD.KG/M     1188                 : MWT          - MUD DENSITY                 
NEUT.         1                    : NEUTRON      - NEUTRON TYPE                
RESI.         0                    : RESIST       - RESISTIVITY TYPE            
RM  .OHMM     2.5                  : RM           - RESISTIVITY OF MUD          
RMC .OHMM     2.5                  : RMC          - RESISTIVITY OF MUD CAKE     
RMF .OHMM     2.25                 : RMF          - RESISTIVITY OF MUD FILTRATE 
SUFT.C        -17.7778             : SUFT         - SURFACE TEMPERATURE         
~A  DEPTH     RESD      CAL       GR     PHIN     PHID
# ...
  657.912    7.290  164.453   69.662    0.215    0.161
  658.162    7.312  162.909   66.255    0.230    0.186
  658.412    7.042  161.571   78.614    0.244    0.198
  658.662    6.386  160.749   84.399    0.260    0.208
  658.912    5.643  160.442   85.678    0.271    0.217
  659.162    5.126  160.238   84.097    0.276    0.207
  659.412    5.002  160.240   85.133    0.281    0.180
  659.662    5.167  161.067   89.518    0.283    0.189
  659.912    5.325  162.925   95.363    0.269    0.208
  660.162    5.569  164.886  100.844    0.261    0.185
  660.412    5.752  167.259  107.481    0.251    0.163
  660.662    5.664  169.426  109.308    0.240    0.132
  660.912    5.319  169.429   94.699    0.272    0.140
  661.162    5.132  167.060   78.812    0.255    0.168
  661.412    5.007  163.454   77.961    0.243    0.156
  661.662    4.921  161.086   81.067    0.223    0.148
  661.912    4.864  159.748   85.695    0.257    0.201
  662.162    4.842  160.060   89.957    0.274    0.200
  662.412    4.803  161.092   94.525    0.257    0.184
  662.662    4.825  163.466   98.361    0.261    0.192
  662.912    5.038  165.942   97.571    0.271    0.154
  663.162    5.467  168.212   95.564    0.259    0.134
  663.412    5.878  168.730   97.391    0.253    0.129
  663.662    6.217  168.526   87.409    0.247    0.125
  663.912    6.292  166.364   82.297    0.239    0.116
  664.162    6.139  163.377   90.577    0.244    0.104
  664.412    5.848  163.276   99.467    0.256    0.121
  664.662    5.666  164.618  105.190    0.256    0.141
  664.912    5.641  166.476  114.384    0.250    0.134
  665.162    5.697  168.437  106.837    0.243    0.115
  665.412    5.863  169.367   97.341    0.258    0.103
  665.662    6.022  169.369   91.072    0.269    0.150
  665.912    6.084  167.825   89.369    0.272    0.177
  666.162    6.079  165.972   94.484    0.255    0.153
  666.412    6.040  163.294  103.678    0.247    0.141
  666.662    5.969  165.255  110.619    0.240    0.114
  666.912    5.921  168.556  117.561    0.248    0.079
  667.162    5.916  169.383  120.910    0.254    0.071
  667.412    5.944  168.973  111.415    0.257    0.095
  667.662    6.060  168.769  105.694    0.258    0.113
  667.912    6.328  168.256  100.399    0.250    0.094
  668.162    6.186  168.052   97.234    0.248    0.089
  668.412    5.872  167.848   97.175    0.252    0.145
  668.662    5.635  167.851  100.221    0.246    0.148
  668.912    5.409  168.163  103.692    0.241    0.139
  669.162    5.228  168.371  109.415    0.238    0.134
  669.412    5.282  168.682  114.591    0.238    0.127
  669.662    5.566  169.200  120.376    0.243    0.123
  669.912    5.876  169.718  126.221    0.254    0.122
  670.162    5.958  168.277  134.380    0.269    0.113
  670.412    5.686  163.125  140.956    0.295    0.091
  670.662    5.291  162.406  133.896    0.317    0.066
  670.912    4.788  166.222  120.261    0.288    0.047
  671.162    3.998  168.286  121.115    0.266    0.089
  671.412    3.040  167.361  128.969    0.311    0.060
  671.662    2.918  166.229  133.171    0.340    0.037
  671.912    3.173  165.613  141.695    0.348    0.063
  672.162    3.386  165.306  143.523    0.341    0.086
  672.412    3.756  165.927  135.671    0.346    0.069
  672.662    4.322  166.754  126.602    0.356    0.032
  672.912    4.954  166.138  116.132    0.359    0.015
  673.162    5.586  165.315  104.263    0.346    0.035
  673.412    6.370  162.946   88.923    0.313    0.019
  673.662    6.848  159.959   68.835    0.272   -0.004
  673.912    7.098  159.034   66.706    0.182    0.029
  674.162    6.702  158.315   57.941    0.197    0.027
  674.412    6.143  158.317   48.750    0.226    0.056
  674.662    5.449  158.525   42.116    0.267    0.070
  674.912    4.950  158.322   35.481    0.284    0.078
  675.162    4.522  158.633   29.639    0.271    0.080
  675.412    4.169  159.460   25.805    0.293    0.108
  675.662    3.928  160.493   25.989    0.311    0.137
  675.912    3.701  160.599   28.973    0.307    0.127
  676.162    3.559  159.261   32.019    0.306    0.106
  676.412    3.472  158.644   32.446    0.319    0.102
  676.662    3.425  158.028   30.560    0.344    0.119
