~VERSION INFORMATION
 VERS.                 2.0:   CWLS LOG ASCII STANDARD -VERSION 2.0
 WRAP.                  NO:   ONE LINE PER DEPTH STEP
~WELL INFORMATION BLOCK
#MNEM.UNIT           DATA                    DESCRIPTION OF MNEMONIC
#---------    -------------------            -------------------------------
# Generated from Intellog Unique Number	CC_80_83/WELL/1050
LOC .         00/04-30-083-06W4/0            : Location     - LOCATION
UWI .         00/04-30-083-06W4/0            : Uwi          - UNIQUE WELL ID
ENTR.         DW                             : Entered      - ENTERED BY
SRVC.         SCHLUMBERGER                   : Scn          - SERVICE COMPANY
STRT.M        110                            : top_depth    - START DEPTH
STOP.M        364.75                         : bot_depth    - STOP DEPTH
STEP.M        0.25                           : increment    - STEP LENGTH
 NULL. -999.2500:NULL Value
~CURVE INFORMATION BLOCK
#MNEM UNIT       ERCB CURVE CODE    CURVE DESCRIPTION
#-----------   ------------------   ----------------------------------
DEPT.M        00 001 00 00         : DEPTH        - DEPTH
GR  .API      00 310 00 00         : GR           - GAMMA RAY
DPHI.V/V      00 890 00 00         : PHID         - DENSITY POROSITY (SANDSTONE)
NPHI.V/V      00 330 00 00         : PHIN         - NEUTRON POROSITY (SANDSTONE)
ILD .OHMM     00 120 00 00         : RESD         - DEEP RESISTIVITY (DIL)
~PARAMETER INFORMATION
#MNEM.UNIT           DATA             DESCRIPTION OF MNEMONIC
#---------         -----------     ------------------------------
GL  .M        561.95               : gl           - GROUND LEVEL ELEVATION
EREF.M        566.5                : kb           - ELEVATION OF DEPTH REFERENCE
DATM.M        566.5                : datum        - DATUM ELEVATION
TDD .M        408                  : tdd          - TOTAL DEPTH DRILLER
RUN .         ONE                  : Run          - RUN NUMBER
ENG .         BILL                 : Engineer     - RECORDING ENGINEER
WIT .         JIM                  : Witness      - WITNESSED BY
MUD .         GEL                  : Mud_type     - MUD TYPE
MATR.         SANDSTONE            : Logunit      - NEUTRON MATRIX
TMAX.C        20                   : BHT          - MAXIMUM RECORDED TEMPERATURE
BHTD.M        407                  : BHTDEP       - MAXIMUM RECORDED TEMPERATURE
MATR.         1                    : LOGUNIT      - NEUTRON MATRIX
RMT .C        25                   : MDTP         - TEMPERATURE OF MUD
NEUT.         1                    : NEUTRON      - NEUTRON TYPE
RESI.         0                    : RESIST       - RESISTIVITY TYPE
RMC .OHMM     0.25                 : RMC          - RESISTIVITY OF MUD CAKE
RMF .OHMM     0.25                 : RMF          - RESISTIVITY OF MUD FILTRATE
SUFT.C        15                   : SUFT         - SURFACE TEMPERATURE
~A  DEPTH       GR     PHID     PHIN     RESD
# ...
  327.500   45.298    0.318    0.416   25.180
  327.750   41.808    0.342    0.409   31.061
  328.000   41.133    0.358    0.410   41.285
  328.250   41.205    0.349    0.412   45.590
  328.500   46.794    0.316    0.413   41.226
  328.750   56.915    0.282    0.413   33.779
  329.000   61.210    0.267    0.413   27.134
  329.250   57.683    0.262    0.412   24.866
  329.500   55.614    0.292    0.403   24.065
  329.750   58.732    0.306    0.397   23.392
  330.000   63.609    0.288    0.390   22.430
  330.250   66.418    0.269    0.386   20.887
  330.500   66.017    0.267    0.399   19.310
  330.750   62.003    0.284    0.414   18.577
  331.000   57.685    0.297    0.427   19.276
  331.250   54.005    0.306    0.428   20.158
  331.500   52.025    0.307    0.407   20.669
  331.750   54.841    0.301    0.388   22.831
  332.000   59.186    0.300    0.398   28.273
  332.250   51.651    0.295    0.406   40.684
  332.500   39.909    0.324    0.414   81.787
  332.750   33.505    0.350    0.419  122.472
  333.000   32.791    0.350    0.423  140.944
  333.250   33.417    0.340    0.426  148.035
  333.500   33.930    0.338    0.420  146.403
  333.750   36.210    0.351    0.405  118.782
  334.000   41.300    0.347    0.392  105.326
  334.250   47.515    0.331    0.394   60.812
  334.500   54.997    0.312    0.394   20.007
  334.750   61.942    0.285    0.381   22.087
  335.000   63.305    0.272    0.386   19.705
  335.250   59.026    0.296    0.429   21.398
  335.500   51.523    0.327    0.442   25.057
  335.750   41.818    0.343    0.426   62.845
  336.000   33.186    0.349    0.414  106.499
  336.250   28.972    0.355    0.413  117.588
  336.500   28.843    0.357    0.407  116.849
  336.750   31.171    0.355    0.402  113.933
  337.000   35.390    0.346    0.405  102.543
  337.250   37.980    0.334    0.423   88.658
  337.500   40.808    0.329    0.435   81.053
  337.750   45.693    0.324    0.432   75.211
  338.000   50.288    0.311    0.438   62.495
  338.250   56.051    0.305    0.439   49.728
  338.500   60.946    0.273    0.413   35.340
  338.750   75.189    0.241    0.390   22.972
  339.000   84.379    0.235    0.388   14.530
  339.250   80.319    0.250    0.402    9.786
  339.500   82.758    0.253    0.428    8.741
  339.750   90.028    0.211    0.438    7.820
  340.000   93.966    0.205    0.448    7.303
  340.250   89.004    0.223    0.469    7.178
  340.500   84.365    0.214    0.484    7.023
  340.750   86.091    0.202    0.479    6.801
  341.000   86.297    0.229    0.461    6.713
  341.250   84.204    0.240    0.438    6.816
  341.500   82.381    0.243    0.433    6.935
  341.750   76.146    0.247    0.448    7.036
  342.000   69.623    0.247    0.463    7.165
  342.250   70.436    0.237    0.464    7.247
  342.500   76.445    0.228    0.451    7.245
  342.750   80.649    0.226    0.432    7.450
  343.000   77.955    0.230    0.426    7.926
  343.250   74.908    0.233    0.430    8.353
  343.500   69.453    0.246    0.445    8.808
  343.750   59.766    0.273    0.466    9.376
  344.000   54.171    0.295    0.467    9.814
  344.250   55.559    0.284    0.443   10.158
  344.500   69.790    0.243    0.412   10.135
  344.750   88.869    0.216    0.412    9.669
  345.000   98.615    0.215    0.439    8.984
  345.250   98.124    0.219    0.461    8.031
  345.500   96.461    0.223    0.468    6.843
  345.750   90.606    0.227    0.479    6.376
  346.000   82.724    0.216    0.490    6.329
  346.250   79.055    0.190    0.426    6.409
  346.500   79.572    0.166    0.358    6.514
  346.750   76.623    0.183    0.374    6.624
  347.000   70.599    0.236    0.407    6.725
  347.250   76.513    0.218    0.396    6.790
  347.500   80.621    0.195    0.362    7.419
  347.750   75.582    0.213    0.371    8.570
  348.000   61.234    0.258    0.402   10.197
  348.250   47.107    0.306    0.427   13.115
  348.500   44.097    0.345    0.458   18.396
  348.750   43.880    0.346    0.440   24.865
  349.000   45.828    0.328    0.420   28.014
  349.250   46.523    0.313    0.406   30.938
  349.500   43.752    0.319    0.413   34.059
  349.750   36.494    0.331    0.435   38.340
  350.000   26.137    0.322    0.430   54.197
  350.250   20.676    0.329    0.420   85.477
  350.500   18.003    0.338    0.417   96.447
  350.750   17.834    0.345    0.416   92.194
  351.000   19.568    0.345    0.418   85.261
  351.250   21.661    0.338    0.418   79.705
  351.500   23.043    0.331    0.412   81.955
  351.750   22.122    0.324    0.420   90.679
  352.000   20.641    0.340    0.414   91.527
  352.250   21.639    0.341    0.401   86.979
  352.500   28.525    0.335    0.401   68.340
  352.750   39.192    0.339    0.414   42.695
  353.000   46.334    0.329    0.418   33.590
  353.250   47.760    0.309    0.405   23.568
  353.500   45.841    0.299    0.411   20.686
  353.750   47.297    0.289    0.413   20.831
  354.000   53.151    0.277    0.402   20.811
  354.250   53.748    0.268    0.397   22.732
  354.500   42.367    0.266    0.399   25.377
  354.750   30.652    0.293    0.420   27.116
  355.000   24.233    0.325    0.456   28.126
  355.250   21.150    0.327    0.446   28.742
  355.500   20.437    0.319    0.401   29.014
  355.750   21.965    0.315    0.377   28.883
  356.000   22.771    0.309    0.379   27.314
  356.250   21.737    0.323    0.383   21.983
  356.500   27.509    0.281    0.361   14.165
  356.750   34.846    0.254    0.345    9.420
  357.000   40.300    0.252    0.347    7.546
  357.250   45.093    0.227    0.353    5.827
  357.500   46.632    0.206    0.361    4.881
  357.750   42.566    0.203    0.376    4.497
  358.000   39.510    0.233    0.385    4.223
  358.250   39.471    0.236    0.403    4.024
  358.500   38.150    0.214    0.419    4.363
  358.750   34.048    0.197    0.402    4.972
  359.000   31.182    0.149    0.371    5.282
  359.250   30.218    0.051    0.355    6.185
  359.500   28.177    0.017    0.226    7.131
  359.750   27.248    0.024    0.156    8.627
  360.000   27.541    0.031    0.164   13.360
  360.250   28.448    0.033    0.151   19.328
  360.500   31.155    0.031    0.154   21.016
  360.750   33.340    0.030    0.174   20.723
  361.000   33.551    0.028    0.188   20.188
  361.250   31.180    0.028    0.179   19.021
  361.500   28.071    0.026    0.166   17.435
  361.750   26.633    0.020    0.168   16.217
  362.000   27.364    0.017    0.177   15.523
  362.250   29.035    0.022    0.183   15.277
  362.500   28.384    0.028    0.175   15.028
  362.750   25.030    0.040    0.164   14.931
  363.000   22.123    0.051    0.160   14.960
  363.250   21.875    0.058    0.164   14.962
  363.500   22.339    0.066    0.182   15.251
  363.750   20.799    0.057    0.211   16.229
  364.000   19.811    0.036    0.187   17.329
  364.250   20.321    0.023    0.165   18.355
  364.500   21.663    0.020    0.164   18.896
  364.750   23.227    0.023    0.158   18.691
