~VERSION INFORMATION
 VERS.                 2.0:   CWLS LOG ASCII STANDARD -VERSION 2.0
 WRAP.                  NO:   ONE LINE PER DEPTH STEP
~WELL INFORMATION BLOCK
#MNEM.UNIT           DATA                    DESCRIPTION OF MNEMONIC
#---------    -------------------            -------------------------------
# Generated from Intellog Unique Number	CS_71_72/WELL/844
WELL.         AEC IPIATIK KIRBY              : Well_name    - WELL
LOC .         00/09-24-071-06W4/0            : Location     - LOCATION
UWI .         00/09-24-071-06W4/0            : Uwi          - UNIQUE WELL ID
ENTR.         SP                             : Entered      - ENTERED BY
SRVC.         SCHLUMBERGER                   : Scn          - SERVICE COMPANY
STRT.M        315                            : top_depth    - START DEPTH
STOP.M        550                            : bot_depth    - STOP DEPTH
STEP.M        0.25                           : increment    - STEP LENGTH
 NULL. -999.2500:NULL Value
~CURVE INFORMATION BLOCK
#MNEM UNIT       ERCB CURVE CODE    CURVE DESCRIPTION
#-----------   ------------------   ----------------------------------
DEPT.M        00 001 00 00         : DEPTH        - DEPTH
ILD .OHMM     00 120 00 00         : RESD         - DEEP RESISTIVITY (DIL)
DPHI.V/V      00 890 00 00         : PHID         - DENSITY POROSITY (LIMESTONE)
NPHI.V/V      00 330 00 00         : PHIN         - NEUTRON POROSITY (LIMESTONE)
GR  .API      00 310 00 00         : GR           - GAMMA RAY
~PARAMETER INFORMATION
#MNEM.UNIT           DATA             DESCRIPTION OF MNEMONIC
#---------         -----------     ------------------------------
GL  .M        676.91               : gl           - GROUND LEVEL ELEVATION
EREF.M        681.65               : kb           - ELEVATION OF DEPTH REFERENCE
DATM.M        676.91               : datum        - DATUM ELEVATION
TDD .M        572                  : tdd          - TOTAL DEPTH DRILLER
RUN .         ONE                  : Run          - RUN NUMBER
ENG .         BILL                 : Engineer     - RECORDING ENGINEER
WIT .         JIM                  : Witness      - WITNESSED BY
MUD .         GEL                  : Mud_type     - MUD TYPE
MATR.         LIMESTONE            : Logunit      - NEUTRON MATRIX
TMAX.C        15                   : BHT          - MAXIMUM RECORDED TEMPERATURE
BHTD.M        572                  : BHTDEP       - MAXIMUM RECORDED TEMPERATURE
MATR.         1                    : LOGUNIT      - NEUTRON MATRIX
RMT .C        25                   : MDTP         - TEMPERATURE OF MUD
NEUT.         1                    : NEUTRON      - NEUTRON TYPE
RESI.         0                    : RESIST       - RESISTIVITY TYPE
RMC .OHMM     0.25                 : RMC          - RESISTIVITY OF MUD CAKE
RMF .OHMM     0.25                 : RMF          - RESISTIVITY OF MUD FILTRATE
SUFT.C        15                   : SUFT         - SURFACE TEMPERATURE
~A  DEPTH     RESD     PHID     PHIN       GR
# ...
  358.500    6.331    0.211    0.482  106.335
  358.750    6.527    0.224    0.459  106.106
  359.000    6.843    0.233    0.445  103.812
  359.250    7.351    0.254    0.447  103.582
  359.500    7.867    0.269    0.445  102.140
  359.750    8.421    0.274    0.439   98.996
  360.000    8.829    0.271    0.428   95.547
  360.250    9.051    0.262    0.420   96.718
  360.500    9.057    0.259    0.411  101.645
  360.750    9.061    0.265    0.422  105.665
  361.000    9.031    0.262    0.423  107.559
  361.250    8.938    0.257    0.410  102.777
  361.500    8.856    0.262    0.408   98.722
  361.750    8.552    0.257    0.416   95.155
  362.000    8.169    0.236    0.420   94.438
  362.250    8.154    0.218    0.440   95.848
  362.500    8.313    0.217    0.458   95.558
  362.750    8.814    0.251    0.454   89.743
  363.000   10.185    0.275    0.461   79.740
  363.250   12.083    0.265    0.470   73.743
  363.500   13.833    0.209    0.449   69.992
  363.750   14.833    0.058    0.369   66.666
  364.000   14.484    0.099    0.281   69.229
  364.250   13.548    0.165    0.307   75.738
  364.500   12.530    0.231    0.384   81.521
  364.750   11.417    0.267    0.429   83.170
  365.000   10.679    0.285    0.452   77.416
  365.250   10.272    0.296    0.449   71.240
  365.500    9.974    0.295    0.434   66.701
  365.750    9.777    0.297    0.418   64.040
  366.000    9.636    0.303    0.406   65.571
  366.250    9.569    0.305    0.400   72.019
  366.500    9.520    0.309    0.409   76.648
  366.750    9.490    0.317    0.431   78.297
  367.000    9.442    0.328    0.461   74.365
  367.250    9.412    0.335    0.461   70.069
  367.500    9.399    0.340    0.447   66.925
  367.750    9.351    0.344    0.438   68.152
  368.000    9.339    0.342    0.443   71.868
  368.250    9.343    0.333    0.437   75.038
  368.500    9.543    0.327    0.429   76.204
  368.750    9.987    0.314    0.424   74.153
  369.000   10.491    0.285    0.427   72.164
  369.250   10.794    0.225    0.436   70.051
  369.500   10.881    0.191    0.394   68.365
  369.750   10.806    0.218    0.359   71.413
  370.000   10.493    0.276    0.399   68.634
  370.250   10.094    0.312    0.448   64.338
  370.500    9.875    0.336    0.465   61.982
  370.750    9.643    0.342    0.443   66.307
  371.000    9.540    0.333    0.422   69.901
  371.250    9.438    0.325    0.414   71.007
  371.500    9.391    0.328    0.425   68.652
  371.750    9.413    0.337    0.427   68.361
  372.000    9.471    0.334    0.417   69.164
  372.250    9.493    0.328    0.422   69.238
  372.500    9.463    0.327    0.432   68.524
  372.750    9.415    0.332    0.422   69.994
  373.000    9.369    0.335    0.417   71.281
  373.250    9.320    0.326    0.417   72.508
  373.500    9.308    0.316    0.414   73.432
  373.750    9.294    0.308    0.422   75.630
  374.000    9.317    0.303    0.432   80.075
  374.250    9.339    0.300    0.438   78.145
  374.500    9.327    0.307    0.439   74.759
  374.750    9.297    0.313    0.424   73.437
  375.000    9.198    0.311    0.412   77.092
  375.250    8.948    0.302    0.405   79.716
  375.500    8.673    0.299    0.410   81.003
  375.750    8.468    0.304    0.416   83.870
  376.000    8.315    0.282    0.415   89.226
  376.250    8.197    0.264    0.397   93.002
  376.500    8.186    0.248    0.388   95.747
  376.750    8.282    0.260    0.409   90.904
  377.000    8.412    0.293    0.455   82.541
  377.250    8.543    0.315    0.468   74.600
  377.500    8.596    0.315    0.457   64.960
  377.750    8.632    0.321    0.446   66.005
  378.000    8.605    0.328    0.435   68.204
  378.250    8.481    0.337    0.427   67.125
  378.500    8.220    0.326    0.432   68.413
  378.750    7.834    0.312    0.442   69.762
  379.000    7.664    0.299    0.432   69.289
  379.250    7.626    0.300    0.425   65.540
  379.500    7.687    0.307    0.429   63.002
  379.750    7.836    0.309    0.437   60.527
  380.000    7.959    0.319    0.428   58.293
  380.250    8.053    0.329    0.420   57.638
  380.500    8.117    0.333    0.442   61.477
  380.750    8.198    0.321    0.453   63.432
  381.000    8.264    0.321    0.462   64.416
  381.250    8.345    0.329    0.449   62.487
  381.500    8.444    0.341    0.428   60.498
  381.750    8.481    0.350    0.419   59.964
  382.000    8.422    0.356    0.404   60.098
  382.250    8.316    0.360    0.406   57.744
  382.500    8.243    0.351    0.427   56.603
  382.750    8.232    0.346    0.437   58.864
  383.000    8.268    0.348    0.439   61.309
  383.250    8.366    0.347    0.439   62.412
  383.500    8.432    0.335    0.454   62.605
  383.750    8.405    0.327    0.446   62.801
  384.000    8.238    0.324    0.434   63.360
  384.250    7.955    0.321    0.422   64.284
  384.500    7.710    0.312    0.428   65.451
  384.750    7.486    0.304    0.420   66.559
  385.000    7.421    0.308    0.418   67.300
  385.250    7.551    0.319    0.431   68.525
  385.500    7.626    0.306    0.431   77.097
  385.750    7.672    0.277    0.418   84.942
  386.000    7.705    0.259    0.409   89.143
  386.250    7.767    0.296    0.427   81.022
  386.500    7.860    0.322    0.451   72.294
  386.750    7.864    0.334    0.462   65.629
  387.000    7.794    0.333    0.443   60.239
  387.250    7.697    0.329    0.425   63.531
  387.500    7.559    0.311    0.412   72.953
  387.750    7.353    0.291    0.412   82.315
  388.000    7.153    0.263    0.460   90.037
  388.250    7.090    0.250    0.482   78.031
  388.500    7.296    0.281    0.461   68.452
  388.750    7.693    0.299    0.409   58.145
  389.000    7.930    0.313    0.407   50.752
  389.250    8.176    0.322    0.436   54.652
  389.500    8.319    0.324    0.451   59.039
  389.750    8.371    0.321    0.446   60.748
  390.000    8.391    0.318    0.443   63.313
  390.250    8.395    0.318    0.446   64.295
  390.500    8.336    0.324    0.439   64.672
  390.750    8.187    0.329    0.423   62.743
  391.000    8.084    0.321    0.412   62.270
  391.250    8.088    0.316    0.404   62.101
  391.500    8.199    0.316    0.416   59.505
  391.750    8.359    0.320    0.431   55.511
  392.000    8.395    0.328    0.427   52.732
  392.250    8.277    0.332    0.417   51.653
  392.500    8.247    0.334    0.413   50.939
  392.750    8.085    0.331    0.402   51.376
  393.000    7.968    0.333    0.400   51.145
  393.250    7.854    0.338    0.410   55.287
  393.500    7.698    0.343    0.423   56.938
  393.750    7.559    0.347    0.437   53.127
  394.000    7.409    0.350    0.456   50.834
  394.250    7.289    0.350    0.460   51.637
  394.500    7.171    0.353    0.443   52.803
  394.750    6.990    0.347    0.432   54.091
  395.000    6.850    0.342    0.436   53.194
  395.250    6.715    0.341    0.438   51.263
  395.500    6.618    0.342    0.439   53.037
  395.750    6.499    0.337    0.432   50.743
  396.000    6.417    0.336    0.425   53.671
  396.250    6.302    0.337    0.420   58.175
  396.500    6.234    0.340    0.424   59.342
  396.750    6.180    0.344    0.428   53.589
  397.000    6.137    0.348    0.428   50.505
  397.250    6.094    0.349    0.439   52.461
  397.500    6.086    0.341    0.425   52.110
  397.750    6.078    0.326    0.414   55.340
  398.000    6.081    0.316    0.437   61.121
  398.250    6.062    0.317    0.459   60.770
  398.500    5.975    0.323    0.466   62.725
  398.750    5.845    0.312    0.432   77.064
  399.000    5.644    0.287    0.401   89.644
  399.250    5.399    0.265    0.402   93.118
  399.500    5.242    0.234    0.451   93.373
  399.750    5.043    0.230    0.472   92.051
  400.000    4.934    0.235    0.481   88.604
  400.250    4.899    0.237    0.482   89.649
  400.500    4.911    0.232    0.472   93.126
  400.750    4.951    0.229    0.467   94.169
  401.000    4.982    0.230    0.463   91.813
  401.250    5.012    0.245    0.472   91.037
  401.500    5.033    0.256    0.480   92.567
  401.750    5.036    0.247    0.479   90.152
