~VERSION INFORMATION
 VERS.                 2.0:   CWLS LOG ASCII STANDARD -VERSION 2.0
 WRAP.                  NO:   ONE LINE PER DEPTH STEP
~WELL INFORMATION BLOCK
#MNEM.UNIT           DATA                    DESCRIPTION OF MNEMONIC
#---------    -------------------            -------------------------------
# Generated from Intellog Unique Number	CS_71_72/WELL/805
WELL.         PEX PHILLIPS AEC GRIST         : Well_name    - WELL
LOC .         00/07-09-072-08W4/0            : Location     - LOCATION
UWI .         00/07-09-072-08W4/0            : Uwi          - UNIQUE WELL ID
ENTR.         SP                             : Entered      - ENTERED BY
SRVC.         SCHLUMBERGER                   : Scn          - SERVICE COMPANY
STRT.M        315                            : top_depth    - START DEPTH
STOP.M        535                            : bot_depth    - STOP DEPTH
STEP.M        0.25                           : increment    - STEP LENGTH
 NULL. -999.2500:NULL Value
~CURVE INFORMATION BLOCK
#MNEM UNIT       ERCB CURVE CODE    CURVE DESCRIPTION
#-----------   ------------------   ----------------------------------
DEPT.M        00 001 00 00         : DEPTH        - DEPTH
ILD .OHMM     00 120 00 00         : RESD         - DEEP RESISTIVITY (DIL)
DPHI.V/V      00 890 00 00         : PHID         - DENSITY POROSITY (LIMESTONE)
NPHI.V/V      00 330 00 00         : PHIN         - NEUTRON POROSITY (LIMESTONE)
GR  .API      00 310 00 00         : GR           - GAMMA RAY
~PARAMETER INFORMATION
#MNEM.UNIT           DATA             DESCRIPTION OF MNEMONIC
#---------         -----------     ------------------------------
GL  .M        673.1                : gl           - GROUND LEVEL ELEVATION
EREF.M        676.9                : kb           - ELEVATION OF DEPTH REFERENCE
DATM.M        673.1                : datum        - DATUM ELEVATION
TDD .M        547                  : tdd          - TOTAL DEPTH DRILLER
RUN .         ONE                  : Run          - RUN NUMBER
ENG .         BILL                 : Engineer     - RECORDING ENGINEER
WIT .         JIM                  : Witness      - WITNESSED BY
MUD .         GEL                  : Mud_type     - MUD TYPE
MATR.         LIMESTONE            : Logunit      - NEUTRON MATRIX
TMAX.C        23                   : BHT          - MAXIMUM RECORDED TEMPERATURE
BHTD.M        547                  : BHTDEP       - MAXIMUM RECORDED TEMPERATURE
MATR.         1                    : LOGUNIT      - NEUTRON MATRIX
RMT .C        25                   : MDTP         - TEMPERATURE OF MUD
NEUT.         1                    : NEUTRON      - NEUTRON TYPE
RESI.         0                    : RESIST       - RESISTIVITY TYPE
RMC .OHMM     0.25                 : RMC          - RESISTIVITY OF MUD CAKE
RMF .OHMM     0.25                 : RMF          - RESISTIVITY OF MUD FILTRATE
SUFT.C        15                   : SUFT         - SURFACE TEMPERATURE
~A  DEPTH     RESD     PHID     PHIN       GR
# ...
  402.000    5.999    0.295    0.510   71.109
  402.250    6.111    0.308    0.509   68.698
  402.500    6.225    0.314    0.476   68.103
  402.750    6.459    0.313    0.456   67.510
  403.000    6.459    0.311    0.467   66.312
  403.250    6.459    0.310    0.461   63.292
  403.500    6.459    0.318    0.451   60.878
  403.750    6.341    0.322    0.459   65.144
  404.000    6.341    0.320    0.465   69.413
  404.250    6.341    0.311    0.470   71.857
  404.500    6.341    0.309    0.473   73.086
  404.750    6.341    0.306    0.467   71.887
  405.000    6.341    0.307    0.459   73.119
  405.250    6.341    0.312    0.444   74.965
  405.500    6.341    0.316    0.436   75.585
  405.750    6.341    0.322    0.448   75.597
  406.000    6.341    0.298    0.466   75.611
  406.250    6.341    0.282    0.466   74.413
  406.500    6.341    0.275    0.475   76.252
  406.750    6.341    0.278    0.480   77.481
  407.000    6.341    0.272    0.486   75.674
  407.250    6.341    0.264    0.485   76.912
  407.500    6.341    0.258    0.476   78.135
  407.750    6.341    0.255    0.466   78.150
  408.000    6.341    0.256    0.462   74.523
  408.250    6.225    0.256    0.472   74.540
  408.500    6.111    0.252    0.447   78.814
  408.750    6.111    0.248    0.431   81.257
  409.000    6.225    0.261    0.441   83.702
  409.250    6.459    0.256    0.460   84.319
  409.500    7.084    0.039    0.444   63.080
  409.750    8.062    0.033    0.206   52.771
  410.000    9.878    0.072    0.218   50.965
  410.250   11.241    0.226    0.406   57.661
  410.500   12.103    0.269    0.440   65.579
  410.750   11.664    0.284    0.449   69.843
  411.000   10.062    0.286    0.439   72.890
  411.250    9.174    0.291    0.439   74.729
  411.500    8.365    0.303    0.436   74.747
  411.750    7.487    0.285    0.429   75.369
  412.000    6.954    0.260    0.420   77.819
  412.250    6.579    0.282    0.415   79.652
  412.500    6.225    0.298    0.443   82.098
  412.750    6.225    0.296    0.441   82.719
  413.000    6.225    0.250    0.435   78.485
  413.250    6.459    0.215    0.429   79.721
  413.500    6.225    0.227    0.426   80.944
  413.750    6.459    0.248    0.463   81.567
  414.000    6.459    0.276    0.453   78.546
  414.250    6.579    0.229    0.457   76.740
  414.500    6.579    0.222    0.471   77.973
  414.750    6.579    0.251    0.480   79.202
  415.000    6.702    0.266    0.470   79.826
  415.250    6.702    0.225    0.443   80.449
  415.500    6.827    0.242    0.425   82.290
  415.750    6.827    0.259    0.446   83.518
  416.000    6.827    0.272    0.437   80.500
  416.250    6.827    0.275    0.435   78.086
  416.500    6.954    0.435    0.442   78.099
  416.750    6.954    0.464    0.448   76.292
  417.000    6.954    0.361    0.455   75.096
  417.250    6.954    0.267    0.460   76.324
  417.500    6.954    0.271    0.467   78.770
  417.750    7.084    0.277    0.437   79.999
  418.000    7.084    0.258    0.432   77.585
  418.250    7.084    0.255    0.444   78.212
  418.500    7.084    0.272    0.449   79.440
  418.750    7.084    0.266    0.443   80.670
  419.000    7.084    0.277    0.439   78.867
  419.250    6.954    0.326    0.450   79.487
  419.500    6.954    0.351    0.459   80.726
  419.750    6.827    0.251    0.465   81.953
  420.000    6.702    0.224    0.474   83.182
  420.250    6.459    0.252    0.493   84.410
  420.500    6.341    0.258    0.493   85.640
  420.750    5.999    0.249    0.486   83.229
  421.000    5.781    0.251    0.485   80.814
  421.250    5.470    0.284    0.488   82.044
  421.500    4.806    0.341    0.519   85.098
  421.750    4.070    0.344    0.538   88.763
  422.000    3.261    0.317    0.558   90.594
  422.250    2.762    0.305    0.562   93.039
  422.500    2.518    0.299    0.555   87.589
  422.750    2.472    0.289    0.552   86.389
  423.000    2.472    0.273    0.540   90.658
  423.250    2.565    0.258    0.528   93.102
  423.500    2.613    0.248    0.519   90.086
  423.750    2.762    0.264    0.525   87.677
  424.000    2.919    0.321    0.528   85.866
  424.250    3.201    0.354    0.550   84.662
  424.500    3.511    0.280    0.523   82.250
  424.750    3.711    0.261    0.480   82.268
  425.000    4.070    0.271    0.452   82.280
  425.250    4.302    0.301    0.478   81.091
  425.500    4.464    0.307    0.492   81.101
  425.750    4.547    0.296    0.491   76.863
  426.000    4.547    0.290    0.484   77.491
  426.250    4.464    0.278    0.477   79.332
  426.500    4.223    0.266    0.470   79.949
  426.750    4.223    0.260    0.460   79.962
  427.000    4.302    0.252    0.449   79.978
  427.250    4.718    0.243    0.448   78.782
  427.500    4.987    0.258    0.471   78.189
  427.750    5.175    0.270    0.484   76.385
  428.000    5.271    0.280    0.474   75.792
  428.250    5.370    0.291    0.466   76.421
  428.500    5.175    0.302    0.465   76.432
  428.750    4.987    0.310    0.471   75.230
  429.000    4.896    0.314    0.468   71.606
  429.250    4.987    0.320    0.466   67.981
  429.500    5.080    0.332    0.467   66.777
  429.750    5.080    0.336    0.456   64.970
  430.000    5.271    0.331    0.474   63.164
  430.250    5.676    0.326    0.488   60.752
  430.500    5.999    0.319    0.481   62.587
  430.750    6.225    0.306    0.464   68.680
  431.000    6.225    0.297    0.446   74.769
  431.250    5.889    0.276    0.445   74.783
  431.500    5.781    0.244    0.450   73.583
  431.750    5.676    0.247    0.453   75.425
  432.000    5.676    0.258    0.439   76.049
  432.250    5.676    0.274    0.447   73.028
  432.500    5.676    0.281    0.471   70.613
  432.750    5.676    0.287    0.486   71.235
  433.000    5.676    0.291    0.501   71.859
  433.250    5.572    0.294    0.499   69.444
  433.500    5.470    0.303    0.471   68.243
  433.750    5.470    0.309    0.477   69.475
  434.000    5.370    0.305    0.476   70.704
  434.250    5.370    0.294    0.457   71.936
  434.500    5.370    0.289    0.460   72.563
  434.750    5.271    0.267    0.469   73.182
  435.000    5.271    0.237    0.464   74.418
  435.250    5.175    0.226    0.449   75.643
  435.500    5.175    0.266    0.448   77.485
  435.750    4.987    0.312    0.461   78.714
  436.000    4.896    0.334    0.468   80.558
  436.250    4.718    0.285    0.459   81.173
  436.500    4.632    0.276    0.448   81.795
  436.750    4.464    0.323    0.498   82.420
  437.000    4.464    0.373    0.529   81.826
  437.250    4.464    0.400    0.541   77.592
  437.500    4.464    0.301    0.543   73.963
  437.750    4.382    0.281    0.454   73.379
  438.000    4.302    0.277    0.460   73.392
  438.250    4.070    0.287    0.489   74.011
  438.500    3.996    0.315    0.509   75.849
  438.750    4.223    0.344    0.480   72.828
  439.000    4.632    0.290    0.445   70.417
  439.250    4.806    0.268    0.421   71.646
  439.500    5.271    0.262    0.426   72.268
  439.750    5.470    0.264    0.431   71.070
  440.000    5.676    0.259    0.434   72.306
  440.250    5.676    0.251    0.435   73.530
  440.500    5.781    0.245    0.433   75.978
  440.750    5.676    0.246    0.427   77.205
  441.000    5.676    0.250    0.439   76.618
  441.250    5.572    0.241    0.456   76.027
  441.500    5.175    0.236    0.468   73.007
  441.750    4.806    0.274    0.441   74.233
  442.000    4.070    0.327    0.428   77.900
  442.250    3.780    0.319    0.475   79.123
  442.500    3.029    0.383    0.531   80.355
  442.750    2.762    0.375    0.553   82.191
  443.000    2.565    0.351    0.571   85.246
  443.250    2.382    0.342    0.576   85.866
  443.500    2.296    0.324    0.565   83.457
  443.750    2.296    0.308    0.589   80.436
  444.000    2.565    0.322    0.604   78.629
  444.250    2.866    0.341    0.561   79.250
  444.500    3.201    0.314    0.478   80.486
  444.750    3.577    0.269    0.464   79.889
  445.000    3.851    0.259    0.472   75.660
  445.250    4.146    0.277    0.474   73.242
