~VERSION INFORMATION
 VERS.                 2.0:   CWLS LOG ASCII STANDARD -VERSION 2.0
 WRAP.                  NO:   ONE LINE PER DEPTH STEP
~WELL INFORMATION BLOCK
#MNEM.UNIT           DATA                    DESCRIPTION OF MNEMONIC
#---------    -------------------            -------------------------------
# Generated from Intellog Unique Number	CW_79_81/WELL/620
WELL.         PETROREP SANDERS               : Well_name    - WELL
LOC .         00/07-26-080-02W5/0            : Location     - LOCATION
UWI .         00/07-26-080-02W5/0            : Uwi          - UNIQUE WELL ID
ENTR.         MAX                            : Entered      - ENTERED BY
SRVC.         SCHLUMBERGER                   : Scn          - SERVICE COMPANY
STRT.M        256.032                        : top_depth    - START DEPTH
STOP.M        515.032                        : bot_depth    - STOP DEPTH
STEP.M        0.25                           : increment    - STEP LENGTH
 NULL. -999.2500:NULL Value
~CURVE INFORMATION BLOCK
#MNEM UNIT       ERCB CURVE CODE    CURVE DESCRIPTION
#-----------   ------------------   ----------------------------------
DEPT.M        00 001 00 00         : DEPTH        - DEPTH
ILD .OHMM     00 120 00 00         : RESD         - DEEP RESISTIVITY (DIL)
NPHI.V/V      00 330 00 00         : PHIN         - NEUTRON POROSITY (SANDSTONE)
DPHI.V/V      00 890 00 00         : PHID         - DENSITY POROSITY (SANDSTONE)
CALI.MM       00 280 01 00         : CAL          - CALIPER
GR  .API      00 310 00 00         : GR           - GAMMA RAY
~PARAMETER INFORMATION
#MNEM.UNIT           DATA             DESCRIPTION OF MNEMONIC
#---------         -----------     ------------------------------
GL  .M        602.254              : gl           - GROUND LEVEL ELEVATION
EREF.M        605.607              : kb           - ELEVATION OF DEPTH REFERENCE
DATM.M        602.254              : datum        - DATUM ELEVATION
TDD .M        544.068              : tdd          - TOTAL DEPTH DRILLER
RUN .         ONE                  : Run          - RUN NUMBER
ENG .         BILL                 : Engineer     - RECORDING ENGINEER
WIT .         JIM                  : Witness      - WITNESSED BY
MUD .         GEL                  : Mud_type     - MUD TYPE
MATR.         SANDSTONE            : Logunit      - NEUTRON MATRIX
TMAX.C        24.4444              : BHT          - MAXIMUM RECORDED TEMPERATURE
BHTD.M        544.068              : BHTDEP       - MAXIMUM RECORDED TEMPERATURE
RMT .C        18.3333              : MDTP         - TEMPERATURE OF MUD
MUDD.KG/M     1120                 : MWT          - MUD DENSITY
NEUT.         1                    : NEUTRON      - NEUTRON TYPE
RESI.         0                    : RESIST       - RESISTIVITY TYPE
RM  .OHMM     5                    : RM           - RESISTIVITY OF MUD
RMC .OHMM     0                    : RMC          - RESISTIVITY OF MUD CAKE
RMF .OHMM     7                    : RMF          - RESISTIVITY OF MUD FILTRATE
SUFT.C        -20.5556             : SUFT         - SURFACE TEMPERATURE
~A  DEPTH     RESD     PHIN     PHID      CAL       GR
# ...
  292.532   24.267    0.415    0.370  159.498   46.543
  292.782   23.830    0.406    0.356  158.450   43.820
  293.032   23.187    0.403    0.335  158.411   41.095
  293.282   22.769    0.392    0.323  157.867   38.965
  293.532   22.358    0.391    0.326  157.828   38.948
  293.782   21.954    0.395    0.340  157.798   38.627
  294.032   21.756    0.399    0.347  157.759   38.000
  294.282   21.956    0.401    0.357  158.237   37.985
  294.532   22.773    0.398    0.358  159.221   38.565
  294.782   23.620    0.390    0.353  160.199   39.446
  295.032   24.056    0.376    0.349  160.669   40.325
  295.282   24.277    0.356    0.322  160.643   40.304
  295.532   24.278    0.319    0.290  161.118   39.983
  295.782   23.840    0.117    0.220  161.587   38.756
  296.032   23.197    0.096    0.084  162.053   37.836
  296.282   22.571    0.097   -0.003  162.027   38.119
  296.532   22.164    0.103    0.001  163.010   39.300
  296.782   22.368    0.106    0.009  163.993   41.075
  297.032   22.990    0.104    0.006  163.959   42.861
  297.282   24.284    0.110    0.000  163.920   47.050
  297.532   26.605    0.126    0.008  164.394   56.046
  297.782   29.147    0.156    0.025  164.355   64.443
  298.032   32.818    0.182    0.047  164.829   74.040
  298.282   40.482    0.291    0.174  165.303   81.229
  298.532   52.745    0.333    0.256  165.269   72.794
  298.782   67.479    0.227    0.134  165.238   66.162
  299.032   87.122    0.171    0.055  165.204   50.811
  299.282   95.447    0.219    0.089  165.165   48.387
  299.532   86.336    0.288    0.196  165.630   48.965
  299.782   66.876    0.339    0.269  165.604   51.351
  300.032   53.239    0.364    0.322  164.039   55.538
  300.282   42.772    0.392    0.348  161.973   58.823
  300.532   40.866    0.403    0.331  161.929   60.002
  300.782   39.403    0.409    0.327  162.412   62.088
  301.032   37.647    0.411    0.334  162.369   64.169
  301.282   35.319    0.395    0.316  162.330   64.449
  301.532   31.370    0.372    0.293  162.304   64.429
  301.782   28.898    0.322    0.243  162.774   62.903
  302.032   26.621    0.263    0.222  163.761   62.281
  302.282   24.524    0.251    0.281  164.231   62.859
  302.532   23.007    0.335    0.317  164.705   63.145
  302.782   22.387    0.411    0.346  164.157   63.124
  303.032   23.220    0.439    0.352  155.985   64.301
  303.282   24.752    0.441    0.350  142.210   63.376
  303.532   26.385    0.440    0.354  143.193   62.457
  303.782   27.367    0.442    0.357  146.203   62.138
  304.032   26.629    0.437    0.354  146.173   63.017
  304.282   24.755    0.433    0.349  145.116   62.698
  304.532   23.438    0.437    0.325  144.572   62.976
  304.782   22.805    0.434    0.322  145.560   65.958
  305.032   21.789    0.447    0.305  152.650   69.546
  305.282   21.009    0.464    0.270  155.159   76.739
  305.532   20.257    0.470    0.245  148.505   83.027
  305.782   19.532    0.445    0.233  145.917   84.812
  306.032   18.662    0.440    0.239  146.909   85.693
  306.282   17.830    0.443    0.250  150.945   87.476
  306.532   16.576    0.458    0.245  154.473   91.363
  306.782   15.270    0.464    0.271  165.630   97.052
  307.032   12.840    0.464    0.293  170.684   97.029
  307.282   10.129    0.465    0.295  171.163   95.208
  307.532    7.097    0.460    0.279  169.601   94.584
  307.782    6.361    0.457    0.283  170.076   94.263
  308.032    5.548    0.462    0.300  171.054   94.240
  308.282    4.972    0.466    0.297  170.511   93.318
  308.532    4.498    0.464    0.284  169.454   91.497
  308.782    4.106    0.455    0.263  168.397   92.072
  309.032    3.923    0.454    0.255  167.353   93.560
  309.282    3.817    0.459    0.320  166.297   95.342
  309.532    3.783    0.458    0.320  166.253   91.112
  309.782    3.852    0.466    0.314  166.227   83.879
  310.032    4.106    0.463    0.307  166.701   73.640
  310.282    4.624    0.443    0.301  167.171   59.792
  310.532    5.302    0.429    0.274  167.141   44.743
  310.782    7.297    0.384    0.273  168.120   38.712
  311.032    9.167    0.329    0.267  169.103   36.885
  311.282   10.321    0.322    0.239  170.586   35.064
  311.532   11.944    0.311    0.212  171.574   28.730
  311.782   12.502    0.299    0.219  171.544   26.906
  312.032   12.502    0.298    0.249  173.031   26.883
  312.282   13.327    0.288    0.236  173.501   27.466
  312.532   14.336    0.280    0.230  172.966   28.648
  312.782   16.590    0.274    0.217  171.909   30.431
  313.032   18.011    0.284    0.222  170.857   31.913
  313.282   22.216    0.280    0.229  170.818   34.890
  313.532   23.254    0.282    0.234  172.314   37.279
  313.782   25.710    0.298    0.244  172.784   41.466
  314.032   27.406    0.338    0.250  172.754   47.156
  314.282   28.168    0.389    0.252  172.715   56.154
  314.532   30.579    0.423    0.282  172.676   67.253
  314.782   31.429    0.425    0.299  172.137   77.150
  315.032   30.861    0.429    0.294  170.062   76.228
  315.282   29.486    0.438    0.323  169.014   70.495
  315.532   26.916    0.442    0.332  168.979   66.267
  315.782   21.233    0.446    0.341  169.449   63.842
  316.032   16.598    0.448    0.343  169.419   65.926
  316.282   13.580    0.437    0.321  169.371   78.828
  316.532   11.629    0.423    0.310  169.854   82.414
  316.782    9.602    0.431    0.307  171.855   86.901
  317.032    8.374    0.446    0.283  172.838   92.591
  317.282    8.846    0.440    0.276  173.312   93.773
  317.532    9.691    0.427    0.255  173.269   92.250
  317.782   11.215    0.421    0.247  173.243   88.620
  318.032   11.318    0.421    0.270  172.186   84.693
  318.282   10.331    0.423    0.280  171.125   74.154
  318.532    9.010    0.413    0.317  170.586   67.218
  318.782    6.668    0.406    0.323  169.538   65.395
  319.032    5.165    0.415    0.323  168.481   65.071
  319.282    4.672    0.401    0.344  167.937   64.450
  319.532    4.464    0.401    0.355  167.389   63.525
  319.782    4.423    0.411    0.360  167.355   62.600
  320.032    4.715    0.417    0.355  167.324   62.583
  320.282    5.659    0.418    0.336  167.285   62.261
  320.532    7.860    0.422    0.311  166.746   61.337
  320.782    8.770    0.429    0.302  166.712   62.822
  321.032   11.118    0.417    0.330  166.164   61.902
  321.282   12.749    0.409    0.336  166.125   59.475
  321.532   13.467    0.414    0.348  166.094   58.252
  321.782   13.715    0.416    0.346  166.051   58.530
  322.032   13.224    0.416    0.338  166.530   60.312
  322.282   12.867    0.418    0.341  167.008   62.398
  322.532   12.868    0.417    0.343  166.973   62.976
  322.782   13.347    0.413    0.339  166.934   64.160
  323.032   13.469    0.418    0.335  166.900   62.935
  323.282   13.593    0.397    0.328  166.861   64.117
  323.532   14.099    0.390    0.312  166.830   65.900
  323.782   15.588    0.406    0.316  166.287   66.478
  324.032   16.168    0.421    0.322  165.739   67.963
  324.282   16.466    0.427    0.310  165.700   70.046
  324.532   16.169    0.425    0.297  166.170   73.031
  324.782   15.877    0.417    0.290  166.653   72.404
  325.032   15.734    0.360    0.277  165.083   69.383
  325.282   15.878    0.316    0.264  164.548   63.650
  325.532   15.310    0.237    0.231  165.022   59.720
  325.782   14.897    0.182    0.060  168.550   59.697
  326.032   14.364    0.139    0.047  169.529   60.280
  326.282   13.353    0.161    0.060  169.998   61.462
  326.532   12.758    0.216    0.088  169.459   63.545
  326.782   12.079    0.318    0.186  168.916   66.230
  327.032   12.079    0.404    0.243  168.372   69.515
  327.282   12.877    0.428    0.293  167.824   72.495
  327.532   14.765    0.439    0.321  167.285   73.080
  327.782   18.213    0.437    0.335  167.250   73.060
  328.032   24.613    0.431    0.351  166.702   73.037
  328.282   29.540    0.428    0.349  166.668   73.618
  328.532   31.778    0.431    0.335  165.106   75.698
  328.782   30.086    0.440    0.326  164.558   77.787
