~VERSION INFORMATION
 VERS.                 2.0:   CWLS LOG ASCII STANDARD -VERSION 2.0
 WRAP.                  NO:   ONE LINE PER DEPTH STEP
~WELL INFORMATION BLOCK
#MNEM.UNIT           DATA                    DESCRIPTION OF MNEMONIC
#---------    -------------------            -------------------------------
# Generated from Intellog Unique Number	CW_76_78/WELL/189
WELL.         CDN-SUP LLE WILLOW 06-15       : Well_name    - WELL
LOC .         00/06-15-077-03W5/0            : Location     - LOCATION
UWI .         00/06-15-077-03W5/0            : Uwi          - UNIQUE WELL ID
ENTR.         JJ                             : Entered      - ENTERED BY
SRVC.         SCHLUMBERGER                   : Scn          - SERVICE COMPANY
DATE.         20 JAN 74                      : Date         - LOG DATE
STRT.M        548.64                         : top_depth    - START DEPTH
STOP.M        670.64                         : bot_depth    - STOP DEPTH
STEP.M        0.25                           : increment    - STEP LENGTH
 NULL. -999.2500:NULL Value
~CURVE INFORMATION BLOCK
#MNEM UNIT       ERCB CURVE CODE    CURVE DESCRIPTION
#-----------   ------------------   ----------------------------------
DEPT.M        00 001 00 00         : DEPTH        - DEPTH
DELT.US/F     00 520 00 00         : DELT         - SONIC TRAVEL TIME
GR  .API      00 310 00 00         : GR           - GAMMA RAY
ILD .OHMM     00 120 00 00         : RESD         - DEEP RESISTIVITY (DIL)
~PARAMETER INFORMATION
#MNEM.UNIT           DATA             DESCRIPTION OF MNEMONIC
#---------         -----------     ------------------------------
GL  .M        718.718              : gl           - GROUND LEVEL ELEVATION
EREF.M        721.766              : kb           - ELEVATION OF DEPTH REFERENCE
DATM.M        718.718              : datum        - DATUM ELEVATION
TDD .M        685.8                : tdd          - TOTAL DEPTH DRILLER
RUN .         ONE                  : Run          - RUN NUMBER
ENG .         BOYKO                : Engineer     - RECORDING ENGINEER
BASE.         EDM                  : Branch       - HOME BASE OF LOGGING UNIT
MUD .         GEL-CHEM             : Mud_type     - MUD TYPE
MATR.         SANDSTONE            : Logunit      - NEUTRON MATRIX
TMAX.C        28.8889              : BHT          - MAXIMUM RECORDED TEMPERATURE
BHTD.M        686.41               : BHTDEP       - MAXIMUM RECORDED TEMPERATURE
RMT .C        10                   : MDTP         - TEMPERATURE OF MUD
MUDD.KG/M     1116                 : MWT          - MUD DENSITY
NEUT.         1                    : NEUTRON      - NEUTRON TYPE
RESI.         0                    : RESIST       - RESISTIVITY TYPE
RM  .OHMM     5.62                 : RM           - RESISTIVITY OF MUD
RMC .OHMM     0                    : RMC          - RESISTIVITY OF MUD CAKE
RMF .OHMM     6.11                 : RMF          - RESISTIVITY OF MUD FILTRATE
SUFT.C        5                    : SUFT         - SURFACE TEMPERATURE
~A  DEPTH     DELT       GR     RESD
# ...
  602.890  345.917   72.867   13.071
  603.140  346.173   73.300   12.609
  603.390  346.426   75.319   12.275
  603.640  346.549   77.397   12.148
  603.890  350.736   78.683   12.178
  604.140  356.302   79.544   12.207
  604.390  357.341   79.004   12.328
  604.640  354.777   77.794   12.723
  604.890  346.638   69.946   13.423
  605.140  333.387   62.524   14.879
  605.390  330.166   62.837   16.861
  605.640  339.006   64.915   17.626
  605.890  344.309   69.734   17.996
  606.140  347.843   68.769   17.201
  606.390  349.143   73.770   15.117
  606.640  348.677   79.198   12.948
  606.890  351.095   78.781   10.692
  607.140  354.626   83.050    9.126
  607.390  356.586   90.063    8.566
  607.640  357.627   93.907    8.414
  607.890  355.779   85.938    8.267
  608.140  354.133   80.404    8.212
  608.390  350.390   77.366    8.201
  608.640  341.464   77.985    8.146
  608.890  330.768   79.941    8.168
  609.140  337.054   84.089    8.217
  609.390  344.653   90.249    8.282
  609.640  341.628   89.829    8.317
  609.890  340.373   89.533    8.292
  610.140  347.184   93.499    8.251
  610.390  352.814   92.655    8.317
  610.640  353.921   90.289    8.398
  610.890  340.210   89.260    8.495
  611.140  327.745   88.537    8.834
  611.390  327.211   92.078    9.355
  611.640  332.907   95.740    9.996
  611.890  324.966   93.799   11.388
  612.140  315.909   87.961   13.313
  612.390  313.607   84.071   15.167
  612.640  308.744   80.729   16.537
  612.890  304.870   76.659   18.398
  613.140  296.077   73.865   20.506
  613.390  295.739   74.908   22.773
  613.640  277.309   74.915   24.693
  613.890  260.253   70.356   27.728
  614.140  235.069   63.483   30.068
  614.390  222.604   57.827   32.369
  614.640  229.347   55.277   32.207
  614.890  244.092   70.267   27.191
  615.140  283.684   76.425   22.868
  615.390  293.247   80.089   18.575
  615.640  302.154   82.226   16.027
  615.890  309.160   85.340   14.530
  616.140  312.628   88.332   13.863
  616.390  314.456   85.905   13.399
  616.640  315.233   82.928   13.091
  616.890  314.635   80.319   12.909
  617.140  313.645   78.987   12.775
  617.390  313.700   78.325   12.689
  617.640  315.398   81.987   12.605
  617.890  315.390   85.830   12.615
  618.140  311.251   90.284   12.574
  618.390  306.586   88.709   12.537
  618.640  301.988   84.820   12.160
  618.890  297.326   86.900   11.268
  619.140  292.860   88.002   10.383
  619.390  310.620   90.629    9.193
  619.640  329.624   95.388    8.363
  619.890  338.008  100.450    7.243
  620.140  346.589  105.999    7.421
  620.390  359.037  105.277    7.887
  620.640  338.967   95.846    8.476
  620.890  326.239   87.022    8.976
  621.140  317.378   81.732    9.418
  621.390  324.387   86.794    9.882
  621.640  334.278   83.697   10.333
  621.890  346.136   90.099   10.414
  622.140  354.322   90.230   10.344
  622.390  364.412   86.341   10.088
  622.640  372.796   82.513    9.643
  622.890  375.017   80.449    9.084
  623.140  364.321   81.798    8.496
  623.390  358.150   85.763    8.256
  623.640  353.943   89.609    8.111
  623.890  354.527   93.939    8.448
  624.140  356.027   94.069    9.178
  624.390  350.315   83.359   11.457
  624.640  327.294   70.943   19.732
  624.890  318.501   51.463   36.967
  625.140  327.671   39.169   54.008
  625.390  335.791   32.296   61.997
  625.640  340.635   31.207   64.925
  625.890  343.380   30.851   67.877
  626.140  345.074   30.799   69.801
  626.390  345.852   30.745   70.870
  626.640  345.517   29.717   70.783
  626.890  344.787   29.359   69.941
  627.140  343.467   30.038   68.201
  627.390  342.479   28.645   64.957
  627.640  341.290   32.489   62.312
  627.890  340.297   35.847   57.748
  628.140  339.371   31.531   53.609
  628.390  338.904   33.306   49.760
  628.640  338.503   34.653   45.191
  628.890  338.625   36.307   39.427
  629.140  338.615   37.046   35.351
  629.390  338.214   37.418   30.280
  629.640  337.748   36.879   25.606
  629.890  338.394   35.484   20.093
  630.140  339.961   33.972   16.744
  630.390  341.458   33.856   13.777
  630.640  341.452   34.291   12.040
  630.890  340.263   33.447    9.482
  631.140  338.548   31.931    8.048
  631.390  337.557   30.479    7.046
  631.640  335.975   31.583    6.364
  631.890  334.854   35.670    5.583
  632.140  333.338   38.176    5.154
  632.390  328.019   39.280    4.838
  632.640  326.306   39.044    4.616
  632.890  326.101   36.008    4.428
  633.140  326.552   35.346    4.296
  633.390  326.868   35.597    4.228
  633.640  326.665   35.972    4.199
  633.890  324.623   37.197    4.163
  634.140  323.043   37.995    4.174
  634.390  322.117   39.283    4.191
  634.640  323.748   41.910    4.194
  634.890  327.672   44.171    4.167
  635.140  328.714   44.911    4.153
  635.390  327.260   44.554    4.202
  635.640  326.074   44.319    4.235
  635.890  324.360   44.629    4.308
  636.140  323.301   46.344    4.367
  636.390  323.490   47.082    4.392
  636.640  323.876   47.880    4.436
  636.890  324.721   48.746    4.496
  637.140  324.517   47.774    4.531
  637.390  323.525   50.036    4.567
  637.640  324.300   47.487    4.620
  637.890  326.130   48.530    4.657
  638.140  329.663   51.156    4.798
  638.390  333.654   55.122    4.943
  638.640  338.364   59.455    5.196
  638.890  342.291   60.193    5.624
  639.140  326.548   60.142    6.672
  639.390  291.004   61.671   13.106
  639.640  263.721   58.999   16.213
  639.890  258.926   52.978   16.461
  640.140  269.212   52.196   14.178
  640.390  287.497   54.517   11.371
  640.640  306.239   59.884    9.323
  640.890  318.425   63.668    7.712
  641.140  334.021   59.291    5.855
  641.390  343.651   61.189    5.627
  641.640  342.724   64.302    5.926
  641.890  326.981   65.526    6.643
  642.140  314.515   64.988    6.906
  642.390  292.347   63.776    6.860
  642.640  316.662   61.288    6.521
  642.890  328.324   63.306    5.989
  643.140  342.870   67.455    5.734
  643.390  348.501   67.404    5.472
  643.640  346.067   69.055    5.346
  643.890  343.829   72.777    5.272
  644.140  347.755   74.918    5.266
  644.390  354.958   78.640    5.268
  644.640  360.326   84.250    5.281
  644.890  356.382   91.200    5.362
  645.140  348.377   86.824    5.465
  645.390  341.812   77.089    5.558
  645.640  336.821   71.006    5.801
  645.890  336.157   72.719    5.933
  646.140  342.771   77.174    6.046
  646.390  343.352   78.460    6.150
  646.640  326.298   72.499    6.255
  646.890  316.980   59.110    6.305
  647.140  313.366   60.032    6.309
  647.390  314.929   65.582    6.312
  647.640  323.510   70.157    6.364
  647.890  328.813   75.037    6.309
  648.140  323.494   68.224    6.198
  648.390  323.223   53.007    5.957
  648.640  327.017   44.306    5.736
  648.890  350.481   45.836    5.443
  649.140  365.618   63.079    5.241
  649.390  382.656   71.003    5.074
  649.640  387.040   84.410    5.013
  649.890  377.066   87.159    4.979
  650.140  398.170   78.335    4.838
  650.390  414.486   66.408    4.634
  650.640  386.614   71.165    4.429
  650.890  371.788   82.929    4.180
  651.140  378.925   84.701    3.931
  651.390  406.321   85.623    3.743
  651.640  413.329   87.337    3.425
  651.890  423.419   92.521    3.261
  652.140  400.922   98.010    3.129
  652.390  390.292  103.560    3.092
  652.640  382.285  103.325    3.156
  652.890  370.344   97.303    3.486
  653.140  335.325   73.987    3.718
  653.390  311.649   68.817    4.054
  653.640  267.254   61.640    4.494
  653.890  271.245   61.404    4.864
  654.140  326.638   76.027    4.867
  654.390  342.496   79.872    4.729
  654.640  354.420   84.569    4.529
  654.890  366.606   91.764    4.433
  655.140  369.350  105.961    4.510
  655.390  363.901  106.640    4.655
  655.640  356.944   98.548    4.920
  655.890  360.476   93.258    5.425
  656.140  353.255   91.378    5.936
  656.390  339.412   77.867    6.580
  656.640  339.863   70.505    7.149
  656.890  346.149   76.969    7.739
