~VERSION INFORMATION
 VERS.                 2.0:   CWLS LOG ASCII STANDARD -VERSION 2.0
 WRAP.                  NO:   ONE LINE PER DEPTH STEP
~WELL INFORMATION BLOCK
#MNEM.UNIT           DATA                    DESCRIPTION OF MNEMONIC
#---------    -------------------            -------------------------------
# Generated from Intellog Unique Number	CW_76_78/WELL/554
WELL.         AMOCO ROCK 07-06               : Well_name    - WELL
LOC .         00/07-06-077-23W4/0            : Location     - LOCATION
UWI .         00/07-06-077-23W4/0            : Uwi          - UNIQUE WELL ID
ENTR.         jj                             : Entered      - ENTERED BY
SRVC.         WESTERN ATLAS                  : Scn          - SERVICE COMPANY
DATE.         12 MAR 78                      : Date         - LOG DATE
STRT.M        524.256                        : top_depth    - START DEPTH
STOP.M        765.006                        : bot_depth    - STOP DEPTH
STEP.M        0.25                           : increment    - STEP LENGTH
 NULL. -999.2500:NULL Value
~CURVE INFORMATION BLOCK
#MNEM UNIT       ERCB CURVE CODE    CURVE DESCRIPTION
#-----------   ------------------   ----------------------------------
DEPT.M        00 001 00 00         : DEPTH        - DEPTH
ILD .OHMM     00 120 00 00         : RESD         - DEEP RESISTIVITY (DIL)
DPHI.V/V      00 890 00 00         : PHID         - DENSITY POROSITY (SANDSTONE)
NPHI.V/V      00 330 00 00         : PHIN         - NEUTRON POROSITY (SANDSTONE)
GR  .API      00 310 00 00         : GR           - GAMMA RAY
CALI.MM       00 280 01 00         : CAL          - CALIPER
~PARAMETER INFORMATION
#MNEM.UNIT           DATA             DESCRIPTION OF MNEMONIC
#---------         -----------     ------------------------------
GL  .M        828.294              : gl           - GROUND LEVEL ELEVATION
EREF.M        832.104              : kb           - ELEVATION OF DEPTH REFERENCE
DATM.M        828.294              : datum        - DATUM ELEVATION
TDD .M        789.432              : tdd          - TOTAL DEPTH DRILLER
RUN .         ONE                  : Run          - RUN NUMBER
ENG .         BURLET               : Engineer     - RECORDING ENGINEER
WIT .         MCDONALD             : Witness      - WITNESSED BY
BASE.         EDMONTON             : Branch       - HOME BASE OF LOGGING UNIT
MUD .         GEL BENDEX           : Mud_type     - MUD TYPE
MATR.         SANDSTONE            : Logunit      - NEUTRON MATRIX
TMAX.C        32.7778              : BHT          - MAXIMUM RECORDED TEMPERATURE
BHTD.M        788.213              : BHTDEP       - MAXIMUM RECORDED TEMPERATURE
RMT .C        20.5556              : MDTP         - TEMPERATURE OF MUD
MUDD.KG/M     1080                 : MWT          - MUD DENSITY
NEUT.         1                    : NEUTRON      - NEUTRON TYPE
RESI.         0                    : RESIST       - RESISTIVITY TYPE
RM  .OHMM     2.43                 : RM           - RESISTIVITY OF MUD
RMC .OHMM     3.7                  : RMC          - RESISTIVITY OF MUD CAKE
RMF .OHMM     2.9                  : RMF          - RESISTIVITY OF MUD FILTRATE
SUFT.C        4.5                  : SUFT         - SURFACE TEMPERATURE
~A  DEPTH     RESD     PHID     PHIN       GR      CAL
# ...
  560.756    7.451    0.235    0.421   84.073  234.266
  561.006    7.187    0.218    0.428   91.021  235.205
  561.256    6.932    0.191    0.437   96.779  236.352
  561.506    6.877    0.198    0.446   96.456  237.083
  561.756    6.849    0.212    0.456   92.121  237.912
  562.006    6.694    0.241    0.466   88.098  238.535
  562.256    6.135    0.249    0.476   86.271  239.259
  562.506    5.325    0.220    0.487   89.647  239.564
  562.756    4.501    0.203    0.498  100.105  239.968
  563.006    3.869    0.195    0.494  103.856  240.062
  563.256    3.454    0.190    0.482  101.402  240.044
  563.506    3.214    0.181    0.475  100.075  240.028
  563.756    3.059    0.168    0.474  100.442  239.482
  564.006    2.885    0.174    0.475  101.811  239.359
  564.256    2.674    0.176    0.476  103.619  239.235
  564.506    2.343    0.168    0.471  106.554  239.431
  564.756    2.099    0.152    0.464  109.993  239.839
  565.006    1.896    0.113    0.463  114.120  240.671
  565.256    1.744    0.142    0.463  111.666  241.505
  565.506    1.660    0.208    0.456  104.949  242.126
  565.756    1.681    0.206    0.444   98.735  242.956
  566.006    1.710    0.205    0.432   93.209  243.258
  566.256    1.709    0.204    0.424   88.812  243.243
  566.506    1.673    0.204    0.423   87.861  242.907
  566.756    1.654    0.202    0.432   91.174  242.044
  567.006    1.663    0.205    0.448   91.478  240.646
  567.256    1.707    0.208    0.446   94.602  239.461
  567.506    1.775    0.210    0.439   98.227  239.021
  567.756    1.994    0.213    0.430   95.396  238.793
  568.006    2.336    0.220    0.429   89.808  238.990
  568.256    2.629    0.234    0.431   80.021  238.867
  568.506    3.039    0.244    0.431   71.487  238.957
  568.756    3.209    0.259    0.430   65.209  238.940
  569.006    3.077    0.290    0.428   61.000  238.924
  569.256    3.076    0.315    0.427   55.411  238.905
  569.506    3.199    0.325    0.428   52.080  238.783
  569.756    3.475    0.321    0.429   52.196  238.342
  570.006    4.047    0.316    0.433   56.510  237.901
  570.256    4.987    0.293    0.440   61.640  237.565
  570.506    6.467    0.267    0.447   66.771  237.124
  570.756    9.496    0.250    0.450   72.841  236.790
  571.006   13.531    0.239    0.450   79.664  236.453
  571.256   15.434    0.240    0.443   84.793  236.225
  571.506   17.440    0.248    0.445   80.772  236.103
  571.756   17.303    0.266    0.447   74.683  235.663
  572.006   15.418    0.286    0.445   67.402  235.328
  572.256    8.575    0.305    0.448   61.939  234.568
  572.506    4.308    0.306    0.450   62.618  233.809
  572.756    2.839    0.300    0.450   63.047  233.263
  573.006    2.568    0.299    0.444   68.429  232.502
  573.256    2.666    0.301    0.438   66.100  232.380
  573.506    3.018    0.307    0.439   61.137  232.152
  573.756    4.824    0.304    0.441   58.496  232.030
  574.006    6.861    0.298    0.443   61.871  231.482
  574.256    7.313    0.294    0.442   65.810  230.936
  574.506    7.269    0.298    0.439   65.486  230.175
  574.756    7.266    0.294    0.438   66.166  229.840
  575.006    7.629    0.284    0.438   75.934  229.821
  575.256    7.934    0.274    0.437   79.247  230.337
  575.506    7.932    0.275    0.427   71.967  230.853
  575.756    7.722    0.283    0.412   62.806  231.580
  576.006    6.564    0.289    0.404   56.716  232.093
  576.256    5.194    0.294    0.403   55.953  232.714
  576.506    4.382    0.299    0.413   56.821  232.697
  576.756    4.016    0.317    0.425   57.752  232.257
  577.006    4.091    0.316    0.425   57.179  231.284
  577.256    4.328    0.272    0.422   60.929  231.056
  577.506    4.763    0.264    0.419   66.436  231.463
  577.756    5.222    0.268    0.421   70.124  232.296
  578.006    5.472    0.276    0.419   69.299  233.022
  578.256    5.554    0.281    0.412   71.233  233.536
  578.506    5.636    0.294    0.410   73.542  233.626
  578.756    5.602    0.292    0.412   73.030  233.714
  579.006    5.272    0.263    0.411   71.078  233.699
  579.256    5.095    0.199    0.406   68.436  233.682
  579.506    4.905    0.166    0.402   66.922  234.091
  579.756    4.757    0.197    0.411   69.356  234.605
  580.006    4.667    0.274    0.421   73.233  235.226
  580.256    4.595    0.267    0.426   75.104  235.527
  580.506    4.534    0.269    0.422   69.014  235.618
  580.756    4.389    0.302    0.412   63.237  235.495
  581.006    4.138    0.308    0.407   56.145  235.372
  581.256    4.006    0.305    0.403   52.061  234.930
  581.506    3.930    0.303    0.395   50.609  234.383
  581.756    3.899    0.312    0.377   50.600  233.942
  582.006    3.965    0.319    0.361   51.217  233.502
  582.256    4.282    0.305    0.346   50.830  233.061
  582.506    4.642   -0.010    0.238   47.249  233.043
  582.756    5.004   -0.030    0.178   37.587  233.134
  583.006    5.273   -0.025    0.181   33.189  233.222
  583.256    5.515   -0.003    0.188   32.615  233.417
  583.506    5.856    0.052    0.203   33.608  233.828
  583.756    6.820    0.138    0.398   34.727  233.812
  584.006    8.843    0.181    0.415   37.726  233.795
  584.256   11.575    0.230    0.417   45.238  233.566
  584.506   14.869    0.268    0.416   53.627  233.335
  584.756   15.847    0.270    0.414   68.410  233.322
  585.006   15.084    0.264    0.414   67.334  233.298
  585.256   13.491    0.252    0.416   65.883  233.070
  585.506    9.516    0.255    0.423   65.120  233.161
  585.756    7.022    0.272    0.429   64.736  233.254
  586.006    5.163    0.291    0.437   63.723  233.876
  586.256    4.979    0.297    0.440   61.394  234.070
  586.506    5.218    0.304    0.440   62.074  234.267
  586.756    5.656    0.311    0.439   66.012  234.356
  587.006    5.972    0.307    0.438   69.638  234.231
  587.256    6.118    0.293    0.439   71.132  234.110
  587.506    5.968    0.277    0.439   70.434  234.094
  587.756    5.723    0.262    0.440   66.224  234.607
  588.006    5.386    0.256    0.443   68.847  235.334
  588.256    5.041    0.248    0.447   77.738  236.275
  588.506    4.612    0.231    0.451   86.567  237.425
  588.756    4.195    0.213    0.454   88.374  238.576
  589.006    3.860    0.205    0.456   87.423  239.512
  589.256    3.647    0.198    0.455   88.167  240.134
  589.506    3.387    0.207    0.453   90.037  240.438
  589.756    3.182    0.202    0.448   88.585  240.420
  590.006    2.989    0.193    0.442   85.192  239.449
  590.256    2.866    0.184    0.441   81.985  238.584
  590.506    2.775    0.199    0.441   77.775  237.718
  590.756    2.748    0.294    0.431   71.937  236.427
  591.006    2.789    0.320    0.424   61.962  234.925
  591.256    2.928    0.321    0.422   50.481  232.043
  591.506    3.056    0.322    0.421   49.155  230.329
  591.756    3.197    0.322    0.422   50.900  229.888
  592.006    3.452    0.317    0.424   53.773  229.128
  592.256    3.800    0.318    0.425   55.331  228.686
  592.506    4.342    0.318    0.425   54.695  228.246
  592.756    5.076    0.308    0.420   53.994  227.486
  593.006    5.586    0.298    0.417   53.232  227.789
  593.256    5.831    0.294    0.413   52.096  228.834
  593.506    5.907    0.299    0.410   50.957  230.091
  593.756    5.961    0.305    0.407   50.382  231.984
  594.006    5.981    0.316    0.406   50.123  233.454
  594.256    5.946    0.330    0.405   49.798  234.605
  594.506    5.832    0.352    0.403   49.852  235.651
  594.756    5.787    0.332    0.394   50.533  236.377
  595.006    5.730    0.326    0.382   50.585  237.103
  595.256    5.739    0.312    0.366   50.889  237.618
  595.506    5.737    0.078    0.367   50.754  238.237
  595.756    5.735    0.098    0.403   50.494  238.645
  596.006    5.733    0.163    0.421   50.106  238.522
  596.256    5.775    0.299    0.427   49.910  237.975
  596.506    5.893    0.299    0.433   49.900  237.110
  596.756    6.060    0.300    0.439   50.016  236.031
  597.006    6.127    0.301    0.444   50.633  235.591
