~VERSION INFORMATION
 VERS.                 2.0:   CWLS LOG ASCII STANDARD -VERSION 2.0
 WRAP.                  NO:   ONE LINE PER DEPTH STEP
~WELL INFORMATION BLOCK
#MNEM.UNIT           DATA                    DESCRIPTION OF MNEMONIC
#---------    -------------------            -------------------------------
# Generated from Intellog Unique Number	CW_73_75/WELL/3517
WELL.         CABRE EXPLORATION              : Well_name    - WELL
LOC .         00/02-05-074-04W5/0            : Location     - LOCATION
UWI .         00/02-05-074-04W5/0            : Uwi          - UNIQUE WELL ID
ENTR.         T                              : Entered      - ENTERED BY
SRVC.         SCHLUMBERGER                   : Scn          - SERVICE COMPANY
DATE.         05\15\92                       : Date         - LOG DATE
STRT.M        335                            : top_depth    - START DEPTH
STOP.M        590                            : bot_depth    - STOP DEPTH
STEP.M        0.25                           : increment    - STEP LENGTH
 NULL. -999.2500:NULL Value
~CURVE INFORMATION BLOCK
#MNEM UNIT       ERCB CURVE CODE    CURVE DESCRIPTION
#-----------   ------------------   ----------------------------------
DEPT.M        00 001 00 00         : DEPTH        - DEPTH
ILD .OHMM     00 120 00 00         : RESD         - DEEP RESISTIVITY (DIL)
DPHI.V/V      00 890 00 00         : PHID         - DENSITY POROSITY (SANDSTONE)
NPHI.V/V      00 330 00 00         : PHIN         - NEUTRON POROSITY (SANDSTONE)
GR  .API      00 310 00 00         : GR           - GAMMA RAY
~PARAMETER INFORMATION
#MNEM.UNIT           DATA             DESCRIPTION OF MNEMONIC
#---------         -----------     ------------------------------
GL  .M        593                  : gl           - GROUND LEVEL ELEVATION
EREF.M        597                  : kb           - ELEVATION OF DEPTH REFERENCE
DATM.M        597                  : datum        - DATUM ELEVATION
TDD .M        1628                 : tdd          - TOTAL DEPTH DRILLER
RUN .         ONE                  : Run          - RUN NUMBER
ENG .         JO                   : Engineer     - RECORDING ENGINEER
WIT .         TIM                  : Witness      - WITNESSED BY
MUD .         GEL                  : Mud_type     - MUD TYPE
MATR.         SANDSTONE            : Logunit      - NEUTRON MATRIX
TMAX.C        44                   : BHT          - MAXIMUM RECORDED TEMPERATURE
BHTD.M        1628                 : BHTDEP       - MAXIMUM RECORDED TEMPERATURE
RMT .C        15                   : MDTP         - TEMPERATURE OF MUD
MUDD.KG/M     1080                 : MWT          - MUD DENSITY
NEUT.         1                    : NEUTRON      - NEUTRON TYPE
RESI.         0                    : RESIST       - RESISTIVITY TYPE
RM  .OHMM     0.97                 : RM           - RESISTIVITY OF MUD
RMC .OHMM     0.688                : RMC          - RESISTIVITY OF MUD CAKE
RMF .OHMM     0.84                 : RMF          - RESISTIVITY OF MUD FILTRATE
SUFT.C        4                    : SUFT         - SURFACE TEMPERATURE
~A  DEPTH     RESD     PHID     PHIN       GR
# ...
  509.000    4.037    0.229    0.393   66.389
  509.250    3.965    0.225    0.396   66.381
  509.500    3.965    0.226    0.396   66.365
  509.750    3.965    0.231    0.383   65.754
  510.000    3.965    0.239    0.384   66.915
  510.250    3.965    0.244    0.391   71.013
  510.500    3.965    0.252    0.400   71.594
  510.750    4.345    0.257    0.402   70.986
  511.000    4.507    0.256    0.400   70.378
  511.250    4.674    0.255    0.396   69.193
  511.500    4.761    0.253    0.396   67.412
  511.750    4.761    0.253    0.397   65.632
  512.000    4.590    0.255    0.399   66.197
  512.250    4.267    0.255    0.394   65.588
  512.500    4.040    0.253    0.389   64.400
  512.750    3.967    0.250    0.382   62.031
  513.000    3.967    0.249    0.376   63.784
  513.250    3.967    0.244    0.378   67.887
  513.500    4.040    0.239    0.381   69.632
  513.750    4.040    0.235    0.376   68.436
  514.000    4.041    0.231    0.405   66.659
  514.250    4.041    0.228    0.404   63.698
  514.500    4.115    0.226    0.392   66.039
  514.750    4.116    0.225    0.382   69.550
  515.000    4.192    0.226    0.377   68.361
  515.250    4.269    0.230    0.374   67.165
  515.500    4.269    0.236    0.373   66.561
  515.750    4.269    0.239    0.379   65.957
  516.000    4.192    0.240    0.386   67.118
  516.250    4.117    0.236    0.386   72.397
  516.500    3.757    0.235    0.387   77.085
  516.750    3.690    0.230    0.390   76.481
  517.000    3.493    0.228    0.392   75.288
  517.250    3.430    0.227    0.398   74.092
  517.500    3.368    0.227    0.417   73.496
  517.750    3.430    0.228    0.414   73.480
  518.000    3.623    0.230    0.411   72.280
  518.250    4.512    0.231    0.413   69.910
  518.500    6.268    0.239    0.417   67.541
  518.750    8.245    0.268    0.425   63.411
  519.000    8.397    0.291    0.423   61.042
  519.250    6.385    0.306    0.400   56.319
  519.500    4.855    0.314    0.391   53.950
  519.750    4.119    0.306    0.381   58.053
  520.000    3.829    0.285    0.376   63.328
  520.250    3.495    0.267    0.372   63.313
  520.500    3.309    0.290    0.381   61.532
  520.750    3.309    0.300    0.401   61.516
  521.000    3.370    0.290    0.404   64.442
  521.250    3.432    0.275    0.404   67.953
  521.500    3.495    0.259    0.425   67.937
  521.750    3.496    0.258    0.435   67.921
  522.000    3.626    0.251    0.436   68.494
  522.250    3.626    0.241    0.386   66.709
  522.500    3.761    0.231    0.381   64.928
  522.750    3.831    0.223    0.382   63.736
  523.000    3.901    0.227    0.385   67.843
  523.250    3.901    0.235    0.384   73.122
  523.500    3.831    0.253    0.379   72.510
  523.750    3.762    0.269    0.381   72.499
  524.000    3.694    0.282    0.393   72.483
  524.250    3.627    0.276    0.402   71.879
  524.500    3.562    0.263    0.410   70.094
  524.750    3.562    0.247    0.418   68.906
  525.000    3.497    0.245    0.421   66.536
  525.250    3.311    0.254    0.412   69.463
  525.500    3.078    0.253    0.395   74.742
  525.750    3.135    0.250    0.395   78.253
  526.000    3.372    0.244    0.403   75.880
  526.250    3.498    0.242    0.414   74.695
  526.500    3.695    0.249    0.424   72.910
  526.750    3.763    0.258    0.433   70.541
  527.000    3.833    0.264    0.429   66.991
  527.250    3.904    0.256    0.418   64.037
  527.500    3.904    0.244    0.411   65.783
  527.750    3.499    0.233    0.410   68.713
  528.000    3.252    0.223    0.403   68.693
  528.250    3.023    0.220    0.388   68.093
  528.500    2.862    0.222    0.374   67.485
  528.750    2.710    0.222    0.368   66.877
  529.000    2.760    0.222    0.375   66.273
  529.250    3.253    0.220    0.383   67.430
  529.500    3.630    0.222    0.387   67.422
  529.750    4.201    0.224    0.393   66.222
  530.000    4.438    0.231    0.405   65.626
  530.250    4.604    0.241    0.407   63.257
  530.500    4.604    0.258    0.399   68.528
  530.750    4.521    0.286    0.397   66.748
  531.000    4.359    0.286    0.397   63.790
  531.250    3.978    0.277    0.400   62.601
  531.500    3.766    0.260    0.402   63.174
  531.750    3.375    0.254    0.402   65.512
  532.000    3.081    0.243    0.397   67.257
  532.250    2.971    0.229    0.397   68.418
  532.500    2.761    0.221    0.397   69.576
  532.750    2.971    0.214    0.391   68.971
  533.000    3.376    0.221    0.382   68.367
  533.250    3.566    0.223    0.385   67.175
  533.500    3.908    0.220    0.391   67.159
  533.750    4.128    0.220    0.401   67.143
  534.000    4.361    0.222    0.407   66.543
  534.250    4.441    0.239    0.404   64.758
  534.500    4.607    0.258    0.394   64.150
  534.750    4.692    0.265    0.395   64.131
  535.000    4.607    0.262    0.393   64.711
  535.250    4.524    0.258    0.387   64.692
  535.500    4.362    0.253    0.388   64.676
  535.750    4.205    0.243    0.394   64.076
  536.000    4.055    0.240    0.404   64.060
  536.250    3.981    0.233    0.400   64.040
  536.500    3.839    0.230    0.398   67.559
  536.750    3.839    0.228    0.396   73.423
  537.000    3.839    0.226    0.396   77.522
  537.250    3.839    0.225    0.396   78.095
  537.500    3.839    0.222    0.397   78.079
  537.750    3.840    0.221    0.399   76.302
  538.000    3.840    0.218    0.409   72.756
  538.250    3.840    0.215    0.420   70.387
  538.500    3.983    0.211    0.426   69.194
  538.750    4.131    0.221    0.420   68.579
  539.000    4.208    0.250    0.413   69.159
  539.250    4.285    0.257    0.420   70.904
  539.500    4.285    0.251    0.436   73.246
  539.750    4.208    0.239    0.424   74.407
  540.000    4.132    0.225    0.392   72.038
  540.250    3.984    0.198    0.357   69.076
  540.500    3.912    0.188    0.357   67.296
  540.750    3.772    0.192    0.360   66.692
  541.000    3.772    0.206    0.368   69.025
  541.250    3.772    0.231    0.375   67.833
  541.500    3.772    0.255    0.381   66.048
  541.750    3.842    0.284    0.394   65.452
  542.000    3.913    0.308    0.412   64.844
  542.250    4.210    0.320    0.433   66.009
  542.500    4.367    0.348    0.451   68.931
  542.750    4.698    0.367    0.457   73.038
  543.000    4.963    0.352    0.410   75.956
  543.250    5.339    0.288    0.376   75.356
  543.500    5.744    0.204    0.351   73.567
  543.750    5.958    0.206    0.356   72.967
  544.000    6.410    0.211    0.392   72.955
  544.250    6.771    0.217    0.387   71.763
  544.500    7.153    0.226    0.373   68.217
  544.750    7.419    0.235    0.369   64.079
  545.000    7.696    0.237    0.364   59.941
  545.250    7.982    0.230    0.361   58.752
  545.500    8.280    0.219    0.356   56.383
  545.750    8.588    0.205    0.349   54.598
  546.000    9.072    0.205    0.347   53.998
  546.250    9.240    0.206    0.344   53.982
  546.500    9.584    0.205    0.340   53.378
  546.750    9.761    0.198    0.335   53.358
  547.000   10.125    0.189    0.325   54.519
  547.250   10.312    0.169    0.315   55.676
  547.500   10.502    0.157    0.311   56.253
  547.750   10.503    0.162    0.309   56.826
  548.000   10.313    0.164    0.304   58.571
  548.250    9.075    0.171    0.309   59.728
  548.500    7.561    0.177    0.313   60.897
  548.750    6.901    0.184    0.314   62.058
  549.000    6.185    0.189    0.319   63.804
  549.250    5.749    0.201    0.331   66.141
  549.500    5.443    0.211    0.334   69.068
  549.750    4.878    0.227    0.335   71.990
  550.000    4.534    0.237    0.341   73.151
  550.250    4.372    0.252    0.364   73.728
  550.500    4.453    0.264    0.381   74.300
  550.750    4.879    0.277    0.398   70.754
  551.000    5.444    0.292    0.419   63.082
  551.250    6.075    0.294    0.431   60.124
  551.500    6.779    0.264    0.421   61.285
  551.750    7.161    0.234    0.390   64.804
  552.000    7.428    0.204    0.358   68.318
  552.250    7.705    0.164    0.313   68.891
