~VERSION INFORMATION
 VERS.                 2.0:   CWLS LOG ASCII STANDARD -VERSION 2.0
 WRAP.                  NO:   ONE LINE PER DEPTH STEP
~WELL INFORMATION BLOCK
#MNEM.UNIT           DATA                    DESCRIPTION OF MNEMONIC
#---------    -------------------            -------------------------------
# Generated from Intellog Unique Number	CW_82_90/WELL/3433
WELL.         TEXEX WOODEN                   : Well_name    - WELL
LOC .         00/07-35-088-24W4/0            : Location     - LOCATION
UWI .         00/07-35-088-24W4/0            : Uwi          - UNIQUE WELL ID
ENTR.         MAX                            : Entered      - ENTERED BY
SRVC.         SCHLUMBERGER                   : Scn          - SERVICE COMPANY
STRT.M        60.96                          : top_depth    - START DEPTH
STOP.M        304.71                         : bot_depth    - STOP DEPTH
STEP.M        0.25                           : increment    - STEP LENGTH
 NULL. -999.2500:NULL Value
~CURVE INFORMATION BLOCK
#MNEM UNIT       ERCB CURVE CODE    CURVE DESCRIPTION
#-----------   ------------------   ----------------------------------
DEPT.M        00 001 00 00         : DEPTH        - DEPTH
ILD .OHMM     00 120 00 00         : RESD         - DEEP RESISTIVITY (DIL)
NPHI.V/V      00 330 00 00         : PHIN         - NEUTRON POROSITY (SANDSTONE)
DPHI.V/V      00 890 00 00         : PHID         - DENSITY POROSITY (SANDSTONE)
CALI.MM       00 280 01 00         : CAL          - CALIPER
GR  .API      00 310 00 00         : GR           - GAMMA RAY
~PARAMETER INFORMATION
#MNEM.UNIT           DATA             DESCRIPTION OF MNEMONIC
#---------         -----------     ------------------------------
GL  .M        524.866              : gl           - GROUND LEVEL ELEVATION
EREF.M        527.914              : kb           - ELEVATION OF DEPTH REFERENCE
DATM.M        524.866              : datum        - DATUM ELEVATION
TDD .M        304.495              : tdd          - TOTAL DEPTH DRILLER
RUN .         ONE                  : Run          - RUN NUMBER
ENG .         BILL                 : Engineer     - RECORDING ENGINEER
WIT .         JIM                  : Witness      - WITNESSED BY
MUD .         GEL                  : Mud_type     - MUD TYPE
MATR.         SANDSTONE            : Logunit      - NEUTRON MATRIX
TMAX.C        14.4444              : BHT          - MAXIMUM RECORDED TEMPERATURE
BHTD.M        304.495              : BHTDEP       - MAXIMUM RECORDED TEMPERATURE
MATR.         1                    : LOGUNIT      - NEUTRON MATRIX
RMT .C        6.66667              : MDTP         - TEMPERATURE OF MUD
NEUT.         1                    : NEUTRON      - NEUTRON TYPE
RESI.         0                    : RESIST       - RESISTIVITY TYPE
RMC .OHMM     4.24                 : RMC          - RESISTIVITY OF MUD CAKE
RMF .OHMM     4.24                 : RMF          - RESISTIVITY OF MUD FILTRATE
SUFT.C        -23.3333             : SUFT         - SURFACE TEMPERATURE
~A  DEPTH     RESD     PHIN     PHID      CAL       GR
# ...
  279.960   11.778    0.384    0.093  245.337   74.221
  280.210   12.526    0.353    0.113  245.267   76.970
  280.460   13.088    0.375    0.147  245.187   80.040
  280.710   13.076    0.394    0.153  244.063   81.861
  280.960   12.836    0.383    0.148  241.894   82.136
  281.210   12.716    0.357    0.141  240.225   81.778
  281.460   13.049    0.316    0.129  239.618   80.808
  281.710   13.879    0.293    0.125  237.967   78.276
  281.960   15.026    0.267    0.146  236.843   68.583
  282.210   16.413    0.330    0.268  236.254   56.088
  282.460   16.401    0.364    0.330  237.238   59.159
  282.710   14.598    0.370    0.325  238.739   65.341
  282.960   11.779    0.399    0.096  240.259   80.864
  283.210   11.461    0.386    0.158  241.224   84.552
  283.460   11.555    0.380    0.145  241.163   79.842
  283.710   11.860    0.374    0.132  241.084   82.285
  283.960   12.172    0.360    0.110  239.959   82.549
  284.210   11.947    0.340    0.098  239.880   79.717
  284.460   11.419    0.329    0.056  240.872   75.314
  284.710   10.818    0.378    0.063  240.784   78.695
  284.960    9.802    0.409    0.100  241.258   83.944
  285.210    8.960    0.422    0.153  242.751   87.009
  285.460    8.412    0.434    0.136  243.217   86.662
  285.710    8.789    0.445    0.154  244.191   86.615
  285.960    9.263    0.449    0.133  244.121   86.262
  286.210    9.592    0.429    0.156  240.362   85.598
  286.460    9.585    0.442    0.150  241.345   84.312
  286.710    9.751    0.415    0.139  243.909   82.087
  286.960   10.187    0.391    0.088  248.582   79.555
  287.210   10.643    0.358    0.060  237.963   80.753
  287.460   11.120    0.390    0.048  228.408   82.268
  287.710   11.616    0.418    0.114  229.374   84.716
  287.960   11.710    0.416    0.149  228.776   86.230
  288.210   11.497    0.409    0.143  228.715   86.500
  288.460   11.185    0.427    0.131  228.109   87.080
  288.710   11.177    0.438    0.170  228.029   84.233
  288.960   11.170    0.436    0.160  228.486   84.502
  289.210   11.463    0.422    0.145  228.424   84.762
  289.460   11.660    0.416    0.128  228.354   84.414
  289.710   11.653    0.404    0.094  227.739   84.051
  289.960   11.749    0.395    0.086  227.677   83.709
  290.210   11.739    0.392    0.113  227.080   83.345
  290.460   11.730    0.406    0.109  227.009   82.998
  290.710   11.618    0.419    0.136  226.403   82.635
  290.960   11.507    0.415    0.122  225.270   82.909
  291.210   11.194    0.419    0.122  224.673   85.980
  291.460   10.795    0.434    0.139  225.138   89.055
  291.710   10.318    0.443    0.115  225.059   92.115
  291.960    9.600    0.431    0.071  223.917   92.696
  292.210    9.176    0.423    0.091  222.810   91.093
  292.460    8.927    0.397    0.058  221.141   88.572
  292.710    8.842    0.359    0.033  220.026   88.214
  292.960    8.759    0.385    0.090  223.626   90.979
  293.210    8.830    0.425    0.131  226.735   96.539
  293.460    8.824    0.434    0.136  232.988   99.287
  293.710    9.217    0.420    0.129  240.286   98.623
  293.960    9.546    0.408    0.093  231.249   96.097
  294.210   10.333    0.394    0.062  228.017   89.516
  294.460   10.797    0.381    0.033  227.946   80.750
  294.710   11.585    0.311    0.002  225.241   83.509
  294.960   11.474    0.348    0.103  222.536   87.519
  295.210   10.488    0.373    0.151  225.100   92.767
  295.460   10.113    0.380    0.141  226.084   95.205
  295.710   10.108    0.382    0.113  224.942   95.168
  295.960   10.190    0.382    0.135  224.880   93.877
  296.210   10.459    0.379    0.120  224.283   91.346
  296.460   11.023    0.374    0.098  223.685   87.264
  296.710   11.214    0.359    0.060  223.597   74.458
  296.960   11.008    0.334    0.044  223.000   67.560
  297.210   10.334    0.347    0.022  222.403   66.901
  297.460    9.448    0.379    0.082  221.805   67.788
  297.710    8.637    0.396    0.122  221.208   68.058
  297.960    7.755    0.404    0.114  220.610   68.016
  298.210    7.412    0.404    0.136  220.522   68.597
  298.460    7.276    0.413    0.131  220.470   69.795
  298.710    7.143    0.431    0.113  220.390   71.309
  298.960    7.074    0.447    0.131  220.320   72.517
  299.210    7.007    0.446    0.131  220.241   76.205
  299.460    6.939    0.433    0.106  220.170   81.142
  299.710    6.872    0.410    0.122  219.555   85.457
  299.960    6.806    0.391    0.130  219.494   87.905
  300.210    6.802    0.390    0.139  219.423   88.175
  300.460    6.736    0.385    0.133  219.353   88.756
  300.710    6.731    0.382    0.085  219.800   89.648
  300.960    6.727    0.383    0.079  219.739   90.229
  301.210    6.781    0.383    0.073  219.668   90.171
  301.460    6.777    0.382    0.066  219.589   90.441
  301.710    6.833    0.381    0.061  220.046   89.435
  301.960    6.827    0.380    0.080  219.966   90.052
  302.210    6.884    0.383    0.092  219.896   90.005
  302.460    6.877    0.387    0.098  219.834   89.963
  302.710    6.934    0.390    0.106  219.746   89.299
  302.960    6.930    0.396    0.113  220.212   88.324
  303.210    6.925    0.397    0.141  221.195   87.033
  303.460    6.919    0.404    0.187  221.125   85.435
  303.710    7.039    0.410    0.250  221.572   83.838
  303.960    7.420    0.425    0.310  222.556   81.296
  304.210    7.752    0.434    0.331  230.917   79.398
  304.460    8.468    0.451    0.322  227.149   77.173
  304.710    9.167    0.459    0.318  228.123   75.259
