~VERSION INFORMATION
 VERS.                 2.0:   CWLS LOG ASCII STANDARD -VERSION 2.0
 WRAP.                  NO:   ONE LINE PER DEPTH STEP
~WELL INFORMATION BLOCK
#MNEM.UNIT           DATA                    DESCRIPTION OF MNEMONIC
#---------    -------------------            -------------------------------
# Generated from Intellog Unique Number	CS_69_70/WELL/842
WELL.         PENNANT-PUMA                   : Well_name    - WELL
LOC .         00/07-24-069-16W4/0            : Location     - LOCATION
UWI .         00/07-24-069-16W4/0            : Uwi          - UNIQUE WELL ID
ENTR.         SP                             : Entered      - ENTERED BY
SRVC.         SCHLUMBERGER                   : Scn          - SERVICE COMPANY
STRT.M        259.080                        : top_depth    - START DEPTH
STOP.M        466.080                        : bot_depth    - STOP DEPTH
STEP.M        0.25                           : increment    - STEP LENGTH
 NULL. -999.2500:NULL Value
~CURVE INFORMATION BLOCK
#MNEM UNIT       ERCB CURVE CODE    CURVE DESCRIPTION
#-----------   ------------------   ----------------------------------
DEPT.M        00 001 00 00         : DEPTH        - DEPTH
GR  .API      00 310 00 00         : GR           - GAMMA RAY
DPHI.V/V      00 890 00 00         : PHID         - DENSITY POROSITY (SANDSTONE)
NPHI.V/V      00 330 00 00         : PHIN         - NEUTRON POROSITY (SANDSTONE)
ILD .OHMM     00 120 00 00         : RESD         - DEEP RESISTIVITY (DIL)
~PARAMETER INFORMATION
#MNEM.UNIT           DATA             DESCRIPTION OF MNEMONIC
#---------         -----------     ------------------------------
GL  .M        552.572              : gl           - GROUND LEVEL ELEVATION
EREF.M        555.65               : kb           - ELEVATION OF DEPTH REFERENCE
DATM.M        552.572              : datum        - DATUM ELEVATION
TDD .M        467.563              : tdd          - TOTAL DEPTH DRILLER
RUN .         ONE                  : Run          - RUN NUMBER
ENG .         BILL                 : Engineer     - RECORDING ENGINEER
WIT .         JIM                  : Witness      - WITNESSED BY
MUD .         GEL                  : Mud_type     - MUD TYPE
MATR.         SANDSTONE            : Logunit      - NEUTRON MATRIX
TMAX.C        22.2222              : BHT          - MAXIMUM RECORDED TEMPERATURE
BHTD.M        467.563              : BHTDEP       - MAXIMUM RECORDED TEMPERATURE
MATR.         1                    : LOGUNIT      - NEUTRON MATRIX
RMT .C        25                   : MDTP         - TEMPERATURE OF MUD
NEUT.         1                    : NEUTRON      - NEUTRON TYPE
RESI.         0                    : RESIST       - RESISTIVITY TYPE
RMC .OHMM     0.25                 : RMC          - RESISTIVITY OF MUD CAKE
RMF .OHMM     0.25                 : RMF          - RESISTIVITY OF MUD FILTRATE
SUFT.C        15                   : SUFT         - SURFACE TEMPERATURE
~A  DEPTH       GR     PHID     PHIN     RESD
# ...
  346.080   67.710    0.292    0.497    3.374
  346.330   65.350    0.299    0.519    3.260
  346.580   65.346    0.307    0.533    3.195
  346.830   66.233    0.301    0.517    3.184
  347.080   63.750    0.294    0.507    3.220
  347.330   63.327    0.298    0.499    3.296
  347.580   65.488    0.300    0.495    3.355
  347.830   68.793    0.299    0.499    3.417
  348.080   72.200    0.290    0.469    3.480
  348.330   77.481    0.279    0.460    3.534
  348.580   80.722    0.280    0.493    3.534
  348.830   82.809    0.293    0.514    3.467
  349.080   85.885    0.236    0.506    3.385
  349.330   87.738    0.221    0.532    3.322
  349.580   87.315    0.238    0.560    3.338
  349.830   85.093    0.244    0.553    3.399
  350.080   83.604    0.245    0.521    3.509
  350.330   79.458    0.250    0.506    3.622
  350.580   73.630    0.241    0.521    3.553
  350.830   69.230    0.266    0.540    3.457
  351.080   67.832    0.291    0.538    3.317
  351.330   67.211    0.311    0.513    3.116
  351.580   66.940    0.310    0.494    3.025
  351.830   66.963    0.307    0.479    2.912
  352.080   67.225    0.309    0.480    2.832
  352.330   64.178    0.319    0.495    2.765
  352.580   58.895    0.328    0.508    2.703
  352.830   57.322    0.335    0.511    2.648
  353.080   57.266    0.325    0.502    2.595
  353.330   57.937    0.322    0.504    2.566
  353.580   58.317    0.327    0.487    2.556
  353.830   58.455    0.333    0.478    2.567
  354.080   58.358    0.337    0.494    2.579
  354.330   59.910    0.343    0.518    2.590
  354.580   60.938    0.343    0.516    2.618
  354.830   61.170    0.332    0.510    2.657
  355.080   61.674    0.322    0.492    2.727
  355.330   63.055    0.314    0.488    2.833
  355.580   64.218    0.308    0.497    2.973
  355.830   64.558    0.315    0.514    3.401
  356.080   63.050    0.311    0.520    3.912
  356.330   59.023    0.290    0.457    4.850
  356.580   55.454    0.244    0.245    6.306
  356.830   50.873    0.095    0.166    8.005
  357.080   48.370    0.060    0.145   11.266
  357.330   48.216    0.037    0.138   14.376
  357.580   48.307    0.026    0.135   16.913
  357.830   48.861    0.023    0.134   15.553
  358.080   47.453    0.030    0.137   10.727
  358.330   44.660    0.025    0.151    7.550
  358.580   46.458    0.060    0.171    5.733
  358.830   49.701    0.095    0.197    4.612
  359.080   52.968    0.152    0.229    3.815
  359.330   55.961    0.233    0.306    3.128
  359.580   57.099    0.279    0.407    2.673
  359.830   57.705    0.308    0.457    2.302
  360.080   57.920    0.323    0.484    2.328
  360.330   59.177    0.334    0.493    2.378
  360.580   60.427    0.330    0.510    2.464
  360.830   61.475    0.334    0.520    2.592
  361.080   62.824    0.327    0.529    2.671
  361.330   63.850    0.327    0.545    2.740
  361.580   64.522    0.326    0.519    2.788
  361.830   64.481    0.313    0.489    2.825
  362.080   64.867    0.314    0.482    2.874
  362.330   66.256    0.320    0.488    2.928
  362.580   68.058    0.318    0.493    3.006
  362.830   67.838    0.310    0.489    3.098
  363.080   69.325    0.298    0.483    3.180
  363.330   71.023    0.283    0.485    3.275
  363.580   72.990    0.270    0.497    3.408
  363.830   74.339    0.268    0.511    3.605
  364.080   75.613    0.285    0.504    3.519
  364.330   76.599    0.299    0.488    3.719
  364.580   77.486    0.286    0.475    3.925
  364.830   78.497    0.271    0.464    4.124
  365.080   79.282    0.253    0.466    4.323
  365.330   78.975    0.230    0.475    4.510
  365.580   77.433    0.239    0.482    4.757
  365.830   77.556    0.238    0.484    4.961
  366.080   78.381    0.247    0.472    5.154
  366.330   78.967    0.235    0.464    5.265
  366.580   78.322    0.215    0.460    5.371
  366.830   77.175    0.210    0.461    5.457
  367.080   76.533    0.211    0.456    5.522
  367.330   76.658    0.212    0.450    5.547
  367.580   77.765    0.212    0.455    5.494
  367.830   79.130    0.212    0.452    5.312
  368.080   79.409    0.213    0.461    5.117
  368.330   79.499    0.214    0.473    4.938
  368.580   81.168    0.218    0.487    4.787
  368.830   85.472    0.225    0.494    4.750
  369.080   86.666    0.220    0.486    4.786
  369.330   84.376    0.215    0.486    4.818
  369.580   83.106    0.224    0.492    4.793
  369.830   83.312    0.219    0.479    4.747
  370.080   83.912    0.216    0.472    4.699
  370.330   83.505    0.203    0.465    4.616
  370.580   83.032    0.202    0.468    4.557
  370.830   83.089    0.204    0.479    4.510
  371.080   84.626    0.201    0.484    4.508
  371.330   86.177    0.194    0.491    4.477
  371.580   87.294    0.194    0.483    4.468
  371.830   87.921    0.198    0.481    4.483
  372.080   87.986    0.203    0.500    4.488
  372.330   88.512    0.211    0.521    4.483
  372.580   89.313    0.218    0.499    4.437
  372.830   87.674    0.213    0.487    4.362
  373.080   84.953    0.227    0.462    4.260
  373.330   83.656    0.234    0.440    4.057
  373.580   81.952    0.242    0.453    3.820
  373.830   80.873    0.258    0.475    3.632
  374.080   81.933    0.265    0.489    3.243
  374.330   83.983    0.256    0.484    2.779
  374.580   85.832    0.255    0.475    2.316
  374.830   88.448    0.270    0.491    2.039
  375.080   92.513    0.280    0.540    1.903
  375.330   97.273    0.260    0.563    1.737
  375.580   95.619    0.250    0.629    1.863
  375.830   89.221    0.255    0.627    2.138
  376.080   87.338    0.249    0.624    2.488
  376.330   86.864    0.243    0.615    2.863
  376.580   87.910    0.238    0.589    3.169
  376.830   88.032    0.245    0.549    3.595
  377.080   87.374    0.245    0.516    3.799
  377.330   86.974    0.242    0.499    3.954
  377.580   87.156    0.239    0.484    4.004
  377.830   85.098    0.233    0.476    4.053
  378.080   83.514    0.232    0.470    4.117
  378.330   82.385    0.233    0.464    4.177
  378.580   81.659    0.229    0.469    4.214
  378.830   81.041    0.225    0.473    4.032
  379.080   79.413    0.222    0.486    3.906
  379.330   75.990    0.229    0.505    3.737
  379.580   72.879    0.220    0.485    3.501
  379.830   70.447    0.211    0.481    3.373
  380.080   68.590    0.235    0.479    3.184
  380.330   66.618    0.271    0.487    3.023
  380.580   63.760    0.279    0.493    2.903
  380.830   62.463    0.272    0.508    2.821
  381.080   60.739    0.287    0.526    2.760
  381.330   60.827    0.300    0.538    2.766
  381.580   62.811    0.307    0.550    2.798
  381.830   65.183    0.302    0.534    2.912
  382.080   65.808    0.309    0.519    2.996
  382.330   62.977    0.307    0.485    3.079
  382.580   59.521    0.284    0.449    2.992
  382.830   55.323    0.235    0.402    2.809
  383.080   48.397    0.196    0.349    2.658
  383.330   45.283    0.158    0.390    2.462
  383.580   47.940    0.194    0.464    2.275
  383.830   49.826    0.273    0.489    2.225
  384.080   50.367    0.299    0.508    2.710
  384.330   50.020    0.293    0.501    3.534
  384.580   49.009    0.287    0.471    4.690
  384.830   46.970    0.270    0.425    6.470
  385.080   44.890    0.232    0.341    8.857
  385.330   41.859    0.101    0.284   10.954
  385.580   41.934    0.079    0.255   11.894
  385.830   42.627    0.070    0.234    5.675
  386.080   43.058    0.071    0.222    4.053
  386.330   46.463    0.104    0.214    3.288
  386.580   50.103    0.165    0.241    2.863
  386.830   53.590    0.259    0.280    2.463
  387.080   52.585    0.295    0.333    2.167
  387.330   47.257    0.300    0.381    2.052
  387.580   48.548    0.308    0.424    2.054
  387.830   50.069    0.312    0.434    2.074
  388.080   50.538    0.320    0.423    2.108
  388.330   50.085    0.327    0.423    2.131
  388.580   50.954    0.331    0.435    2.135
  388.830   51.925    0.330    0.426    2.136
  389.080   53.959    0.330    0.417    2.143
  389.330   55.029    0.329    0.435    2.136
