~VERSION INFORMATION
 VERS.                 2.0:   CWLS LOG ASCII STANDARD -VERSION 2.0
 WRAP.                  NO:   ONE LINE PER DEPTH STEP
~WELL INFORMATION BLOCK
#MNEM.UNIT           DATA                    DESCRIPTION OF MNEMONIC
#---------    -------------------            -------------------------------
# Generated from Intellog Unique Number	CS_73_76/WELL/1032
WELL.         CANADIAN WORLDWIDE ENERGY      : Well_name    - WELL
LOC .         00/06-04-075-09W4/0            : Location     - LOCATION
UWI .         00/06-04-075-09W4/0            : Uwi          - UNIQUE WELL ID
ENTR.         SP                             : Entered      - ENTERED BY
SRVC.         SCHLUMBERGER                   : Scn          - SERVICE COMPANY
STRT.M        275                            : top_depth    - START DEPTH
STOP.M        494                            : bot_depth    - STOP DEPTH
STEP.M        0.25                           : increment    - STEP LENGTH
 NULL. -999.2500:NULL Value
~CURVE INFORMATION BLOCK
#MNEM UNIT       ERCB CURVE CODE    CURVE DESCRIPTION
#-----------   ------------------   ----------------------------------
DEPT.M        00 001 00 00         : DEPTH        - DEPTH
GR  .API      00 310 00 00         : GR           - GAMMA RAY
NPHI.V/V      00 330 00 00         : PHIN         - NEUTRON POROSITY (LIMESTONE)
DPHI.V/V      00 890 00 00         : PHID         - DENSITY POROSITY (LIMESTONE)
ILD .OHMM     00 120 00 00         : RESD         - DEEP RESISTIVITY (DIL)
~PARAMETER INFORMATION
#MNEM.UNIT           DATA             DESCRIPTION OF MNEMONIC
#---------         -----------     ------------------------------
GL  .M        662.5                : gl           - GROUND LEVEL ELEVATION
EREF.M        666                  : kb           - ELEVATION OF DEPTH REFERENCE
DATM.M        662.5                : datum        - DATUM ELEVATION
TDD .M        500                  : tdd          - TOTAL DEPTH DRILLER
RUN .         ONE                  : Run          - RUN NUMBER
ENG .         BILL                 : Engineer     - RECORDING ENGINEER
WIT .         JIM                  : Witness      - WITNESSED BY
MUD .         GEL                  : Mud_type     - MUD TYPE
MATR.         LIMESTONE            : Logunit      - NEUTRON MATRIX
TMAX.C        21                   : BHT          - MAXIMUM RECORDED TEMPERATURE
BHTD.M        500                  : BHTDEP       - MAXIMUM RECORDED TEMPERATURE
MATR.         1                    : LOGUNIT      - NEUTRON MATRIX
RMT .C        25                   : MDTP         - TEMPERATURE OF MUD
NEUT.         1                    : NEUTRON      - NEUTRON TYPE
RESI.         0                    : RESIST       - RESISTIVITY TYPE
RMC .OHMM     0.25                 : RMC          - RESISTIVITY OF MUD CAKE
RMF .OHMM     0.25                 : RMF          - RESISTIVITY OF MUD FILTRATE
SUFT.C        15                   : SUFT         - SURFACE TEMPERATURE
~A  DEPTH       GR     PHIN     PHID     RESD
# ...
  405.500   66.772    0.444    0.333    8.929
  405.750   66.173    0.450    0.326    7.678
  406.000   66.180    0.446    0.323    6.602
  406.250   66.187    0.451    0.327    6.007
  406.500   64.371    0.451    0.327    5.785
  406.750   61.949    0.452    0.327    5.571
  407.000   63.172    0.444    0.327    5.466
  407.250   64.999    0.435    0.320    5.364
  407.500   65.613    0.444    0.309    5.364
  407.750   68.052    0.433    0.304    5.364
  408.000   71.096    0.426    0.297    5.364
  408.250   74.139    0.430    0.279    5.571
  408.500   76.574    0.447    0.252    5.677
  408.750   79.011    0.451    0.237    5.785
  409.000   79.623    0.454    0.241    5.785
  409.250   79.630    0.457    0.243    5.895
  409.500   81.459    0.443    0.241    5.895
  409.750   86.931    0.440    0.221    6.007
  410.000   88.760    0.452    0.210    5.895
  410.250   86.338    0.473    0.233    5.264
  410.500   85.739    0.480    0.256    5.166
  410.750   86.960    0.474    0.262    5.166
  411.000   82.110    0.463    0.259    5.364
  411.250   81.507    0.468    0.251    5.466
  411.500   85.765    0.485    0.246    5.677
  411.750   88.810    0.489    0.238    5.785
  412.000   86.995    0.489    0.230    5.785
  412.250   82.751    0.475    0.225    5.785
  412.500   79.114    0.473    0.228    5.677
  412.750   79.120    0.467    0.231    5.785
  413.000   80.344    0.459    0.236    5.785
  413.250   80.350    0.452    0.243    5.785
  413.500   80.355    0.463    0.234    5.785
  413.750   79.755    0.474    0.222    5.785
  414.000   82.190    0.465    0.216    5.785
  414.250   85.842    0.459    0.210    5.677
  414.500   84.029    0.454    0.205    5.677
  414.750   82.211    0.463    0.209    5.677
  415.000   79.183    0.448    0.211    5.677
  415.250   82.227    0.439    0.204    5.677
  415.500   88.308    0.429    0.200    5.785
  415.750   91.349    0.441    0.194    6.122
  416.000   94.394    0.451    0.193    6.357
  416.250   96.222    0.459    0.205    6.602
  416.500   96.837    0.452    0.215    6.728
  416.750   96.846    0.459    0.223    6.856
  417.000   96.851    0.462    0.217    7.120
  417.250   93.820    0.454    0.211    7.255
  417.500   90.790    0.448    0.216    7.394
  417.750   87.155    0.451    0.237    7.394
  418.000   84.731    0.455    0.251    7.394
  418.250   81.701    0.453    0.265    7.255
  418.500   77.461    0.458    0.275    6.987
  418.750   76.856    0.435    0.283    6.856
  419.000   80.510    0.437    0.281    6.728
  419.250   81.729    0.442    0.280    6.479
  419.500   82.950    0.441    0.281    6.357
  419.750   84.780    0.418    0.265    6.357
  420.000   86.001    0.408    0.237    6.239
  420.250   87.829    0.410    0.209    6.239
  420.500   86.622    0.430    0.193    6.239
  420.750   87.238    0.443    0.203    6.239
  421.000   87.851    0.447    0.208    6.122
  421.250   88.468    0.450    0.206    6.122
  421.500   88.473    0.461    0.216    6.239
  421.750   87.871    0.463    0.224    6.357
  422.000   86.663    0.485    0.238    6.357
  422.250   86.063    0.522    0.249    6.239
  422.500   86.679    0.541    0.267    6.122
  422.750   86.683    0.569    0.294    5.677
  423.000   86.694    0.543    0.251    5.166
  423.250   86.698    0.516    0.256    4.612
  423.500   86.100    0.545    0.256    3.966
  423.750   86.105    0.559    0.254    3.346
  424.000   86.111    0.550    0.249    2.988
  424.250   88.548    0.534    0.251    2.719
  424.500   89.769    0.527    0.247    2.521
  424.750   90.990    0.521    0.244    2.383
  425.000   90.391    0.534    0.242    2.428
  425.250   93.436    0.550    0.241    2.474
  425.500   94.047    0.559    0.231    2.569
  425.750   89.196    0.467    0.212    2.618
  426.000   86.169    0.445    0.199    2.618
  426.250   86.782    0.439    0.199    2.618
  426.500   86.788    0.446    0.205    2.668
  426.750   86.794    0.449    0.209    2.771
  427.000   80.123    0.429    0.189    3.103
  427.250   78.913    0.398    0.170    3.609
  427.500   80.136    0.379    0.130    3.892
  427.750   83.178    0.407    0.144    4.526
  428.000   86.222    0.422    0.167    5.069
  428.250   88.051    0.434    0.189    5.466
  428.500   89.272    0.443    0.197    5.785
  428.750   90.496    0.446    0.197    6.122
  429.000   91.717    0.466    0.192    6.602
  429.250   91.115    0.476    0.193    6.728
  429.500   91.729    0.472    0.194    6.728
  429.750   92.343    0.479    0.204    6.239
  430.000   91.135    0.497    0.216    5.895
  430.250   92.359    0.507    0.222    5.364
  430.500   92.971    0.522    0.215    4.974
  430.750   90.549    0.533    0.211    4.526
  431.000   80.841    0.508    0.227    4.359
  431.250   75.987    0.472    0.251    3.966
  431.500   68.100    0.436    0.263    3.819
  431.750   61.426    0.395    0.195    3.678
  432.000   63.864    0.396    0.145    3.678
  432.250   65.691    0.419    0.192    3.678
  432.500   68.735    0.446    0.222    4.042
  432.750   71.172    0.470    0.252    4.612
  433.000   70.570    0.484    0.241    5.264
  433.250   69.365    0.472    0.238    7.120
  433.500   69.371    0.446    0.195    8.599
  433.750   65.734    0.244    0.097   10.000
  434.000   57.845    0.184    0.055   10.784
  434.250   50.565    0.169    0.017   11.851
  434.500   46.927    0.163    0.000   12.542
  434.750   53.009    0.170    0.017   13.783
  435.000   59.088    0.207    0.196   14.586
  435.250   66.381    0.302    0.232   16.029
  435.500   65.174    0.386    0.249   18.997
  435.750   67.610    0.447    0.260   23.826
  436.000   71.261    0.441    0.260   28.237
  436.250   73.089    0.426    0.243   31.032
  436.500   70.669    0.422    0.228   32.839
  436.750   69.459    0.418    0.231   32.225
  437.000   67.645    0.440    0.243   26.184
  437.250   65.829    0.431    0.233   20.104
  437.500   61.585    0.365    0.177   18.642
  437.750   60.985    0.353    0.122   17.616
  438.000   65.244    0.396    0.156   18.293
  438.250   69.503    0.424    0.199   18.997
  438.500   69.508    0.445    0.228   19.728
  438.750   65.264    0.440    0.213   20.104
  439.000   61.628    0.386    0.144   20.487
  439.250   62.241    0.373    0.172   20.104
  439.500   68.929    0.390    0.218   18.997
  439.750   74.404    0.396    0.253   17.616
  440.000   73.194    0.408    0.235   16.963
  440.250   71.382    0.418    0.202   16.646
  440.500   71.385    0.419    0.216   16.646
  440.750   70.178    0.421    0.234   16.646
  441.000   63.508    0.436    0.259   15.730
  441.250   60.475    0.436    0.275   15.147
  441.500   55.019    0.387    0.276   13.783
  441.750   51.382    0.253    0.283   12.077
  442.000   49.565    0.222    0.316   11.199
  442.250   47.749    0.271    0.307    9.813
  442.500   47.151    0.297    0.287    8.599
  442.750   46.549    0.314    0.276    7.534
  443.000   45.948    0.327    0.271    7.255
  443.250   48.991    0.337    0.281    8.280
  443.500   53.858    0.336    0.287    9.450
  443.750   56.292    0.358    0.295   10.385
  444.000   58.122    0.383    0.307   10.990
  444.250   59.345    0.370    0.299   11.199
  444.500   60.565    0.381    0.292   11.199
  444.750   64.823    0.384    0.294   11.199
  445.000   69.689    0.384    0.277   10.990
  445.250   73.947    0.389    0.270   10.990
  445.500   72.740    0.388    0.279   11.199
  445.750   73.962    0.375    0.278   11.199
  446.000   77.615    0.386    0.271   11.412
  446.250   80.049    0.387    0.262   11.412
  446.500   81.875    0.381    0.253   11.199
  446.750   84.312    0.384    0.244   10.784
  447.000   82.497    0.384    0.241   10.582
  447.250   78.863    0.375    0.240   10.385
  447.500   77.652    0.389    0.246   10.191
  447.750   75.841    0.390    0.250   10.582
  448.000   75.844    0.379    0.251   10.784
  448.250   77.674    0.377    0.242   10.990
  448.500   83.755    0.383    0.245   11.199
  448.750   91.050    0.378    0.232   11.412
