~VERSION INFORMATION
 VERS.                 2.0:   CWLS LOG ASCII STANDARD -VERSION 2.0
 WRAP.                  NO:   ONE LINE PER DEPTH STEP
~WELL INFORMATION BLOCK
#MNEM.UNIT           DATA                    DESCRIPTION OF MNEMONIC
#---------    -------------------            -------------------------------
# Generated from Intellog Unique Number	CW_82_90/WELL/554
WELL.         PARAMOUNT ET AL GRANOR 07-01   : Well_name    - WELL
LOC .         00/07-01-084-19W4/0            : Location     - LOCATION
UWI .         00/07-01-084-19W400            : Uwi          - UNIQUE WELL ID
ENTR.         JAYE                           : Entered      - ENTERED BY
SRVC.         COMPUTALOG                     : Scn          - SERVICE COMPANY
DATE.         8 MAR 77                       : Date         - LOG DATE
STRT.M        207.264                        : top_depth    - START DEPTH
STOP.M        341.264                        : bot_depth    - STOP DEPTH
STEP.M        0.25                           : increment    - STEP LENGTH
 NULL. -999.2500:NULL Value
~CURVE INFORMATION BLOCK
#MNEM UNIT       ERCB CURVE CODE    CURVE DESCRIPTION
#-----------   ------------------   ----------------------------------
DEPT.M        00 001 00 00         : DEPTH        - DEPTH
CALI.MM       00 280 01 00         : CAL          - CALIPER
GR  .API      00 310 00 00         : GR           - GAMMA RAY
NPHI.V/V      00 330 00 00         : PHIN         - NEUTRON POROSITY (SANDSTONE)
DPHI.V/V      00 890 00 00         : PHID         - DENSITY POROSITY (SANDSTONE)
ILD .OHMM     00 120 00 00         : RESD         - DEEP RESISTIVITY (DLL)
~PARAMETER INFORMATION
#MNEM.UNIT           DATA             DESCRIPTION OF MNEMONIC
#---------         -----------     ------------------------------
GL  .M        579.272              : gl           - GROUND LEVEL ELEVATION
EREF.M        582.32               : kb           - ELEVATION OF DEPTH REFERENCE
DATM.M        579.272              : datum        - DATUM ELEVATION
TDD .M        342.29               : tdd          - TOTAL DEPTH DRILLER
RUN .         ONE                  : Run          - RUN NUMBER
ENG .         KING                 : Engineer     - RECORDING ENGINEER
WIT .         CONNELLY             : Witness      - WITNESSED BY
BASE.         MEDICINE HAT         : Branch       - HOME BASE OF LOGGING UNIT
MUD .         CHEM GEL             : Mud_type     - MUD TYPE
MATR.         SANDSTONE            : Logunit      - NEUTRON MATRIX
TMAX.C        16.6667              : BHT          - MAXIMUM RECORDED TEMPERATURE
BHTD.M        342.29               : BHTDEP       - MAXIMUM RECORDED TEMPERATURE
RMT .C        15.5556              : MDTP         - TEMPERATURE OF MUD
MUDD.KG/M     9500                 : MWT          - MUD DENSITY
NEUT.         0                    : NEUTRON      - NEUTRON TYPE
RESI.         1                    : RESIST       - RESISTIVITY TYPE
RM  .OHMM     4.2                  : RM           - RESISTIVITY OF MUD
RMC .OHMM     0                    : RMC          - RESISTIVITY OF MUD CAKE
RMF .OHMM     3.9                  : RMF          - RESISTIVITY OF MUD FILTRATE
SUFT.C        4                    : SUFT         - SURFACE TEMPERATURE
~A  DEPTH      CAL       GR     PHIN     PHID     RESD
# ...
  316.764  161.135   69.124    0.292    0.158    7.390
  317.014  160.923   62.917    0.284    0.144    8.297
  317.264  161.446   54.538    0.276    0.099   10.018
  317.514  163.441   58.012    0.273    0.077   14.782
  317.764  165.121   67.072    0.269    0.196   16.805
  318.014  166.590   72.656    0.266    0.200   16.441
  318.264  167.429   70.793    0.261    0.202   16.110
  318.514  167.847   65.765    0.256    0.203   15.811
  318.764  167.950   61.295    0.248    0.204   15.446
  319.014  167.843   54.033    0.235    0.204   15.779
  319.264  167.421   45.095    0.220    0.205   17.360
  319.514  166.473   32.310    0.207    0.224   18.817
  319.764  165.946   19.896    0.205    0.242   20.405
  320.014  164.052   22.564    0.220    0.262   21.075
  320.264  162.473   24.797    0.228    0.271   21.391
  320.514  161.526   24.858    0.218    0.270   21.125
  320.764  160.683   26.346    0.216    0.274   21.089
  321.014  160.366   28.765    0.221    0.276   21.093
  321.264  160.259   26.158    0.215    0.279   21.181
  321.514  160.993   22.805    0.211    0.286   21.161
  321.764  161.306   25.659    0.261    0.282   20.223
  322.014  161.409   29.009    0.274    0.268   17.897
  322.264  161.933   35.648    0.295    0.257   13.208
  322.514  163.192   43.653    0.309    0.244   10.611
  322.764  164.135   52.713    0.309    0.220    8.786
  323.014  164.869   55.814    0.301    0.202    7.396
  323.264  165.182   57.179    0.305    0.188    6.243
  323.514  165.284   63.322    0.313    0.193    5.477
  323.764  165.493   67.292    0.320    0.203    4.825
  324.014  165.912   74.738    0.336    0.222    4.313
  324.264  166.436   69.152    0.379    0.213    3.899
  324.514  166.644   67.909    0.390    0.181    3.567
  324.764  166.957   70.391    0.373    0.173    3.391
  325.014  167.376   70.886    0.362    0.170    3.495
  325.264  167.794   67.285    0.373    0.182    3.853
  325.514  167.792   62.568    0.369    0.194    4.186
  325.764  167.579   68.648    0.359    0.185    4.519
  326.014  167.367   75.970    0.331    0.169    4.663
  326.264  167.366   76.217    0.356    0.181    4.668
  326.514  167.364   73.734    0.369    0.206    4.599
  326.764  167.257   75.284    0.372    0.209    4.350
  327.014  167.465   77.517    0.378    0.214    4.206
  327.264  167.357   77.329    0.383    0.210    4.326
  327.514  167.146   71.805    0.363    0.209    4.840
  327.764  167.459   51.138    0.337    0.209    5.509
  328.014  166.616   44.682    0.315    0.209    6.081
  328.264  166.720   42.571    0.286    0.233    8.072
  328.514  167.033   44.184    0.273    0.224   10.702
  328.764  167.136   54.112    0.289    0.211   14.006
  329.014  165.242   55.414    0.291    0.206   14.380
  329.264  165.451   61.495    0.301    0.210   13.137
  329.514  166.395   65.528    0.306    0.217   12.280
  329.764  167.128   66.333    0.314    0.230   10.940
  330.014  167.336   69.063    0.299    0.222   10.394
  330.264  166.704   70.986    0.231    0.215   10.933
  330.514  164.075   74.212    0.205    0.218   12.012
  330.764  164.388   90.967    0.179    0.216   12.863
  331.014  170.481  116.783    0.233    0.197   13.844
  331.264  176.364  112.686    0.320    0.185   13.176
  331.514  177.834  119.325    0.362    0.189   11.367
  331.764  171.526  119.014    0.405    0.200    9.920
  332.014  168.687  126.273    0.428    0.204    9.367
  332.264  167.739  135.147    0.418    0.202    9.067
  332.514  167.001  136.635    0.390    0.204    8.974
  332.764  166.474  138.062    0.381    0.206    9.086
  333.014  170.361  140.605    0.384    0.204    9.509
  333.264  170.148  135.267    0.388    0.203   10.531
  333.514  169.726  132.162    0.381    0.205   11.332
  333.764  168.777  124.217    0.366    0.207   12.117
  334.014  168.566  121.486    0.345    0.208   12.721
  334.264  167.093  124.649    0.332    0.208   12.733
  334.514  166.145  123.780    0.321    0.207   12.574
  334.764  165.092  124.585    0.349    0.205   12.472
  335.014  164.355  124.274    0.357    0.199   12.592
  335.264  163.197  114.219    0.348    0.192   12.859
  335.514  161.618  113.038    0.341    0.184   13.274
  335.764  160.145  110.679    0.321    0.167   13.706
  336.014  159.408  106.333    0.323    0.153   14.261
  336.264  158.670   99.257    0.321    0.116   14.988
  336.514  157.933   89.885    0.304    0.094   15.756
  336.764  156.774   81.878    0.279    0.117   16.557
  337.014  156.352   82.622    0.254    0.221   17.948
  337.264  155.824   95.281    0.236    0.216   20.054
  337.514  155.508  112.222    0.227    0.238   20.305
  337.764  156.031  119.544    0.229    0.229   20.359
  338.014  155.819   81.004    0.237    0.204   20.388
  338.264  156.027   64.184    0.231    0.188   20.425
  338.514  157.181   28.374    0.199    0.173   20.398
  338.764  158.335   18.878    0.199    0.156   20.402
  339.014  158.543   14.718    0.209    0.151   20.407
  339.264  159.067   16.020    0.206    0.145   20.387
  339.514  159.485   18.502    0.205    0.141   20.376
  339.764  160.114   17.569    0.207    0.137   20.364
  340.014  160.742   10.804    0.201    0.135   20.361
  340.264  160.530    8.072    0.198    0.134   20.366
  340.514  160.108    8.753    0.201    0.129   20.363
  340.764  160.421   12.600    0.214    0.117   20.343
  341.014  160.104   14.461    0.223    0.133   20.290
  341.264  160.102   13.715    0.223    0.139   20.262
