~VERSION INFORMATION
 VERS.                 2.0:   CWLS LOG ASCII STANDARD -VERSION 2.0
 WRAP.                  NO:   ONE LINE PER DEPTH STEP
~WELL INFORMATION BLOCK
#MNEM.UNIT           DATA                    DESCRIPTION OF MNEMONIC
#---------    -------------------            -------------------------------
# Generated from Intellog Unique Number	CC_80_83/WELL/2306
NULL.         -999.25                        : NULL_VALUE
WELL.         GULF RESDELN                   : Well_name    - WELL              
LOC .         07-33-083-07W4                 : Location     - LOCATION          
UWI .         00/07-33-083-07W4/0            : Uwi          - UNIQUE WELL ID    
ENTR.         DW                             : Entered      - ENTERED BY        
SRVC.         SCHLUMBERGER                   : Scn          - SERVICE COMPANY   
DATE.         25 JAN 79                      : Date         - LOG DATE
STRT.M        130                            : top_depth    - START DEPTH       
STOP.M        405.095                        : bot_depth    - STOP DEPTH        
STEP.M        0.3                            : increment    - STEP LENGTH       
~CURVE INFORMATION BLOCK
#MNEM UNIT       ERCB CURVE CODE    CURVE DESCRIPTION
#-----------   ------------------   ----------------------------------
DEPT.M        00 001 00 00         : DEPTH        - DEPTH                       
DPHI.V/V      00 890 00 00         : PHID         - DENSITY POROSITY (LIMESTONE)
NPHI.V/V      00 330 00 00         : PHIN         - NEUTRON POROSITY (LIMESTONE)
GR  .API      00 310 00 00         : GR           - GAMMA RAY                   
ILD .OHMM     00 120 00 00         : RESD         - DEEP RESISTIVITY (DIL)      
~PARAMETER INFORMATION       
#MNEM.UNIT           DATA             DESCRIPTION OF MNEMONIC
#---------         -----------     ------------------------------
GL  .M        613.79               : gl           - GROUND LEVEL ELEVATION      
EREF.M        617.06               : kb           - ELEVATION OF DEPTH REFERENCE
DATM.M        617.06               : datum        - DATUM ELEVATION             
TDD .M        407                  : tdd          - TOTAL DEPTH DRILLER         
RUN .         ONE                  : Run          - RUN NUMBER                  
ENG .         BILL                 : Engineer     - RECORDING ENGINEER          
WIT .         JIM                  : Witness      - WITNESSED BY                
MUD .         GEL                  : Mud_type     - MUD TYPE                    
MATR.         LIMESTONE            : Logunit      - NEUTRON MATRIX              
TMAX.C        0                    : BHT          - MAXIMUM RECORDED TEMPERATURE
BHTD.M        407                  : BHTDEP       - MAXIMUM RECORDED TEMPERATURE
MATR.         1                    : LOGUNIT      - NEUTRON MATRIX              
RMT .C        25                   : MDTP         - TEMPERATURE OF MUD          
NEUT.         1                    : NEUTRON      - NEUTRON TYPE                
RESI.         0                    : RESIST       - RESISTIVITY TYPE            
RMC .OHMM     0.25                 : RMC          - RESISTIVITY OF MUD CAKE     
RMF .OHMM     0.25                 : RMF          - RESISTIVITY OF MUD FILTRATE 
SUFT.C        4                    : SUFT         - SURFACE TEMPERATURE         
~A  DEPTH     PHID     PHIN       GR     RESD
  130.000    0.298    0.000  106.329    3.555
  130.300    0.286    0.535  110.610    3.486
  130.600    0.281    0.545  109.354    3.354
  130.900    0.288    0.563  109.332    3.166
  131.200    0.280    0.555  113.613    3.105
  131.500    0.265    0.573  119.119    3.044
  131.800    0.180    0.562  121.553    3.100
  132.100    0.226    0.524  117.228    3.097
  132.400    0.277    0.510  123.351    3.094
  132.700    0.292    0.534  133.777    3.092
  133.000    0.291    0.558  132.521    3.149
  133.300    0.285    0.572  124.509    3.206
  133.600    0.263    0.542  116.493    3.266
  133.900    0.270    0.526  110.940    3.454
  134.200    0.270    0.507  102.313    3.723
  134.500    0.266    0.482  102.905    4.247
  134.800    0.259    0.461  109.025    4.578
  135.100    0.257    0.442  107.159    4.662
  135.400    0.260    0.438  104.675    4.747
  135.700    0.241    0.461  107.727    4.655
  136.000    0.241    0.455  105.858    4.564
  136.300    0.244    0.441  103.378    4.475
  136.600    0.266    0.438  110.115    4.557
  136.900    0.270    0.453  111.935    4.730
  137.200    0.273    0.460  104.535    4.908
  137.500    0.250    0.444  102.052    4.905
  137.800    0.245    0.449  110.016    4.809
  138.100    0.267    0.476  109.383    4.715
  138.400    0.276    0.498  106.285    4.537
  138.700    0.274    0.477  108.720    4.202
  139.000    0.261    0.476  109.305    4.044
  139.300    0.264    0.471  107.440    4.118
  139.600    0.254    0.468  107.418    4.193
  139.900    0.248    0.467  108.010    4.269
  140.200    0.258    0.491  112.290    4.185
  140.500    0.253    0.502  114.112    4.264
  140.800    0.258    0.505  107.327    4.260
  141.100    0.261    0.499  109.140    4.177
  141.400    0.243    0.504  109.123    3.944
  141.700    0.251    0.500  114.016    3.722
  142.000    0.273    0.494  110.303    3.650
  142.300    0.276    0.500  109.051    3.579
  142.600    0.260    0.526  113.330    3.576
  142.900    0.276    0.494  120.681    3.507
  143.200    0.271    0.488  121.890    3.639
  143.500    0.272    0.483  119.401    3.777
  143.800    0.268    0.487  121.842    3.773
  144.100    0.270    0.536  119.971    3.700
  144.400    0.272    0.542  115.648    3.628
  144.700    0.251    0.515  112.548    3.695
  145.000    0.251    0.497  111.912    3.692
  145.300    0.264    0.520  116.806    3.620
  145.600    0.276    0.538  118.625    3.550
  145.900    0.281    0.525  119.834    3.415
  146.200    0.269    0.525  120.421    3.286
  146.500    0.270    0.549  125.317    3.102
  146.800    0.268    0.557  127.139    2.983
  147.100    0.282    0.542  119.125    2.926
  147.400    0.292    0.561  116.029    2.923
  147.700    0.278    0.570  116.615    2.867
  148.000    0.264    0.566  115.363    2.864
  148.300    0.265    0.574  117.186    2.862
  148.600    0.256    0.548  122.075    2.860
  148.900    0.246    0.563  122.057    2.968
  149.200    0.261    0.581  117.729    3.139
  149.500    0.258    0.564  111.557    3.320
  149.800    0.273    0.543  109.077    3.381
  150.100    0.287    0.537  109.665    3.379
  150.400    0.276    0.526  108.414    3.312
  150.700    0.273    0.524  109.623    3.248
  151.000    0.283    0.532  110.204    3.125
  151.300    0.291    0.545  107.730    3.006
  151.600    0.298    0.569  102.174    2.948
  151.900    0.305    0.600  111.371    2.836
  152.200    0.301    0.578  111.348    2.780
  152.500    0.313    0.562  107.635    2.727
  152.800    0.318    0.560  113.145    2.623
  153.100    0.297    0.562  115.581    2.622
  153.400    0.307    0.549  110.023    2.570
  153.700    0.312    0.565  109.997    2.520
  154.000    0.317    0.559  107.517    2.566
  154.300    0.324    0.575  103.808    2.564
  154.600    0.307    0.570  107.466    2.611
  154.900    0.307    0.586  104.990    2.609
  155.200    0.302    0.566  104.967    2.607
  155.500    0.302    0.565  111.702    2.606
  155.800    0.297    0.555  110.451    2.603
  156.100    0.299    0.550  109.196    2.552
  156.400    0.274    0.580  108.558    2.550
  156.700    0.242    0.565  108.534    2.549
  157.000    0.188    0.572  103.595    2.645
  157.300    0.192    0.583   99.271    2.745
  157.600    0.255    0.556  104.776    2.849
  157.900    0.265    0.568  109.672    2.957
  158.200    0.261    0.557  112.106    3.011
  158.500    0.262    0.536  114.542    3.125
  158.800    0.246    0.517  108.369    3.305
  159.100    0.226    0.474  102.816    3.563
  159.400    0.220    0.470  108.937    3.839
  159.700    0.243    0.477  109.529    3.910
  160.000    0.239    0.466  111.351    3.834
  160.300    0.263    0.466  111.938    3.688
  160.600    0.276    0.480  111.918    3.482
  160.900    0.268    0.523  110.661    3.479
  161.200    0.232    0.510  108.184    3.611
  161.500    0.228    0.499  103.857    3.819
  161.800    0.238    0.486  111.208    3.963
  162.100    0.252    0.485  108.108    3.886
  162.400    0.251    0.521  105.628    3.884
  162.700    0.247    0.525  103.763    3.807
  163.000    0.225    0.509  102.509    3.951
  163.300    0.235    0.525   99.410    4.340
  163.600    0.223    0.533   97.541    4.768
  163.900    0.172    0.471   97.521    5.043
  164.200    0.230    0.475  108.562    5.039
  164.500    0.249    0.491  110.379    4.580
  164.800    0.247    0.515  110.358    4.086
  165.100    0.249    0.504  109.720    3.785
  165.400    0.254    0.509  101.090    3.928
  165.700    0.280    0.450   90.004    5.020
  166.000    0.302    0.433   82.607    7.188
  166.300    0.307    0.423   77.051    9.363
  166.600    0.298    0.428   80.099   12.195
  166.900    0.291    0.425   87.451   12.655
  167.200    0.299    0.409   89.887   11.948
  167.500    0.293    0.399   83.714   11.280
  167.800    0.287    0.409   84.924   10.648
  168.100    0.249    0.419   93.504   11.050
  168.400    0.276    0.411   89.177   12.140
  168.700    0.295    0.411   80.551   13.589
  169.000    0.306    0.425   74.378   14.926
  169.300    0.330    0.436   71.896   14.917
  169.600    0.311    0.418   87.856   14.351
  169.900    0.327    0.428   89.676   12.560
  170.200    0.422    0.471   82.889   10.787
  170.500    0.510    0.608   69.960    9.263
  170.800    0.504    0.632   85.918    8.419
  171.100    0.241    0.458   96.957    8.413
  171.400    0.241    0.435   92.629    9.242
  171.700    0.266    0.406   80.929   11.374
  172.000    0.292    0.389   67.383   15.098
  172.300    0.306    0.384   58.755   20.042
  172.600    0.277    0.389   53.198   22.863
  172.900    0.265    0.402   61.781   22.414
  173.200    0.255    0.407   63.597   23.264
  173.500    0.165    0.396   61.730   24.602
  173.800    0.204    0.342   57.409   25.534
  174.100    0.253    0.366   55.539   25.515
  174.400    0.298    0.394   65.350   24.551
  174.700    0.263    0.406   70.244   22.315
  175.000    0.296    0.399   76.980   20.285
  175.300    0.266    0.386   83.102   17.419
  175.600    0.273    0.399   91.072   15.835
  175.900    0.265    0.415  102.726   14.393
  176.200    0.243    0.424  110.076   13.084
  176.500    0.237    0.430  119.274   11.667
  176.800    0.245    0.445  122.935   11.226
  177.100    0.241    0.457  121.686   11.008
  177.400    0.239    0.469  124.121   10.393
  177.700    0.225    0.434  130.244   10.189
  178.000    0.224    0.424  128.375   10.983
  178.300    0.276    0.443  113.601   12.065
  178.600    0.305    0.449   88.377   14.027
  178.900    0.300    0.443   87.737   15.120
  179.201    0.265    0.433   92.019   15.103
  179.501    0.257    0.426   98.756   14.532
  179.801    0.246    0.422  100.576   13.721
  180.101    0.239    0.411  101.164   12.473
  180.401    0.233    0.405  101.140   11.776
  180.701    0.248    0.406   96.202   11.990
  181.001    0.285    0.425   81.428   13.172
  181.301    0.331    0.441   64.195   15.027
  181.601    0.346    0.409   59.254   17.471
  181.901    0.351    0.404   75.826   20.701
