~VERSION INFORMATION
 VERS.                 2.0:   CWLS LOG ASCII STANDARD -VERSION 2.0
 WRAP.                  NO:   ONE LINE PER DEPTH STEP
~WELL INFORMATION BLOCK
#MNEM.UNIT           DATA                    DESCRIPTION OF MNEMONIC
#---------    -------------------            -------------------------------
# Generated from Intellog Unique Number	CS_77_79/WELL/872
WELL.         CHRISTINA                      : Well_name    - WELL
LOC .         00/06-11-079-09W4/0            : Location     - LOCATION
UWI .         00/06-11-079-09W4/0            : Uwi          - UNIQUE WELL ID
ENTR.         JHS                            : Entered      - ENTERED BY
SRVC.         SCHLUMBERGER                   : Scn          - SERVICE COMPANY
STRT.M        198.12                         : top_depth    - START DEPTH
STOP.M        420.37                         : bot_depth    - STOP DEPTH
STEP.M        0.25                           : increment    - STEP LENGTH
 NULL. -999.2500:NULL Value
~CURVE INFORMATION BLOCK
#MNEM UNIT       ERCB CURVE CODE    CURVE DESCRIPTION
#-----------   ------------------   ----------------------------------
DEPT.M        00 001 00 00         : DEPTH        - DEPTH
RHOB.KG/M3    00 350 00 00         : DENS         - BULK DENSITY
GR  .API      00 310 00 00         : GR           - GAMMA RAY
DPHI.V/V      00 890 00 00         : PHID         - DENSITY POROSITY (SANDSTONE)
NPHI.V/V      00 330 00 00         : PHIN         - NEUTRON POROSITY (SANDSTONE)
ILD .OHMM     00 120 00 00         : RESD         - DEEP RESISTIVITY (DIL)
~PARAMETER INFORMATION
#MNEM.UNIT           DATA             DESCRIPTION OF MNEMONIC
#---------         -----------     ------------------------------
GL  .M        637.733              : gl           - GROUND LEVEL ELEVATION
EREF.M        640.385              : kb           - ELEVATION OF DEPTH REFERENCE
DATM.M        640.385              : datum        - DATUM ELEVATION
TDD .M        431.292              : tdd          - TOTAL DEPTH DRILLER
RUN .         ONE                  : Run          - RUN NUMBER
ENG .         BILL                 : Engineer     - RECORDING ENGINEER
WIT .         JIM                  : Witness      - WITNESSED BY
MUD .         GEL                  : Mud_type     - MUD TYPE
MATR.         SANDSTONE            : Logunit      - NEUTRON MATRIX
TMAX.C        23.8889              : BHT          - MAXIMUM RECORDED TEMPERATURE
BHTD.M        431.292              : BHTDEP       - MAXIMUM RECORDED TEMPERATURE
MATR.         1                    : LOGUNIT      - NEUTRON MATRIX
RMT .C        25                   : MDTP         - TEMPERATURE OF MUD
NEUT.         1                    : NEUTRON      - NEUTRON TYPE
RESI.         0                    : RESIST       - RESISTIVITY TYPE
RMC .OHMM     0.25                 : RMC          - RESISTIVITY OF MUD CAKE
RMF .OHMM     0.25                 : RMF          - RESISTIVITY OF MUD FILTRATE
SUFT.C        15                   : SUFT         - SURFACE TEMPERATURE
~A  DEPTH     DENS       GR     PHID     PHIN     RESD
# ...
  344.120    0.000   66.229    0.320    0.615    5.787
  344.370    0.000   69.899    0.320    0.623    5.548
  344.620    0.000   71.008    0.318    0.617    5.323
  344.870   -0.000   75.690    0.329    0.606    5.178
  345.120   -0.000   77.884    0.329    0.609    5.023
  345.370   -0.000   77.698    0.315    0.622    4.993
  345.620    0.000   74.675    0.305    0.630    4.973
  345.870    0.000   71.099    0.317    0.616    5.187
  346.120    0.000   69.942    0.314    0.570    5.281
  346.370   -0.000   68.430    0.307    0.571    5.507
  346.620   -0.006   66.726    0.298    0.558    5.810
  346.870   -0.003   64.574    0.292    0.562    6.223
  347.120    0.377   63.953    0.298    0.564    6.991
  347.370    3.195   64.102    0.310    0.531    8.966
  347.620   -6.144   62.275    0.271    0.523   10.914
  347.870 -273.389   60.714    0.245    0.321   12.264
  348.120 2790.200   56.861    0.080    0.259   12.463
  348.370 2587.890   53.587    0.061    0.231   11.537
  348.620 2595.000   59.131    0.065    0.262    9.530
  348.870 2297.520   66.339    0.241    0.339    8.212
  349.120 2276.110   69.503    0.254    0.490    6.776
  349.370 2178.200   72.425    0.311    0.497    6.333
  349.620 2182.800   74.406    0.308    0.513    6.211
  349.870 2176.720   76.266    0.312    0.533    6.207
  350.120 2183.590   75.488    0.308    0.551    6.208
  350.370 2198.830   74.920    0.299    0.560    6.207
  350.620 2173.100   74.267    0.314    0.566    6.193
  350.870 2172.400   74.198    0.314    0.566    6.324
  351.120 2203.170   73.204    0.296    0.536    6.431
  351.370 2232.590   73.441    0.279    0.528    6.560
  351.620 2274.680   75.061    0.255    0.536    6.637
  351.870 2346.010   75.061    0.213    0.549    6.342
  352.120 2363.780   76.915    0.202    0.565    6.035
  352.370 2319.810   80.618    0.228    0.568    5.744
  352.620 2307.130   83.343    0.236    0.540    5.583
  352.870 2250.480   84.296    0.269    0.540    5.444
  353.120 2260.970   84.615    0.263    0.554    5.451
  353.370 2276.540   84.643    0.253    0.572    5.432
  353.620 2280.610   84.793    0.251    0.578    5.699
  353.870 2253.040   85.257    0.267    0.568    5.859
  354.120 2258.750   84.149    0.264    0.553    6.038
  354.370 2248.310   85.715    0.270    0.552    6.222
  354.620 2261.190   87.170    0.262    0.526    6.411
  354.870 2267.090   85.371    0.259    0.501    6.596
  355.120 2257.370   86.767    0.265    0.490    6.949
  355.370 2275.700   88.827    0.254    0.499    6.959
  355.620 2263.240   88.424    0.261    0.531    6.567
  355.870 2273.880   87.045    0.255    0.529    6.055
  356.120 2269.510   84.540    0.258    0.510    5.454
  356.370 2260.410   83.380    0.263    0.512    4.926
  356.620 2281.470   81.695    0.251    0.525    4.060
  356.870 2290.870   82.367    0.245    0.547    3.445
  357.120 2278.080   82.252    0.253    0.570    2.682
  357.370 2258.850   80.083    0.264    0.584    2.226
  357.620 2218.480   77.618    0.287    0.622    2.071
  357.870 2192.840   77.400    0.302    0.627    1.969
  358.120 2164.870   74.302    0.319    0.629    1.944
  358.370 2180.230   71.779    0.310    0.629    1.962
  358.620 2190.320   73.975    0.304    0.627    1.982
  358.870 2191.620   72.811    0.303    0.628    2.049
  359.120 2170.260   73.115    0.316    0.634    2.064
  359.370 2189.650   75.192    0.304    0.633    2.175
  359.620 2201.010   78.541    0.298    0.628    2.375
  359.870 2181.740   82.355    0.309    0.614    2.822
  360.120 2208.610   82.424    0.293    0.595    3.122
  360.370 2248.090   82.114    0.270    0.578    3.485
  360.620 2286.150   83.409    0.248    0.559    3.802
  360.870 2301.980   84.869    0.239    0.567    4.386
  361.120 2309.810   83.546    0.234    0.580    4.991
  361.370 2320.700   82.138    0.228    0.563    5.782
  361.620 2345.220   78.520    0.213    0.533    5.844
  361.870 2367.350   75.545    0.200    0.494    5.818
  362.120 2405.450   75.543    0.178    0.421    5.397
  362.370 2429.760   83.865    0.164    0.421    4.926
  362.620 2379.170   84.321    0.193    0.477    4.324
  362.870 2275.900   86.671    0.254    0.511    3.972
  363.120 2292.950   89.978    0.244    0.532    3.589
  363.370 2302.760   90.930    0.238    0.580    3.475
  363.620 2302.440   90.936    0.238    0.596    3.367
  363.870 2310.520   88.592    0.234    0.586    3.329
  364.120 2306.730   87.128    0.236    0.582    3.295
  364.370 2275.700   85.059    0.254    0.591    3.241
  364.620 2285.380   84.265    0.248    0.608    3.239
  364.870 2290.520   84.299    0.245    0.619    3.317
  365.120 2263.190   84.721    0.261    0.621    3.479
  365.370 2244.120   86.827    0.272    0.611    3.611
  365.620 2260.340   89.832    0.263    0.591    3.762
  365.870 2280.320   91.368    0.251    0.516    3.973
  366.120 2279.150   89.574    0.252    0.509    4.045
  366.370 2278.950   87.613    0.252    0.534    4.115
  366.620 2278.750   85.202    0.252    0.573    4.347
  366.870 2281.550   83.764    0.251    0.569    4.579
  367.120 2294.190   80.717    0.243    0.544    5.107
  367.370 2317.980   75.825    0.229    0.503    5.597
  367.620 2377.840   75.645    0.194    0.458    5.987
  367.870 2410.570   78.605    0.175    0.448    6.342
  368.120 2390.350   81.754    0.187    0.483    7.098
  368.370 2347.110   77.047    0.212    0.498    7.597
  368.620 2368.340   71.908    0.200    0.484    8.609
  368.870 2350.490   64.516    0.210    0.396    9.552
  369.120 2289.520   61.091    0.246    0.372   10.928
  369.370 2156.650   63.194    0.324    0.375   11.470
  369.620 2196.030   65.172    0.301    0.385   11.786
  369.870 2231.100   64.657    0.280    0.398   11.560
  370.120 2248.750   64.928    0.270    0.408   11.223
  370.370 2261.130   65.828    0.262    0.417   10.915
  370.620 2264.560   67.292    0.261    0.407   10.934
  370.870 2248.420   69.133    0.271    0.412   10.996
  371.120 2236.470   66.260    0.280    0.412   11.599
  371.370 2149.700   63.327    0.287    0.389   11.917
  371.620 1137.630   59.765    0.289    0.345   12.571
  371.870 2291.850   53.721    0.300    0.306   12.665
  372.120 2131.950   60.031    0.309    0.344   12.138
  372.370 2237.180   66.938    0.273    0.403   11.423
  372.620 2266.370   61.665    0.259    0.410   10.754
  372.870 2202.900   53.412    0.297    0.388   10.197
  373.120 2189.470   47.484    0.304    0.398   10.401
  373.370 2179.660   50.749    0.310    0.401   11.085
  373.620 2208.640   57.148    0.293    0.379   12.060
  373.870 2192.380   56.504    0.303    0.378   14.492
  374.120 2212.110   55.504    0.291    0.394   17.008
  374.370 2213.130   55.844    0.291    0.412   21.823
  374.620 2182.600   55.487    0.308    0.396   26.223
  374.870 2174.570   54.646    0.313    0.390   29.766
  375.120 2184.770   53.675    0.307    0.389   31.541
  375.370 2172.720   53.690    0.314    0.393   31.210
  375.620 2158.450   59.256    0.323    0.403   24.961
  375.870 2196.470   68.364    0.300    0.409   17.614
  376.120 2211.250   78.547    0.292    0.391   14.302
  376.370 2232.170   82.931    0.279    0.407   11.337
  376.620 2266.560   83.823    0.259    0.397    9.608
  376.870 2310.680   81.310    0.234    0.381    8.266
  377.120 2365.830   81.819    0.201    0.394    7.816
  377.370 2404.930   88.762    0.178    0.412    7.596
  377.620 2349.480   95.927    0.211    0.447    7.615
  377.870 2305.240  100.434    0.237    0.443    7.735
  378.120 2312.130  102.172    0.233    0.424    7.911
  378.370 2325.980   98.964    0.225    0.422    8.979
  378.620 2353.440   91.407    0.209    0.452   10.362
  378.870 2335.150   77.675    0.219    0.469   13.669
  379.120 2225.900   67.081    0.283    0.407   17.924
  379.370 2158.750   61.933    0.322    0.347   24.927
  379.620 2184.890   60.227    0.307    0.332   30.519
  379.870 2202.810   57.047    0.297    0.347   32.948
  380.120 2238.460   52.145    0.276    0.352   33.086
  380.370 2209.020   47.029    0.293    0.355   31.057
