~VERSION INFORMATION
 VERS.                 2.0:   CWLS LOG ASCII STANDARD -VERSION 2.0
 WRAP.                  NO:   ONE LINE PER DEPTH STEP
~WELL INFORMATION BLOCK
#MNEM.UNIT           DATA                    DESCRIPTION OF MNEMONIC
#---------    -------------------            -------------------------------
# Generated from Intellog Unique Number	CW_70_72/WELL/637
NULL.         -999.25                        : NULL_VALUE
WELL.         SUN ET AL TOMATO 06-12         : Well_name    - WELL              
LOC .         06-12-072-23W4                 : Location     - LOCATION          
UWI .         00/06-12-072-23W4/0            : Uwi          - UNIQUE WELL ID    
ENTR.         JAYE                           : Entered      - ENTERED BY        
SRVC.         COMPUTALOG                     : Scn          - SERVICE COMPANY   
DATE.         17 FEB 79                      : Date         - LOG DATE          
STRT.M        380                            : top_depth    - START DEPTH       
STOP.M        600                            : bot_depth    - STOP DEPTH        
STEP.M        0.25                           : increment    - STEP LENGTH       
~CURVE INFORMATION BLOCK
#MNEM UNIT       ERCB CURVE CODE    CURVE DESCRIPTION
#-----------   ------------------   ----------------------------------
DEPT.M        00 001 00 00         : DEPTH        - DEPTH                       
DPHI.V/V      00 890 00 00         : PHID         - DENSITY POROSITY (SANDSTONE)
NPHI.V/V      00 330 00 00         : PHIN         - NEUTRON POROSITY (SANDSTONE)
GR  .API      00 310 00 00         : GR           - GAMMA RAY                   
CALI.MM       00 280 01 00         : CAL          - CALIPER                     
ILD .OHMM     00 120 00 00         : RESD         - DEEP RESISTIVITY (DIL)      
~PARAMETER INFORMATION       
#MNEM.UNIT           DATA             DESCRIPTION OF MNEMONIC
#---------         -----------     ------------------------------
GL  .M        619.96               : gl           - GROUND LEVEL ELEVATION      
EREF.M        623.3                : kb           - ELEVATION OF DEPTH REFERENCE
DATM.M        619.96               : datum        - DATUM ELEVATION             
TDD .M        612                  : tdd          - TOTAL DEPTH DRILLER         
RUN .         ONE                  : Run          - RUN NUMBER                  
ENG .         ADAMS                : Engineer     - RECORDING ENGINEER          
WIT .         BOYAN                : Witness      - WITNESSED BY                
BASE.         EDM                  : Branch       - HOME BASE OF LOGGING UNIT   
MUD .         GEL CHEM             : Mud_type     - MUD TYPE                    
MATR.         SANDSTONE            : Logunit      - NEUTRON MATRIX              
TMAX.C        21                   : BHT          - MAXIMUM RECORDED TEMPERATURE
BHTD.M        614                  : BHTDEP       - MAXIMUM RECORDED TEMPERATURE
RMT .C        13                   : MDTP         - TEMPERATURE OF MUD          
MUDD.KG/M     1100                 : MWT          - MUD DENSITY                 
NEUT.         1                    : NEUTRON      - NEUTRON TYPE                
RESI.         0                    : RESIST       - RESISTIVITY TYPE            
RM  .OHMM     3.7                  : RM           - RESISTIVITY OF MUD          
RMC .OHMM     0                    : RMC          - RESISTIVITY OF MUD CAKE     
RMF .OHMM     0                    : RMF          - RESISTIVITY OF MUD FILTRATE 
SUFT.C        0                    : SUFT         - SURFACE TEMPERATURE         
~A  DEPTH     PHID     PHIN       GR      CAL     RESD
# ...
  489.500    0.212    0.507   99.142  162.531    3.921
  489.750    0.234    0.531   92.005  162.323    4.200
  490.000    0.234    0.446   86.419  161.806    4.629
  490.250    0.209    0.388   78.910  161.185    5.035
  490.500    0.175    0.397   77.482  160.667    5.313
  490.750    0.161    0.398   82.260  159.736    5.564
  491.000    0.168    0.352   75.123  159.115    5.806
  491.250    0.173    0.353   69.165  158.701    5.934
  491.500    0.172    0.391   76.488  157.667    5.917
  491.750    0.167    0.389   92.562  156.942    5.866
  492.000    0.172    0.355   92.872  156.321    5.850
  492.250    0.188    0.355   93.740  156.010    5.867
  492.500    0.188    0.375   96.719  156.217    5.906
  492.750    0.174    0.355   95.602  157.044    5.958
  493.000    0.161    0.347   93.305  158.078    6.007
  493.250    0.153    0.377   94.050  159.319    6.117
  493.500    0.148    0.398   91.505  160.870    6.226
  493.750    0.157    0.424   89.891  161.077    6.363
  494.000    0.168    0.436   87.160  161.490    6.540
  494.250    0.163    0.405   87.346  161.386    6.784
  494.500    0.164    0.362   87.656  161.800    7.080
  494.750    0.161    0.339   88.091  162.110    7.372
  495.000    0.167    0.359   87.346  162.109    7.692
  495.250    0.164    0.341   90.200  161.799    7.905
  495.500    0.159    0.352   89.331  161.798    8.034
  495.750    0.152    0.385   89.207  161.901    7.950
  496.000    0.159    0.374   93.055  162.108    7.707
  496.250    0.154    0.359   90.882  162.521    7.166
  496.500    0.147    0.336   89.517  162.831    6.503
  496.750    0.138    0.221   91.192  163.245    6.094
  497.000    0.154    0.177   91.254  163.244    5.952
  497.250    0.169    0.246   88.523  163.244    5.825
  497.500    0.164    0.255   92.867  163.243    5.710
  497.750    0.155    0.263   94.605  162.622    5.640
  498.000    0.155    0.285   93.363  162.519    5.604
  498.250    0.164    0.303   91.315  162.105    5.535
  498.500    0.154    0.290   92.370  161.794    5.437
  498.750    0.153    0.289   94.790  161.380    5.331
  499.000    0.161    0.303   96.838  161.069    5.265
  499.250    0.178    0.334   97.954  160.862    5.220
  499.500    0.186    0.352   99.630  160.655    5.206
  499.750    0.177    0.385  102.236  160.551    5.240
  500.000    0.169    0.365   96.402  160.240    5.285
  500.250    0.175    0.346   85.790  160.033    5.290
  500.500    0.183    0.357   84.672  159.929    5.245
  500.750    0.186    0.337   85.293  159.412    5.192
  501.000    0.176    0.314   85.789  158.791    5.176
  501.250    0.176    0.329   86.099  158.170    5.192
  501.500    0.178    0.344   82.810  157.549    5.206
  501.750    0.178    0.343   74.494  157.031    5.192
  502.000    0.172    0.338   73.376  156.410    5.148
  502.250    0.159    0.318   79.768  156.100    5.094
  502.500    0.169    0.340   88.208  156.100    5.005
  502.750    0.179    0.381   84.050  157.444    4.943
  503.000    0.179    0.347   84.484  158.788    4.901
  503.250    0.176    0.330   87.215  159.822    4.906
  503.500    0.176    0.371   98.199  160.339    4.920
  503.750    0.170    0.389   94.662  160.649    4.962
  504.000    0.166    0.352   81.504  160.752    4.977
  504.250    0.160    0.318   86.903  161.062    4.981
  504.500    0.151    0.348   89.758  160.751    4.987
  504.750    0.154    0.336   91.247  160.854    5.011
  505.000    0.165    0.320   91.185  161.061    5.032
  505.250    0.175    0.334   91.309  161.371    5.039
  505.500    0.181    0.347   89.075  161.681    5.063
  505.750    0.176    0.332   85.909  161.887    5.086
  506.000    0.167    0.335   87.212  162.197    5.091
  506.250    0.159    0.317   89.508  162.507    5.095
  506.500    0.157    0.329   81.440  162.196    5.061
  506.750    0.171    0.380   83.488  162.093    5.047
  507.000    0.180    0.397   82.433  161.885    5.024
  507.250    0.183    0.408   82.060  161.989    4.972
  507.500    0.177    0.408   86.280  162.092    4.948
  507.750    0.181    0.391   92.176  162.195    4.888
  508.000    0.181    0.362   89.507  162.298    4.801
  508.250    0.168    0.338   91.555  162.401    4.698
  508.500    0.166    0.285   95.650  162.504    4.703
  508.750    0.169    0.295   90.003  162.504    4.907
  509.000    0.161    0.306   83.424  164.262    5.407
  509.250    0.165    0.318   81.996  164.985    6.260
  509.500    0.175    0.326   75.542  165.088    7.313
  509.750    0.166    0.227   66.791  164.571    9.198
  510.000    0.090    0.176   56.179  164.364   11.288
  510.250    0.037    0.154   59.033  163.950   11.646
  510.500    0.024    0.168   62.508  163.122   10.709
  510.750    0.085    0.204   58.723  162.087    9.129
  511.000    0.118    0.241   67.783  161.776    7.453
  511.250    0.143    0.276   86.215  162.086    6.236
  511.500    0.152    0.290   86.773  162.500    5.418
  511.750    0.165    0.280   80.877  162.706    4.963
  512.000    0.181    0.181   77.588  162.499    4.712
  512.250    0.193    0.193   82.987  162.499    4.628
  512.500    0.192    0.157   82.366  162.085    4.704
  512.750    0.186    0.085   82.118  162.291    4.982
  513.000    0.186    0.218   87.082  163.635    5.287
  513.250    0.184    0.268   80.193  163.635    5.414
  513.500    0.177    0.292   72.436  163.221    5.379
  513.750    0.163    0.259   85.034  162.186    5.302
  514.000    0.170    0.265   90.681  161.255    5.130
  514.250    0.194    0.293   87.950  160.220    4.973
  514.500    0.199    0.367   90.618  159.186    4.739
  514.750    0.196    0.386   90.184  158.978    4.568
  515.000    0.193    0.358   83.543  159.599    4.428
  515.250    0.190    0.346   91.611  161.564    4.333
  515.500    0.189    0.373   94.403  164.046    4.312
  515.750    0.184    0.389  103.216  165.286    4.432
  516.000    0.192    0.372  105.946  166.734    4.848
  516.250    0.196    0.406   98.499  167.665    5.590
  516.500    0.172    0.388   84.597  167.871    6.374
  516.750    0.139    0.321   77.770  167.354    7.619
  517.000    0.113    0.289   68.771  166.216    8.316
  517.250    0.088    0.264   67.219  164.043    8.356
  517.500    0.067    0.235   84.224  162.181    8.177
  517.750    0.076    0.216   92.664  161.353    7.822
  518.000    0.110    0.304   83.975  163.628    7.315
  518.250    0.124    0.320   89.746  166.524    6.752
  518.500    0.136    0.308   96.263  168.386    6.569
  518.750    0.142    0.306   85.898  168.696    6.625
  519.000    0.142    0.301   84.533  168.695    6.708
  519.250    0.135    0.309   90.739  168.591    6.780
  519.500    0.129    0.325   83.912  168.384    6.836
  519.750    0.134    0.342   76.775  169.004    6.920
  520.000    0.140    0.356   74.106  170.969    7.086
  520.250    0.139    0.335   77.333  173.555    7.105
  520.500    0.134    0.320   78.325  173.968    6.849
  520.750    0.132    0.304   78.449  168.382    6.454
  521.000    0.137    0.315   83.290  165.796    6.058
  521.250    0.143    0.326   86.641  166.520    5.676
  521.500    0.152    0.338   92.661  167.140    5.523
  521.750    0.145    0.370   90.302  167.347    5.549
  522.000    0.140    0.354   89.930  167.967    5.823
  522.250    0.147    0.335   87.881  168.691    6.894
  522.500    0.158    0.322   87.260  169.001    8.102
  522.750    0.168    0.340   82.854  168.483    8.896
  523.000    0.159    0.358   73.793  166.621    8.493
  523.250    0.120    0.313   64.608  163.931    7.795
  523.500    0.074    0.233   82.729  162.069    7.019
  523.750    0.118    0.253   88.190  160.828    6.298
  524.000    0.142    0.266   84.218  160.517    5.912
  524.250    0.167    0.275   85.211  158.551    5.720
  524.500    0.169    0.295   90.982  159.068    5.693
  524.750    0.163    0.324   89.803  160.205    5.687
  525.000    0.154    0.348   88.251  161.033    5.630
  525.250    0.148    0.354   96.195  161.653    5.602
  525.500    0.145    0.326   96.133  162.376    5.555
  525.750    0.141    0.327   80.245  162.893    5.520
