~VERSION INFORMATION
 VERS.                 2.0:   CWLS LOG ASCII STANDARD -VERSION 2.0
 WRAP.                  NO:   ONE LINE PER DEPTH STEP
~WELL INFORMATION BLOCK
#MNEM.UNIT           DATA                    DESCRIPTION OF MNEMONIC
#---------    -------------------            -------------------------------
# Generated from Intellog Unique Number	CX_WELLS/WELL/2617
WELL.         05-04-080-11W4                 : Well_name    - WELL
LOC .         00/05-04-080-11W4/0            : Location     - LOCATION
UWI .         00/05-04-080-11W400            : Uwi          - UNIQUE WELL ID
ENTR.         T                              : Entered      - ENTERED BY
SRVC.         SCHLUMBERGER                   : Scn          - SERVICE COMPANY
STRT.M        250                            : top_depth    - START DEPTH
STOP.M        480                            : bot_depth    - STOP DEPTH
STEP.M        0.25                           : increment    - STEP LENGTH
 NULL. -999.2500:NULL Value
~CURVE INFORMATION BLOCK
#MNEM UNIT       ERCB CURVE CODE    CURVE DESCRIPTION
#-----------   ------------------   ----------------------------------
DEPT.M        00 001 00 00         : DEPTH        - DEPTH
GR  .API      00 310 00 00         : GR           - GAMMA RAY
NPHI.V/V      00 330 00 00         : PHIN         - NEUTRON POROSITY (SANDSTONE)
DPHI.V/V      00 890 00 00         : PHID         - DENSITY POROSITY (SANDSTONE)
ILD .OHMM     00 120 00 00         : RESD         - DEEP RESISTIVITY (DIL)
~PARAMETER INFORMATION
#MNEM.UNIT           DATA             DESCRIPTION OF MNEMONIC
#---------         -----------     ------------------------------
GL  .M        682.9                : gl           - GROUND LEVEL ELEVATION
EREF.M        686.7                : kb           - ELEVATION OF DEPTH REFERENCE
DATM.M        686.7                : datum        - DATUM ELEVATION
TDD .M        492                  : tdd          - TOTAL DEPTH DRILLER
RUN .         ONE                  : Run          - RUN NUMBER
ENG .         BILL                 : Engineer     - RECORDING ENGINEER
WIT .         JIM                  : Witness      - WITNESSED BY
MUD .         GEL                  : Mud_type     - MUD TYPE
MATR.         SANDSTONE            : Logunit      - NEUTRON MATRIX
TMAX.C        24                   : BHT          - MAXIMUM RECORDED TEMPERATURE
BHTD.M        492                  : BHTDEP       - MAXIMUM RECORDED TEMPERATURE
MATR.         1                    : LOGUNIT      - NEUTRON MATRIX
RMT .C        25                   : MDTP         - TEMPERATURE OF MUD
NEUT.         1                    : NEUTRON      - NEUTRON TYPE
RESI.         4.5                  : RESIST       - RESISTIVITY TYPE
RMC .OHMM     8                    : RMC          - RESISTIVITY OF MUD CAKE
RMF .OHMM     6                    : RMF          - RESISTIVITY OF MUD FILTRATE
SUFT.C        4                    : SUFT         - SURFACE TEMPERATURE
~A  DEPTH       GR     PHIN     PHID     RESD
# ...
  293.500   87.625    0.421    0.287   10.874
  293.750   91.296    0.423    0.283   10.885
  294.000   90.169    0.422    0.280   10.901
  294.250   88.414    0.420    0.277   11.123
  294.500   87.858    0.413    0.273   11.788
  294.750   88.516    0.416    0.270   12.024
  295.000   90.973    0.422    0.268   11.821
  295.250   92.231    0.425    0.265   11.609
  295.500   93.503    0.421    0.265   10.784
  295.750   94.161    0.409    0.265   10.208
  296.000   94.219    0.415    0.265   10.223
  296.250   93.064    0.418    0.263   10.237
  296.500   87.740    0.419    0.264   10.061
  296.750   92.581    0.418    0.262    9.530
  297.000   94.438    0.415    0.261    9.017
  297.250   93.312    0.420    0.257    8.071
  297.500   91.571    0.424    0.252    7.634
  297.750   88.631    0.426    0.246    7.226
  298.000   88.090    0.426    0.243    6.969
  298.250   90.532    0.424    0.241    7.814
  298.500   96.017    0.423    0.241    9.093
  298.750   99.659    0.423    0.246   10.192
  299.000  103.315    0.422    0.254   10.794
  299.250  100.375    0.415    0.268   11.439
  299.500   96.835    0.408    0.274   11.677
  299.750   91.496    0.401    0.276   11.906
  300.000   84.944    0.405    0.291   12.614
  300.250   80.205    0.408    0.297   13.622
  300.500   79.064    0.411    0.293   14.705
  300.750   73.725    0.405    0.293   15.584
  301.000   66.588    0.400    0.301   15.896
  301.250   62.434    0.401    0.312   16.841
  301.500   61.293    0.395    0.321   17.854
  301.750   60.752    0.375    0.339   18.205
  302.000   60.839    0.364    0.351   18.935
  302.250   60.883    0.392    0.347   19.694
  302.500   60.956    0.398    0.344   20.089
  302.750   60.400    0.403    0.341   20.110
  303.000   60.458    0.403    0.339   20.520
  303.250   60.531    0.400    0.336   20.953
  303.500   60.604    0.398    0.333   21.365
  303.750   60.633    0.402    0.333   21.402
  304.000   61.306    0.408    0.333   21.425
  304.250   61.350    0.414    0.336   21.455
  304.500   61.408    0.418    0.341   21.493
  304.750   60.881    0.412    0.346   21.523
  305.000   60.355    0.392    0.349   21.160
  305.250   60.384    0.380    0.348   21.182
  305.500   60.442    0.379    0.347   21.204
  305.750   60.500    0.380    0.345   20.846
  306.000   59.974    0.399    0.347   20.487
  306.250   59.432    0.417    0.349   20.127
  306.500   58.891    0.417    0.350   19.788
  306.750   57.750    0.415    0.351   19.454
  307.000   56.609    0.408    0.351   19.474
  307.250   56.068    0.400    0.352   19.495
  307.500   56.111    0.395    0.354   19.522
  307.750   55.570    0.393    0.355   19.556
  308.000   54.444    0.397    0.356   19.584
  308.250   52.688    0.404    0.356   19.983
  308.500   50.962    0.404    0.349   20.011
  308.750   49.807    0.402    0.347   20.032
  309.000   49.266    0.401    0.350   20.074
  309.250   49.953    0.400    0.351   20.095
  309.500   49.996    0.401    0.353   20.117
  309.750   50.040    0.399    0.354   20.152
  310.000   50.099    0.397    0.355   20.180
  310.250   50.157    0.394    0.355   20.599
  310.500   50.215    0.391    0.355   20.620
  310.750   48.489    0.392    0.349   20.649
  311.000   46.163    0.394    0.341   20.678
  311.250   45.593    0.398    0.338   21.107
  311.500   43.852    0.399    0.332   21.137
  311.750   43.911    0.397    0.326   21.159
  312.000   45.183    0.397    0.323   21.189
  312.250   45.826    0.397    0.325   21.219
  312.500   47.099    0.397    0.334   20.846
  312.750   47.742    0.396    0.338   20.494
  313.000   49.014    0.393    0.337   20.141
  313.250   48.473    0.386    0.337   20.162
  313.500   48.517    0.385    0.338   20.198
  313.750   47.990    0.388    0.343   20.226
  314.000   48.633    0.396    0.350   20.255
  314.250   48.692    0.405    0.349   20.660
  314.500   48.765    0.402    0.342   20.696
  314.750   48.238    0.398    0.335   20.718
  315.000   48.267    0.398    0.335   20.755
  315.250   47.740    0.399    0.337   20.776
  315.500   47.799    0.400    0.342   20.813
  315.750   47.243    0.401    0.349   20.849
  316.000   46.131    0.401    0.353   20.864
  316.250   45.005    0.401    0.357   20.901
  316.500   44.434    0.400    0.347   20.923
  316.750   43.878    0.395    0.346   20.959
  317.000   44.565    0.390    0.344   20.996
  317.250   45.194    0.385    0.344   21.409
  317.500   44.068    0.379    0.345   21.447
  317.750   42.313    0.380    0.344   21.876
  318.000   41.215    0.381    0.343   21.915
  318.250   41.230    0.383    0.341   22.361
  318.500   42.488    0.386    0.340   22.393
  318.750   43.745    0.387    0.340   22.424
  319.000   44.403    0.389    0.340   22.448
  319.250   43.877    0.394    0.342   22.479
  319.500   43.350    0.398    0.343   22.511
  319.750   44.008    0.399    0.344   22.543
  320.000   44.666    0.400    0.347   22.582
  320.250   44.695    0.402    0.349   23.034
  320.500   45.368    0.403    0.361   23.083
  320.750   44.812    0.402    0.368   23.099
  321.000   43.100    0.402    0.364   22.709
  321.250   43.129    0.394    0.357   22.733
  321.500   43.202    0.388    0.353   22.357
  321.750   42.061    0.388    0.349   21.965
  322.000   42.134    0.390    0.347   21.995
  322.250   42.778    0.395    0.346   21.609
  322.500   43.450    0.390    0.348   21.252
  322.750   42.909    0.380    0.354   21.274
  323.000   41.753    0.381    0.356   21.304
  323.250   41.826    0.383    0.349   20.930
  323.500   42.499    0.387    0.338   20.966
  323.750   42.543    0.390    0.332   20.605
  324.000   42.016    0.396    0.327   20.634
  324.250   41.475    0.403    0.329   20.279
  324.500   41.504    0.408    0.334   20.300
  324.750   40.977    0.409    0.354   20.336
  325.000   39.836    0.406    0.357   19.993
  325.250   39.295    0.403    0.362   20.021
  325.500   39.353    0.403    0.367   20.042
  325.750   39.411    0.404    0.362   19.697
  326.000   40.084    0.405    0.347   19.717
  326.250   40.727    0.406    0.344   19.378
  326.500   41.971    0.403    0.346   19.412
  326.750   43.857    0.400    0.353   19.432
  327.000   43.886    0.395    0.361   19.466
  327.250   43.944    0.392    0.367   19.487
  327.500   44.602    0.391    0.364   19.514
  327.750   42.277    0.394    0.358   18.821
  328.000   40.536    0.397    0.356   18.153
  328.250   42.393    0.402    0.356   17.841
  328.500   44.251    0.402    0.354   17.213
  328.750   46.093    0.399    0.353   16.917
  329.000   47.351    0.394    0.353   16.620
  329.250   45.611    0.391    0.353   16.649
  329.500   43.870    0.398    0.356   16.362
  329.750   45.128    0.398    0.363   16.385
  330.000   46.385    0.397    0.361   16.402
  330.250   46.458    0.397    0.357   16.425
  330.500   45.931    0.398    0.356   16.448
  330.750   45.961    0.398    0.353   16.471
  331.000   47.218    0.396    0.351   16.495
  331.250   49.119    0.396    0.354   16.523
  331.500   48.549    0.396    0.359   16.854
  331.750   46.209    0.395    0.359   17.536
  332.000   44.483    0.393    0.356   17.887
  332.250   43.912    0.393    0.353   17.906
  332.500   45.784    0.393    0.351   17.931
  332.750   48.841    0.393    0.351   17.957
  333.000   48.899    0.393    0.355   17.982
  333.250   49.572    0.394    0.357   18.007
  333.500   52.029    0.397    0.357   18.032
  333.750   53.286    0.401    0.357   18.058
  334.000   52.131    0.401    0.359   18.083
  334.250   51.004    0.399    0.362   18.115
  334.500   52.876    0.396    0.350   18.134
  334.750   54.105    0.391    0.341   18.159
  335.000   54.763    0.393    0.338   18.191
  335.250   55.421    0.394    0.338   17.884
  335.500   54.894    0.395    0.339   17.897
  335.750   54.338    0.394    0.340   17.588
  336.000   53.212    0.391    0.340   17.613
  336.250   50.871    0.389    0.341   17.638
  336.500   50.915    0.386    0.342   17.340
  336.750   51.573    0.385    0.343   17.371
