~VERSION INFORMATION
 VERS.                 2.0:   CWLS LOG ASCII STANDARD -VERSION 2.0
 WRAP.                  NO:   ONE LINE PER DEPTH STEP
~WELL INFORMATION BLOCK
#MNEM.UNIT           DATA                    DESCRIPTION OF MNEMONIC
#---------    -------------------            -------------------------------
# Generated from Intellog Unique Number	CW_76_78/WELL/549
WELL.         07-04-077-04W5                 : Well_name    - WELL
LOC .         00/07-04-077-04W5/0            : Location     - LOCATION
UWI .         00/07-04-077-04W5/0            : Uwi          - UNIQUE WELL ID
ENTR.         JAYE                           : Entered      - ENTERED BY
SRVC.         SCHLUMBERGER                   : Scn          - SERVICE COMPANY
DATE.         11 MAR 75                      : Date         - LOG DATE
STRT.M        432.816                        : top_depth    - START DEPTH
STOP.M        658.316                        : bot_depth    - STOP DEPTH
STEP.M        0.25                           : increment    - STEP LENGTH
 NULL. -999.2500:NULL Value
~CURVE INFORMATION BLOCK
#MNEM UNIT       ERCB CURVE CODE    CURVE DESCRIPTION
#-----------   ------------------   ----------------------------------
DEPT.M        00 001 00 00         : DEPTH        - DEPTH
DPHI.V/V      00 890 00 00         : PHID         - DENSITY POROSITY (SANDSTONE)
NPHI.V/V      00 330 00 00         : PHIN         - NEUTRON POROSITY (SANDSTONE)
GR  .API      00 310 00 00         : GR           - GAMMA RAY
CALI.MM       00 280 01 00         : CAL          - CALIPER
ILD .OHMM     00 120 00 00         : RESD         - DEEP RESISTIVITY (DIL)
~PARAMETER INFORMATION
#MNEM.UNIT           DATA             DESCRIPTION OF MNEMONIC
#---------         -----------     ------------------------------
GL  .M        726.338              : gl           - GROUND LEVEL ELEVATION
EREF.M        729.905              : kb           - ELEVATION OF DEPTH REFERENCE
DATM.M        726.338              : datum        - DATUM ELEVATION
TDD .M        670.255              : tdd          - TOTAL DEPTH DRILLER
RUN .         ONE                  : Run          - RUN NUMBER
ENG .         SMILEY               : Engineer     - RECORDING ENGINEER
WIT .         KIS/STEIDEL          : Witness      - WITNESSED BY
BASE.         EDMONTON             : Branch       - HOME BASE OF LOGGING UNIT
MUD .         GEL CHEM             : Mud_type     - MUD TYPE
MATR.         SANDSTONE            : Logunit      - NEUTRON MATRIX
TMAX.C        26.1111              : BHT          - MAXIMUM RECORDED TEMPERATURE
BHTD.M        670.865              : BHTDEP       - MAXIMUM RECORDED TEMPERATURE
RMT .C        16.1111              : MDTP         - TEMPERATURE OF MUD
MUDD.KG/M     1128                 : MWT          - MUD DENSITY
NEUT.         1                    : NEUTRON      - NEUTRON TYPE
RESI.         0                    : RESIST       - RESISTIVITY TYPE
RM  .OHMM     3.16                 : RM           - RESISTIVITY OF MUD
RMC .OHMM     5.23                 : RMC          - RESISTIVITY OF MUD CAKE
RMF .OHMM     4.07                 : RMF          - RESISTIVITY OF MUD FILTRATE
SUFT.C        4.5                  : SUFT         - SURFACE TEMPERATURE
~A  DEPTH     PHID     PHIN       GR      CAL     RESD
  432.816    0.251    0.552  103.534  213.053    2.041
  433.066    0.259    0.544  101.238  210.201    2.037
  433.316    0.236    0.538  100.354  207.567    2.073
  433.566    0.250    0.534   99.282  206.162    2.145
  433.816    0.260    0.536   97.355  197.916    2.253
  434.066    0.264    0.540   99.105  195.274    2.513
  434.316    0.253    0.505   94.787  187.545    2.708
  434.566    0.263    0.479   88.445  181.166    2.891
  434.816    0.249    0.494   83.329  172.610    3.156
  435.066    0.268    0.476   79.930  163.534    3.580
  435.316    0.261    0.454   77.820  161.929    4.189
  435.566    0.268    0.420   75.586  160.119    4.480
  435.816    0.260    0.418   72.615  158.002    4.671
  436.066    0.249    0.420   72.831  157.534    4.763
  436.316    0.238    0.419   73.600  158.637    4.795
  436.566    0.251    0.408   71.061  159.517    4.801
  436.816    0.260    0.417   64.718  162.167    4.728
  437.066    0.267    0.432   61.686  162.120    4.665
  437.316    0.273    0.443   60.129  160.099    4.519
  437.566    0.281    0.447   59.670  159.226    4.330
  437.816    0.298    0.441   62.157  159.492    4.043
  438.066    0.296    0.443   66.970  161.314    3.888
  438.316    0.276    0.466   73.624  162.714    3.893
  438.566    0.318    0.474   79.113  161.842    4.058
  438.816    0.331    0.463   84.236  159.509    4.285
  439.066    0.306    0.457   87.641  158.326    4.559
  439.316    0.303    0.453   86.144  158.169    4.822
  439.566    0.299    0.465   80.167  158.125    5.074
  439.816    0.298    0.485   72.660  158.284    5.407
  440.066    0.304    0.476   63.500  158.337    5.720
  440.316    0.297    0.430   56.975  158.401    6.118
  440.566    0.300    0.420   55.232  158.039    6.449
  440.816    0.309    0.429   57.350  157.270    6.747
  441.066    0.315    0.430   59.711  157.017    6.818
  441.316    0.308    0.423   60.176  157.068    6.839
  441.566    0.320    0.421   60.084  157.231    6.923
  441.816    0.319    0.421   58.284  157.598    7.112
  442.066    0.323    0.425   56.354  157.866    7.306
  442.316    0.322    0.425   54.732  158.130    7.602
  442.566    0.314    0.424   53.476  158.392    7.896
  442.816    0.309    0.435   54.308  158.652    8.201
  443.066    0.309    0.439   56.614  158.814    8.394
  443.316    0.326    0.428   58.422  158.773    8.482
  443.566    0.320    0.424   59.925  158.825    8.477
  443.816    0.315    0.446   60.388  158.778    8.519
  444.066    0.322    0.463   60.545  158.530    8.576
  444.316    0.329    0.456   60.454  158.165    8.539
  444.566    0.336    0.429   60.243  157.814    8.582
  444.816    0.337    0.433   58.438  157.665    8.688
  445.066    0.335    0.451   59.207  157.612    8.876
  445.316    0.338    0.446   60.223  157.354    9.287
  445.566    0.335    0.432   60.502  157.314   10.248
  445.816    0.331    0.441   60.657  157.677   10.723
  446.066    0.327    0.456   60.694  157.950   10.814
  446.316    0.322    0.458   60.847  158.211   10.612
  446.566    0.313    0.452   61.618  158.574    9.891
  446.816    0.306    0.470   62.324  158.635    9.270
  447.066    0.301    0.476   62.602  158.378    8.721
  447.316    0.334    0.478   62.576  158.335    7.651
  447.566    0.327    0.489   62.425  158.177    7.092
  447.816    0.328    0.496   61.232  158.137    6.721
  448.066    0.318    0.444   57.649  158.306    6.510
  448.316    0.224    0.374   59.952  158.353    6.400
  448.566    0.224    0.392   63.538  157.992    6.291
  448.816    0.338    0.422   64.187  157.954    6.196
  449.066    0.347    0.440   61.399  157.896    6.079
  449.316    0.332    0.439   58.674  157.746    5.911
  449.566    0.305    0.424   58.283  157.388    5.715
  449.816    0.310    0.444   59.417  157.036    5.567
  450.066    0.334    0.478   61.535  156.780    5.393
  450.316    0.341    0.502   61.384  156.108    5.253
  450.566    0.335    0.493   60.865  155.232    5.145
  450.816    0.330    0.467   60.899  155.185    5.133
  451.066    0.327    0.455   61.241  155.659    5.206
  451.316    0.321    0.444   60.907  156.129    5.537
  451.566    0.283    0.438   57.323  156.700    6.444
  451.816    0.223    0.421   49.754  157.691    7.164
  452.066    0.124    0.370   42.617  158.996    8.155
  452.316    0.017    0.229   40.570  159.989    9.900
  452.566    0.015    0.306   44.156  160.560   11.417
  452.816    0.053    0.343   50.871  161.035   11.579
  453.066    0.222    0.362   53.235  160.885   10.773
  453.316    0.270    0.431   54.678  159.488    8.750
  453.566    0.314    0.469   54.345  157.785    7.279
  453.816    0.323    0.469   53.948  157.003    6.033
  454.066    0.329    0.462   54.408  156.856    5.235
  454.316    0.331    0.452   57.630  156.807    4.808
  454.566    0.335    0.448   61.833  156.971    4.523
  454.816    0.343    0.450   60.764  157.249    4.520
  455.066    0.353    0.446   56.995  157.197    4.627
  455.316    0.357    0.465   52.494  157.245    4.797
  455.566    0.356    0.492   53.387  156.883    4.937
  455.816    0.342    0.475   54.829  156.219    5.044
  456.066    0.306    0.455   54.987  155.862    4.949
  456.316    0.306    0.470   54.897  155.609    4.785
  456.566    0.316    0.478   54.930  155.556    4.747
  456.816    0.322    0.480   54.904  155.409    4.753
  457.066    0.321    0.472   54.322  155.780    4.847
  457.316    0.325    0.462   55.037  156.039    4.961
  457.566    0.330    0.449   56.110  156.416    5.087
  457.816    0.327    0.438   56.632  156.568    5.236
  458.066    0.312    0.450   56.297  156.837    5.468
  458.316    0.315    0.463   56.208  157.099    5.753
  458.566    0.307    0.443   56.056  157.366    6.064
  458.816    0.270    0.420   55.849  157.213    6.230
  459.066    0.228    0.385   56.124  157.064    6.260
  459.316    0.224    0.412   56.344  156.703    6.097
  459.566    0.279    0.472   55.947  156.656    6.027
  459.816    0.326    0.458   53.223  156.713    5.947
  460.066    0.318    0.459   55.584  156.768    5.965
  460.316    0.315    0.465   58.378  157.040    5.972
  460.566    0.313    0.464   59.022  157.192    5.925
  460.816    0.314    0.458   59.670  157.461    5.835
  461.066    0.320    0.452   60.686  157.411    5.757
  461.316    0.321    0.458   61.698  156.949    5.711
  461.566    0.306    0.474   62.408  157.107    5.677
  461.816    0.300    0.475   63.054  157.373    5.643
  462.066    0.299    0.466   60.327  157.744    5.588
  462.316    0.311    0.471   57.850  157.803    5.493
  462.566    0.302    0.488   56.230  157.966    5.341
  462.816    0.301    0.495   55.034  158.123    5.202
  463.066    0.308    0.475   55.072  158.289    5.114
  463.316    0.314    0.457   55.347  158.448    4.972
  463.566    0.319    0.454   56.122  158.500    4.923
  463.816    0.326    0.455   56.520  158.562    5.012
  464.066    0.326    0.460   56.245  158.722    5.111
  464.316    0.318    0.466   55.177  158.986    5.193
  464.566    0.323    0.461   54.167  159.052    5.267
  464.816    0.339    0.451   54.143  158.888    5.206
  465.066    0.334    0.446   54.600  158.539    5.231
  465.316    0.327    0.454   54.329  158.481    5.404
  465.566    0.317    0.460   53.565  158.128    5.571
  465.816    0.316    0.454   52.867  158.289    5.682
  466.066    0.320    0.444   52.651  158.339    5.616
  466.316    0.328    0.440   52.870  158.713    5.430
  466.566    0.341    0.433   53.824  159.189    5.251
  466.816    0.350    0.434   54.899  159.448    5.059
  467.066    0.349    0.448   55.791  159.714    4.812
  467.316    0.337    0.460   56.193  160.399    4.509
  467.566    0.316    0.456   56.287  161.174    4.384
  467.816    0.305    0.469   55.400  162.168    4.382
  468.066    0.309    0.398   53.778  162.950    4.518
  468.316    0.269    0.414   49.643  163.628    4.675
  468.566    0.269    0.413   42.075  163.685    4.829
  468.816    0.307    0.375   38.431  162.602    4.970
  469.066    0.307    0.375   42.573  161.621    4.967
