~VERSION INFORMATION
 VERS.                 2.0:   CWLS LOG ASCII STANDARD -VERSION 2.0
 WRAP.                  NO:   ONE LINE PER DEPTH STEP
~WELL INFORMATION BLOCK
#MNEM.UNIT           DATA                    DESCRIPTION OF MNEMONIC
#---------    -------------------            -------------------------------
# Generated from Intellog Unique Number	CS_67_68/WELL/637
WELL.         CANADIAN HOMESTEAD OIL         : Well_name    - WELL
LOC .         00/03-19-068-09W4/0            : Location     - LOCATION
UWI .         00/03-19-068-09W4/0            : Uwi          - UNIQUE WELL ID
ENTR.         SP                             : Entered      - ENTERED BY
SRVC.         SCHLUMBERGER                   : Scn          - SERVICE COMPANY
STRT.M        390                            : top_depth    - START DEPTH
STOP.M        609                            : bot_depth    - STOP DEPTH
STEP.M        0.25                           : increment    - STEP LENGTH
 NULL. -999.2500:NULL Value
~CURVE INFORMATION BLOCK
#MNEM UNIT       ERCB CURVE CODE    CURVE DESCRIPTION
#-----------   ------------------   ----------------------------------
DEPT.M        00 001 00 00         : DEPTH        - DEPTH
ILD .OHMM     00 120 00 00         : RESD         - DEEP RESISTIVITY (DIL)
DPHI.V/V      00 890 00 00         : PHID         - DENSITY POROSITY (LIMESTONE)
NPHI.V/V      00 330 00 00         : PHIN         - NEUTRON POROSITY (LIMESTONE)
GR  .API      00 310 00 00         : GR           - GAMMA RAY
~PARAMETER INFORMATION
#MNEM.UNIT           DATA             DESCRIPTION OF MNEMONIC
#---------         -----------     ------------------------------
GL  .M        702.5                : gl           - GROUND LEVEL ELEVATION
EREF.M        705.5                : kb           - ELEVATION OF DEPTH REFERENCE
DATM.M        702.5                : datum        - DATUM ELEVATION
TDD .M        624                  : tdd          - TOTAL DEPTH DRILLER
RUN .         ONE                  : Run          - RUN NUMBER
ENG .         BILL                 : Engineer     - RECORDING ENGINEER
WIT .         JIM                  : Witness      - WITNESSED BY
MUD .         GEL                  : Mud_type     - MUD TYPE
MATR.         LIMESTONE            : Logunit      - NEUTRON MATRIX
TMAX.C        23                   : BHT          - MAXIMUM RECORDED TEMPERATURE
BHTD.M        624                  : BHTDEP       - MAXIMUM RECORDED TEMPERATURE
MATR.         1                    : LOGUNIT      - NEUTRON MATRIX
RMT .C        25                   : MDTP         - TEMPERATURE OF MUD
NEUT.         1                    : NEUTRON      - NEUTRON TYPE
RESI.         0                    : RESIST       - RESISTIVITY TYPE
RMC .OHMM     0.25                 : RMC          - RESISTIVITY OF MUD CAKE
RMF .OHMM     0.25                 : RMF          - RESISTIVITY OF MUD FILTRATE
SUFT.C        15                   : SUFT         - SURFACE TEMPERATURE
~A  DEPTH     RESD     PHID     PHIN       GR
# ...
  564.000    4.044    0.250    0.376   88.792
  564.250    3.911    0.246    0.371   83.053
  564.500    3.804    0.243    0.368   77.978
  564.750    3.659    0.245    0.371   75.381
  565.000    3.572    0.251    0.376   83.965
  565.250    3.772    0.254    0.376   92.670
  565.500    3.984    0.244    0.365  102.221
  565.750    4.231    0.235    0.360  111.046
  566.000    4.536    0.227    0.352  117.394
  566.250    4.781    0.222    0.346  121.445
  566.500    5.078    0.236    0.357  120.238
  566.750    5.393    0.241    0.365  114.680
  567.000    5.455    0.237    0.365  108.034
  567.250    5.178    0.234    0.360  101.509
  567.500    5.074    0.231    0.359  102.175
  567.750    5.010    0.233    0.361  108.644
  568.000    4.974    0.230    0.359  112.575
  568.250    4.966    0.225    0.352  116.021
  568.500    4.939    0.225    0.350  118.985
  568.750    4.886    0.226    0.351  119.349
  569.000    4.860    0.228    0.353  115.362
  569.250    4.763    0.231    0.354  109.985
  569.500    4.668    0.233    0.358  104.790
  569.750    4.557    0.239    0.365  110.896
  570.000    4.482    0.242    0.367  120.326
  570.250    4.424    0.236    0.359  128.789
  570.500    4.392    0.233    0.356  136.466
  570.750    4.377    0.243    0.369  138.220
  571.000    4.297    0.257    0.379  138.465
  571.250    4.235    0.258    0.378  138.950
  571.500    4.204    0.251    0.376  140.040
  571.750    4.190    0.277    0.396  136.536
  572.000    4.246    0.295    0.418  127.050
  572.250    4.328    0.285    0.414  119.437
  572.500    4.453    0.269    0.396  111.884
  572.750    4.538    0.257    0.383  106.447
  573.000    4.695    0.239    0.368  111.283
  573.250    4.679    0.226    0.359  114.911
  573.500    4.610    0.224    0.353  108.870
  573.750    4.484    0.233    0.350  100.048
  574.000    4.256    0.240    0.358   92.375
  574.250    4.010    0.252    0.367   85.245
  574.500    3.849    0.259    0.373   84.763
  574.750    3.822    0.256    0.380   89.419
  575.000    3.794    0.250    0.383   93.108
  575.250    3.795    0.246    0.378   96.131
  575.500    3.876    0.245    0.373  100.545
  575.750    4.062    0.242    0.371  106.288
  576.000    4.388    0.238    0.370  116.323
  576.250    4.793    0.234    0.367  126.599
  576.500    5.052    0.231    0.361  129.139
  576.750    5.276    0.230    0.357  120.620
  577.000    5.469    0.229    0.352  114.336
  577.250    5.563    0.228    0.351  122.255
  577.500    5.628    0.228    0.352  129.086
  577.750    5.651    0.229    0.356  133.439
  578.000    5.558    0.234    0.364  125.646
  578.250    5.275    0.241    0.374  115.313
  578.500    4.814    0.251    0.381   97.969
  578.750    4.527    0.249    0.376   75.126
  579.000    4.330    0.245    0.372   65.761
  579.250    4.219    0.248    0.372   58.269
  579.500    4.150    0.163    0.378   52.892
  579.750    4.253    0.101    0.354   52.531
  580.000    4.602    0.040    0.282   64.318
  580.250    5.036    0.090    0.161   89.462
  580.500    5.595    0.133    0.190  105.962
  580.750    6.192    0.160    0.249  119.200
  581.000    6.299    0.182    0.310  126.817
  581.250    6.024    0.191    0.322  130.989
  581.500    5.816    0.197    0.321  132.925
  581.750    5.742    0.203    0.332  135.344
  582.000    5.648    0.210    0.338  133.956
  582.250    5.628    0.215    0.344  128.398
  582.500    5.608    0.221    0.350  124.471
  582.750    5.610    0.227    0.352  122.358
  583.000    5.622    0.231    0.355  120.003
  583.250    5.688    0.235    0.357  117.104
  583.500    5.700    0.237    0.360  111.969
  583.750    5.691    0.237    0.364  104.658
  584.000    5.713    0.239    0.367  102.061
  584.250    5.694    0.233    0.365   99.464
  584.500    5.695    0.227    0.355  106.416
  584.750    5.665    0.216    0.345  115.242
  585.000    5.625    0.210    0.336  123.040
  585.250    5.585    0.216    0.337  128.239
  585.500    5.555    0.226    0.348  129.752
  585.750    5.505    0.232    0.357  127.820
  586.000    5.444    0.238    0.363  127.097
  586.250    5.335    0.243    0.369  127.220
  586.500    5.267    0.248    0.374  125.167
  586.750    5.171    0.247    0.378  120.817
  587.000    5.134    0.244    0.373  117.133
  587.250    5.069    0.243    0.371  118.102
  587.500    5.043    0.249    0.375  114.054
  587.750    5.034    0.244    0.376  115.688
  588.000    5.007    0.238    0.374  120.646
  588.250    4.999    0.234    0.368  122.642
  588.500    4.936    0.234    0.364  114.848
  588.750    4.909    0.239    0.367  108.202
  589.000    4.911    0.238    0.365  103.429
  589.250    4.921    0.235    0.363  107.964
  589.500    4.960    0.231    0.357  109.356
  589.750    5.008    0.228    0.353  109.599
  590.000    5.029    0.225    0.350  107.849
  590.250    5.039    0.223    0.348  103.983
  590.500    5.050    0.225    0.351  102.897
  590.750    5.080    0.226    0.353  106.646
  591.000    5.101    0.223    0.352  112.389
  591.250    5.102    0.220    0.351  116.682
  591.500    5.133    0.218    0.348  109.069
  591.750    5.143    0.218    0.348  100.972
  592.000    5.155    0.219    0.347   99.101
  592.250    5.167    0.220    0.345  103.212
  592.500    5.518    0.221    0.344  104.907
  592.750    5.519    0.220    0.343  102.975
  593.000    5.490    0.218    0.342  100.438
  593.250    5.420    0.217    0.342   98.204
  593.500    5.381    0.216    0.343   97.179
  593.750    5.332    0.217    0.347   97.845
  594.000    5.304    0.218    0.346  100.748
  594.250    5.306    0.219    0.344  106.129
  594.500    5.297    0.217    0.342  110.603
  594.750    5.289    0.215    0.341  107.704
  595.000    5.271    0.214    0.340  105.651
  595.250    5.253    0.213    0.340  103.477
  595.500    5.255    0.212    0.340  100.880
  595.750    5.256    0.212    0.339  100.339
  596.000    5.258    0.210    0.337  102.879
  596.250    5.230    0.209    0.335  105.117
  596.500    5.241    0.207    0.333  104.756
  596.750    5.272    0.206    0.332  107.357
  597.000    5.333    0.205    0.330  111.892
  597.250    5.354    0.204    0.329  117.030
  597.500    5.427    0.204    0.329  121.565
  597.750    5.448    0.206    0.332  124.830
  598.000    5.461    0.212    0.336  121.932
  598.250    5.452    0.216    0.340  119.214
  598.500    5.413    0.221    0.345  116.677
  598.750    5.344    0.224    0.351  113.718
  599.000    5.306    0.227    0.355  112.148
  599.250    5.277    0.229    0.358  117.952
  599.500    5.259    0.231    0.360  125.569
  599.750    5.280    0.230    0.361  132.944
  600.000    5.342    0.229    0.359  139.715
  600.250    5.486    0.228    0.357  142.255
  600.500    5.549    0.227    0.354  133.071
  600.750    5.687    0.225    0.353  124.189
  601.000    5.818    0.218    0.349  117.966
  601.250    5.919    0.209    0.339  116.880
  601.500    5.898    0.201    0.328  131.810
  601.750    5.812    0.193    0.321  148.734
  602.000    5.527    0.232    0.344  160.097
  602.250    4.778    0.263    0.361  165.780
  602.500    4.385    0.281    0.383  164.755
  602.750    4.494    0.295    0.399  159.257
  603.000    4.918    0.275    0.417  152.974
  603.250    5.362    0.251    0.411  146.509
  603.500    5.901    0.238    0.384  141.072
  603.750    6.186    0.237    0.367  135.937
  604.000    6.424    0.234    0.368  128.203
  604.250    6.522    0.229    0.366  125.183
  604.500    6.573    0.221    0.363  131.954
  604.750    6.587    0.215    0.355  136.488
  605.000    6.479    0.211    0.348  138.726
  605.250    6.025    0.208    0.340  137.520
  605.500    5.719    0.207    0.336  135.769
  605.750    5.258    0.245    0.334  112.865
  606.000    5.105    0.271    0.339  100.357
  606.250    5.931    0.289    0.383   79.629
  606.500    7.009    0.112    0.414   25.904
  606.750    8.502    0.087    0.253   12.307
  607.000   10.084    0.070    0.205   10.919
  607.250   11.983    0.062    0.192   11.586
