~VERSION INFORMATION
 VERS.                 2.0:   CWLS LOG ASCII STANDARD -VERSION 2.0
 WRAP.                  NO:   ONE LINE PER DEPTH STEP
~WELL INFORMATION BLOCK
#MNEM.UNIT           DATA                    DESCRIPTION OF MNEMONIC
#---------    -------------------            -------------------------------
# Generated from Intellog Unique Number	CS_73_76/WELL/2157
WELL.         DOME ET AL KIRBY               : Well_name    - WELL
LOC .         00/05-21-074-04W4/0            : Location     - LOCATION
UWI .         00/05-21-074-04W4/0            : Uwi          - UNIQUE WELL ID
ENTR.         SP                             : Entered      - ENTERED BY
SRVC.         SCHLUMBERGER                   : Scn          - SERVICE COMPANY
STRT.M        210                            : top_depth    - START DEPTH
STOP.M        420                            : bot_depth    - STOP DEPTH
STEP.M        0.25                           : increment    - STEP LENGTH
 NULL. -999.2500:NULL Value
~CURVE INFORMATION BLOCK
#MNEM UNIT       ERCB CURVE CODE    CURVE DESCRIPTION
#-----------   ------------------   ----------------------------------
DEPT.M        00 001 00 00         : DEPTH        - DEPTH
ILD .OHMM     00 120 00 00         : RESD         - DEEP RESISTIVITY (DIL)
DPHI.V/V      00 890 00 00         : PHID         - DENSITY POROSITY (LIMESTONE)
NPHI.V/V      00 330 00 00         : PHIN         - NEUTRON POROSITY (LIMESTONE)
GR  .API      00 310 00 00         : GR           - GAMMA RAY
~PARAMETER INFORMATION
#MNEM.UNIT           DATA             DESCRIPTION OF MNEMONIC
#---------         -----------     ------------------------------
GL  .M        598                  : gl           - GROUND LEVEL ELEVATION
EREF.M        601.9                : kb           - ELEVATION OF DEPTH REFERENCE
DATM.M        598                  : datum        - DATUM ELEVATION
TDD .M        432                  : tdd          - TOTAL DEPTH DRILLER
RUN .         ONE                  : Run          - RUN NUMBER
ENG .         BILL                 : Engineer     - RECORDING ENGINEER
WIT .         JIM                  : Witness      - WITNESSED BY
MUD .         GEL                  : Mud_type     - MUD TYPE
MATR.         LIMESTONE            : Logunit      - NEUTRON MATRIX
TMAX.C        20                   : BHT          - MAXIMUM RECORDED TEMPERATURE
BHTD.M        432                  : BHTDEP       - MAXIMUM RECORDED TEMPERATURE
MATR.         1                    : LOGUNIT      - NEUTRON MATRIX
RMT .C        25                   : MDTP         - TEMPERATURE OF MUD
NEUT.         1                    : NEUTRON      - NEUTRON TYPE
RESI.         0                    : RESIST       - RESISTIVITY TYPE
RMC .OHMM     0.25                 : RMC          - RESISTIVITY OF MUD CAKE
RMF .OHMM     0.25                 : RMF          - RESISTIVITY OF MUD FILTRATE
SUFT.C        15                   : SUFT         - SURFACE TEMPERATURE
~A  DEPTH     RESD     PHID     PHIN       GR
  210.000    3.895    0.331    0.526   94.835
  210.250    3.682    0.333    0.543   96.694
  210.500    3.685    0.338    0.537  102.893
  210.750    3.688    0.320    0.543  102.273
  211.000    3.691    0.305    0.554  101.653
  211.250    3.764    0.297    0.564  102.893
  211.500    3.913    0.291    0.519  104.752
  211.750    4.306    0.286    0.494  102.273
  212.000    4.563    0.287    0.474  107.231
  212.250    4.743    0.289    0.481  111.570
  212.500    4.747    0.297    0.475  107.851
  212.750    4.660    0.300    0.480  108.471
  213.000    4.405    0.305    0.500  105.372
  213.250    4.326    0.309    0.506   98.554
  213.500    4.329    0.287    0.516   99.793
  213.750    4.501    0.263    0.505   99.793
  214.000    4.768    0.276    0.494   95.454
  214.250    4.957    0.284    0.491   90.496
  214.500    5.056    0.285    0.503   92.975
  214.750    4.871    0.291    0.522   94.835
  215.000    4.518    0.300    0.521   97.314
  215.250    4.271    0.299    0.538   94.215
  215.500    4.193    0.294    0.565   98.554
  215.750    4.042    0.290    0.585   96.074
  216.000    4.044    0.284    0.549   95.454
  216.250    4.047    0.275    0.516   97.314
  216.500    4.127    0.272    0.476   97.934
  216.750    4.374    0.269    0.466  100.413
  217.000    4.377    0.267    0.480  110.950
  217.250    4.465    0.265    0.492  109.711
  217.500    4.467    0.268    0.503  104.132
  217.750    4.386    0.271    0.501   99.793
  218.000    4.226    0.274    0.504   99.174
  218.250    4.072    0.275    0.519  100.413
  218.500    3.923    0.276    0.501   93.595
  218.750    3.926    0.276    0.509   97.934
  219.000    4.239    0.275    0.470   97.314
  219.250    5.431    0.276    0.454   83.678
  219.500    6.326    0.290    0.401   67.562
  219.750    7.801    0.305    0.393   61.364
  220.000   10.184    0.312    0.391   65.083
  220.250   11.642    0.314    0.404   73.141
  220.500   12.814    0.313    0.410   79.959
  220.750   13.068    0.313    0.420   81.818
  221.000   13.078    0.317    0.410   84.917
  221.250   13.091    0.319    0.418   88.016
  221.500   12.851    0.313    0.405   88.636
  221.750   12.624    0.306    0.400   83.058
  222.000   12.630    0.302    0.408   86.157
  222.250   12.642    0.293    0.397   89.876
  222.500   12.648    0.288    0.384   92.975
  222.750   12.901    0.286    0.381   97.314
  223.000   13.158    0.275    0.378   96.694
  223.250   13.422    0.268    0.372   86.777
  223.500   13.690    0.257    0.360   70.041
  223.750   13.961    0.246    0.345   78.719
  224.000   13.970    0.247    0.351   87.397
  224.250   13.460    0.258    0.383   88.016
  224.500   12.969    0.266    0.400   90.496
  224.750   12.260    0.274    0.403  101.653
  225.000   12.041    0.276    0.393  102.273
  225.250   11.823    0.277    0.396   92.975
  225.500   11.832    0.272    0.396   81.198
  225.750   11.844    0.264    0.406   85.537
  226.000   11.850    0.262    0.386   94.215
  226.250   11.857    0.272    0.380   94.215
  226.500   11.866    0.277    0.390   96.694
  226.750   11.881    0.278    0.408   91.116
  227.000   11.887    0.275    0.406   86.777
  227.250   11.895    0.278    0.384   82.438
  227.500   11.459    0.282    0.402   81.818
  227.750   10.835    0.270    0.418   91.116
  228.000   10.242    0.252    0.435   96.074
  228.250    9.867    0.243    0.426   99.793
  228.500    9.506    0.247    0.429   97.314
  228.750    9.335    0.257    0.418   92.975
  229.000   10.082    0.275    0.379   89.876
  229.250   10.683    0.286    0.371   99.793
  229.500   11.101    0.297    0.392  105.992
  229.750   11.762    0.306    0.403   96.074
  230.000   11.996    0.316    0.400   86.157
  230.250   12.235    0.319    0.396   73.141
  230.500   11.790    0.314    0.369   79.959
  230.750   11.359    0.249    0.349  101.033
  231.000   11.366    0.207    0.358  111.570
  231.250   11.596    0.171    0.364  104.752
  231.500   12.053    0.160    0.381   97.934
  231.750   12.292    0.165    0.391   86.777
  232.000   13.028    0.186    0.391   75.000
  232.250   13.283    0.206    0.364   65.083
  232.500   13.293    0.234    0.351   57.645
  232.750   13.057    0.260    0.349   61.364
  233.000   12.817    0.269    0.355   61.364
  233.250   11.892    0.261    0.363   57.645
  233.500   11.674    0.255    0.359   56.405
  233.750   10.629    0.251    0.372   62.603
  234.000   10.237    0.254    0.371   68.802
  234.250    9.320    0.245    0.382   75.620
  234.500    8.809    0.218    0.400   89.876
  234.750    8.019    0.195    0.420  105.372
  235.000    7.723    0.167    0.447  104.752
  235.250    7.029    0.165    0.454  104.132
  235.500    6.398    0.180    0.454  112.190
  235.750    6.047    0.193    0.470  122.727
  236.000    5.610    0.214    0.486  120.868
  236.250    5.204    0.220    0.506  121.488
  236.500    4.918    0.224    0.527  125.207
  236.750    4.563    0.224    0.532  127.066
  237.000    4.480    0.218    0.517  128.306
  237.250    4.316    0.234    0.529  125.207
  237.500    4.081    0.251    0.524  126.446
  237.750    3.931    0.269    0.522  129.545
  238.000    3.717    0.278    0.547  125.826
  238.250    4.090    0.279    0.506  121.488
  238.500    4.500    0.277    0.511  117.149
  238.750    5.447    0.264    0.484  112.190
  239.000    5.880    0.262    0.433  107.851
  239.250    7.116    0.269    0.436  107.231
  239.500    8.945    0.281    0.437   97.934
  239.750   10.223    0.286    0.423   83.678
  240.000   11.685    0.291    0.413   83.058
  240.250   13.104    0.291    0.413   86.157
  240.500   14.425    0.288    0.414   83.678
  240.750   14.709    0.288    0.428   83.058
  241.000   14.726    0.287    0.443   80.579
  241.250   14.733    0.290    0.448   78.099
  241.500   14.469    0.276    0.453   74.380
  241.750   14.207    0.250    0.436   70.041
  242.000   13.953    0.265    0.433   78.099
  242.250   13.700    0.289    0.438   75.620
  242.500   13.453    0.290    0.445   82.438
  242.750   13.462    0.282    0.425   85.537
  243.000   13.217    0.285    0.426   84.917
  243.250   13.227    0.280    0.422   81.818
  243.500   12.990    0.270    0.413   85.537
  243.750   12.515    0.265    0.401   83.678
  244.000   12.290    0.274    0.388   89.256
  244.250   12.301    0.279    0.404   91.736
  244.500   12.309    0.288    0.398   96.074
  244.750   12.316    0.290    0.386  102.273
  245.000   12.560    0.285    0.388   96.694
  245.250   13.064    0.287    0.393   82.438
  245.500   13.069    0.292    0.381   83.058
  245.750   13.330    0.289    0.368   80.579
  246.000   13.337    0.272    0.370   83.678
  246.250   12.373    0.257    0.360   91.116
  246.500   11.050    0.255    0.399   90.496
  246.750    9.683    0.263    0.419   92.975
  247.000    8.812    0.278    0.443   99.793
  247.250    8.019    0.229    0.457  102.893
  247.500    7.298    0.228    0.435  104.752
  247.750    6.519    0.231    0.421  110.950
  248.000    6.161    0.233    0.433  114.050
  248.250    6.284    0.229    0.446  115.289
  248.500    6.658    0.226    0.415  102.893
  248.750    7.053    0.223    0.379   88.636
  249.000    7.913    0.237    0.380   91.736
  249.250    8.223    0.245    0.410  101.033
  249.500    9.225    0.258    0.430  102.273
  249.750    9.586    0.273    0.379   90.496
  250.000    9.968    0.294    0.379   73.760
  250.250   10.364    0.312    0.392   72.521
  250.500   10.369    0.322    0.410   74.380
  250.750   10.375    0.322    0.416   72.521
  251.000   10.192    0.325    0.424   75.000
  251.250   10.007    0.322    0.417   71.901
  251.500   10.012    0.309    0.397   73.760
  251.750    9.830    0.302    0.389   75.620
  252.000    9.842    0.294    0.396   84.917
  252.250    9.664    0.292    0.405   91.116
  252.500    9.671    0.292    0.400   96.694
  252.750    9.677    0.291    0.402  105.372
  253.000    9.686    0.308    0.427  109.091
  253.250    9.333    0.369    0.461  103.512
