~VERSION INFORMATION
 VERS.                 2.0:   CWLS LOG ASCII STANDARD -VERSION 2.0
 WRAP.                  NO:   ONE LINE PER DEPTH STEP
~WELL INFORMATION BLOCK
#MNEM.UNIT           DATA                    DESCRIPTION OF MNEMONIC
#---------    -------------------            -------------------------------
# Generated from Intellog Unique Number	CC_84_87/WELL/1168
NULL.         -999.25                        : NULL_VALUE
WELL.         BP GRANOR                      : Well_name    - WELL              
LOC .         07-26-084-18W4                 : Location     - LOCATION          
UWI .         00/07-26-084-18W400            : Uwi          - UNIQUE WELL ID    
ENTR.         JHS                            : Entered      - ENTERED BY        
SRVC.         SCHLUMBERGER                   : Scn          - SERVICE COMPANY   
DATE.         01 MAR 81                      : Date         - LOG DATE
STRT.M        95                             : top_depth    - START DEPTH       
STOP.M        299.9                          : bot_depth    - STOP DEPTH        
STEP.M        0.3                            : increment    - STEP LENGTH       
~CURVE INFORMATION BLOCK
#MNEM UNIT       ERCB CURVE CODE    CURVE DESCRIPTION
#-----------   ------------------   ----------------------------------
DEPT.M        00 001 00 00         : DEPTH        - DEPTH                       
DPHI.V/V      00 890 00 00         : PHID         - DENSITY POROSITY (LIMESTONE)
NPHI.V/V      00 330 00 00         : PHIN         - NEUTRON POROSITY (LIMESTONE)
GR  .API      00 310 00 00         : GR           - GAMMA RAY                   
ILD .OHMM     00 120 00 00         : RESD         - DEEP RESISTIVITY (DIL)      
~PARAMETER INFORMATION       
#MNEM.UNIT           DATA             DESCRIPTION OF MNEMONIC
#---------         -----------     ------------------------------
GL  .M        555                  : gl           - GROUND LEVEL ELEVATION      
EREF.M        558.37               : kb           - ELEVATION OF DEPTH REFERENCE
DATM.M        558.37               : datum        - DATUM ELEVATION             
TDD .M        302                  : tdd          - TOTAL DEPTH DRILLER         
RUN .         ONE                  : Run          - RUN NUMBER                  
ENG .         BILL                 : Engineer     - RECORDING ENGINEER          
WIT .         JIM                  : Witness      - WITNESSED BY                
MUD .         GEL                  : Mud_type     - MUD TYPE                    
MATR.         LIMESTONE            : Logunit      - NEUTRON MATRIX              
TMAX.C        30                   : BHT          - MAXIMUM RECORDED TEMPERATURE
BHTD.M        302                  : BHTDEP       - MAXIMUM RECORDED TEMPERATURE
MATR.         1                    : LOGUNIT      - NEUTRON MATRIX              
RMT .C        25                   : MDTP         - TEMPERATURE OF MUD          
NEUT.         1                    : NEUTRON      - NEUTRON TYPE                
RESI.         0                    : RESIST       - RESISTIVITY TYPE            
RMC .OHMM     0.25                 : RMC          - RESISTIVITY OF MUD CAKE     
RMF .OHMM     0.25                 : RMF          - RESISTIVITY OF MUD FILTRATE 
SUFT.C        15                   : SUFT         - SURFACE TEMPERATURE         
~A  DEPTH     PHID     PHIN       GR     RESD
# ...
  147.201    0.308    0.373   43.685   22.064
  147.501    0.319    0.369   45.529   22.079
  147.801    0.312    0.356   46.765   22.090
  148.101    0.300    0.356   46.160   21.695
  148.401    0.300    0.357   44.332   21.706
  148.701    0.308    0.349   44.340   21.726
  149.001    0.314    0.371   44.961   21.735
  149.301    0.315    0.387   45.580   22.160
  149.601    0.321    0.384   48.649   22.587
  149.901    0.331    0.375   56.617   22.607
  150.201    0.330    0.368   56.626   23.046
  150.501    0.327    0.362   54.184   23.938
  150.801    0.323    0.360   54.194   24.403
  151.101    0.323    0.358   56.038   24.876
  151.401    0.325    0.365   54.822   25.358
  151.701    0.322    0.358   52.992   26.339
  152.001    0.319    0.359   49.328   26.355
  152.301    0.324    0.382   49.339   26.874
  152.601    0.326    0.375   51.183   26.887
  152.901    0.319    0.368   54.251   26.405
  153.201    0.307    0.372   57.321   25.931
  153.501    0.310    0.336   56.716   24.995
  153.801    0.308    0.328   59.786   24.097
  154.101    0.308    0.375   61.018   23.666
  154.401    0.304    0.387   59.803   23.243
  154.701    0.299    0.375   60.425   22.827
  155.001    0.305    0.363   64.108   22.419
  155.301    0.326    0.364   64.115   22.855
  155.601    0.334    0.386   62.897   23.301
  155.901    0.342    0.392   59.231   24.198
  156.201    0.339    0.386   53.118   24.674
  156.501    0.327    0.403   51.904   25.156
  156.801    0.326    0.411   52.522   25.164
  157.101    0.331    0.409   55.590   25.179
  157.401    0.329    0.380   59.887   25.198
  157.701    0.327    0.364   59.896   24.745
  158.001    0.320    0.384   59.902   23.852
  158.301    0.314    0.378   61.749   22.996
  158.601    0.322    0.382   61.144   23.013
  158.901    0.320    0.382   62.375   23.021
  159.201    0.310    0.364   63.608   23.035
  159.501    0.298    0.357   62.392   22.621
  159.801    0.300    0.390   63.624   21.007
  160.101    0.316    0.409   62.409   20.630
  160.401    0.317    0.388   60.579   21.036
  160.701    0.324    0.384   59.976   21.846
  161.001    0.317    0.395   61.208   19.912
  161.301    0.287    0.420   66.728    8.927
  161.601    0.248    0.437   86.327    5.601
  161.901    0.234    0.440   94.295    3.581
  162.201    0.240    0.445   99.814    3.263
  162.501    0.251    0.458  101.660    3.206
  162.801    0.262    0.458   96.770    3.268
  163.101    0.258    0.434   89.430    3.458
  163.401    0.244    0.444   83.316    3.729
  163.701    0.243    0.433   79.038    4.097
  164.001    0.249    0.404   83.334    4.175
  164.301    0.255    0.413   87.626    4.338
  164.601    0.260    0.417   89.472    4.340
  164.901    0.268    0.422   90.092    4.342
  165.201    0.266    0.444   85.202    4.345
  165.501    0.274    0.495   79.087    4.347
  165.801    0.289    0.492   75.424    4.350
  166.101    0.291    0.461   75.432    4.194
  166.401    0.288    0.418   71.766    4.195
  166.701    0.289    0.424   71.162    4.045
  167.001    0.296    0.411   71.782    3.899
  167.301    0.301    0.374   74.853    3.758
  167.601    0.296    0.377   77.922    3.691
  167.901    0.285    0.395   76.093    3.833
  168.201    0.269    0.414   68.141    4.057
  168.501    0.269    0.408   66.315    4.802
  168.801    0.268    0.392   69.382    6.125
  169.101    0.258    0.363   68.779    7.667
  169.401    0.246    0.348   60.827    9.964
  169.701    0.251    0.346   57.775   11.151
  170.001    0.270    0.392   60.232   11.370
  170.301    0.287    0.415   60.242   11.378
  170.601    0.291    0.367   64.536   10.966
  170.901    0.271    0.346   65.767   10.183
  171.201    0.274    0.358   59.040    9.458
  171.501    0.264    0.370   54.153    9.823
  171.801    0.227    0.370   54.160   10.394
  172.101    0.208    0.363   57.841   14.829
  172.401    0.214    0.368   79.278   28.519
  172.701    0.236    0.379   82.959   24.580
  173.001    0.253    0.375   58.478   17.905
  173.301    0.286    0.360   46.853   11.882
  173.601    0.283    0.373   48.087    9.865
  173.901    0.246    0.377   52.992   10.245
  174.201    0.242    0.371   67.083   13.067
  174.501    0.252    0.369   65.867   14.626
  174.801    0.266    0.382   57.915   14.912
  175.101    0.279    0.397   50.577   11.925
  175.401    0.288    0.402   49.360   11.282
  175.701    0.300    0.394   53.042   10.877
  176.001    0.313    0.383   53.663   10.683
  176.301    0.313    0.383   52.446   10.690
  176.601    0.306    0.375   54.291   10.696
  176.901    0.308    0.377   57.975   10.903
  177.201    0.303    0.370   59.818   10.909
  177.501    0.302    0.350   57.990   10.915
  177.801    0.305    0.359   54.938   10.524
  178.101    0.317    0.403   56.171   10.530
  178.401    0.320    0.397   57.403   10.538
  178.701    0.314    0.386   54.963   10.739
  179.001    0.316    0.370   54.358   10.949
  179.301    0.334    0.375   53.753   11.586
  179.601    0.343    0.372   56.212   13.213
  179.901    0.343    0.362   58.669   14.245
  180.201    0.337    0.371   60.514   13.732
  180.501    0.318    0.365   59.909   11.616
  180.801    0.304    0.355   56.245   10.588
  181.101    0.301    0.349   55.641   10.016
  181.401    0.305    0.353   57.485    9.839
  181.701    0.301    0.376   52.596   10.029
  182.001    0.296    0.385   50.767   10.224
  182.301    0.295    0.395   48.938   10.230
  182.601    0.296    0.409   50.171   10.047
  182.901    0.288    0.413   58.139   10.053
  183.201    0.140    0.285   59.371   11.900
  183.501    0.115    0.260   53.257   14.896
  183.801    0.163    0.302   45.306   15.766
  184.101    0.278    0.380   47.764   14.915
  184.401    0.317    0.385   53.894   13.344
  184.701    0.312    0.391   53.903   12.162
  185.001    0.319    0.393   51.461   11.722
  185.301    0.332    0.376   47.184   11.513
  185.601    0.339    0.366   49.030   11.306
  185.901    0.338    0.363   50.874   11.106
  186.201    0.328    0.367   51.496   11.112
  186.501    0.321    0.385   49.666   10.913
  186.801    0.328    0.391   49.674   10.718
  187.101    0.350    0.382   46.622   10.725
  187.401    0.339    0.366   46.017   10.339
  187.701    0.323    0.366   48.475   10.345
  188.001    0.325    0.380   48.483   10.160
  188.301    0.336    0.378   47.880    9.979
  188.601    0.331    0.397   49.112    9.982
  188.901    0.335    0.397   51.569    9.623
  189.201    0.325    0.380   49.741    9.628
  189.501    0.325    0.378   47.914    9.456
  189.801    0.340    0.389   50.370    9.288
  190.101    0.342    0.400   64.460    9.294
  190.401    0.335    0.389   63.855    9.126
  190.701    0.342    0.400   51.619    8.798
  191.001    0.344    0.415   47.953    8.642
  191.301    0.339    0.403   48.576    8.486
  191.601    0.330    0.380   56.541    8.490
  191.901    0.324    0.376   60.225    8.339
  192.201    0.317    0.425   55.947    8.190
  192.501    0.318    0.436   56.567    8.045
  192.801    0.332    0.418   59.024    8.049
  193.101    0.329    0.391   62.093    8.055
  193.401    0.320    0.381   63.326    8.059
  193.701    0.315    0.379   57.211    8.064
  194.001    0.319    0.380   52.323    8.067
  194.301    0.309    0.386   57.841    7.923
  194.601    0.302    0.395   63.972    7.783
  194.901    0.297    0.393   64.593    7.786
  195.201    0.302    0.355   71.947    7.792
  195.501    0.315    0.359   68.282    7.653
  195.801    0.321    0.374   61.556    7.656
  196.101    0.321    0.392   57.890    7.661
  196.401    0.318    0.408   58.510    7.525
  196.701    0.307    0.402   61.580    7.530
  197.001    0.297    0.401   61.590    7.533
  197.301    0.304    0.435   60.984    7.539
  197.601    0.318    0.413   60.993    7.542
  197.901    0.324    0.400   62.838    7.547
  198.201    0.322    0.411   62.846    7.551
  198.501    0.307    0.438   65.303    7.556
  198.801    0.297    0.435   63.476    7.705
  199.101    0.300    0.400   60.422    7.707
