~VERSION INFORMATION
 VERS.                 2.0:   CWLS LOG ASCII STANDARD -VERSION 2.0
 WRAP.                  NO:   ONE LINE PER DEPTH STEP
~WELL INFORMATION BLOCK
#MNEM.UNIT           DATA                    DESCRIPTION OF MNEMONIC
#---------    -------------------            -------------------------------
# Generated from Intellog Unique Number	CS_73_76/WELL/1042
WELL.         DOME PETROLEUM                 : Well_name    - WELL
LOC .         00/06-17-076-10W4/0            : Location     - LOCATION
UWI .         00/06-17-076-10W4/0            : Uwi          - UNIQUE WELL ID
ENTR.         SP                             : Entered      - ENTERED BY
SRVC.         SCHLUMBERGER                   : Scn          - SERVICE COMPANY
STRT.M        270.25                         : top_depth    - START DEPTH
STOP.M        505.00                         : bot_depth    - STOP DEPTH
STEP.M        0.25                           : increment    - STEP LENGTH
 NULL. -999.2500:NULL Value
~CURVE INFORMATION BLOCK
#MNEM UNIT       ERCB CURVE CODE    CURVE DESCRIPTION
#-----------   ------------------   ----------------------------------
DEPT.M        00 001 00 00         : DEPTH        - DEPTH
ILD .OHMM     00 120 00 00         : RESD         - DEEP RESISTIVITY (DIL)
DPHI.V/V      00 890 00 00         : PHID         - DENSITY POROSITY (LIMESTONE)
NPHI.V/V      00 330 00 00         : PHIN         - NEUTRON POROSITY (LIMESTONE)
GR  .API      00 310 00 00         : GR           - GAMMA RAY
~PARAMETER INFORMATION
#MNEM.UNIT           DATA             DESCRIPTION OF MNEMONIC
#---------         -----------     ------------------------------
GL  .M        668.26               : gl           - GROUND LEVEL ELEVATION
EREF.M        672.39               : kb           - ELEVATION OF DEPTH REFERENCE
DATM.M        668.26               : datum        - DATUM ELEVATION
TDD .M        517                  : tdd          - TOTAL DEPTH DRILLER
RUN .         ONE                  : Run          - RUN NUMBER
ENG .         BILL                 : Engineer     - RECORDING ENGINEER
WIT .         JIM                  : Witness      - WITNESSED BY
MUD .         GEL                  : Mud_type     - MUD TYPE
MATR.         LIMESTONE            : Logunit      - NEUTRON MATRIX
TMAX.C        23                   : BHT          - MAXIMUM RECORDED TEMPERATURE
BHTD.M        517                  : BHTDEP       - MAXIMUM RECORDED TEMPERATURE
MATR.         1                    : LOGUNIT      - NEUTRON MATRIX
RMT .C        25                   : MDTP         - TEMPERATURE OF MUD
NEUT.         1                    : NEUTRON      - NEUTRON TYPE
RESI.         0                    : RESIST       - RESISTIVITY TYPE
RMC .OHMM     0.25                 : RMC          - RESISTIVITY OF MUD CAKE
RMF .OHMM     0.25                 : RMF          - RESISTIVITY OF MUD FILTRATE
SUFT.C        15                   : SUFT         - SURFACE TEMPERATURE
~A  DEPTH     RESD     PHID     PHIN       GR
# ...
  444.250    5.380    0.254    0.536   91.188
  444.500    8.295    0.260    0.482   83.263
  444.750   10.204    0.257    0.411   77.168
  445.000   12.791    0.253    0.377   74.731
  445.250   16.339    0.252    0.385   73.513
  445.500   16.967    0.248    0.392   73.516
  445.750   16.969    0.244    0.394   74.737
  446.000   16.971    0.223    0.388   75.959
  446.250   16.972    0.210    0.378   75.962
  446.500   17.296    0.204    0.379   75.963
  446.750   17.960    0.176    0.379   72.917
  447.000   20.492    0.140    0.373   68.651
  447.250   22.096    0.095    0.365   63.775
  447.500   26.675    0.150    0.387   63.168
  447.750   29.867    0.284    0.415   57.682
  448.000   33.440    0.281    0.388   60.733
  448.250   37.442    0.277    0.383   62.564
  448.500   40.375    0.292    0.383   62.567
  448.750   39.625    0.295    0.394   64.399
  449.000   37.453    0.291    0.403   68.670
  449.250   32.832    0.287    0.393   70.500
  449.500   29.329    0.284    0.389   75.381
  449.750   26.199    0.277    0.388   78.431
  450.000   23.404    0.264    0.378   78.434
  450.250   22.122    0.270    0.378   78.436
  450.500   20.909    0.273    0.388   83.317
  450.750   20.138    0.269    0.390   85.148
  451.000   19.764    0.257    0.390   85.760
  451.250   18.333    0.249    0.393   87.591
  451.500   17.005    0.259    0.404   91.252
  451.750   16.378    0.260    0.412   95.523
  452.000   15.479    0.252    0.414   99.793
  452.250   13.069    0.248    0.398  103.454
  452.500   12.587    0.228    0.393  107.725
  452.750   12.123    0.211    0.398  110.776
  453.000   12.354    0.214    0.405  113.217
  453.250   13.074    0.223    0.414  115.658
  453.500   13.834    0.248    0.404  105.295
  453.750   15.490    0.238    0.377   97.980
  454.000   16.085    0.226    0.369   92.494
  454.250   17.674    0.234    0.367   86.398
  454.500   19.420    0.244    0.368   78.474
  454.750   21.338    0.249    0.367   74.208
  455.000   24.346    0.234    0.366   71.771
  455.250   26.752    0.254    0.378   69.334
  455.500   26.255    0.280    0.396   66.287
  455.750   23.453    0.274    0.394   66.290
  456.000   19.069    0.243    0.371   71.170
  456.250   16.405    0.206    0.355   77.270
  456.500   16.100    0.215    0.347   82.760
  456.750   16.408    0.219    0.351   85.201
  457.000   18.372    0.211    0.374   87.033
  457.250   19.440    0.231    0.395   82.157
  457.500   22.179    0.250    0.403   79.110
  457.750   24.370    0.263    0.387   74.845
  458.000   26.278    0.265    0.385   71.798
  458.250   29.423    0.268    0.393   68.141
  458.500   33.571    0.239    0.387   66.315
  458.750   39.029    0.260    0.394   66.317
  459.000   51.765    0.286    0.403   62.661
  459.250   79.817    0.292    0.406   59.614
  459.500  100.052    0.304    0.412   55.957
  459.750  118.530    0.301    0.416   50.472
  460.000  145.811    0.295    0.409   48.645
  460.250  169.526    0.306    0.401   49.257
  460.500  189.806    0.315    0.398   51.698
  460.750  233.493    0.320    0.390   53.529
  461.000  276.617    0.298    0.387   55.362
  461.250  292.712    0.292    0.385   58.413
  461.500  224.924    0.306    0.394   62.073
  461.750   68.721    0.307    0.400   65.733
  462.000   40.574    0.301    0.401   71.833
  462.250   32.374    0.299    0.396   83.421
  462.500   30.599    0.297    0.391   88.301
  462.750   31.776    0.296    0.398   90.132
  463.000   39.833    0.296    0.420   83.428
  463.250   52.831    0.337    0.432   78.552
  463.500   72.760    0.329    0.445   68.798
  463.750  132.897    0.323    0.399   55.995
  464.000  229.410    0.302    0.393   52.949
  464.250  266.712    0.312    0.387   56.610
  464.500  238.264    0.315    0.383   59.051
  464.750  216.876    0.315    0.379   62.711
  465.000  169.819    0.312    0.389   69.421
  465.250  123.329    0.319    0.385   69.423
  465.500  104.118    0.320    0.383   68.816
  465.750   87.903    0.313    0.380   70.647
  466.000   77.060    0.313    0.376   74.918
  466.250   72.833    0.317    0.378   81.018
  466.500   63.851    0.314    0.394   81.020
  466.750   60.349    0.314    0.403   79.803
  467.000   52.907    0.319    0.411   79.805
  467.250   50.005    0.317    0.417   78.588
  467.500   42.216    0.307    0.420   74.931
  467.750   33.684    0.303    0.415   77.983
  468.000   19.153    0.291    0.410   79.814
  468.250   14.174    0.282    0.409   83.475
  468.500   12.193    0.272    0.404   89.575
  468.750   10.102    0.256    0.400   95.674
  469.000    9.196    0.243    0.399  101.774
  469.250    9.025    0.252    0.396  105.434
  469.500    8.693    0.234    0.391  109.096
  469.750    8.531    0.222    0.387  110.927
  470.000    8.532    0.202    0.402  113.369
  470.250    8.374    0.195    0.415  115.200
  470.500    8.375    0.190    0.416  115.811
  470.750    8.375    0.185    0.414  115.204
  471.000    8.376    0.196    0.411  110.328
  471.250    8.377    0.206    0.389  108.501
  471.500    8.377    0.228    0.388  108.504
  471.750    8.700    0.226    0.389  110.335
  472.000    9.381    0.206    0.368  113.386
  472.250    9.927    0.200    0.373  116.437
  472.500   10.505    0.209    0.400  113.391
  472.750   10.909    0.200    0.394  102.417
  473.000   11.328    0.205    0.378   89.614
  473.250   11.764    0.207    0.371   82.299
  473.500   12.685    0.191    0.371   82.911
  473.750   13.423    0.178    0.373   86.572
  474.000   14.203    0.204    0.398   81.697
  474.250   14.750    0.218    0.422   76.211
  474.500   14.476    0.237    0.383   70.115
  474.750   13.943    0.264    0.355   76.825
  475.000   11.995    0.223    0.387   93.065
  475.250   10.913    0.220    0.373   92.456
  475.500   10.119    0.212    0.365   96.747
  475.750    9.561    0.213    0.361  107.163
  476.000    8.699    0.195    0.372  110.840
  476.250    8.697    0.191    0.391  113.293
  476.500    8.858    0.196    0.388  112.075
  476.750    8.857    0.199    0.380  110.243
  477.000    9.192    0.202    0.375  105.961
  477.250    9.365    0.210    0.377  102.906
  477.500    9.540    0.202    0.381  104.749
  477.750    9.359    0.187    0.381  106.589
  478.000    9.356    0.180    0.378  110.880
  478.250    9.712    0.182    0.370  112.721
  478.500    9.893    0.166    0.365  111.502
  478.750   10.270    0.175    0.383  103.547
  479.000   10.460    0.213    0.368   99.879
  479.250   10.458    0.191    0.367  102.333
  479.500   10.655    0.194    0.382   98.666
  479.750   10.651    0.203    0.389   96.220
  480.000   10.646    0.213    0.379   96.226
  480.250   10.644    0.207    0.381  105.415
  480.500   11.048    0.203    0.388  106.032
  480.750   11.256    0.211    0.394  101.138
  481.000   11.466    0.219    0.382   93.798
  481.250   12.127    0.213    0.382   91.355
  481.500   12.828    0.231    0.385   88.299
  481.750   13.068    0.233    0.389   87.078
  482.000   12.820    0.231    0.399   85.857
  482.250   12.578    0.235    0.406   90.762
  482.500   12.812    0.234    0.412   91.378
  482.750   13.300    0.222    0.400   94.444
  483.000   14.605    0.226    0.395   94.449
  483.250   15.162    0.237    0.385   87.722
  483.500   15.446    0.252    0.377   84.051
  483.750   15.441    0.255    0.365   82.221
  484.000   15.149    0.243    0.383   84.061
  484.250   15.432    0.243    0.390   87.739
  484.500   15.140    0.248    0.391   83.460
  484.750   14.577    0.261    0.396   82.240
  485.000   14.033    0.253    0.388   86.531
  485.250   13.510    0.240    0.382   88.984
  485.500   13.253    0.231    0.377   90.826
  485.750   13.250    0.237    0.374   95.118
  486.000   12.999    0.221    0.380   96.347
  486.250   12.994    0.242    0.384   92.066
  486.500   12.510    0.239    0.386   92.686
  486.750   12.508    0.240    0.394   93.302
  487.000   12.502    0.238    0.400   92.082
  487.250   12.737    0.248    0.405   87.800
  487.500   13.222    0.244    0.393   84.131
