~VERSION INFORMATION
 VERS.                 2.0:   CWLS LOG ASCII STANDARD -VERSION 2.0
 WRAP.                  NO:   ONE LINE PER DEPTH STEP
~WELL INFORMATION BLOCK
#MNEM.UNIT           DATA                    DESCRIPTION OF MNEMONIC
#---------    -------------------            -------------------------------
# Generated from Intellog Unique Number	CW_76_78/WELL/201
WELL.         AMOCO 5-3 MARTEN H 06-33       : Well_name    - WELL
LOC .         00/06-33-076-26W4/0            : Location     - LOCATION
UWI .         00/06-33-076-26W4/0            : Uwi          - UNIQUE WELL ID
ENTR.         JJ                             : Entered      - ENTERED BY
SRVC.         WESTERN ATLAS                  : Scn          - SERVICE COMPANY
DATE.         24 JAN 73                      : Date         - LOG DATE
STRT.M        670.56                         : top_depth    - START DEPTH
STOP.M        777.31                         : bot_depth    - STOP DEPTH
STEP.M        0.25                           : increment    - STEP LENGTH
 NULL. -999.2500:NULL Value
~CURVE INFORMATION BLOCK
#MNEM UNIT       ERCB CURVE CODE    CURVE DESCRIPTION
#-----------   ------------------   ----------------------------------
DEPT.M        00 001 00 00         : DEPTH        - DEPTH
DELT.US/F     00 520 00 00         : DELT         - SONIC TRAVEL TIME
GR  .API      00 310 00 00         : GR           - GAMMA RAY
NPHI.V/V      00 330 00 00         : PHIN         - NEUTRON POROSITY (SANDSTONE)
ILD .OHMM     00 120 00 00         : RESD         - DEEP RESISTIVITY (DIL)
~PARAMETER INFORMATION
#MNEM.UNIT           DATA             DESCRIPTION OF MNEMONIC
#---------         -----------     ------------------------------
GL  .M        879.5                : gl           - GROUND LEVEL ELEVATION
EREF.M        883.615              : kb           - ELEVATION OF DEPTH REFERENCE
DATM.M        883.615              : datum        - DATUM ELEVATION
TDD .M        775.716              : tdd          - TOTAL DEPTH DRILLER
RUN .         ONE                  : Run          - RUN NUMBER
ENG .         CLARK                : Engineer     - RECORDING ENGINEER
WIT .         MACALDER             : Witness      - WITNESSED BY
BASE.         V.V                  : Branch       - HOME BASE OF LOGGING UNIT
MUD .         GEL                  : Mud_type     - MUD TYPE
MATR.         SANDSTONE            : Logunit      - NEUTRON MATRIX
TMAX.C        28.8889              : BHT          - MAXIMUM RECORDED TEMPERATURE
BHTD.M        775.411              : BHTDEP       - MAXIMUM RECORDED TEMPERATURE
RMT .C        18.3333              : MDTP         - TEMPERATURE OF MUD
MUDD.KG/M     1104                 : MWT          - MUD DENSITY
NEUT.         1                    : NEUTRON      - NEUTRON TYPE
RESI.         0                    : RESIST       - RESISTIVITY TYPE
RM  .OHMM     10                   : RM           - RESISTIVITY OF MUD
RMC .OHMM     6                    : RMC          - RESISTIVITY OF MUD CAKE
RMF .OHMM     9.5                  : RMF          - RESISTIVITY OF MUD FILTRATE
SUFT.C        5                    : SUFT         - SURFACE TEMPERATURE
~A  DEPTH     DELT       GR     PHIN     RESD
# ...
  714.060  276.107   80.534    0.266   13.405
  714.310  287.983   84.807    0.283    9.203
  714.560  357.632   91.294    0.285    7.243
  714.810  346.239   95.444    0.282    6.378
  715.060  336.813   96.323    0.287    6.018
  715.310  338.563   92.401    0.284    6.063
  715.560  332.233   89.091    0.277    6.310
  715.810  300.990   84.181    0.270    6.515
  716.060  283.484   85.312    0.271    6.549
  716.310  345.966   87.239    0.279    6.451
  716.560  343.711   88.983    0.284    6.368
  716.810  339.740   89.928    0.285    6.183
  717.060  345.569   91.179    0.285    6.103
  717.310  345.085   93.663    0.282    6.060
  717.560  338.884   95.653    0.275    6.080
  717.810  341.225   96.778    0.276    6.138
  718.060  329.635   92.118    0.271    6.259
  718.310  319.224   89.300    0.262    6.542
  718.560  331.955   88.763    0.261    6.962
  718.810  322.139   90.877    0.260    7.306
  719.060  333.094   92.750    0.257    7.697
  719.310  351.013   93.445    0.256    8.126
  719.560  337.320   93.527    0.254    8.492
  719.810  325.530   92.497    0.250    8.929
  720.060  331.028   90.790    0.242    9.031
  720.310  311.550   88.157    0.235    8.558
  720.560  269.197   90.395    0.224    7.598
  720.810  272.723   98.733    0.239    6.422
  721.060  347.894  105.535    0.267    5.439
  721.310  349.048  109.376    0.286    4.829
  721.560  352.974  110.868    0.277    4.660
  721.810  358.472  106.515    0.276    4.676
  722.060  353.913  103.697    0.269    4.866
  722.310  340.877  102.854    0.255    5.127
  722.560  323.633  102.381    0.248    5.413
  722.810  323.808   98.394    0.242    5.716
  723.060  327.265   93.975    0.238    6.258
  723.310  309.890   88.573    0.228    6.595
  723.560  258.006   80.456    0.219    7.119
  723.810  274.021   86.701    0.211    7.442
  724.060  276.300   93.375    0.223    7.953
  724.310  257.937   88.033    0.220    8.691
  724.560  243.125   81.089    0.216    9.178
  724.810  293.188   80.306    0.226    9.930
  725.060  343.712   89.136    0.257   10.548
  725.310  321.734   86.013    0.267   11.412
  725.560  327.692   85.909    0.265   12.121
  725.810  345.548   83.034    0.264   12.512
  726.060  315.290   79.540    0.258   12.681
  726.310  310.136   79.559    0.251   12.159
  726.560  312.678   83.094    0.256   11.717
  726.810  309.895   80.521    0.256   10.661
  727.060  298.304   80.729    0.253    8.545
  727.310  261.079   83.640    0.261    6.682
  727.560  279.526   91.547    0.278    6.361
  727.810  323.144   93.601    0.281    5.857
  728.060  344.286   94.297    0.273    5.569
  728.310  334.535   95.176    0.272    5.534
  728.560  314.463  105.732    0.272    5.485
  728.810  296.695   90.531    0.274    5.537
  729.060  317.838   91.351    0.280    5.646
  729.310  342.463   99.200    0.282    5.828
  729.560  321.275  100.511    0.279    6.005
  729.810  301.006   92.148    0.275    6.443
  730.060  311.633   91.374    0.272    6.706
  730.310  319.366   91.698    0.269    6.924
  730.560  293.445   90.418    0.274    7.074
  730.810  278.699   80.395    0.277    6.940
  731.060  316.535   81.524    0.272    6.740
  731.310  305.863   83.883    0.272    6.559
  731.560  318.130   87.477    0.273    6.688
  731.810  323.301   89.468    0.270    6.669
  732.060  308.030   88.502    0.264    6.475
  732.310  321.414   87.287    0.263    6.404
  732.560  335.786   86.135    0.263    6.346
  732.810  300.334   85.354    0.257    6.315
  733.060  296.828   85.620    0.260    6.258
  733.310  330.328   87.920    0.270    6.281
  733.560  335.758   91.389    0.271    6.314
  733.810  309.643   91.716    0.269    6.322
  734.060  293.842   78.486    0.263    6.317
  734.310  285.473   80.723    0.255    6.247
  734.560  339.611   85.491    0.269    6.254
  734.810  331.171   84.952    0.275    6.300
  735.060  322.607   83.003    0.270    6.361
  735.310  314.235   85.113    0.269    6.756
  735.560  318.484   83.717    0.268    7.519
  735.810  334.891   87.985    0.266    7.893
  736.060  338.483   84.307    0.265    8.697
  736.310  347.465   80.815    0.266    9.741
  736.560  346.260   82.315    0.262   10.476
  736.810  304.236   82.823    0.257   11.541
  737.060  240.850   74.155    0.248   12.088
  737.310  231.166   65.549    0.246   12.788
  737.560  248.495   67.475    0.257   13.416
  737.810  359.029   70.515    0.254   13.738
  738.060  306.816   71.214    0.245   13.984
  738.310  264.726   72.339    0.238   14.261
  738.560  240.186   72.913    0.229   14.932
  738.810  225.374   64.491    0.219   15.896
  739.060  232.514   60.445    0.232   16.473
  739.310  246.822   63.730    0.245   15.141
  739.560  249.358   67.264    0.255   10.955
  739.810  260.050   69.434    0.265   10.580
  740.060  337.196   75.002    0.274    8.395
  740.310  336.772   79.517    0.286    7.272
  740.560  327.812   84.343    0.287    6.656
  740.810  314.512   81.034    0.281    6.385
  741.060  297.270   81.118    0.272    6.238
  741.310  274.242   80.825    0.272    6.081
  741.560  318.848   86.577    0.272    6.064
  741.810  323.492   91.834    0.270    6.084
  742.060  320.181   93.332    0.269    6.155
  742.310  325.480   93.103    0.266    6.161
  742.560  325.657   93.309    0.261    6.070
  742.810  308.610   92.220    0.257    5.775
  743.060  309.504   89.894    0.254    5.406
  743.310  319.344   95.399    0.259    5.175
  743.560  331.480   99.545    0.253    5.266
  743.810  326.717   97.655    0.244    5.780
  744.060  322.033  103.959    0.237    6.702
  744.310  313.596   96.153    0.228    7.741
  744.560  312.195   88.102    0.215    9.105
  744.810  316.641   83.803    0.207   10.667
  745.060  307.873   74.518    0.196   12.496
  745.310  270.583   64.249    0.186   14.228
  745.560  250.118   62.417    0.179   16.132
  745.810  268.303   67.181    0.179   17.777
  746.060  298.582   70.963    0.179   19.193
  746.310  285.019   71.471    0.173   16.558
  746.560  262.449   69.212    0.163   13.855
  746.810  239.948   72.253    0.196   11.662
  747.060  215.470   79.910    0.221   10.546
  747.310  233.854   85.475    0.232    9.024
  747.560  281.026   92.087    0.238    7.832
  747.810  290.204   86.931    0.246    6.882
  748.060  307.534   87.752    0.255    6.364
  748.310  311.124   92.328    0.261    5.872
  748.560  309.589   90.438    0.259    5.588
  748.810  307.988   89.408    0.259    5.382
  749.060  307.567   93.804    0.264    5.268
  749.310  308.138   92.096    0.260    5.232
  749.560  307.460   91.439    0.260    5.050
  749.810  305.332   91.087    0.264    4.854
  750.060  314.246   96.286    0.267    4.771
  750.310  326.121   99.015    0.263    4.866
  750.560  335.561   95.951    0.264    5.024
  750.810  329.231   99.605    0.263    5.423
  751.060  311.326   92.415    0.255    5.797
  751.310  301.449   83.133    0.245    6.196
  751.560  271.782   79.081    0.258    6.869
  751.810  330.189   84.525    0.266    6.793
  752.060  312.485   88.178    0.263    6.399
  752.310  286.895   85.056    0.257    5.832
  752.560  309.221   85.137    0.257    5.515
  752.810  329.704   89.719    0.259    5.334
  753.060  317.585   90.843    0.254    5.276
  753.310  282.069   85.316    0.247    5.293
  753.560  269.820   78.064    0.248    5.464
  753.810  291.621   82.829    0.252    5.734
  754.060  328.208   89.871    0.252    5.907
  754.310  338.045   92.480    0.247    5.034
  754.560  329.082   88.861    0.241    4.712
  754.810  317.097   85.429    0.236    5.203
  755.060  318.255   86.374    0.228    5.997
  755.310  332.757   84.362    0.217    7.140
  755.560  333.456   77.600    0.203    8.264
  755.810  343.753   68.006    0.185    9.801
  756.060  353.259   54.902    0.173   12.205
  756.310  360.600   36.866    0.165   16.259
  756.560  366.231   27.769    0.159   20.921
  756.810  365.744   22.671    0.152   24.410
  757.060  357.901   23.364    0.150   25.303
  757.310  350.321   25.543    0.155   25.431
