~VERSION INFORMATION
 VERS.                 2.0:   CWLS LOG ASCII STANDARD -VERSION 2.0
 WRAP.                  NO:   ONE LINE PER DEPTH STEP
~WELL INFORMATION BLOCK
#MNEM.UNIT           DATA                    DESCRIPTION OF MNEMONIC
#---------    -------------------            -------------------------------
# Generated from Intellog Unique Number	CS_77_79/WELL/3268
WELL.         LOGAN RESOURCES LTD.           : Well_name    - WELL
LOC .         00/02-18-077-13W4/0            : Location     - LOCATION
UWI .         00/02-18-077-13W4/0            : Uwi          - UNIQUE WELL ID
ENTR.         JOETTE                         : Entered      - ENTERED BY
SRVC.         SCHLUMBERGER                   : Scn          - SERVICE COMPANY
DATE.         08/26/92                       : Date         - LOG DATE
STRT.M        295                            : top_depth    - START DEPTH
STOP.M        532                            : bot_depth    - STOP DEPTH
STEP.M        0.25                           : increment    - STEP LENGTH
 NULL. -999.2500:NULL Value
~CURVE INFORMATION BLOCK
#MNEM UNIT       ERCB CURVE CODE    CURVE DESCRIPTION
#-----------   ------------------   ----------------------------------
DEPT.M        00 001 00 00         : DEPTH        - DEPTH
ILD .OHMM     00 120 00 00         : RESD         - DEEP RESISTIVITY (DIL)
DPHI.V/V      00 890 00 00         : PHID         - DENSITY POROSITY (SANDSTONE)
NPHI.V/V      00 330 00 00         : PHIN         - NEUTRON POROSITY (SANDSTONE)
GR  .API      00 310 00 00         : GR           - GAMMA RAY
~PARAMETER INFORMATION
#MNEM.UNIT           DATA             DESCRIPTION OF MNEMONIC
#---------         -----------     ------------------------------
GL  .M        686.57               : gl           - GROUND LEVEL ELEVATION
EREF.M        690.17               : kb           - ELEVATION OF DEPTH REFERENCE
DATM.M        690.17               : datum        - DATUM ELEVATION
TDD .M        541                  : tdd          - TOTAL DEPTH DRILLER
RUN .         ONE                  : Run          - RUN NUMBER
ENG .         BILL                 : Engineer     - RECORDING ENGINEER
WIT .         JIM                  : Witness      - WITNESSED BY
MUD .         GEL                  : Mud_type     - MUD TYPE
MATR.         SANDSTONE            : Logunit      - NEUTRON MATRIX
TMAX.C        27                   : BHT          - MAXIMUM RECORDED TEMPERATURE
BHTD.M        541                  : BHTDEP       - MAXIMUM RECORDED TEMPERATURE
RMT .C        16                   : MDTP         - TEMPERATURE OF MUD
MUDD.KG/M     1190                 : MWT          - MUD DENSITY
NEUT.         1                    : NEUTRON      - NEUTRON TYPE
RESI.         0                    : RESIST       - RESISTIVITY TYPE
RM  .OHMM     4.25                 : RM           - RESISTIVITY OF MUD
RMC .OHMM     4.25                 : RMC          - RESISTIVITY OF MUD CAKE
RMF .OHMM     4.5                  : RMF          - RESISTIVITY OF MUD FILTRATE
SUFT.C        4                    : SUFT         - SURFACE TEMPERATURE
~A  DEPTH     RESD     PHID     PHIN       GR
# ...
  338.500    6.079    0.262    0.410  107.702
  338.750    6.933    0.264    0.403   95.166
  339.000    8.205    0.271    0.396   75.435
  339.250    9.182    0.363    0.400   64.085
  339.500   10.084    0.424    0.418   48.551
  339.750   11.505    0.387    0.474   40.798
  340.000   11.525    0.345    0.421   40.868
  340.250   11.330    0.324    0.382   38.511
  340.500   11.152    0.312    0.360   36.169
  340.750   10.957    0.308    0.356   44.033
  341.000   11.181    0.306    0.356   51.298
  341.250   11.414    0.314    0.349   47.770
  341.500   11.653    0.324    0.351   46.613
  341.750   11.891    0.337    0.357   46.669
  342.000   11.901    0.341    0.359   49.109
  342.250   11.927    0.351    0.363   50.378
  342.500   12.171    0.339    0.357   48.035
  342.750   12.198    0.341    0.364   45.093
  343.000   12.208    0.351    0.363   43.950
  343.250   12.463    0.358    0.353   46.404
  343.500   12.735    0.352    0.356   50.058
  343.750   12.751    0.341    0.362   54.325
  344.000   13.006    0.335    0.355   51.383
  344.250   13.023    0.330    0.346   52.651
  344.500   13.301    0.331    0.353   52.707
  344.750   13.561    0.334    0.356   50.936
  345.000   13.591    0.332    0.356   47.409
  345.250   13.614    0.325    0.351   47.465
  345.500   13.638    0.321    0.347   49.305
  345.750   13.656    0.324    0.354   52.373
  346.000   13.686    0.337    0.355   49.431
  346.250   13.460    0.348    0.355   47.688
  346.500   13.477    0.342    0.348   51.341
  346.750   12.551    0.340    0.345   47.800
  347.000   12.112    0.351    0.363   48.455
  347.250   11.906    0.361    0.364   52.108
  347.500   11.927    0.359    0.358   58.760
  347.750   11.097    0.350    0.357   52.220
  348.000   11.121    0.348    0.364   55.873
  348.250   11.348    0.359    0.376   57.156
  348.500   11.585    0.375    0.383   54.800
  348.750   12.037    0.370    0.382   52.471
  349.000   12.294    0.365    0.378   54.912
  349.250   12.305    0.359    0.381   59.179
  349.500   12.111    0.357    0.384   58.035
  349.750   11.905    0.357    0.375   55.079
  350.000   11.703    0.356    0.365   55.135
  350.250   11.308    0.360    0.370   59.988
  350.500   11.318    0.368    0.372   61.270
  350.750   11.136    0.360    0.375   67.308
  351.000   11.150    0.354    0.369   63.767
  351.250   11.170    0.349    0.362   59.026
  351.500   11.190    0.347    0.359   59.695
  351.750   11.209    0.348    0.367   57.339
  352.000   11.234    0.357    0.374   61.606
  352.250   11.258    0.372    0.379   60.448
  352.500   11.278    0.371    0.373   54.508
  352.750   11.942    0.340    0.369   55.763
  353.000   12.413    0.326    0.371   62.415
  353.250   12.666    0.298    0.380   67.281
  353.500   12.919    0.268    0.376   60.128
  353.750   12.705    0.249    0.389   52.403
  354.000   12.506    0.344    0.389   50.046
  354.250   12.517    0.361    0.383   51.301
  354.500   12.089    0.369    0.386   51.357
  354.750   11.894    0.363    0.384   54.425
  355.000   11.687    0.355    0.357   50.270
  355.250   11.293    0.350    0.353   41.945
  355.500   10.498    0.352    0.357   45.584
  355.750   10.521    0.363    0.364   50.451
  356.000   10.544    0.372    0.371   48.123
  356.250   10.553    0.367    0.378   45.166
  356.500   10.577    0.360    0.376   47.021
  356.750   10.600    0.359    0.379   50.075
  357.000   10.618    0.359    0.381   45.334
  357.250   10.637    0.358    0.379   46.017
  357.500   10.651    0.358    0.379   45.446
  357.750   10.675    0.359    0.380   43.103
  358.000   10.888    0.361    0.382   44.958
  358.250   11.327    0.357    0.380   45.013
  358.500   11.554    0.351    0.370   42.071
  358.750   11.569    0.354    0.364   43.926
  359.000   12.030    0.359    0.366   49.992
  359.250   12.046    0.347    0.367   51.846
  359.500   12.068    0.343    0.367   43.508
  359.750   12.099    0.344    0.368   43.564
  360.000   11.894    0.345    0.364   42.448
  360.250   11.909    0.346    0.363   44.275
  360.500   11.717    0.346    0.369   44.930
  360.750   11.738    0.342    0.374   42.602
  361.000   11.543    0.337    0.375   40.259
  361.250   11.352    0.334    0.372   41.500
  361.500   11.372    0.330    0.372   45.767
  361.750   11.193    0.325    0.371   43.425
  362.000   11.208    0.323    0.368   45.879
  362.250   11.228    0.337    0.365   41.737
  362.500   11.247    0.351    0.364   39.381
  362.750   11.267    0.363    0.372   35.240
  363.000   11.085    0.361    0.376   41.905
  363.250   11.095    0.358    0.377   43.760
  363.500   10.911    0.362    0.376   39.618
  363.750   10.935    0.365    0.373   38.489
  364.000   10.754    0.360    0.369   39.744
  364.250   10.773    0.353    0.368   42.784
  364.500   10.792    0.353    0.371   41.654
  364.750   10.806    0.368    0.374   38.099
  365.000   10.839    0.367    0.372   38.782
  365.250   10.849    0.366    0.368   40.009
  365.500   10.669    0.364    0.368   43.091
  365.750   10.688    0.365    0.370   41.362
  366.000   10.707    0.368    0.368   40.790
  366.250   10.725    0.369    0.367   41.446
  366.500   10.744    0.364    0.370   44.514
  366.750   10.763    0.364    0.367   42.185
  367.000   10.791    0.366    0.367   41.613
  367.250   10.801    0.378    0.369   38.071
  367.500   10.820    0.379    0.369   38.727
  367.750   10.839    0.368    0.369   42.994
  368.000   10.858    0.367    0.368   40.052
  368.250   10.882    0.369    0.367   37.695
  368.500   10.896    0.370    0.364   41.349
  368.750   10.920    0.371    0.363   46.215
  369.000   10.934    0.376    0.366   44.472
  369.250   10.561    0.384    0.367   44.528
  369.500   10.386    0.378    0.370   42.185
  369.750   10.032    0.373    0.369   41.042
  370.000    9.865    0.372    0.371   42.297
  370.250    9.883    0.372    0.373   41.753
  370.500    9.719    0.373    0.373   42.423
  370.750    9.736    0.379    0.373   43.664
  371.000    9.395    0.382    0.372   44.333
  371.250    9.240    0.377    0.372   43.190
  371.500    8.920    0.372    0.372   45.658
  371.750    8.776    0.369    0.373   45.114
  372.000    8.788    0.373    0.378   48.754
  372.250    8.642    0.379    0.382   47.025
  372.500    8.503    0.383    0.381   44.682
  372.750    8.673    0.381    0.380   47.123
  373.000    8.854    0.373    0.385   49.591
  373.250    8.391    0.371    0.391   51.459
  373.500    7.804    0.376    0.403   55.698
  373.750    8.421    0.384    0.403   52.770
  374.000    8.912    0.383    0.404   52.212
  374.250    9.800    0.377    0.389   54.667
  374.500   10.377    0.370    0.393   57.721
  374.750   11.405    0.367    0.400   61.374
  375.000   12.071    0.375    0.400   59.645
  375.250   13.256    0.379    0.398   60.900
  375.500   14.570    0.385    0.382   59.743
  375.750   15.440    0.346    0.335   56.201
  376.000   15.171    0.316    0.257   55.671
  376.250   13.361    0.288    0.198   59.924
  376.500   12.420    0.274    0.206   63.578
  376.750   10.934    0.278    0.232   66.645
  377.000    9.625    0.283    0.248   64.903
  377.250    8.791    0.284    0.301   64.944
  377.500    8.814    0.250    0.401   66.213
  377.750    8.987    0.207    0.371   60.859
  378.000    9.178    0.259    0.368   63.313
  378.250    9.186    0.349    0.396   68.180
  378.500    9.207    0.350    0.400   64.638
  378.750    9.054    0.349    0.406   64.694
  379.000    8.745    0.354    0.399   70.146
  379.250    8.760    0.352    0.392   69.602
  379.500    8.779    0.349    0.399   64.262
  379.750    8.955    0.347    0.403   67.316
  380.000    9.134    0.344    0.401   73.981
  380.250    9.324    0.317    0.401   72.824
  380.500    9.002    0.278    0.392   80.089
  380.750    8.372    0.244    0.391   69.338
  381.000    7.647    0.194    0.391   60.400
  381.250    7.115    0.213    0.409   57.457
  381.500    6.869    0.278    0.406   64.708
  381.750    6.884    0.298    0.399   76.171
