~VERSION INFORMATION
 VERS.                 2.0:   CWLS LOG ASCII STANDARD -VERSION 2.0
 WRAP.                  NO:   ONE LINE PER DEPTH STEP
~WELL INFORMATION BLOCK
#MNEM.UNIT           DATA                    DESCRIPTION OF MNEMONIC
#---------    -------------------            -------------------------------
# Generated from Intellog Unique Number	CX_WELLS/WELL/1061
WELL.         06-12-088-17W4                 : Well_name    - WELL
LOC .         00/06-12-088-17W4/0            : Location     - LOCATION
UWI .         00/06-12-088-17W400            : Uwi          - UNIQUE WELL ID
ENTR.         DW                             : Entered      - ENTERED BY
SRVC.         SCHLUMBERGER                   : Scn          - SERVICE COMPANY
STRT.M        100                            : top_depth    - START DEPTH
STOP.M        244                            : bot_depth    - STOP DEPTH
STEP.M        0.25                           : increment    - STEP LENGTH
 NULL. -999.2500:NULL Value
~CURVE INFORMATION BLOCK
#MNEM UNIT       ERCB CURVE CODE    CURVE DESCRIPTION
#-----------   ------------------   ----------------------------------
DEPT.M        00 001 00 00         : DEPTH        - DEPTH
GR  .API      00 310 00 00         : GR           - GAMMA RAY
NPHI.V/V      00 330 00 00         : PHIN         - NEUTRON POROSITY (SANDSTONE)
DPHI.V/V      00 890 00 00         : PHID         - DENSITY POROSITY (SANDSTONE)
ILD .OHMM     00 120 00 00         : RESD         - DEEP RESISTIVITY (DIL)
~PARAMETER INFORMATION
#MNEM.UNIT           DATA             DESCRIPTION OF MNEMONIC
#---------         -----------     ------------------------------
GL  .M        534.8                : gl           - GROUND LEVEL ELEVATION
EREF.M        538.3                : kb           - ELEVATION OF DEPTH REFERENCE
DATM.M        538.3                : datum        - DATUM ELEVATION
TDD .M        247                  : tdd          - TOTAL DEPTH DRILLER
RUN .         ONE                  : Run          - RUN NUMBER
ENG .         BILL                 : Engineer     - RECORDING ENGINEER
WIT .         JIM                  : Witness      - WITNESSED BY
MUD .         GEL                  : Mud_type     - MUD TYPE
MATR.         SANDSTONE            : Logunit      - NEUTRON MATRIX
TMAX.C        22                   : BHT          - MAXIMUM RECORDED TEMPERATURE
BHTD.M        247                  : BHTDEP       - MAXIMUM RECORDED TEMPERATURE
MATR.         1                    : LOGUNIT      - NEUTRON MATRIX
RMT .C        25                   : MDTP         - TEMPERATURE OF MUD
NEUT.         1                    : NEUTRON      - NEUTRON TYPE
RESI.         0                    : RESIST       - RESISTIVITY TYPE
RMC .OHMM     0.25                 : RMC          - RESISTIVITY OF MUD CAKE
RMF .OHMM     0.25                 : RMF          - RESISTIVITY OF MUD FILTRATE
SUFT.C        15                   : SUFT         - SURFACE TEMPERATURE
~A  DEPTH       GR     PHIN     PHID     RESD
# ...
  143.500   72.343    0.427    0.229   13.031
  143.750   71.211    0.365    0.209   14.583
  144.000   70.038    0.233    0.142   16.332
  144.250   67.701    0.215    0.081   16.967
  144.500   65.344    0.200    0.033   17.303
  144.750   62.400    0.193    0.018   17.988
  145.000   59.456    0.196    0.027   18.357
  145.250   58.303    0.205    0.036   18.033
  145.500   59.538    0.231    0.064   17.083
  145.750   69.142    0.287    0.091   15.033
  146.000   74.576    0.359    0.159   14.241
  146.250   73.403    0.401    0.196   13.747
  146.500   70.459    0.430    0.187   14.014
  146.750   66.918    0.365    0.147   15.119
  147.000   60.403    0.192    0.100   16.610
  147.250   58.643    0.146    0.011   18.582
  147.500   61.679    0.135   -0.010   21.589
  147.750   64.695    0.199    0.000   21.620
  148.000   70.706    0.266    0.027   19.367
  148.250   76.717    0.331    0.058   15.244
  148.500   78.549    0.348    0.072   12.922
  148.750   77.407    0.373    0.206   11.584
  149.000   75.657    0.362    0.221   11.600
  149.250   77.489    0.337    0.213   11.617
  149.500   79.331    0.381    0.214   11.630
  149.750   81.163    0.419    0.219   11.646
  150.000   81.791    0.384    0.226   11.671
  150.250   82.430    0.394    0.230   11.907
  150.500   83.068    0.420    0.233   11.919
  150.750   83.119    0.398    0.238   11.941
  151.000   82.563    0.412    0.242   11.954
  151.250   82.615    0.429    0.241   11.971
  151.500   82.038    0.441    0.238   11.984
  151.750   80.885    0.410    0.226   12.009
  152.000   79.733    0.374    0.196   12.022
  152.250   79.177    0.356    0.196   11.823
  152.500   81.019    0.350    0.197   11.614
  152.750   84.035    0.360    0.202   11.208
  153.000   90.653    0.371    0.209   10.820
  153.250   94.287    0.380    0.214   10.250
  153.500   96.119    0.403    0.216    9.528
  153.750   97.951    0.434    0.220    8.698
  154.000   99.176    0.454    0.221    7.797
  154.250   99.814    0.459    0.220    7.383
  154.500   99.855    0.410    0.216    7.125
  154.750   97.508    0.403    0.204    7.007
  155.000   91.579    0.392    0.151    7.146
  155.250   91.034    0.395    0.149    7.565
  155.500   91.075    0.439    0.167    8.161
  155.750   90.519    0.456    0.206    8.969
  156.000   88.172    0.468    0.205    9.143
  156.250   84.621    0.436    0.202    9.505
  156.500   80.483    0.396    0.216    9.173
  156.750   80.524    0.409    0.239    9.017
  157.000   87.730    0.352    0.229    8.861
  157.250   96.139    0.361    0.209    8.400
  157.500  103.941    0.401    0.195    8.252
  157.750  112.340    0.400    0.185    7.679
  158.000  119.545    0.398    0.159    7.408
  158.250  122.592    0.416    0.172    7.015
  158.500  122.026    0.439    0.180    6.406
  158.750  120.873    0.457    0.188    6.069
  159.000  106.586    0.473    0.188    5.968
  159.250  103.035    0.409    0.175    6.084
  159.500   94.121    0.354    0.153    6.211
  159.750  104.311    0.363    0.184    6.332
  160.000  116.899    0.388    0.222    6.705
  160.250  118.135    0.395    0.233    7.096
  160.500  119.380    0.378    0.193    7.799
  160.750  122.396    0.366    0.126    8.408
  161.000  120.646    0.374    0.147    9.947
  161.250  102.777    0.384    0.188   11.556
  161.500   92.659    0.397    0.206   12.472
  161.750   85.547    0.407    0.216   12.956
  162.000   90.353    0.377    0.191   13.213
  162.250   96.972    0.373    0.184   13.479
  162.500   97.013    0.381    0.149   13.751
  162.750   97.054    0.391    0.114   13.775
  163.000   97.692    0.388    0.137   13.537
  163.250   97.136    0.399    0.165   13.562
  163.500   96.581    0.402    0.198   13.576
  163.750   95.428    0.399    0.225   13.605
  164.000   92.484    0.400    0.230   13.625
  164.250   89.550    0.398    0.232   13.635
  164.500   90.188    0.393    0.238   13.919
  164.750   90.230    0.391    0.243   14.190
  165.000   90.868    0.390    0.206   14.210
  165.250   92.093    0.396    0.187   14.497
  165.500   93.935    0.401    0.172   14.517
  165.750   94.573    0.407    0.166   14.277
  166.000   95.808    0.411    0.173   14.030
  166.250   96.446    0.436    0.182   13.290
  166.500   97.692    0.451    0.194   12.830
  166.750   98.320    0.466    0.206   12.381
  167.000   98.968    0.418    0.208   11.948
  167.250   99.596    0.386    0.200   11.965
  167.500   99.647    0.360    0.193   11.978
  167.750   97.897    0.368    0.194   12.000
  168.000   92.555    0.401    0.214   12.012
  168.250   87.224    0.414    0.231   12.030
  168.500   83.683    0.377    0.205   12.047
  168.750   80.132    0.412    0.174   12.290
  169.000   76.591    0.431    0.255   12.542
  169.250   74.244    0.414    0.291   13.039
  169.500   73.091    0.396    0.262   13.297
  169.750   74.347    0.398    0.241   13.560
  170.000   76.168    0.405    0.248   13.843
  170.250   76.210    0.414    0.259   14.122
  170.500   74.470    0.412    0.259   14.143
  170.750   72.123    0.382    0.229   13.903
  171.000   70.960    0.290    0.209   13.923
  171.250   71.598    0.196    0.178   13.938
  171.500   75.818    0.204    0.081   13.707
  171.750   81.840    0.314    0.167   13.479
  172.000   86.049    0.423    0.157   13.241
  172.250   87.882    0.432    0.131   12.778
  172.500   89.724    0.434    0.131   12.796
  172.750   87.974    0.388    0.149   12.580
  173.000   86.235    0.381    0.152   11.702
  173.250   85.668    0.388    0.144   11.293
  173.500   85.123    0.400    0.203   11.516
  173.750   84.567    0.421    0.236   11.753
  174.000   84.618    0.414    0.251   12.209
  174.250   84.639    0.400    0.227   12.688
  174.500   86.481    0.385    0.212   12.711
  174.750   88.921    0.389    0.216   12.725
  175.000   90.135    0.398    0.206   12.752
  175.250   91.968    0.404    0.203   12.527
  175.500   93.800    0.395    0.204   12.315
  175.750   95.035    0.367    0.208   11.674
  176.000   95.683    0.377    0.214   11.468
  176.250   92.750    0.390    0.204   11.067
  176.500   90.382    0.390    0.205   10.684
  176.750   85.647    0.355    0.205   10.503
  177.000   79.122    0.332    0.182   10.139
  177.250   73.193    0.316    0.142   10.146
  177.500   70.249    0.289    0.052   10.544
  177.750   73.872    0.265    0.051   10.962
  178.000   79.883    0.293    0.078   11.392
  178.250   87.695    0.327    0.107   11.843
  178.500   92.513    0.354    0.163   11.851
  178.750  100.315    0.380    0.201   10.620
  179.000  109.311    0.410    0.225    8.837
  179.250  113.551    0.425    0.243    7.084
  179.500  112.996    0.442    0.242    5.373
  179.750  112.440    0.472    0.239    4.389
  180.000  112.481    0.471    0.232    4.315
  180.250  110.721    0.466    0.221    4.653
  180.500  106.583    0.448    0.213    5.928
  180.750  103.649    0.411    0.206    8.137
  181.000  104.277    0.394    0.197    9.106
  181.250  103.721    0.367    0.159   10.191
  181.500   98.987    0.345    0.103   11.410
  181.750   98.431    0.372    0.102   11.853
  182.000  101.457    0.402    0.146   12.553
  182.250  105.080    0.411    0.167   12.571
  182.500  105.718    0.379    0.194   12.824
  182.750  102.784    0.349    0.158   12.842
  183.000  100.427    0.332    0.098   12.620
  183.250  103.453    0.333    0.112   12.643
  183.500  108.878    0.394    0.136   12.657
  183.750  111.297    0.408    0.189   12.442
  184.000  109.547    0.398    0.196   12.460
  184.250  106.027    0.376    0.198   12.482
  184.500  105.450    0.363    0.205   12.496
  184.750  104.915    0.339    0.202   12.518
  185.000  104.349    0.331    0.204   12.536
  185.250  102.599    0.340    0.208   13.033
  185.500  102.033    0.365    0.213   13.295
  185.750  100.880    0.392    0.216   14.075
  186.000   99.130    0.406    0.215   14.901
  186.250   97.998    0.418    0.213   15.196
  186.500   96.835    0.387    0.194   16.093
  186.750   93.901    0.300    0.154   16.411
