~VERSION INFORMATION
 VERS.                 2.0:   CWLS LOG ASCII STANDARD -VERSION 2.0
 WRAP.                  NO:   ONE LINE PER DEPTH STEP
~WELL INFORMATION BLOCK
#MNEM.UNIT           DATA                    DESCRIPTION OF MNEMONIC
#---------    -------------------            -------------------------------
# Generated from Intellog Unique Number	CS_73_76/WELL/2103
WELL.         07-08-076-12W4                 : Well_name    - WELL
LOC .         00/07-08-076-12W4/0            : Location     - LOCATION
UWI .         00/07-08-076-12W4/0            : Uwi          - UNIQUE WELL ID
ENTR.         SP                             : Entered      - ENTERED BY
SRVC.         SCHLUMBERGER                   : Scn          - SERVICE COMPANY
STRT.M        329.184                        : top_depth    - START DEPTH
STOP.M        566.684                        : bot_depth    - STOP DEPTH
STEP.M        0.25                           : increment    - STEP LENGTH
 NULL. -999.2500:NULL Value
~CURVE INFORMATION BLOCK
#MNEM UNIT       ERCB CURVE CODE    CURVE DESCRIPTION
#-----------   ------------------   ----------------------------------
DEPT.M        00 001 00 00         : DEPTH        - DEPTH
GR  .API      00 310 00 00         : GR           - GAMMA RAY
DPHI.V/V      00 890 00 00         : PHID         - DENSITY POROSITY (SANDSTONE)
NPHI.V/V      00 330 00 00         : PHIN         - NEUTRON POROSITY (SANDSTONE)
ILD .OHMM     00 120 00 00         : RESD         - DEEP RESISTIVITY (DIL)
~PARAMETER INFORMATION
#MNEM.UNIT           DATA             DESCRIPTION OF MNEMONIC
#---------         -----------     ------------------------------
GL  .M        709.879              : gl           - GROUND LEVEL ELEVATION
EREF.M        713.842              : kb           - ELEVATION OF DEPTH REFERENCE
DATM.M        709.879              : datum        - DATUM ELEVATION
TDD .M        585.216              : tdd          - TOTAL DEPTH DRILLER
RUN .         ONE                  : Run          - RUN NUMBER
ENG .         BILL                 : Engineer     - RECORDING ENGINEER
WIT .         JIM                  : Witness      - WITNESSED BY
MUD .         GEL                  : Mud_type     - MUD TYPE
MATR.         SANDSTONE            : Logunit      - NEUTRON MATRIX
TMAX.C        32.2222              : BHT          - MAXIMUM RECORDED TEMPERATURE
BHTD.M        585.216              : BHTDEP       - MAXIMUM RECORDED TEMPERATURE
MATR.         1                    : LOGUNIT      - NEUTRON MATRIX
RMT .C        25                   : MDTP         - TEMPERATURE OF MUD
NEUT.         1                    : NEUTRON      - NEUTRON TYPE
RESI.         0                    : RESIST       - RESISTIVITY TYPE
RMC .OHMM     0.25                 : RMC          - RESISTIVITY OF MUD CAKE
RMF .OHMM     0.25                 : RMF          - RESISTIVITY OF MUD FILTRATE
SUFT.C        15                   : SUFT         - SURFACE TEMPERATURE
~A  DEPTH       GR     PHID     PHIN     RESD
# ...
  372.684   93.896    0.227    0.517    9.596
  372.934   98.635    0.257    0.520    8.728
  373.184  103.406    0.254    0.513    8.259
  373.434  106.769    0.237    0.503    7.479
  373.684  104.932    0.240    0.505    7.287
  373.934  102.478    0.253    0.514    7.896
  374.184   98.146    0.267    0.504    8.360
  374.434   92.064    0.275    0.489    9.044
  374.684   88.065    0.269    0.502    9.728
  374.934   84.073    0.261    0.495   10.195
  375.184   80.248    0.261    0.495   10.690
  375.434   80.111    0.281    0.512   11.101
  375.684   85.922    0.291    0.510   11.550
  375.934   89.084    0.269    0.502   11.777
  376.184   90.116    0.261    0.495   11.571
  376.434   90.435    0.261    0.499   10.694
  376.684   91.186    0.240    0.489    9.715
  376.934   93.349    0.216    0.482    8.655
  377.184   95.721    0.196    0.496    7.581
  377.434   98.302    0.226    0.495    7.065
  377.684  100.030    0.220    0.481    6.891
  377.934   99.971    0.235    0.510    6.997
  378.184   95.604    0.252    0.529    7.590
  378.434   86.554    0.283    0.523    8.058
  378.684   80.694    0.310    0.502    8.618
  378.934   76.835    0.291    0.495    8.208
  379.184   78.490    0.262    0.527    7.988
  379.434   80.191    0.255    0.555    8.095
  379.684   67.404    0.300    0.537    8.342
  379.934   50.274    0.325    0.462    8.760
  380.184   47.795    0.305    0.436   10.147
  380.434   50.069    0.312    0.433   11.289
  380.684   52.521    0.328    0.449   13.258
  380.934   53.251    0.333    0.465   14.555
  381.184   53.355    0.325    0.460   15.551
  381.434   54.827    0.316    0.456   15.737
  381.684   56.412    0.312    0.470   16.050
  381.934   57.965    0.334    0.478   16.366
  382.184   58.410    0.340    0.488   16.309
  382.434   57.630    0.347    0.482   16.652
  382.684   56.673    0.339    0.471   16.962
  382.934   57.066    0.330    0.475   17.171
  383.184   58.164    0.334    0.485   17.240
  383.434   60.754    0.332    0.488   17.584
  383.684   62.773    0.342    0.492   17.595
  383.934   61.759    0.351    0.501   17.660
  384.184   59.758    0.345    0.492   17.927
  384.434   58.242    0.346    0.483   17.922
  384.684   59.010    0.348    0.479   17.921
  384.934   59.423    0.346    0.480   17.924
  385.184   60.287    0.341    0.486   17.952
  385.434   58.832    0.348    0.495   17.583
  385.684   57.255    0.338    0.507   17.603
  385.934   57.357    0.346    0.507   17.593
  386.184   57.721    0.347    0.483   17.599
  386.434   58.683    0.340    0.468   17.259
  386.684   59.499    0.335    0.468   17.299
  386.934   60.041    0.325    0.468   16.985
  387.184   60.041    0.316    0.466   16.977
  387.434   59.998    0.319    0.467   16.970
  387.684   58.404    0.327    0.471   16.976
  387.934   57.374    0.328    0.468   17.115
  388.184   56.397    0.329    0.455   17.251
  388.434   56.806    0.322    0.449   16.959
  388.684   58.468    0.321    0.457   16.971
  388.934   60.040    0.332    0.469   16.974
  389.184   61.974    0.324    0.478   16.975
  389.434   63.749    0.330    0.487   16.976
  389.684   64.754    0.322    0.474   16.977
  389.934   62.516    0.328    0.453   16.968
  390.184   61.006    0.325    0.456   16.913
  390.434   61.115    0.318    0.448   16.659
  390.684   61.108    0.324    0.468   16.510
  390.934   61.130    0.326    0.485   16.386
  391.184   62.677    0.312    0.488   16.113
  391.434   63.970    0.317    0.479   15.974
  391.684   65.280    0.326    0.474   15.471
  391.934   66.296    0.332    0.478   14.990
  392.184   67.719    0.324    0.486   14.946
  392.434   71.795    0.327    0.480   14.940
  392.684   73.959    0.323    0.468   14.916
  392.934   71.591    0.312    0.458   15.300
  393.184   68.279    0.308    0.448   15.778
  393.434   66.046    0.299    0.454   15.961
  393.684   63.701    0.309    0.445   16.125
  393.934   62.834    0.309    0.439   16.387
  394.184   61.793    0.314    0.446   16.387
  394.434   61.565    0.319    0.455   16.404
  394.684   63.069    0.316    0.456   16.925
  394.934   64.286    0.305    0.443   17.447
  395.184   66.985    0.295    0.440   17.985
  395.434   69.063    0.290    0.449   18.886
  395.684   70.728    0.285    0.456   19.461
  395.934   71.023    0.282    0.474   19.679
  396.184   70.181    0.285    0.480   19.932
  396.434   66.782    0.298    0.474   20.190
  396.684   62.758    0.311    0.465   21.122
  396.934   61.014    0.321    0.451   22.035
  397.184   60.236    0.326    0.458   21.958
  397.434   60.184    0.329    0.479   20.567
  397.684   60.174    0.311    0.476   19.417
  397.934   60.159    0.307    0.470   18.264
  398.184   60.211    0.308    0.487   16.889
  398.434   59.496    0.311    0.494   16.288
  398.684   59.542    0.311    0.483   16.103
  398.934   59.757    0.265    0.446   17.605
  399.184   58.324    0.173    0.401   19.637
  399.434   54.789    0.005    0.170   22.282
  399.684   52.349   -0.002    0.150   24.646
  399.934   52.768   -0.007    0.189   26.982
  400.184   56.322    0.166    0.335   26.546
  400.434   57.651    0.230    0.442   23.636
  400.684   58.930    0.291    0.489   20.505
  400.934   59.450    0.336    0.494   18.206
  401.184   59.404    0.343    0.499   15.784
  401.434   59.375    0.341    0.494   14.944
  401.684   58.853    0.337    0.499   13.821
  401.934   57.120    0.334    0.498   13.657
  402.184   55.787    0.336    0.500   13.903
  402.434   57.482    0.342    0.498   14.290
  402.684   59.593    0.340    0.503   15.002
  402.934   59.404    0.348    0.516   15.211
  403.184   58.333    0.349    0.518   15.682
  403.434   58.011    0.345    0.510   16.173
  403.684   58.012    0.345    0.491   16.395
  403.934   58.303    0.340    0.478   16.894
  404.184   59.340    0.334    0.476   17.042
  404.434   60.315    0.327    0.489   17.320
  404.684   61.337    0.332    0.483   17.700
  404.934   60.988    0.327    0.487   17.663
  405.184   58.447    0.331    0.497   17.967
  405.434   55.792    0.329    0.508   18.328
  405.684   57.325    0.329    0.483   18.646
  405.934   58.712    0.330    0.475   18.867
  406.184   57.846    0.316    0.476   19.061
  406.434   56.846    0.304    0.489   19.369
  406.684   55.505    0.329    0.495   19.542
  406.934   54.966    0.325    0.496   19.707
  407.184   55.462    0.327    0.495   19.715
  407.434   55.761    0.324    0.494   19.716
  407.684   56.090    0.298    0.488   19.716
  407.934   55.443    0.296    0.495   19.717
  408.184   56.368    0.297    0.500   19.718
  408.434   56.692    0.310    0.504   19.718
  408.684   57.716    0.318    0.491   19.722
  408.934   57.809    0.323    0.484   19.741
  409.184   58.439    0.328    0.485   19.385
  409.434   57.557    0.329    0.486   19.372
  409.684   55.946    0.320    0.482   19.365
  409.934   56.001    0.315    0.491   19.365
  410.184   56.972    0.319    0.500   19.368
  410.434   57.240    0.322    0.493   19.375
  410.684   57.867    0.323    0.472   19.088
  410.934   57.060    0.319    0.464   19.019
  411.184   57.766    0.325    0.475   19.009
  411.434   58.130    0.327    0.485   18.639
  411.684   59.318    0.319    0.488   18.567
  411.934   60.666    0.306    0.497   18.339
  412.184   62.921    0.312    0.506   17.762
  412.434   64.686    0.308    0.507   17.622
  412.684   68.060    0.303    0.507   17.325
  412.934   74.415    0.297    0.497   17.558
  413.184   78.654    0.300    0.500   16.965
  413.434   82.818    0.284    0.486   15.931
  413.684   79.553    0.227    0.443   15.433
  413.934   72.720    0.161    0.388   14.971
  414.184   72.709    0.119    0.448   14.506
  414.434   78.250    0.276    0.520   14.460
  414.684   84.504    0.307    0.513   14.456
  414.934   86.431    0.295    0.511   14.613
  415.184   84.303    0.288    0.513   15.074
  415.434   81.272    0.294    0.514   15.537
  415.684   88.778    0.298    0.501   16.044
  415.934   93.349    0.282    0.486   16.187
