~VERSION INFORMATION
 VERS.                 2.0:   CWLS LOG ASCII STANDARD -VERSION 2.0
 WRAP.                  NO:   ONE LINE PER DEPTH STEP
~WELL INFORMATION BLOCK
#MNEM.UNIT           DATA                    DESCRIPTION OF MNEMONIC
#---------    -------------------            -------------------------------
# Generated from Intellog Unique Number	CS_77_79/WELL/853
WELL.         CANADIAN OCCIDENTAL            : Well_name    - WELL
LOC .         00/05-06-077-02W4/0            : Location     - LOCATION
UWI .         00/05-06-077-02W4/0            : Uwi          - UNIQUE WELL ID
ENTR.         SP                             : Entered      - ENTERED BY
SRVC.         SCHLUMBERGER                   : Scn          - SERVICE COMPANY
STRT.M        243.84                         : top_depth    - START DEPTH
STOP.M        527.09                         : bot_depth    - STOP DEPTH
STEP.M        0.25                           : increment    - STEP LENGTH
 NULL. -999.2500:NULL Value
~CURVE INFORMATION BLOCK
#MNEM UNIT       ERCB CURVE CODE    CURVE DESCRIPTION
#-----------   ------------------   ----------------------------------
DEPT.M        00 001 00 00         : DEPTH        - DEPTH
GR  .API      00 310 00 00         : GR           - GAMMA RAY
DPHI.V/V      00 890 00 00         : PHID         - DENSITY POROSITY (SANDSTONE)
NPHI.V/V      00 330 00 00         : PHIN         - NEUTRON POROSITY (SANDSTONE)
ILD .OHMM     00 120 00 00         : RESD         - DEEP RESISTIVITY (DIL)
~PARAMETER INFORMATION
#MNEM.UNIT           DATA             DESCRIPTION OF MNEMONIC
#---------         -----------     ------------------------------
GL  .M        612.648              : gl           - GROUND LEVEL ELEVATION
EREF.M        615.696              : kb           - ELEVATION OF DEPTH REFERENCE
DATM.M        612.648              : datum        - DATUM ELEVATION
TDD .M        536.448              : tdd          - TOTAL DEPTH DRILLER
RUN .         ONE                  : Run          - RUN NUMBER
ENG .         BILL                 : Engineer     - RECORDING ENGINEER
WIT .         JIM                  : Witness      - WITNESSED BY
MUD .         GEL                  : Mud_type     - MUD TYPE
MATR.         SANDSTONE            : Logunit      - NEUTRON MATRIX
TMAX.C        23.8889              : BHT          - MAXIMUM RECORDED TEMPERATURE
BHTD.M        536.448              : BHTDEP       - MAXIMUM RECORDED TEMPERATURE
MATR.         1                    : LOGUNIT      - NEUTRON MATRIX
RMT .C        25                   : MDTP         - TEMPERATURE OF MUD
NEUT.         1                    : NEUTRON      - NEUTRON TYPE
RESI.         0                    : RESIST       - RESISTIVITY TYPE
RMC .OHMM     0.25                 : RMC          - RESISTIVITY OF MUD CAKE
RMF .OHMM     0.25                 : RMF          - RESISTIVITY OF MUD FILTRATE
SUFT.C        15                   : SUFT         - SURFACE TEMPERATURE
~A  DEPTH       GR     PHID     PHIN     RESD
# ...
  504.840  107.551    0.028    0.568    5.006
  505.090  111.122    0.085    0.577    4.730
  505.340  105.840    0.205    0.559    4.657
  505.590  105.369    0.214    0.544    4.902
  505.840  105.731    0.210    0.534    5.048
  506.090  106.686    0.189    0.527    5.141
  506.340  107.635    0.202    0.541    5.176
  506.590  109.909    0.245    0.560    5.240
  506.840  115.230    0.237    0.522    5.185
  507.090  122.056    0.193    0.479    5.004
  507.340  126.911    0.152    0.446    4.884
  507.590  133.488    0.146    0.495    4.943
  507.840  134.058    0.165    0.515    4.978
  508.090  132.164    0.175    0.508    5.074
  508.340  129.866    0.161    0.509    5.085
  508.590  125.907    0.160    0.498    5.092
  508.840  122.375    0.153    0.489    5.098
  509.090  122.702    0.155    0.482    5.093
  509.340  106.018    0.183    0.470    5.205
  509.590   95.435    0.200    0.448    5.280
  509.840   90.371    0.210    0.422    5.334
  510.090  100.239    0.200    0.419    5.513
  510.340  124.649    0.183    0.454    5.654
  510.590  112.563    0.163    0.397    5.814
  510.840  103.527    0.165    0.360    5.406
  511.090   94.917    0.176    0.334    5.773
  511.340  111.871    0.171    0.343    5.872
  511.590  127.808    0.149    0.397    5.881
  511.840  119.056    0.170    0.439    5.878
  512.090  110.830    0.208    0.483    5.745
  512.340  115.545    0.288    0.609    5.398
  512.590  129.473    0.416    0.567    5.132
  512.840  129.378    0.354    0.540    4.815
  513.090  119.637    0.292    0.477    4.675
  513.340  120.340    0.224    0.454    4.560
  513.590  159.266    0.278    0.549    4.573
  513.840  151.728    0.324    0.583    4.634
  514.090  147.799    0.253    0.592    4.697
  514.340  142.511    0.256    0.596    4.921
  514.590  134.995    0.270    0.571    5.184
  514.840  119.591    0.259    0.545    5.335
  515.090  105.874    0.221    0.516    5.513
  515.340   83.796    0.189    0.490    5.551
  515.590   52.730    0.164    0.337    5.098
  515.840   45.139    0.183    0.303    4.260
  516.090   56.375    0.224    0.323    4.222
  516.340   96.263    0.245    0.370    4.218
  516.590  118.100    0.241    0.527    4.499
  516.840  128.182    0.234    0.587    4.691
  517.090  133.116    0.251    0.561    5.154
  517.340  133.695    0.239    0.530    5.632
  517.590  130.377    0.202    0.495    6.287
  517.840  127.578    0.139    0.434    6.868
  518.090  123.841    0.130    0.397    7.650
  518.340  116.910    0.115    0.373    8.104
  518.590  103.078    0.096    0.356    8.346
  518.840   92.883    0.089    0.351    8.575
  519.090   83.538    0.078    0.345    8.398
  519.340   75.695    0.147    0.335    8.153
  519.590   63.903    0.193    0.326    7.870
  519.840   56.568    0.218    0.363    6.910
  520.090   50.898    0.231    0.373    6.116
  520.340   48.579    0.230    0.376    5.701
  520.590   49.426    0.217    0.354    5.453
  520.840   63.291    0.197    0.348    5.417
  521.090  104.280    0.173    0.388    5.933
  521.340  113.928    0.156    0.449    6.698
  521.590  109.241    0.137    0.463    7.367
  521.840  101.295    0.122    0.468    8.262
  522.090   88.477    0.097    0.422    9.978
  522.340   67.353    0.071    0.387   11.126
  522.590   39.622    0.055    0.331   13.005
  522.840   34.434    0.073    0.255   14.734
  523.090   29.948    0.087    0.217   15.891
  523.340   29.143    0.060    0.203   16.804
  523.590   29.612    0.039    0.198   18.061
  523.840   33.129    0.017    0.193   18.569
  524.090   35.954   -0.000    0.196   19.160
  524.340   39.517    0.014    0.204   18.877
  524.590   43.908    0.011    0.201   18.564
  524.840   48.404    0.002    0.195   18.573
  525.090   52.208    0.000    0.194   18.617
  525.340   55.416    0.000    0.198   18.264
  525.590   58.402    0.005    0.206   18.302
  525.840   60.332    0.003    0.224   18.317
  526.090   57.777    0.019    0.237   18.323
  526.340   56.168    0.029    0.225   18.907
  526.590   55.300    0.039    0.203   19.515
  526.840   55.344    0.033    0.194   19.770
  527.090   55.086    0.018    0.193   20.403
