~VERSION INFORMATION
 VERS.                 2.0:   CWLS LOG ASCII STANDARD -VERSION 2.0
 WRAP.                  NO:   ONE LINE PER DEPTH STEP
~WELL INFORMATION BLOCK
#MNEM.UNIT           DATA                    DESCRIPTION OF MNEMONIC
#---------    -------------------            -------------------------------
# Generated from Intellog Unique Number	CC_80_83/WELL/1170
NULL.         -999.25                        : NULL_VALUE
WELL.         CHEVRON CDN-SUP ALGAR          : Well_name    - WELL
LOC .         06-36-082-16W4                 : Location     - LOCATION          
UWI .         00/06-36-082-16W400            : Uwi          - UNIQUE WELL ID    
ENTR.         DW                             : Entered      - ENTERED BY        
SRVC.         SCHLUMBERGER                   : Scn          - SERVICE COMPANY   
DATE.         17 MAR 74                      : Date         - LOG DATE
STRT.M        97.536                         : top_depth    - START DEPTH       
STOP.M        289.559                        : bot_depth    - STOP DEPTH        
STEP.M        0.3048                         : increment    - STEP LENGTH       
~CURVE INFORMATION BLOCK
#MNEM UNIT       ERCB CURVE CODE    CURVE DESCRIPTION
#-----------   ------------------   ----------------------------------
DEPT.M        00 001 00 00         : DEPTH        - DEPTH                       
DPHI.V/V      00 890 00 00         : PHID         - DENSITY POROSITY (LIMESTONE)
NPHI.V/V      00 330 00 00         : PHIN         - NEUTRON POROSITY (LIMESTONE)
GR  .API      00 310 00 00         : GR           - GAMMA RAY                   
ILD .OHMM     00 120 00 00         : RESD         - DEEP RESISTIVITY (DIL)      
~PARAMETER INFORMATION       
#MNEM.UNIT           DATA             DESCRIPTION OF MNEMONIC
#---------         -----------     ------------------------------
GL  .M        545.592              : gl           - GROUND LEVEL ELEVATION      
EREF.M        549.25               : kb           - ELEVATION OF DEPTH REFERENCE
DATM.M        549.25               : datum        - DATUM ELEVATION             
TDD .M        289.56               : tdd          - TOTAL DEPTH DRILLER         
RUN .         ONE                  : Run          - RUN NUMBER                  
ENG .         BILL                 : Engineer     - RECORDING ENGINEER          
WIT .         JIM                  : Witness      - WITNESSED BY                
MUD .         GEL                  : Mud_type     - MUD TYPE                    
MATR.         LIMESTONE            : Logunit      - NEUTRON MATRIX              
TMAX.C        23.3333              : BHT          - MAXIMUM RECORDED TEMPERATURE
BHTD.M        289.56               : BHTDEP       - MAXIMUM RECORDED TEMPERATURE
MATR.         1                    : LOGUNIT      - NEUTRON MATRIX              
RMT .C        25                   : MDTP         - TEMPERATURE OF MUD          
NEUT.         1                    : NEUTRON      - NEUTRON TYPE                
RESI.         0                    : RESIST       - RESISTIVITY TYPE            
RMC .OHMM     0.25                 : RMC          - RESISTIVITY OF MUD CAKE     
RMF .OHMM     0.25                 : RMF          - RESISTIVITY OF MUD FILTRATE 
SUFT.C        15                   : SUFT         - SURFACE TEMPERATURE         
~A  DEPTH     PHID     PHIN       GR     RESD
# ...
  203.605    0.331    0.520   70.238    8.727
  203.910    0.335    0.541   71.429    8.732
  204.215    0.338    0.552   73.214    8.735
  204.520    0.335    0.540   75.000    8.581
  204.824    0.317    0.517   75.000    8.273
  205.129    0.312    0.497   74.405    7.686
  205.434    0.318    0.477   74.405    7.410
  205.739    0.301    0.491   76.191    7.146
  206.044    0.287    0.510   77.976    7.150
  206.348    0.300    0.513   77.976    7.023
  206.653    0.318    0.523   78.571    7.028
  206.958    0.292    0.529   79.762    6.902
  207.263    0.260    0.515   82.143    6.413
  207.568    0.282    0.501   83.929    5.957
  207.872    0.271    0.503   83.929    5.535
  208.177    0.255    0.503   81.548    5.338
  208.482    0.244    0.504   81.548    5.340
  208.787    0.237    0.517   86.905    5.342
  209.091    0.259    0.531   95.833    5.758
  209.396    0.252    0.538   98.214    6.561
  209.701    0.246    0.555   86.309    6.941
  210.006    0.244    0.537   82.738    7.075
  210.311    0.299    0.521   80.952    6.822
  210.615    0.312    0.497   77.976    6.826
  210.920    0.308    0.473   75.000    7.634
  211.225    0.289    0.452   70.833    8.861
  211.530    0.091    0.433   65.476   10.286
  211.835    0.031    0.217   63.095   13.595
  212.139    0.005    0.202   57.738   52.722
  212.444    0.000    0.197   53.571   47.190
  212.749    0.000    0.200   52.976   17.338
  213.054    0.022    0.256   53.571   12.654
  213.359    0.157    0.383   60.119    9.068
  213.663    0.208    0.481   71.429    8.270
  213.968    0.246    0.494   71.429    7.684
  214.273    0.285    0.484   69.048    7.545
  214.578    0.301    0.481   73.809    7.693
  214.883    0.307    0.503   77.381    7.841
  215.187    0.296    0.513   79.762    7.995
  215.492    0.287    0.490   80.357    8.000
  215.797    0.285    0.465   79.167    7.856
  216.102    0.281    0.451   79.762    7.576
  216.407    0.277    0.452   80.952    7.440
  216.711    0.270    0.490   81.548    7.044
  217.016    0.242    0.504   81.548    6.918
  217.321    0.230    0.491   80.952    6.920
  217.626    0.276    0.479   80.357    6.927
  217.931    0.278    0.473   79.762    7.060
  218.235    0.244    0.489   81.548    7.063
  218.540    0.233    0.489   82.738    7.200
  218.845    0.250    0.494   82.143    7.618
  219.150    0.261    0.512   78.571    8.210
  219.454    0.284    0.500   75.595    8.684
  219.759    0.253    0.483   70.833    9.189
  220.064    0.259    0.469   70.238    8.859
  220.369    0.281    0.463   73.214    8.230
  220.674    0.284    0.479   75.595    7.368
  220.978    0.266    0.518   80.357    7.103
  221.283    0.252    0.510   82.738    6.979
  221.588    0.273    0.504   85.119    6.981
  221.893    0.259    0.517   85.119    7.118
  222.198    0.235    0.518   85.714    7.121
  222.502    0.269    0.497   86.905    6.867
  222.807    0.249    0.490   86.905    6.744
  223.112    0.238    0.487   86.905    6.506
  223.417    0.253    0.497   91.071    6.631
  223.722    0.240    0.504   95.238    6.758
  224.026    0.230    0.501   88.095    6.888
  224.331    0.250    0.500   85.119    6.891
  224.636    0.237    0.520   88.095    6.897
  224.941    0.250    0.540   88.691    6.773
  225.246    0.243    0.552   88.095    6.411
  225.550    0.235    0.553   87.500    6.181
  225.855    0.265    0.523   88.095    5.851
  226.160    0.246    0.532   88.095    5.641
  226.465    0.237    0.533   85.119    5.540
  226.770    0.258    0.537   82.738    5.753
  227.074    0.295    0.546   83.929    6.556
  227.379    0.294    0.531   82.143    7.332
  227.684    0.292    0.524   72.024    8.512
  227.989    0.283    0.512   67.857    8.677
  228.294    0.273    0.501   69.048    8.680
  228.598    0.289    0.503   75.595    7.917
  228.903    0.301    0.506   80.357    7.633
  229.208    0.285    0.502   79.167    7.638
  229.513    0.295    0.490   77.976    7.932
  229.817    0.301    0.471   77.976    8.870
  230.122    0.302    0.509   76.191   10.888
  230.427    0.278    0.498   75.595   12.175
  230.732    0.264    0.425   69.048   13.618
  231.037    0.181    0.353   66.667   13.628
  231.341    0.138    0.307   67.857   12.661
  231.646    0.081    0.420   73.809   10.330
  231.951    0.203    0.461   77.381    8.748
  232.256    0.258    0.475   77.976    8.591
  232.561    0.261    0.484   76.191    8.440
  232.865    0.255    0.491   73.809    8.602
  233.170    0.266    0.477   74.405    9.102
  233.475    0.282    0.454   73.214    9.276
  233.780    0.289    0.449   73.809    9.283
  234.085    0.287    0.450   75.000    9.288
  234.389    0.279    0.471   76.786    8.957
  234.694    0.253    0.506   80.357    8.797
  234.999    0.255    0.484   84.524    8.173
  235.304    0.269    0.474   85.119    7.878
  235.609    0.270    0.465   83.333    7.457
  235.913    0.252    0.462   84.524    6.677
  236.218    0.258    0.466   86.309    6.317
  236.523    0.244    0.481   88.095    5.349
  236.828    0.230    0.517   89.286    5.063
  237.133    0.263    0.535   93.452    5.456
  237.437    0.254    0.535   95.238    6.103
  237.742    0.242    0.507   93.452    6.700
  238.047    0.235    0.480   89.286    7.924
  238.352    0.252    0.477   82.738    8.862
  238.657    0.259    0.486   79.762    9.552
  238.961    0.266    0.497   79.762    9.556
  239.266    0.252    0.485   80.357    8.397
  239.571    0.240    0.480   82.143    6.362
  239.876    0.244    0.477   86.309    5.487
  240.180    0.230    0.477   90.476    5.292
  240.485    0.214    0.485   93.452    5.495
  240.790    0.225    0.524   97.619    5.922
  241.095    0.217    0.533   99.405    6.383
  241.400    0.218    0.523   98.214    6.752
  241.704    0.233    0.503   97.024    6.882
  242.009    0.221    0.507   94.048    6.887
  242.314    0.223    0.510   92.857    6.639
  242.619    0.202    0.510   98.809    6.168
  242.924    0.197    0.523  103.571    6.289
  243.228    0.204    0.525  104.167    6.529
  243.533    0.198    0.515  101.786    7.168
  243.838    0.204    0.504   98.214    8.635
  244.143    0.206    0.481   95.833   10.600
  244.448    0.183    0.451   89.286   11.421
  244.752    0.162    0.383   86.905   12.082
  245.057    0.151    0.421   91.071   11.650
  245.362    0.192    0.412   96.429    8.990
  245.667    0.173    0.409   97.024    7.613
  245.972    0.195    0.423   95.238    7.204
  246.276    0.214    0.460   91.071    6.451
  246.581    0.208    0.507   89.881    6.104
  246.886    0.212    0.494   94.643    6.458
  247.191    0.213    0.500   98.214    7.357
  247.496    0.214    0.473   95.238    9.199
  247.800    0.237    0.446   91.667   10.290
  248.105    0.267    0.434   87.500   10.490
  248.410    0.283    0.425   86.309   10.114
  248.715    0.259    0.429   87.500    9.749
  249.020    0.213    0.460   88.691    9.229
  249.324    0.250    0.460   86.309    9.233
  249.629    0.258    0.457   80.357    9.413
  249.934    0.248    0.456   76.191    9.959
  250.239    0.226    0.457   75.000   10.149
  250.544    0.277    0.471   75.000   10.349
  250.848    0.281    0.469   75.595   10.354
  251.153    0.255    0.463   76.786    9.983
  251.458    0.250    0.455   79.167    9.448
  251.763    0.236    0.450   85.714    8.620
  252.067    0.232    0.451   89.881    8.310
  252.372    0.219    0.451   88.691    8.313
  252.677    0.208    0.452   85.119    8.473
  252.982    0.246    0.454   80.952    8.480
  253.287    0.258    0.455   79.167    8.486
  253.591    0.249    0.452   79.167    8.489
  253.896    0.244    0.448   82.143    8.655
  254.201    0.250    0.448   85.119    8.821
  254.506    0.255    0.451   85.714    8.829
  254.811    0.242    0.448   85.119    8.832
  255.115    0.217    0.466   85.714    8.840
  255.420    0.196    0.501   86.905    8.681
  255.725    0.242    0.496   88.095    8.217
  256.030    0.236    0.490   87.500    8.070
  256.335    0.197    0.507   84.524    7.499
