~VERSION INFORMATION
 VERS.                 2.0:   CWLS LOG ASCII STANDARD -VERSION 2.0
 WRAP.                  NO:   ONE LINE PER DEPTH STEP
~WELL INFORMATION BLOCK
#MNEM.UNIT           DATA                    DESCRIPTION OF MNEMONIC
#---------    -------------------            -------------------------------
# Generated from Intellog Unique Number	CS_67_68/WELL/702
WELL.         FISHER CREEK                   : Well_name    - WELL
LOC .         00/06-29-068-04W4/0            : Location     - LOCATION
UWI .         00/06-29-068-04W4/0            : Uwi          - UNIQUE WELL ID
ENTR.         SP                             : Entered      - ENTERED BY
SRVC.         SCHLUMBERGER                   : Scn          - SERVICE COMPANY
STRT.M        350                            : top_depth    - START DEPTH
STOP.M        585                            : bot_depth    - STOP DEPTH
STEP.M        0.25                           : increment    - STEP LENGTH
 NULL. -999.2500:NULL Value
~CURVE INFORMATION BLOCK
#MNEM UNIT       ERCB CURVE CODE    CURVE DESCRIPTION
#-----------   ------------------   ----------------------------------
DEPT.M        00 001 00 00         : DEPTH        - DEPTH
ILD .OHMM     00 120 00 00         : RESD         - DEEP RESISTIVITY (DIL)
DPHI.V/V      00 890 00 00         : PHID         - DENSITY POROSITY (LIMESTONE)
NPHI.V/V      00 330 00 00         : PHIN         - NEUTRON POROSITY (LIMESTONE)
GR  .API      00 310 00 00         : GR           - GAMMA RAY
~PARAMETER INFORMATION
#MNEM.UNIT           DATA             DESCRIPTION OF MNEMONIC
#---------         -----------     ------------------------------
GL  .M        710.98               : gl           - GROUND LEVEL ELEVATION
EREF.M        714.48               : kb           - ELEVATION OF DEPTH REFERENCE
DATM.M        710.98               : datum        - DATUM ELEVATION
TDD .M        589                  : tdd          - TOTAL DEPTH DRILLER
RUN .         ONE                  : Run          - RUN NUMBER
ENG .         BILL                 : Engineer     - RECORDING ENGINEER
WIT .         JIM                  : Witness      - WITNESSED BY
MUD .         GEL                  : Mud_type     - MUD TYPE
MATR.         LIMESTONE            : Logunit      - NEUTRON MATRIX
TMAX.C        29                   : BHT          - MAXIMUM RECORDED TEMPERATURE
BHTD.M        589                  : BHTDEP       - MAXIMUM RECORDED TEMPERATURE
MATR.         1                    : LOGUNIT      - NEUTRON MATRIX
RMT .C        25                   : MDTP         - TEMPERATURE OF MUD
NEUT.         1                    : NEUTRON      - NEUTRON TYPE
RESI.         0                    : RESIST       - RESISTIVITY TYPE
RMC .OHMM     0.25                 : RMC          - RESISTIVITY OF MUD CAKE
RMF .OHMM     0.25                 : RMF          - RESISTIVITY OF MUD FILTRATE
SUFT.C        15                   : SUFT         - SURFACE TEMPERATURE
~A  DEPTH     RESD     PHID     PHIN       GR
  350.000    2.604    0.245    0.547  112.041
  350.250    2.610    0.249    0.536  111.122
  350.500    2.681    0.255    0.523  108.793
  350.750    2.775    0.177    0.511  106.096
  351.000    2.910    0.172    0.504  103.276
  351.250    3.115    0.203    0.502  102.787
  351.500    3.230    0.237    0.508  107.204
  351.750    3.312    0.253    0.502  110.946
  352.000    3.402    0.245    0.495  112.419
  352.250    3.430    0.234    0.487  111.317
  352.500    3.318    0.227    0.499  110.950
  352.750    3.181    0.226    0.525  111.380
  353.000    3.089    0.230    0.536  112.670
  353.250    3.028    0.238    0.544  114.449
  353.500    3.030    0.246    0.546  115.309
  353.750    3.032    0.250    0.539  115.433
  354.000    3.040    0.250    0.524  115.312
  354.250    3.071    0.241    0.514  115.436
  354.500    3.096    0.236    0.508  117.951
  354.750    3.110    0.244    0.504  120.712
  355.000    3.213    0.253    0.509  120.591
  355.250    3.413    0.246    0.512  116.054
  355.500    3.681    0.208    0.514  109.555
  355.750    3.933    0.085    0.497  104.712
  356.000    4.086    0.060    0.475  101.770
  356.250    4.013    0.163    0.451  111.828
  356.500    3.832    0.207    0.452  120.354
  356.750    3.645    0.244    0.464  126.058
  357.000    3.449    0.246    0.470  122.809
  357.250    3.325    0.237    0.477  117.169
  357.500    3.429    0.229    0.491  111.958
  357.750    3.809    0.214    0.505  105.949
  358.000    5.162    0.197    0.395   96.752
  358.250    8.500    0.219    0.276   88.658
  358.500   14.290    0.300    0.218   81.055
  358.750   19.951    0.377    0.186   78.481
  359.000   30.947    0.418    0.183   79.770
  359.250   35.964    0.425    0.191   80.201
  359.500   41.646    0.419    0.193   80.018
  359.750   45.176    0.413    0.190   79.345
  360.000   43.702    0.408    0.186   79.407
  360.250   42.684    0.405    0.184   80.758
  360.500   43.032    0.407    0.184   84.255
  360.750   44.209    0.408    0.188   87.813
  361.000   44.236    0.404    0.192   90.758
  361.250   42.719    0.400    0.201   91.249
  361.500   40.185    0.395    0.221   89.963
  361.750   34.620    0.394    0.241   86.653
  362.000   30.389    0.394    0.268   84.814
  362.250   26.227    0.373    0.301   87.085
  362.500   20.850    0.359    0.332   94.813
  362.750   18.265    0.352    0.337  102.112
  363.000   16.002    0.357    0.323  112.968
  363.250   15.717    0.363    0.314  131.550
  363.500   14.979    0.356    0.349  142.038
  363.750   12.761    0.315    0.385  135.662
  364.000   10.851    0.280    0.414  119.474
  364.250    9.686    0.262    0.444  103.898
  364.500    8.455    0.247    0.347   90.653
  364.750   10.069    0.307    0.224   80.107
  365.000   14.846    0.381    0.175   66.188
  365.250   20.348    0.425    0.154   57.787
  365.500   25.158    0.435    0.141   47.731
  365.750   33.721    0.420    0.279   56.441
  366.000   38.389    0.384    0.326   65.703
  366.250   26.319    0.350    0.358   73.676
  366.500   18.696    0.324    0.389   80.362
  366.750   14.235    0.299    0.402   87.170
  367.000   10.942    0.282    0.414   92.874
  367.250    9.250    0.259    0.422   97.537
  367.500    8.196    0.253    0.423  102.873
  367.750    7.569    0.253    0.426  114.219
  368.000    7.473    0.260    0.430  123.297
  368.250    7.272    0.267    0.435  131.086
  368.500    6.841    0.269    0.438  135.687
  368.750    6.387    0.221    0.447  136.731
  369.000    5.974    0.126    0.471  132.501
  369.250    5.465    0.101    0.485  126.554
  369.500    4.989    0.080    0.488  120.913
  369.750    4.641    0.059    0.477  122.693
  370.000    4.541    0.177    0.474  127.907
  370.250    4.561    0.241    0.491  131.220
  370.500    4.372    0.276    0.506  130.792
  370.750    4.152    0.299    0.496  122.943
  371.000    4.178    0.317    0.460  109.637
  371.250    4.948    0.335    0.432   98.784
  371.500    5.740    0.284    0.404   87.870
  371.750    6.889    0.288    0.378   81.432
  372.000    7.698    0.328    0.365   73.277
  372.250    8.555    0.355    0.355   63.528
  372.500    8.481    0.375    0.355   55.618
  372.750    8.024    0.379    0.367   51.327
  373.000    7.285    0.364    0.388   48.262
  373.250    6.930    0.356    0.399   46.178
  373.500    6.605    0.348    0.408   43.788
  373.750    6.440    0.342    0.416   42.930
  374.000    6.371    0.340    0.423   44.833
  374.250    6.269    0.348    0.438   47.042
  374.500    6.168    0.350    0.441   48.883
  374.750    6.138    0.351    0.429   49.436
  375.000    6.165    0.354    0.418   49.744
  375.250    6.055    0.362    0.411   49.745
  375.500    5.936    0.366    0.406   49.808
  375.750    5.885    0.363    0.404   50.668
  376.000    5.878    0.358    0.414   52.202
  376.250    5.860    0.356    0.430   54.534
  376.500    5.865    0.362    0.438   57.050
  376.750    5.869    0.362    0.438   57.358
  377.000    5.872    0.356    0.431   58.892
  377.250    5.920    0.349    0.426   63.738
  377.500    5.979    0.350    0.424   67.603
  377.750    6.029    0.356    0.430   70.916
  378.000    6.066    0.350    0.436   73.799
  378.250    6.083    0.343    0.442   76.622
  378.500    6.121    0.335    0.448   79.996
  378.750    6.194    0.330    0.462   83.922
  379.000    6.339    0.334    0.462   86.867
  379.250    6.512    0.327    0.459   88.585
  379.500    6.689    0.313    0.447   89.384
  379.750    6.976    0.298    0.438   89.753
  380.000    7.166    0.287    0.437   86.995
  380.250    7.292    0.277    0.428   82.826
  380.500    7.476    0.290    0.414   76.511
  380.750    7.566    0.299    0.407   72.710
  381.000    7.529    0.303    0.399   79.273
  381.250    7.492    0.294    0.392   83.444
  381.500    7.442    0.287    0.387   87.616
  381.750    7.503    0.280    0.391   91.236
  382.000    7.535    0.274    0.406   92.892
  382.250    7.612    0.270    0.413   93.078
  382.500    7.762    0.267    0.413   85.720
  382.750    7.913    0.286    0.410   81.306
  383.000    7.993    0.322    0.412   80.878
  383.250    7.969    0.347    0.423   83.087
  383.500    7.915    0.340    0.436   84.683
  383.750    7.905    0.307    0.450   85.665
  384.000    7.822    0.292    0.460   84.808
  384.250    7.712    0.261    0.462   81.130
  384.500    7.687    0.244    0.454   76.409
  384.750    7.664    0.277    0.451   75.675
  385.000    7.699    0.301    0.450   80.644
  385.250    7.703    0.308    0.450   82.852
  385.500    7.637    0.308    0.458   84.387
  385.750    7.529    0.311    0.468   84.695
  386.000    7.407    0.317    0.473   82.672
  386.250    7.303    0.320    0.467   82.122
  386.500    7.294    0.320    0.460   85.435
  386.750    7.409    0.318    0.456   89.361
  387.000    7.597    0.318    0.464   91.386
  387.250    7.967    0.318    0.478   92.920
  387.500    8.480    0.312    0.491   93.473
  387.750    9.318    0.271    0.480   91.697
  388.000   10.297    0.181    0.431   88.754
  388.250   10.538    0.163    0.412   87.406
  388.500    9.533    0.203    0.405   92.191
  388.750    8.621    0.253    0.476   96.178
  389.000    7.827    0.278    0.510   99.553
  389.250    7.308    0.291    0.525  101.394
  389.500    7.070    0.300    0.503  102.867
  389.750    6.945    0.294    0.489  102.132
  390.000    6.962    0.290    0.479   99.558
  390.250    7.046    0.287    0.479   99.191
  390.500    7.130    0.282    0.482  101.400
  390.750    7.230    0.280    0.482  104.407
  391.000    7.261    0.288    0.476  106.554
  391.250    7.253    0.273    0.468  108.334
  391.500    7.149    0.260    0.461  110.052
  391.750    6.904    0.252    0.456  111.894
  392.000    6.618    0.246    0.461  113.183
  392.250    6.403    0.269    0.480  113.613
  392.500    6.324    0.283    0.482  113.614
  392.750    6.353    0.285    0.470  110.182
  393.000    6.453    0.281    0.463  105.216
  393.250    6.640    0.278    0.457  101.537
