~VERSION INFORMATION
 VERS.                 2.0:   CWLS LOG ASCII STANDARD -VERSION 2.0
 WRAP.                  NO:   ONE LINE PER DEPTH STEP
~WELL INFORMATION BLOCK
#MNEM.UNIT           DATA                    DESCRIPTION OF MNEMONIC
#---------    -------------------            -------------------------------
# Generated from Intellog Unique Number	CW_70_72/WELL/3008
NULL.         -999.25                        : NULL_VALUE
WELL.         CHIEFCO ET AL RANCH 06-18      : Well_name    - WELL              
LOC .         06-18-070-26W4                 : Location     - LOCATION          
UWI .         00/06-18-070-26W4/0            : Uwi          - UNIQUE WELL ID    
ENTR.         J                              : Entered      - ENTERED BY        
SRVC.         SCHLUMBERGER                   : Scn          - SERVICE COMPANY   
DATE.         9 AUG 76                       : Date         - LOG DATE          
STRT.M        454.152                        : top_depth    - START DEPTH       
STOP.M        710.152                        : bot_depth    - STOP DEPTH        
STEP.M        0.25                           : increment    - STEP LENGTH       
~CURVE INFORMATION BLOCK
#MNEM UNIT       ERCB CURVE CODE    CURVE DESCRIPTION
#-----------   ------------------   ----------------------------------
DEPT.M        00 001 00 00         : DEPTH        - DEPTH                       
ILD .OHMM     00 120 00 00         : RESD         - DEEP RESISTIVITY (DIL)      
CALI.MM       00 280 01 00         : CAL          - CALIPER                     
GR  .API      00 310 00 00         : GR           - GAMMA RAY                   
NPHI.V/V      00 330 00 00         : PHIN         - NEUTRON POROSITY (SANDSTONE)
DPHI.V/V      00 890 00 00         : PHID         - DENSITY POROSITY (SANDSTONE)
~PARAMETER INFORMATION       
#MNEM.UNIT           DATA             DESCRIPTION OF MNEMONIC
#---------         -----------     ------------------------------
GL  .M        623.316              : gl           - GROUND LEVEL ELEVATION      
EREF.M        626.059              : kb           - ELEVATION OF DEPTH REFERENCE
DATM.M        623.316              : datum        - DATUM ELEVATION             
TDD .M        723.9                : tdd          - TOTAL DEPTH DRILLER         
RUN .         ONE                  : Run          - RUN NUMBER                  
ENG .         MUNRO/SEDGWICK       : Engineer     - RECORDING ENGINEER          
BASE.         EDM                  : Branch       - HOME BASE OF LOGGING UNIT   
MUD .         GEL                  : Mud_type     - MUD TYPE                    
MATR.         SANDSTONE            : Logunit      - NEUTRON MATRIX              
TMAX.C        28.3333              : BHT          - MAXIMUM RECORDED TEMPERATURE
BHTD.M        722.681              : BHTDEP       - MAXIMUM RECORDED TEMPERATURE
RMT .C        22.2222              : MDTP         - TEMPERATURE OF MUD          
MUDD.KG/M     1116                 : MWT          - MUD DENSITY                 
NEUT.         1                    : NEUTRON      - NEUTRON TYPE                
RESI.         0                    : RESIST       - RESISTIVITY TYPE            
RM  .OHMM     3.29                 : RM           - RESISTIVITY OF MUD          
RMC .OHMM     2.5                  : RMC          - RESISTIVITY OF MUD CAKE     
RMF .OHMM     3.04                 : RMF          - RESISTIVITY OF MUD FILTRATE 
SUFT.C        -17.7778             : SUFT         - SURFACE TEMPERATURE         
~A  DEPTH     RESD      CAL       GR     PHIN     PHID
# ...
  563.652    5.777  152.389   52.790    0.158    0.018
  563.902    4.404  151.943   53.726    0.167    0.028
  564.152    3.516  151.490   59.106    0.195    0.055
  564.402    2.927  150.430   67.878    0.223    0.088
  564.652    2.556  149.157   74.958    0.319    0.125
  564.902    2.372  146.370   81.316    0.415    0.208
  565.152    2.452  144.880   84.377    0.429    0.259
  565.402    2.586  144.224   85.146    0.436    0.252
  565.652    2.738  143.784   83.729    0.435    0.245
  565.902    3.068  143.243   80.193    0.430    0.234
  566.152    3.370  142.489   77.623    0.424    0.228
  566.402    3.661  142.450   74.641    0.412    0.217
  566.652    3.984  143.131   73.580    0.390    0.206
  566.902    4.036  144.533   72.287    0.359    0.162
  567.152    4.008  145.937   71.178    0.338    0.149
  567.402    3.900  148.473   70.675    0.311    0.169
  567.652    3.733  151.616   70.707    0.281    0.107
  567.902    3.369  150.246   71.657    0.311    0.147
  568.152    2.991  147.557   77.101    0.357    0.182
  568.402    2.750  146.398   80.896    0.400    0.200
  568.652    2.560  145.828   80.401    0.422    0.223
  568.902    2.460  145.504   78.915    0.433    0.243
  569.152    2.474  145.150   79.621    0.435    0.251
  569.402    2.525  145.018   83.368    0.425    0.258
  569.652    2.558  145.081   86.010    0.424    0.267
  569.902    2.582  145.569   88.789    0.435    0.260
  570.152    2.630  146.039   89.736    0.453    0.236
  570.402    2.655  146.306   87.343    0.465    0.228
  570.652    2.700  145.985   82.471    0.444    0.235
  570.902    2.746  145.833   83.366    0.417    0.241
  571.152    2.766  145.502   86.129    0.401    0.243
  571.402    2.782  145.468   84.171    0.414    0.250
  571.652    2.788  145.218   85.543    0.431    0.244
  571.902    2.789  145.493   88.621    0.453    0.233
  572.152    2.789  145.654   87.751    0.473    0.227
  572.402    2.800  145.224   85.238    0.480    0.230
  572.652    2.816  145.067   86.680    0.460    0.235
  572.902    2.864  144.428   88.117    0.453    0.230
  573.152    2.917  144.400   86.517    0.448    0.225
  573.402    2.956  144.056   84.377    0.441    0.221
  573.652    2.984  143.800   82.175    0.431    0.240
  573.902    3.006  144.597   81.415    0.424    0.244
  574.152    3.029  146.007   81.638    0.415    0.227
  574.402    3.057  147.398   87.083    0.408    0.207
  574.652    3.086  150.343   92.090    0.411    0.196
  574.902    3.121  153.590   97.655    0.425    0.210
  575.152    3.162  152.015   92.839    0.444    0.227
  575.402    3.245  151.174   97.321    0.432    0.237
  575.652    3.386  151.025   98.683    0.423    0.226
  575.902    3.418  151.109   96.539    0.436    0.213
  576.152    3.475  151.159   92.455    0.442    0.207
  576.402    3.451  151.235   89.707    0.430    0.206
  576.652    3.376  150.578   85.924    0.417    0.193
  576.902    3.285  150.757   82.207    0.406    0.179
  577.152    3.191  151.337   84.677    0.416    0.203
  577.402    3.157  151.932   87.012    0.435    0.243
  577.652    3.140  152.910   90.511    0.447    0.224
  577.902    3.141  153.591   88.373    0.442    0.222
  578.152    3.165  154.489   87.924    0.421    0.228
  578.402    3.165  154.749   90.032    0.416    0.206
  578.652    3.184  154.618   93.098    0.432    0.191
  578.902    3.202  154.480   97.325    0.435    0.193
  579.152    3.226  154.455   98.763    0.426    0.209
  579.402    3.251  154.406   96.675    0.423    0.217
  579.652    3.263  154.269   93.688    0.426    0.211
  579.902    3.294  154.128   93.369    0.434    0.205
  580.152    3.368  155.540   94.252    0.443    0.197
  580.402    3.406  156.835   95.929    0.454    0.196
  580.652    3.457  157.833   99.191    0.453    0.198
  580.902    3.496  158.822  100.501    0.443    0.199
  581.152    3.529  159.831   98.174    0.452    0.182
  581.402    3.530  160.300   94.632    0.445    0.172
  581.652    3.467  160.668   94.549    0.426    0.173
  581.902    3.411  160.950   96.353    0.422    0.179
  582.152    3.325  160.604   98.154    0.437    0.185
  582.402    3.153  158.304   97.039    0.446    0.194
  582.652    2.952  153.956   94.104    0.449    0.203
  582.902    3.002  149.507   90.953    0.430    0.213
  583.152    3.059  147.208   90.428    0.436    0.226
  583.402    3.121  150.574   90.343    0.452    0.213
  583.652    3.233  153.926   92.813    0.452    0.202
  583.902    3.306  157.277   94.609    0.443    0.197
  584.152    3.343  158.674   94.475    0.442    0.183
  584.402    3.283  158.124   92.992    0.447    0.195
  584.652    3.159  155.127   92.734    0.460    0.179
  584.902    2.931  152.009   93.191    0.460    0.187
  585.152    2.750  148.469   92.753    0.453    0.204
  585.402    2.685  146.176   88.361    0.444    0.225
  585.652    2.676  147.076   78.269    0.429    0.224
  585.902    2.792  151.140   68.729    0.408    0.209
  586.152    2.940  156.353   59.549    0.371    0.275
  586.402    3.067  154.664   53.827    0.342    0.297
  586.652    2.840  148.579   56.296    0.357    0.316
  586.902    2.485  145.971   58.156    0.384    0.327
  587.152    2.202  144.906   59.348    0.436    0.337
  587.402    2.024  144.569   60.482    0.424    0.313
  587.652    2.036  144.331   61.970    0.402    0.297
  587.902    2.167  144.402   65.892    0.385    0.280
  588.152    2.515  144.976   72.241    0.372    0.269
  588.402    2.798  148.633   78.415    0.379    0.193
  588.652    3.023  149.728   82.643    0.424    0.168
  588.902    2.963  147.960   86.681    0.447    0.183
  589.152    2.780  146.903   88.668    0.451    0.206
  589.402    2.675  146.251   89.491    0.442    0.228
  589.652    2.705  146.727   91.227    0.421    0.238
  589.902    2.875  148.754   95.757    0.407    0.218
  590.152    3.027  150.661  101.378    0.418    0.195
  590.402    3.112  153.611  100.507    0.445    0.174
  590.652    3.217  155.100   96.669    0.450    0.167
  590.902    3.302  155.896   95.976    0.425    0.170
  591.152    3.345  154.631   97.360    0.406    0.183
  591.402    3.377  153.463   99.028    0.421    0.186
  591.652    3.390  150.867  100.948    0.438    0.186
  591.902    3.409  148.462  100.019    0.436    0.184
  592.152    3.429  147.924   98.421    0.435    0.182
  592.402    3.448  148.610   99.431    0.434    0.175
  592.652    3.443  149.810   99.537    0.439    0.160
  592.902    3.332  150.895   99.094    0.451    0.148
  593.152    3.266  152.512   99.736    0.445    0.168
  593.402    3.143  153.494   99.844    0.438    0.178
  593.652    2.970  154.707   99.575    0.434    0.180
  593.902    2.776  155.275   98.338    0.445    0.173
  594.152    2.599  155.754   96.196    0.457    0.179
  594.402    2.376  155.915   89.683    0.443    0.196
  594.652    2.172  154.760   77.656    0.432    0.219
  594.902    2.015  150.404   71.024    0.429    0.250
  595.152    1.983  146.477   65.118    0.422    0.286
  595.402    1.994  144.997   61.759    0.428    0.296
  595.652    2.096  144.134   60.832    0.437    0.298
  595.902    2.256  143.504   60.636    0.437    0.307
  596.152    2.341  142.858   61.092    0.433    0.306
  596.402    2.407  142.312   61.558    0.419    0.287
  596.652    2.470  141.768   63.064    0.406    0.276
  596.902    2.502  141.523   64.123    0.412    0.280
  597.152    2.503  141.468   66.778    0.431    0.295
  597.402    2.485  141.235   68.638    0.426    0.285
  597.652    2.450  141.206   69.159    0.419    0.279
  597.902    2.410  141.052   66.469    0.411    0.287
  598.152    2.366  141.538   64.207    0.420    0.291
  598.402    2.358  142.123   63.942    0.437    0.283
  598.652    2.381  142.393   65.074    0.447    0.280
  598.902    2.443  142.456   64.939    0.440    0.278
  599.152    2.498  142.332   63.820    0.426    0.281
  599.402    2.526  142.401   62.289    0.409    0.262
  599.652    2.513  142.153   63.231    0.394    0.255
  599.902    2.454  142.022   65.879    0.442    0.265
