~VERSION INFORMATION
 VERS.                 2.0:   CWLS LOG ASCII STANDARD -VERSION 2.0
 WRAP.                  NO:   ONE LINE PER DEPTH STEP
~WELL INFORMATION BLOCK
#MNEM.UNIT           DATA                    DESCRIPTION OF MNEMONIC
#---------    -------------------            -------------------------------
# Generated from Intellog Unique Number	CW_70_72/WELL/619
NULL.         -999.25                        : NULL_VALUE
WELL.         MESA SMITH 06-10               : Well_name    - WELL              
LOC .         06-10-072-25W4                 : Location     - LOCATION          
UWI .         00/06-10-072-25W4/0            : Uwi          - UNIQUE WELL ID    
ENTR.         JAYE                           : Entered      - ENTERED BY        
SRVC.         SCHLUMBERGER                   : Scn          - SERVICE COMPANY   
DATE.         10 FEB 75                      : Date         - LOG DATE          
STRT.M        384.048                        : top_depth    - START DEPTH       
STOP.M        600.548                        : bot_depth    - STOP DEPTH        
STEP.M        0.25                           : increment    - STEP LENGTH       
~CURVE INFORMATION BLOCK
#MNEM UNIT       ERCB CURVE CODE    CURVE DESCRIPTION
#-----------   ------------------   ----------------------------------
DEPT.M        00 001 00 00         : DEPTH        - DEPTH                       
DPHI.V/V      00 890 00 00         : PHID         - DENSITY POROSITY (SANDSTONE)
NPHI.V/V      00 330 00 00         : PHIN         - NEUTRON POROSITY (SANDSTONE)
GR  .API      00 310 00 00         : GR           - GAMMA RAY                   
CALI.MM       00 280 01 00         : CAL          - CALIPER                     
ILD .OHMM     00 120 00 00         : RESD         - DEEP RESISTIVITY (DIL)      
~PARAMETER INFORMATION       
#MNEM.UNIT           DATA             DESCRIPTION OF MNEMONIC
#---------         -----------     ------------------------------
GL  .M        606.857              : gl           - GROUND LEVEL ELEVATION      
EREF.M        610.819              : kb           - ELEVATION OF DEPTH REFERENCE
DATM.M        606.857              : datum        - DATUM ELEVATION             
TDD .M        609.6                : tdd          - TOTAL DEPTH DRILLER         
RUN .         ONE                  : Run          - RUN NUMBER                  
ENG .         FETTERLEY            : Engineer     - RECORDING ENGINEER          
WIT .         HOVER                : Witness      - WITNESSED BY                
BASE.         EDM                  : Branch       - HOME BASE OF LOGGING UNIT   
MUD .         GEL CHEM             : Mud_type     - MUD TYPE                    
MATR.         SANDSTONE            : Logunit      - NEUTRON MATRIX              
TMAX.C        23.8889              : BHT          - MAXIMUM RECORDED TEMPERATURE
BHTD.M        610.21               : BHTDEP       - MAXIMUM RECORDED TEMPERATURE
RMT .C        7.22222              : MDTP         - TEMPERATURE OF MUD          
MUDD.KG/M     0                    : MWT          - MUD DENSITY                 
NEUT.         1                    : NEUTRON      - NEUTRON TYPE                
RESI.         0                    : RESIST       - RESISTIVITY TYPE            
RM  .OHMM     4.38                 : RM           - RESISTIVITY OF MUD          
RMC .OHMM     0                    : RMC          - RESISTIVITY OF MUD CAKE     
RMF .OHMM     0                    : RMF          - RESISTIVITY OF MUD FILTRATE 
SUFT.C        -17.7778             : SUFT         - SURFACE TEMPERATURE         
~A  DEPTH     PHID     PHIN       GR      CAL     RESD
# ...
  530.048    0.142    0.443   98.582  177.359    5.519
  530.298    0.111    0.426   96.823  177.376    5.555
  530.548    0.116    0.413   94.760  177.186    5.542
  530.798    0.138    0.400   93.062  176.892    5.528
  531.048    0.136    0.404   92.828  176.702    5.535
  531.298    0.125    0.415   92.838  176.203    5.540
  531.548    0.125    0.445   91.872  175.806    5.556
  531.798    0.129    0.448   92.431  175.824    5.614
  532.048    0.112    0.431   93.172  175.943    5.643
  532.298    0.087    0.414   97.267  176.062    5.638
  532.548    0.101    0.422  101.302  176.078    5.623
  532.798    0.147    0.417   94.728  176.096    5.578
  533.048    0.129    0.412   96.260  176.112    5.515
  533.298    0.131    0.408   99.075  176.027    5.509
  533.548    0.131    0.402  101.648  175.631    5.515
  533.798    0.143    0.396  104.338  175.543    5.501
  534.048    0.148    0.402  106.117  175.456    5.487
  534.298    0.135    0.409  103.809  175.266    5.576
  534.548    0.135    0.418   99.734  174.872    5.613
  534.798    0.140    0.420   94.499  174.371    5.714
  535.048    0.127    0.396   84.021  173.457    5.914
  535.298    0.111    0.353   74.640  172.752    6.643
  535.548    0.084    0.315   69.163  171.630    7.976
  535.798    0.056    0.275   64.903  170.201    9.938
  536.048    0.046    0.255   67.962  169.600    8.594
  536.298    0.128    0.338   78.887  171.268    7.294
  536.548    0.132    0.379   87.799  172.937    6.146
  536.798    0.125    0.409   93.968  173.883    5.495
  537.048    0.137    0.404   93.429  174.311    5.392
  537.298    0.137    0.401   91.487  174.225    5.457
  537.548    0.114    0.398   87.351  173.312    5.475
  537.798    0.082    0.394   90.043  170.231    5.450
  538.048    0.093    0.393   95.603  171.490    5.477
  538.298    0.107    0.404   94.453  172.640    5.544
  538.548    0.113    0.422   92.024  173.897    5.602
  538.798    0.125    0.409   91.546  174.324    5.640
  539.048    0.113    0.400   91.251  174.548    5.594
  539.298    0.101    0.415   90.286  174.460    5.529
  539.548    0.090    0.424   92.125  174.375    5.474
  539.798    0.081    0.420   98.415  174.184    5.400
  540.048    0.113    0.414  101.473  173.581    5.336
  540.298    0.128    0.421   99.837  173.289    5.264
  540.548    0.144    0.413   98.445  172.687    5.250
  540.798    0.153    0.400   98.516  172.188    5.227
  541.048    0.146    0.413   99.318  171.997    5.252
  541.298    0.150    0.419  100.181  172.012    5.288
  541.548    0.135    0.418  101.289  171.928    5.373
  541.798    0.138    0.417  101.298  171.634    5.561
  542.048    0.143    0.402   98.746  170.617    6.108
  542.298    0.130    0.399   90.951  170.013    7.267
  542.548    0.091    0.373   79.193  170.238    8.360
  542.798    0.051    0.345   72.190  170.771    9.817
  543.048    0.018    0.295   66.590  171.821   11.963
  543.298    0.000    0.249   62.148  172.350   15.128
  543.548    0.038    0.341   66.915  172.988   17.504
  543.798    0.103    0.373   73.083  173.728   17.951
  544.048    0.160    0.388   82.910  173.743   17.772
  544.298    0.170    0.394   82.921  172.005   15.484
  544.548    0.153    0.392   80.673  163.245   13.946
  544.798    0.135    0.384   81.537  150.870   14.041
  545.048    0.085    0.360   83.559  158.424   14.697
  545.298    0.029    0.306   78.507  166.805   15.673
  545.548    0.030    0.307   74.249  168.679   15.633
  545.798    0.081    0.365   78.894  169.523   14.290
  546.048    0.122    0.391   81.464  169.745   11.325
  546.298    0.106    0.408   83.425  169.969    8.844
  546.548    0.120    0.425   84.410  170.297    7.466
  546.798    0.117    0.428   86.128  170.624    6.700
  547.048    0.094    0.399   86.990  170.947    6.356
  547.298    0.075    0.386   88.159  171.588    6.167
  547.548    0.113    0.421   94.816  172.428    6.072
  547.798    0.123    0.413   92.813  172.959    6.023
  548.048    0.129    0.393   88.250  173.287    5.985
  548.298    0.127    0.367   84.905  173.306    5.992
  548.548    0.118    0.384   84.368  173.008    6.045
  548.798    0.131    0.390   87.060  173.338    6.073
  549.048    0.120    0.393   88.655  173.456    6.103
  549.298    0.128    0.391   90.251  173.681    6.121
  549.548    0.119    0.387   92.454  173.906    6.151
  549.798    0.111    0.388   92.647  174.434    6.157
  550.048    0.121    0.398   90.950  175.177    6.153
  550.298    0.137    0.405   91.448  175.707    6.218
  550.548    0.135    0.412   93.103  176.138    6.295
  550.798    0.143    0.407   95.979  176.358    6.397
  551.048    0.137    0.396   90.562  176.687    6.512
  551.298    0.127    0.388   88.255  176.910    6.702
  551.548    0.117    0.376   88.631  177.236    6.991
  551.798    0.135    0.373   90.347  177.356    7.209
  552.048    0.123    0.372   93.223  177.581    7.352
  552.298    0.128    0.364   92.197  177.701    7.443
  552.548    0.136    0.379   90.743  177.821    7.506
  552.798    0.131    0.374   90.325  177.937    7.872
  553.048    0.116    0.372   89.909  177.954    8.727
  553.298    0.118    0.386   90.407  177.971    8.916
  553.548    0.123    0.365   91.088  178.193    8.018
  553.798    0.116    0.359   92.743  178.209    7.303
  554.048    0.114    0.359   97.752  178.432    7.045
  554.298    0.105    0.361   99.836  178.656    6.910
  554.548    0.086    0.358   94.907  177.330    7.035
  554.798    0.079    0.348   90.099  173.526    7.487
  555.048    0.068    0.324   83.646  172.511    7.969
  555.298    0.094    0.339   78.350  171.908    8.418
  555.548    0.096    0.362   72.323  171.100    8.976
  555.798    0.085    0.380   65.503  170.806    9.572
  556.048    0.082    0.358   57.038  170.924    9.889
  556.298    0.072    0.326   55.828  171.561    9.008
  556.548    0.152    0.309   84.070  174.674    6.666
  556.798    0.198    0.376   94.995  181.815    4.851
  557.048    0.293    0.523   96.956  189.371    3.272
  557.298    0.273    0.502   97.392  197.233    2.499
  557.548    0.275    0.503   97.585  204.065    2.086
  557.798    0.306    0.550   97.960  212.548    1.954
  558.048    0.308    0.563   97.178  216.488    1.920
  558.298    0.216    0.553   94.627  200.398    2.048
  558.548    0.179    0.500   90.918  188.644    2.212
  558.798    0.139    0.443   91.414  179.678    2.362
  559.048    0.063    0.404  100.022  173.601    2.629
  559.298    0.066    0.405  104.178  174.753    2.904
  559.548    0.085    0.409  103.578  176.940    3.292
  559.798    0.089    0.407  100.906  177.062    3.523
  560.048    0.102    0.400   98.415  176.971    3.627
  560.298    0.115    0.397   94.582  176.577    3.733
  560.548    0.108    0.392   87.946  175.872    3.900
  560.798    0.096    0.373   81.126  175.267    4.182
  561.048    0.072    0.342   77.539  173.734    4.706
  561.298    0.042    0.342   81.207  171.479    5.198
  561.548    0.033    0.367   85.485  171.495    5.350
  561.798    0.101    0.385   89.336  172.649    5.367
  562.048    0.117    0.392   85.687  174.318    5.294
  562.298    0.109    0.394   80.454  174.230    5.241
  562.548    0.105    0.404   81.012  173.214    5.218
  562.798    0.106    0.407   84.864  169.824    5.223
  563.048    0.128    0.400   88.227  164.264    5.134
  563.298    0.121    0.392   91.286  164.280    4.916
  563.548    0.099    0.398   92.698  166.878    4.760
  563.798    0.116    0.421   92.768  169.993    4.635
  564.048    0.100    0.419   92.230  171.352    4.614
  564.298    0.069    0.416   88.459  170.853    4.715
  564.548    0.062    0.408   80.602  169.940    5.000
  564.798    0.071    0.394   71.466  168.615    5.302
  565.048    0.095    0.370   64.220  167.599    5.632
  565.298    0.157    0.366   56.729  166.994    5.961
  565.548    0.182    0.361   46.556  165.981    6.380
  565.798    0.204    0.368   39.797  165.275    5.630
  566.048    0.222    0.373   35.417  164.978    4.229
  566.298    0.237    0.363   32.499  164.687    3.492
