~VERSION INFORMATION
 VERS.                 2.0:   CWLS LOG ASCII STANDARD -VERSION 2.0
 WRAP.                  NO:   ONE LINE PER DEPTH STEP
~WELL INFORMATION BLOCK
#MNEM.UNIT           DATA                    DESCRIPTION OF MNEMONIC
#---------    -------------------            -------------------------------
# Generated from Intellog Unique Number	CS_71_72/WELL/637
WELL.         AMOCO AEC IPIATIK              : Well_name    - WELL
LOC .         00/03-18-072-06W4/0            : Location     - LOCATION
UWI .         00/03-18-072-06W4/0            : Uwi          - UNIQUE WELL ID
ENTR.         SP                             : Entered      - ENTERED BY
SRVC.         SCHLUMBERGER                   : Scn          - SERVICE COMPANY
STRT.M        310                            : top_depth    - START DEPTH
STOP.M        535                            : bot_depth    - STOP DEPTH
STEP.M        0.25                           : increment    - STEP LENGTH
 NULL. -999.2500:NULL Value
~CURVE INFORMATION BLOCK
#MNEM UNIT       ERCB CURVE CODE    CURVE DESCRIPTION
#-----------   ------------------   ----------------------------------
DEPT.M        00 001 00 00         : DEPTH        - DEPTH
ILD .OHMM     00 120 00 00         : RESD         - DEEP RESISTIVITY (DIL)
DPHI.V/V      00 890 00 00         : PHID         - DENSITY POROSITY (LIMESTONE)
NPHI.V/V      00 330 00 00         : PHIN         - NEUTRON POROSITY (LIMESTONE)
GR  .API      00 310 00 00         : GR           - GAMMA RAY
~PARAMETER INFORMATION
#MNEM.UNIT           DATA             DESCRIPTION OF MNEMONIC
#---------         -----------     ------------------------------
GL  .M        684.4                : gl           - GROUND LEVEL ELEVATION
EREF.M        688.5                : kb           - ELEVATION OF DEPTH REFERENCE
DATM.M        684.4                : datum        - DATUM ELEVATION
TDD .M        550                  : tdd          - TOTAL DEPTH DRILLER
RUN .         ONE                  : Run          - RUN NUMBER
ENG .         BILL                 : Engineer     - RECORDING ENGINEER
WIT .         JIM                  : Witness      - WITNESSED BY
MUD .         GEL                  : Mud_type     - MUD TYPE
MATR.         LIMESTONE            : Logunit      - NEUTRON MATRIX
TMAX.C        19                   : BHT          - MAXIMUM RECORDED TEMPERATURE
BHTD.M        550                  : BHTDEP       - MAXIMUM RECORDED TEMPERATURE
MATR.         1                    : LOGUNIT      - NEUTRON MATRIX
RMT .C        25                   : MDTP         - TEMPERATURE OF MUD
NEUT.         1                    : NEUTRON      - NEUTRON TYPE
RESI.         0                    : RESIST       - RESISTIVITY TYPE
RMC .OHMM     0.25                 : RMC          - RESISTIVITY OF MUD CAKE
RMF .OHMM     0.25                 : RMF          - RESISTIVITY OF MUD FILTRATE
SUFT.C        15                   : SUFT         - SURFACE TEMPERATURE
~A  DEPTH     RESD     PHID     PHIN       GR
# ...
  440.500    6.183    0.178    0.469   83.892
  440.750    6.069    0.188    0.475   84.509
  441.000    5.738    0.192    0.479   83.319
  441.250    5.325    0.194    0.491   83.339
  441.500    5.227    0.197    0.504   83.976
  441.750    5.035    0.204    0.510   85.209
  442.000    4.942    0.214    0.497   86.441
  442.250    4.943    0.219    0.475   88.898
  442.500    4.943    0.221    0.462   88.317
  442.750    5.326    0.214    0.446   87.117
  443.000    6.070    0.204    0.437   85.925
  443.250    6.664    0.186    0.426   82.912
  443.500    7.048    0.175    0.422   83.541
  443.750    6.917    0.165    0.430   85.992
  444.000    6.541    0.214    0.454   89.061
  444.250    6.070    0.220    0.474   90.903
  444.500    5.848    0.221    0.485   92.740
  444.750    5.848    0.225    0.472   95.195
  445.000    5.958    0.232    0.441   94.603
  445.250    6.421    0.248    0.418   88.553
  445.500    6.790    0.263    0.381   82.506
  445.750    7.455    0.258    0.370   78.882
  446.000    7.596    0.238    0.379   78.904
  446.250    7.885    0.218    0.391   79.533
  446.500    7.885    0.179    0.403   77.740
  446.750    7.596    0.162    0.404   75.938
  447.000    7.050    0.203    0.394   75.354
  447.250    6.422    0.261    0.400   77.193
  447.500    5.960    0.282    0.421   81.471
  447.750    5.849    0.230    0.440   83.310
  448.000    5.429    0.205    0.456   86.368
  448.250    4.945    0.197    0.466   89.433
  448.500    4.339    0.200    0.475   88.235
  448.750    3.879    0.235    0.503   83.411
  449.000    3.341    0.253    0.536   82.213
  449.250    2.772    0.247    0.549   81.022
  449.500    2.573    0.236    0.524   81.647
  449.750    2.479    0.238    0.519   84.706
  450.000    2.433    0.228    0.518   87.774
  450.250    2.433    0.219    0.518   89.002
  450.500    2.526    0.214    0.530   89.022
  450.750    2.773    0.219    0.532   88.440
  451.000    3.044    0.227    0.521   88.458
  451.250    3.469    0.216    0.491   87.871
  451.500    3.669    0.203    0.464   84.864
  451.750    3.954    0.198    0.444   82.461
  452.000    4.104    0.194    0.463   81.869
  452.250    4.260    0.186    0.471   82.505
  452.500    4.341    0.186    0.455   82.518
  452.750    4.260    0.185    0.459   83.152
  453.000    4.182    0.188    0.485   82.570
  453.250    4.182    0.196    0.490   81.374
  453.500    4.341    0.201    0.464   78.968
  453.750    4.678    0.195    0.443   75.350
  454.000    5.232    0.173    0.426   71.725
  454.250    5.963    0.152    0.409   67.499
  454.500    6.924    0.144    0.393   65.692
  454.750    7.323    0.218    0.384   63.292
  455.000    7.745    0.307    0.395   63.310
  455.250    8.191    0.337    0.396   63.337
  455.500    8.663    0.325    0.396   63.958
  455.750    8.826    0.313    0.396   65.819
  456.000    9.511    0.309    0.401   66.442
  456.250   10.249    0.326    0.414   67.063
  456.500   10.639    0.316    0.422   66.484
  456.750   11.464    0.312    0.435   64.684
  457.000   12.125    0.306    0.447   61.668
  457.250   12.823    0.299    0.450   60.476
  457.500   13.312    0.315    0.454   60.501
  457.750   14.344    0.319    0.464   61.129
  458.000   14.890    0.312    0.472   62.364
  458.250   15.457    0.305    0.468   62.996
  458.500   15.748    0.299    0.458   63.018
  458.750   16.348    0.297    0.454   63.647
  459.000   16.656    0.293    0.450   63.664
  459.250   16.657    0.286    0.449   63.702
  459.500   16.047    0.284    0.448   63.111
  459.750   15.750    0.280    0.445   63.130
  460.000   15.750    0.283    0.450   62.546
  460.250   16.048    0.273    0.465   62.567
  460.500   16.350    0.266    0.474   61.982
  460.750   16.351    0.268    0.482   62.005
  461.000   16.659    0.269    0.471   62.024
  461.250   16.659    0.276    0.465   62.046
  461.500   16.352    0.281    0.473   60.855
  461.750   16.049    0.277    0.477   60.264
  462.000   16.050    0.285    0.477   57.856
  462.250   16.661    0.283    0.474   56.672
  462.500   17.953    0.264    0.472   57.296
  462.750   18.988    0.234    0.445   57.924
  463.000   20.460    0.178    0.395   57.343
  463.250   21.239    0.117    0.227   53.716
  463.500   21.640    0.072    0.227   47.667
  463.750   20.462    0.112    0.354   54.375
  464.000   17.623    0.193    0.392   57.435
  464.250   15.756    0.267    0.407   58.665
  464.500   14.086    0.296    0.392   56.870
  464.750   13.319    0.196    0.370   53.858
  465.000   12.361    0.151    0.353   55.698
  465.250   11.052    0.134    0.345   63.614
  465.500    9.518    0.175    0.378   72.141
  465.750    8.046    0.214    0.416   78.841
  466.000    6.676    0.232    0.426   81.289
  466.250    5.750    0.200    0.422   80.704
  466.500    4.952    0.195    0.437   77.087
  466.750    5.540    0.200    0.422   70.432
  467.000    5.969    0.213    0.414   68.017
  467.250    6.677    0.223    0.396   66.223
  467.500    7.899    0.230    0.386   65.639
  467.750    8.199    0.242    0.383   65.052
  468.000    9.002    0.250    0.388   63.860
  468.250    9.172    0.235    0.390   63.275
  468.500    9.521    0.224    0.393   62.687
  468.750    9.521    0.209    0.400   60.890
  469.000    9.521    0.186    0.389   63.961
  469.250    9.345    0.173    0.384   65.801
  469.500    9.346    0.192    0.387   67.034
  469.750    9.522    0.201    0.398   68.264
  470.000    9.701    0.223    0.406   63.428
  470.250   10.651    0.235    0.412   57.989
  470.500   12.138    0.259    0.406   54.374
  470.750   12.838    0.276    0.406   53.170
  471.000   13.833    0.278    0.414   50.762
  471.250   14.360    0.281    0.428   50.181
  471.500   14.360    0.285    0.432   50.199
  471.750   13.834    0.270    0.423   51.440
  472.000   13.835    0.261    0.420   52.066
  472.250   13.835    0.264    0.418   52.088
  472.500   14.096    0.267    0.417   52.721
  472.750   15.189    0.266    0.415   52.132
  473.000   16.676    0.267    0.409   51.557
  473.250   17.310    0.275    0.404   52.176
  473.500   16.065    0.279    0.413   55.850
  473.750   12.603    0.266    0.425   60.726
  474.000    9.525    0.257    0.426   66.213
  474.250    8.052    0.247    0.432   69.877
  474.500    6.935    0.246    0.438   72.938
  474.750    7.757    0.247    0.449   73.565
  475.000    9.177    0.267    0.457   68.728
  475.250   11.269    0.280    0.445   63.895
  475.500   15.193    0.282    0.431   64.522
  475.750   18.311    0.267    0.409   65.158
  476.000   22.486    0.259    0.389   62.144
  476.250   27.613    0.256    0.378   56.088
  476.500   33.909    0.272    0.368   43.359
  476.750   43.225    0.281    0.360   30.024
  477.000   51.134    0.288    0.363   20.935
  477.250   58.275    0.298    0.363   23.392
  477.500   60.493    0.303    0.361   24.622
  477.750   60.494    0.306    0.369   26.468
  478.000   50.193    0.305    0.373   29.529
  478.250   32.067    0.296    0.379   35.014
  478.500   18.316    0.271    0.375   43.536
  478.750   14.915    0.250    0.366   60.563
  479.000   13.842    0.236    0.335   70.303
  479.250   14.916    0.217    0.375   77.002
  479.500   15.484    0.204    0.402   69.133
  479.750   16.685    0.271    0.415   68.553
  480.000   17.320    0.289    0.425   69.179
  480.250   17.320    0.289    0.433   72.840
  480.500   15.199    0.283    0.427   75.292
  480.750   13.090    0.271    0.424   76.530
  481.000   10.861    0.264    0.420   80.203
  481.250    8.845    0.249    0.421   80.825
  481.500    8.057    0.244    0.413   80.241
  481.750    7.477    0.235    0.400   77.226
  482.000    7.339    0.231    0.382   79.075
  482.250    7.478    0.228    0.370   81.523
  482.500    7.909    0.220    0.363   85.198
  482.750    8.058    0.217    0.367   85.815
  483.000    8.365    0.212    0.362   82.804
  483.250    8.522    0.207    0.358   80.394
  483.500    8.683    0.226    0.362   82.847
  483.750    8.847    0.221    0.370   78.622
