~VERSION INFORMATION
 VERS.                 2.0:   CWLS LOG ASCII STANDARD -VERSION 2.0
 WRAP.                  NO:   ONE LINE PER DEPTH STEP
~WELL INFORMATION BLOCK
#MNEM.UNIT           DATA                    DESCRIPTION OF MNEMONIC
#---------    -------------------            -------------------------------
# Generated from Intellog Unique Number	CW_73_75/WELL/59
WELL.         06-19-075-24W4                 : Well_name    - WELL
LOC .         00/06-19-075-24W4/0            : Location     - LOCATION
UWI .         00/06-19-075-24W4/0            : Uwi          - UNIQUE WELL ID
ENTR.         JJ                             : Entered      - ENTERED BY
SRVC.         SCHLUMBERGER                   : Scn          - SERVICE COMPANY
DATE.         14 MAR 62                      : Date         - LOG DATE
STRT.M        548.64                         : top_depth    - START DEPTH
STOP.M        676.64                         : bot_depth    - STOP DEPTH
STEP.M        0.25                           : increment    - STEP LENGTH
 NULL. -999.2500:NULL Value
~CURVE INFORMATION BLOCK
#MNEM UNIT       ERCB CURVE CODE    CURVE DESCRIPTION
#-----------   ------------------   ----------------------------------
DEPT.M        00 001 00 00         : DEPTH        - DEPTH
DELT.US/F     00 520 00 00         : DELT         - SONIC TRAVEL TIME
GR  .API      00 310 00 00         : GR           - GAMMA RAY
ILD .OHMM     00 120 00 00         : RESD         - DEEP RESISTIVITY (DIL)
~PARAMETER INFORMATION
#MNEM.UNIT           DATA             DESCRIPTION OF MNEMONIC
#---------         -----------     ------------------------------
GL  .M        765.505              : gl           - GROUND LEVEL ELEVATION
EREF.M        769.01               : kb           - ELEVATION OF DEPTH REFERENCE
DATM.M        765.505              : datum        - DATUM ELEVATION
TDD .M        690.372              : tdd          - TOTAL DEPTH DRILLER
RUN .         ONE                  : Run          - RUN NUMBER
ENG .         SKILTON              : Engineer     - RECORDING ENGINEER
WIT .         HOOKS                : Witness      - WITNESSED BY
BASE.         EDM                  : Branch       - HOME BASE OF LOGGING UNIT
MUD .         GEL                  : Mud_type     - MUD TYPE
MATR.         SANDSTONE            : Logunit      - NEUTRON MATRIX
TMAX.C        24.4444              : BHT          - MAXIMUM RECORDED TEMPERATURE
BHTD.M        691.591              : BHTDEP       - MAXIMUM RECORDED TEMPERATURE
RMT .C        21.1111              : MDTP         - TEMPERATURE OF MUD
MUDD.KG/M     1104                 : MWT          - MUD DENSITY
NEUT.         1                    : NEUTRON      - NEUTRON TYPE
RESI.         0                    : RESIST       - RESISTIVITY TYPE
RM  .OHMM     3.1                  : RM           - RESISTIVITY OF MUD
RMC .OHMM     3.2                  : RMC          - RESISTIVITY OF MUD CAKE
RMF .OHMM     3                    : RMF          - RESISTIVITY OF MUD FILTRATE
SUFT.C        5                    : SUFT         - SURFACE TEMPERATURE
~A  DEPTH     DELT       GR     RESD
# ...
  602.890  308.804   74.522    6.820
  603.140  315.391   70.455    6.780
  603.390  315.157   71.610    6.719
  603.640  306.641   76.511    6.678
  603.890  310.146   78.106    6.558
  604.140  327.714   77.888    6.417
  604.390  305.003   76.605    6.517
  604.640  294.841   75.806    6.896
  604.890  288.102   76.032    7.957
  605.140  289.306   77.526    7.836
  605.390  328.425   79.312    7.315
  605.640  349.276   81.581    6.454
  605.890  342.534   87.121    5.552
  606.140  340.717   90.270    4.971
  606.390  331.803   87.475    4.531
  606.640  331.429   87.942    4.470
  606.890  313.318   89.095    4.769
  607.140  314.787   87.081    5.229
  607.390  322.234   84.577    5.589
  607.640  330.216   83.193    5.969
  607.890  340.222   88.389    6.248
  608.140  342.469   93.638    6.248
  608.390  343.289   94.154    6.047
  608.640  348.239   94.677    5.946
  608.890  348.263   99.087    5.886
  609.140  343.817   93.521    5.825
  609.390  341.609   90.286    5.764
  609.640  340.391   89.386    5.804
  609.890  342.256   90.587    5.843
  610.140  347.864   93.539    5.883
  610.390  346.638  100.686    5.962
  610.640  345.019  103.104    6.102
  610.890  338.729   99.773    6.241
  611.140  341.846   93.860    6.281
  611.390  339.628   89.502    6.240
  611.640  338.545   85.733    6.240
  611.890  343.555   91.612    6.219
  612.140  343.383   93.152    6.238
  612.390  338.547   94.206    6.238
  612.640  331.019   86.246    6.257
  612.890  333.733   85.938    6.297
  613.140  338.553   89.914    6.316
  613.390  344.293   93.208    6.396
  613.640  341.954   93.583    6.455
  613.890  344.870   94.343    6.555
  614.140  343.966   96.518    6.614
  614.390  338.803   96.257    6.654
  614.640  338.884   89.514    6.673
  614.890  337.734   90.226    6.672
  615.140  334.075   92.212    6.672
  615.390  340.017   93.796    6.671
  615.640  345.485   95.243    6.531
  615.890  350.841   97.561    6.230
  616.140  355.785   99.346    6.029
  616.390  351.937  104.494    5.868
  616.640  346.115  102.481    5.708
  616.890  333.983   98.418    5.567
  617.140  341.100   97.668    5.527
  617.390  346.645   96.139    5.646
  617.640  353.372   91.637    5.926
  617.890  313.708   90.155    6.225
  618.140  302.101   88.291    7.846
  618.390  285.306   84.420    9.507
  618.640  266.601   77.674   11.908
  618.890  288.377   72.588   14.830
  619.140  321.909   69.207   14.649
  619.390  334.410   75.867   12.327
  619.640  334.836   87.643    9.164
  619.890  330.652   94.599    7.662
  620.140  326.603   95.457    7.221
  620.390  323.342   91.782    7.140
  620.640  319.227   88.545    7.140
  620.890  315.171   92.622    6.779
  621.140  324.788   98.209    6.578
  621.390  331.904   93.999    6.477
  621.640  337.716   87.164    6.257
  621.890  343.318   90.114    6.216
  622.140  342.495   97.063    6.295
  622.390  344.821  102.117    6.375
  622.640  342.674  103.270    6.514
  622.890  338.099  104.322    6.594
  623.140  331.619  103.963    6.714
  623.390  326.843  100.046    7.113
  623.640  325.943   90.620    7.553
  623.890  323.346   86.998    7.913
  624.140  327.901   87.660    8.212
  624.390  326.674   90.371    8.112
  624.640  328.211   90.653    7.971
  624.890  330.931   90.971    7.750
  625.140  334.761   92.416    7.590
  625.390  334.194   95.223    7.409
  625.640  330.411   99.736    7.228
  625.890  336.539   99.282    7.008
  626.140  338.860   93.708    6.867
  626.390  335.738   93.397    6.866
  626.640  321.238   95.381    6.946
  626.890  308.583  100.088    7.085
  627.140  281.603   97.535    7.185
  627.390  269.406   91.326    8.045
  627.640  279.347   87.801   10.146
  627.890  288.834   84.613   12.087
  628.140  308.172   81.427   12.967
  628.390  321.273   82.239   11.245
  628.640  333.783   92.457    9.964
  628.890  333.808   95.658    8.362
  629.140  335.075   93.392    7.500
  629.390  332.409   91.184    7.059
  629.640  327.832   90.922    7.139
  629.890  329.960   90.076    7.359
  630.140  333.332   88.497    7.518
  630.390  337.623   89.115    7.577
  630.640  333.049   93.382    7.537
  630.890  331.694   96.926    7.376
  631.140  329.091   99.584    7.255
  631.390  318.864  104.297    7.215
  631.640  314.751  103.742    7.294
  631.890  315.301   96.558    7.454
  632.140  316.431   94.495    7.714
  632.390  319.487   96.570    7.953
  632.640  328.710   99.915    8.033
  632.890  331.419   98.340    8.232
  633.140  326.589   90.966    8.452
  633.390  334.554   86.020    9.032
  633.640  336.293   86.299   10.412
  633.890  317.195   87.891   12.633
  634.140  298.955   83.676   14.274
  634.390  283.406   80.347   16.455
  634.640  260.232   76.427   18.196
  634.890  254.149   63.836   20.418
  635.140  256.798   66.644   22.779
  635.390  256.761   60.784   23.899
  635.640  258.753   57.690   22.317
  635.890  263.705   59.478   20.776
  636.140  262.737   59.460   19.614
  636.390  263.886   61.489   18.613
  636.640  267.119   62.443   18.292
  636.890  268.267   63.791   18.331
  637.140  267.566   66.017   18.691
  637.390  263.257   67.120   19.411
  637.640  252.571   63.980   20.791
  637.890  252.329   60.696   21.732
  638.140  272.129   62.483   20.810
  638.390  291.081   69.340   18.288
  638.640  307.922   75.604   15.125
  638.890  309.260   80.704   13.022
  639.140  306.713   83.172   10.640
  639.390  320.940   84.909    9.038
  639.640  315.177   86.401    7.716
  639.890  312.110   88.970    7.756
  640.140  316.276   92.458    7.755
  640.390  323.066   90.197    7.715
  640.640  329.726   94.131    7.694
  640.890  333.757   99.371    7.593
  641.140  333.719  106.862    7.493
  641.390  324.611  108.888    7.352
  641.640  317.926  106.240    7.031
  641.890  313.553  102.662    6.931
  642.140  303.592   98.405    7.110
  642.390  309.065   93.806    7.550
  642.640  293.320   92.864    8.450
  642.890  292.556   92.844    9.090
  643.140  299.019   87.954    9.390
  643.390  310.933   81.698    9.769
  643.640  310.563   83.439    9.789
  643.890  307.365   84.783    9.588
  644.140  304.044   85.347    9.307
  644.390  298.870   85.915    8.906
  644.640  296.073   87.165    8.886
  644.890  295.633   88.170    9.266
  645.140  297.108   88.007   10.026
  645.390  300.613   87.403   10.946
  645.640  308.588   89.576   11.045
  645.890  317.148   92.042   10.404
  646.140  316.976   95.193    9.463
  646.390  299.062  100.049   10.283
  646.640  286.998  104.905   12.324
  646.890  283.402   98.311   14.745
  647.140  297.362   95.121   17.467
  647.390  311.250   77.073   19.748
  647.640  318.762   80.318   16.825
  647.890  321.808   84.056    7.077
  648.140  320.453   86.135    8.818
  648.390  302.936   89.476   14.702
  648.640  295.009   95.646    2.972
  648.890  285.697   88.563    1.070
  649.140  295.905   80.996    2.991
  649.390  311.375   75.855    7.674
  649.640  326.171   77.987    7.593
  649.890  330.407   85.371    5.251
  650.140  336.145   89.743    2.128
  650.390  339.189   92.503    1.767
  650.640  340.139   94.626    2.507
  650.890  338.783   97.484    5.369
  651.140  334.531   94.544    8.310
  651.390  330.418   92.915    6.708
  651.640  326.430   97.234    4.706
  651.890  322.254   96.926    5.086
  652.140  318.927   94.763    6.226
  652.390  322.303   94.549    6.726
  652.640  327.316   96.485    5.505
  652.890  328.650   95.977    5.084
  653.140  327.697   91.963    5.043
  653.390  306.363   92.582    5.303
  653.640  293.575   95.291    5.502
  653.890  282.034   98.783    5.802
  654.140  273.054  100.467    6.182
  654.390  320.193   97.039    6.221
  654.640  343.672   89.416    5.780
  654.890  380.818   93.104    5.099
  655.140  407.650   98.446    4.178
  655.390  428.307  104.374    3.657
  655.640  419.786  104.318    2.876
  655.890  399.508  103.123    2.295
  656.140  376.669  100.962    1.794
  656.390  341.932   97.821    1.653
  656.640  328.944   93.025    2.233
  656.890  313.400   88.426    2.953
