~VERSION INFORMATION
 VERS.                 2.0:   CWLS LOG ASCII STANDARD -VERSION 2.0
 WRAP.                  NO:   ONE LINE PER DEPTH STEP
~WELL INFORMATION BLOCK
#MNEM.UNIT           DATA                    DESCRIPTION OF MNEMONIC
#---------    -------------------            -------------------------------
# Generated from Intellog Unique Number	CC_84_87/WELL/1052
NULL.         -999.25                        : NULL_VALUE
WELL.         PARAMOUNT ET AL SALESKI        : Well_name    - WELL
LOC .         04-06-087-17W4                 : Location     - LOCATION          
UWI .         00/04-06-087-17W400            : Uwi          - UNIQUE WELL ID    
ENTR.         JOHN                           : Entered      - ENTERED BY        
SRVC.         SCHLUMBERGER                   : Scn          - SERVICE COMPANY   
DATE.         FEB 86                         : Date         - LOG DATE
STRT.M        107                            : top_depth    - START DEPTH       
STOP.M        214.101                        : bot_depth    - STOP DEPTH        
STEP.M        0.3                            : increment    - STEP LENGTH       
~CURVE INFORMATION BLOCK
#MNEM UNIT       ERCB CURVE CODE    CURVE DESCRIPTION
#-----------   ------------------   ----------------------------------
DEPT.M        00 001 00 00         : DEPTH        - DEPTH                       
DPHI.V/V      00 890 00 00         : PHID         - DENSITY POROSITY (LIMESTONE)
NPHI.V/V      00 330 00 00         : PHIN         - NEUTRON POROSITY (LIMESTONE)
GR  .API      00 310 00 00         : GR           - GAMMA RAY                   
ILD .OHMM     00 120 00 00         : RESD         - DEEP RESISTIVITY (DIL)      
~PARAMETER INFORMATION       
#MNEM.UNIT           DATA             DESCRIPTION OF MNEMONIC
#---------         -----------     ------------------------------
GL  .M        506.3                : gl           - GROUND LEVEL ELEVATION      
EREF.M        510.1                : kb           - ELEVATION OF DEPTH REFERENCE
DATM.M        510.1                : datum        - DATUM ELEVATION             
TDD .M        218                  : tdd          - TOTAL DEPTH DRILLER         
RUN .         ONE                  : Run          - RUN NUMBER                  
ENG .         BILL                 : Engineer     - RECORDING ENGINEER          
WIT .         JIM                  : Witness      - WITNESSED BY                
MUD .         GEL                  : Mud_type     - MUD TYPE                    
MATR.         LIMESTONE            : Logunit      - NEUTRON MATRIX              
TMAX.C        27                   : BHT          - MAXIMUM RECORDED TEMPERATURE
BHTD.M        218                  : BHTDEP       - MAXIMUM RECORDED TEMPERATURE
MATR.         1                    : LOGUNIT      - NEUTRON MATRIX              
RMT .C        25                   : MDTP         - TEMPERATURE OF MUD          
NEUT.         1                    : NEUTRON      - NEUTRON TYPE                
RESI.         0                    : RESIST       - RESISTIVITY TYPE            
RMC .OHMM     0.25                 : RMC          - RESISTIVITY OF MUD CAKE     
RMF .OHMM     0.25                 : RMF          - RESISTIVITY OF MUD FILTRATE 
SUFT.C        15                   : SUFT         - SURFACE TEMPERATURE         
~A  DEPTH     PHID     PHIN       GR     RESD
  107.000    0.248    0.432   77.538    6.431
  107.300    0.315    0.408   61.004    7.790
  107.600    0.334    0.385   57.182    9.996
  107.900    0.336    0.388   59.081   12.343
  108.200    0.333    0.398   57.798   12.579
  108.500    0.334    0.403   57.156   12.104
  108.800    0.340    0.406   58.417   12.102
  109.100    0.337    0.416   57.137   12.573
  109.400    0.341    0.395   57.128   13.063
  109.700    0.345    0.388   55.849   13.315
  110.000    0.347    0.388   54.569   13.059
  110.300    0.350    0.390   55.196   12.809
  110.600    0.352    0.403   59.636   12.564
  110.900    0.342    0.416   60.898   12.561
  111.200    0.323    0.421   60.890   12.802
  111.500    0.330    0.426   61.515   12.800
  111.800    0.345    0.419   60.871   13.046
  112.100    0.349    0.405   60.863   13.045
  112.400    0.336    0.401   62.125   13.295
  112.700    0.322    0.401   61.481   13.293
  113.000    0.314    0.401   64.013   13.548
  113.300    0.293    0.391   70.360   13.546
  113.600    0.295    0.372   74.800   13.034
  113.900    0.284    0.370   73.521   12.070
  114.200    0.172    0.373   67.156   10.551
  114.500    0.181    0.374   62.699   11.391
  114.800    0.261    0.379   63.325   13.278
  115.100    0.297    0.375   62.680   12.776
  115.400    0.302    0.378   62.035   11.385
  115.700    0.294    0.384   62.026   10.342
  116.000    0.303    0.390   62.655   10.144
  116.300    0.273    0.401   63.916   10.338
  116.600    0.158    0.397   65.814   10.742
  116.900    0.146    0.278   63.263   11.821
  117.200    0.205    0.271   53.085   13.780
  117.500    0.259    0.276   53.076   14.877
  117.800    0.285    0.304   60.057   14.874
  118.100    0.294    0.336   62.592   13.774
  118.400    0.297    0.357   67.668   11.812
  118.700    0.271    0.397   64.480   11.585
  119.000    0.223    0.405   63.837   12.270
  119.300    0.202    0.385   64.464   13.247
  119.600    0.064    0.311   63.183   16.674
  119.900    0.075    0.228   61.268   19.067
  120.200    0.097    0.232   57.446   19.434
  120.500    0.117    0.251   58.707   18.699
  120.800    0.125    0.263   61.877   17.315
  121.100    0.146    0.277   64.411   16.033
  121.400    0.218    0.300   66.308   14.846
  121.700    0.254    0.331   66.935   14.013
  122.000    0.309    0.361   66.289   13.484
  122.300    0.316    0.352   66.282   12.727
  122.600    0.306    0.377   69.450   12.013
  122.900    0.302    0.398   70.712   11.559
  123.200    0.304    0.409   70.703   11.123
  123.500    0.306    0.404   69.424   10.702
  123.800    0.300    0.415   72.593   10.700
  124.100    0.268    0.442   73.219   10.495
  124.400    0.278    0.422   71.939   10.697
  124.700    0.302    0.413   73.200   10.695
  125.000    0.295    0.417   75.100   10.901
  125.300    0.283    0.414   73.820   11.110
  125.600    0.273    0.408   69.998   11.108
  125.900    0.244    0.419   66.811   11.321
  126.200    0.245    0.423   64.895   11.320
  126.500    0.257    0.412   65.522   11.318
  126.800    0.268    0.394   71.232   11.101
  127.100    0.271    0.388   73.767   10.888
  127.400    0.273    0.390   72.487   10.679
  127.700    0.273    0.391   71.207   10.276
  128.000    0.269    0.398   74.375    9.887
  128.300    0.267    0.408   73.096    9.698
  128.600    0.268    0.422   71.814    9.696
  128.900    0.272    0.425   72.443    9.695
  129.200    0.273    0.392   74.341    9.694
  129.500    0.273    0.384   73.060    9.691
  129.800    0.263    0.392   70.509    9.506
  130.100    0.248    0.393   72.407    9.324
  130.400    0.249    0.395   80.024    8.801
  130.700    0.253    0.407   90.821    7.694
  131.000    0.249    0.420   99.074    6.598
  131.300    0.242    0.420   99.701    5.768
  131.600    0.234    0.420   98.421    5.550
  131.900    0.220    0.422   95.869    5.549
  132.200    0.210    0.427   91.412    6.593
  132.500    0.211    0.408   82.505    7.397
  132.800    0.228    0.415   81.861    8.623
  133.100    0.202    0.429   86.301    9.861
  133.400    0.197    0.408   81.207   10.050
  133.700    0.255    0.399   87.554    9.486
  134.000    0.258    0.427   89.452    8.784
  134.300    0.195    0.459   91.348    7.827
  134.600    0.210    0.469   93.248    7.248
  134.900    0.244    0.444   88.790    6.974
  135.200    0.228    0.438   84.968    6.710
  135.500    0.219    0.448   92.586    6.582
  135.800    0.211    0.443   98.933    6.333
  136.100    0.164    0.426   94.474    6.332
  136.400    0.152    0.415   85.567    6.454
  136.700    0.148    0.398   83.015    7.103
  137.000    0.191    0.391   88.091    8.603
  137.300    0.241    0.407   94.439   10.029
  137.600    0.261    0.419   94.430   11.469
  137.900    0.261    0.419   91.244   12.146
  138.200    0.264    0.415   87.421   12.620
  138.500    0.270    0.400   82.327   12.618
  138.800    0.259    0.402   82.955   12.376
  139.100    0.265    0.419   83.582   12.373
  139.400    0.279    0.410   83.573   12.611
  139.700    0.263    0.387   81.657   12.854
  140.000    0.245    0.386   78.471   13.355
  140.300    0.249    0.393   76.555   13.875
  140.600    0.259    0.401   80.359   14.416
  140.900    0.256    0.401   82.893   14.977
  141.200    0.256    0.397   83.518   14.411
  141.500    0.254    0.387   84.146   13.603
  141.800    0.239    0.387   87.315   12.121
  142.100    0.195    0.390   89.213   10.596
  142.400    0.174    0.396   92.382   10.002
  142.700    0.218    0.425   96.823    9.441
  143.000    0.232    0.431  101.262    9.084
  143.300    0.226    0.413  101.252    8.910
  143.600    0.213    0.413   99.337    8.909
  143.900    0.213    0.413   98.691    8.907
  144.200    0.220    0.417  100.590    9.078
  144.500    0.229    0.405  101.853    9.252
  144.800    0.232    0.395  101.844    9.251
  145.100    0.226    0.401   99.928    9.250
  145.400    0.221    0.400   99.920    9.248
  145.700    0.217    0.395  101.818    9.247
  146.000    0.208    0.403   97.996    9.245
  146.300    0.212    0.407   89.089    9.423
  146.600    0.277    0.400   80.182    9.421
  146.900    0.296    0.393   75.088    9.788
  147.200    0.300    0.391   75.080   10.772
  147.500    0.299    0.389   74.436   11.630
  147.800    0.295    0.389   73.156   12.316
  148.100    0.296    0.393   71.240   12.796
  148.400    0.290    0.384   68.053   13.042
  148.700    0.233    0.341   70.586   12.792
  149.000    0.180    0.324   70.578   12.074
  149.300    0.230    0.329   69.933   11.618
  149.600    0.301    0.351   71.196   11.396
  149.900    0.306    0.367   72.459   10.965
  150.200    0.240    0.374   71.814   10.754
  150.500    0.243    0.366   73.076   10.549
  150.800    0.287    0.371   74.973   10.150
  151.100    0.291    0.380   79.415    9.045
  151.400    0.271    0.397   85.124    7.757
  151.700    0.261    0.415   88.930    7.322
  152.000    0.270    0.429   88.921    7.753
  152.300    0.276    0.440   83.828    7.903
  152.600    0.247    0.426   81.912    8.370
  152.900    0.238    0.422   81.268    8.368
  153.200    0.248    0.421   81.259    8.052
  153.500    0.254    0.410   79.342    7.456
  153.800    0.253    0.402   81.877    7.038
  154.100    0.248    0.421   91.401    6.903
  154.400    0.244    0.444   96.477    7.172
  154.700    0.220    0.445   88.205    7.596
  155.000    0.097    0.424   72.944    8.200
  155.300    0.149    0.375   67.215    8.199
  155.600    0.190    0.397   74.832    8.042
  155.900    0.222    0.413   82.449    7.888
  156.201    0.233    0.417   87.525    7.590
  156.501    0.199    0.420   86.882    7.444
  156.801    0.192    0.434   84.331    6.893
  157.101    0.248    0.429   85.593    6.761
  157.401    0.267    0.405   90.033    6.760
  157.701    0.225    0.405   94.472    7.023
  158.001    0.213    0.414   96.370    7.297
  158.301    0.222    0.429   98.267    7.728
  158.601    0.220    0.435   98.895    8.185
  158.901    0.223    0.429   95.709    8.668
