~VERSION INFORMATION
 VERS.                 2.0:   CWLS LOG ASCII STANDARD -VERSION 2.0
 WRAP.                  NO:   ONE LINE PER DEPTH STEP
~WELL INFORMATION BLOCK
#MNEM.UNIT           DATA                    DESCRIPTION OF MNEMONIC
#---------    -------------------            -------------------------------
# Generated from Intellog Unique Number	CC_84_87/WELL/1076
NULL.         -999.25                        : NULL_VALUE
WELL.         BP SALESKI                     : Well_name    - WELL              
LOC .         07-08-085-18W4                 : Location     - LOCATION          
UWI .         00/07-08-085-18W400            : Uwi          - UNIQUE WELL ID    
ENTR.         DW                             : Entered      - ENTERED BY        
SRVC.         SCHLUMBERGER                   : Scn          - SERVICE COMPANY   
DATE.         05 FEB 81                      : Date         - LOG DATE
STRT.M        80                             : top_depth    - START DEPTH       
STOP.M        295.1                          : bot_depth    - STOP DEPTH        
STEP.M        0.3                            : increment    - STEP LENGTH       
~CURVE INFORMATION BLOCK
#MNEM UNIT       ERCB CURVE CODE    CURVE DESCRIPTION
#-----------   ------------------   ----------------------------------
DEPT.M        00 001 00 00         : DEPTH        - DEPTH                       
DPHI.V/V      00 890 00 00         : PHID         - DENSITY POROSITY (LIMESTONE)
NPHI.V/V      00 330 00 00         : PHIN         - NEUTRON POROSITY (LIMESTONE)
GR  .API      00 310 00 00         : GR           - GAMMA RAY                   
ILD .OHMM     00 120 00 00         : RESD         - DEEP RESISTIVITY (DIL)      
~PARAMETER INFORMATION       
#MNEM.UNIT           DATA             DESCRIPTION OF MNEMONIC
#---------         -----------     ------------------------------
GL  .M        566.3                : gl           - GROUND LEVEL ELEVATION      
EREF.M        570                  : kb           - ELEVATION OF DEPTH REFERENCE
DATM.M        570                  : datum        - DATUM ELEVATION             
TDD .M        295                  : tdd          - TOTAL DEPTH DRILLER         
RUN .         ONE                  : Run          - RUN NUMBER                  
ENG .         BILL                 : Engineer     - RECORDING ENGINEER          
WIT .         JIM                  : Witness      - WITNESSED BY                
MUD .         GEL                  : Mud_type     - MUD TYPE                    
MATR.         LIMESTONE            : Logunit      - NEUTRON MATRIX              
TMAX.C        31                   : BHT          - MAXIMUM RECORDED TEMPERATURE
BHTD.M        295                  : BHTDEP       - MAXIMUM RECORDED TEMPERATURE
MATR.         1                    : LOGUNIT      - NEUTRON MATRIX              
RMT .C        25                   : MDTP         - TEMPERATURE OF MUD          
NEUT.         1                    : NEUTRON      - NEUTRON TYPE                
RESI.         0                    : RESIST       - RESISTIVITY TYPE            
RMC .OHMM     0.25                 : RMC          - RESISTIVITY OF MUD CAKE     
RMF .OHMM     0.25                 : RMF          - RESISTIVITY OF MUD FILTRATE 
SUFT.C        4                    : SUFT         - SURFACE TEMPERATURE         
~A  DEPTH     PHID     PHIN       GR     RESD
# ...
  184.401    0.303    0.508   65.708    7.167
  184.701    0.291    0.518   63.248    6.625
  185.001    0.308    0.480   60.178    7.709
  185.301    0.318    0.448   56.498   10.660
  185.601    0.332    0.428   51.593   12.403
  185.901    0.328    0.385   46.692   13.626
  186.201    0.307    0.352   39.958   16.791
  186.501    0.263    0.217   37.496   21.923
  186.801    0.155    0.181   39.308   28.067
  187.101    0.071    0.186   43.560   29.668
  187.401    0.099    0.214   44.149   29.048
  187.701    0.109    0.222   41.688   24.875
  188.001    0.093    0.219   41.059   20.899
  188.301    0.086    0.207   42.258   18.594
  188.601    0.142    0.237   45.902   17.177
  188.901    0.214    0.330   48.327   16.512
  189.201    0.309    0.395   48.305   13.864
  189.501    0.319    0.455   48.895   13.069
  189.801    0.326    0.457   49.488   12.543
  190.101    0.328    0.446   49.462   12.528
  190.401    0.330    0.447   49.442   12.743
  190.701    0.328    0.462   50.038   13.467
  191.001    0.318    0.465   50.019   13.711
  191.301    0.319    0.460   49.385   13.683
  191.601    0.330    0.452   48.756   13.660
  191.901    0.335    0.454   48.738   13.375
  192.201    0.339    0.471   48.720   13.342
  192.501    0.329    0.476   48.087   13.322
  192.801    0.325    0.475   48.071   13.040
  193.101    0.322    0.465   48.655   12.767
  193.401    0.317    0.440   49.248   12.497
  193.701    0.337    0.414   50.446   12.485
  194.001    0.333    0.419   50.430   12.702
  194.301    0.331    0.436   50.411   12.675
  194.601    0.329    0.436   50.394   12.899
  194.901    0.327    0.432   50.374   12.867
  195.201    0.322    0.458   51.570   12.600
  195.501    0.322    0.439   52.165   11.872
  195.801    0.318    0.434   52.752   11.403
  196.101    0.317    0.427   53.347   10.959
  196.401    0.317    0.427   52.713   10.937
  196.701    0.332    0.454   52.697   11.125
  197.001    0.330    0.483   51.452   11.319
  197.301    0.325    0.496   49.602   11.090
  197.601    0.317    0.501   48.361   10.447
  197.901    0.324    0.478   47.736   10.034
  198.201    0.320    0.455   48.936    9.823
  198.501    0.321    0.469   50.748    9.812
  198.801    0.327    0.482   52.556   10.170
  199.101    0.318    0.472   53.758   10.351
  199.401    0.319    0.447   54.352   10.940
  199.701    0.318    0.445   54.334   11.136
  200.001    0.324    0.450   54.313   11.329
  200.301    0.322    0.467   54.293   10.075
  200.601    0.310    0.492   54.269    9.499
  200.901    0.299    0.517   54.861    9.296
  201.201    0.294    0.497   55.455    9.277
  201.501    0.308    0.498   57.870    9.443
  201.801    0.307    0.493   59.078    9.247
  202.101    0.308    0.485   60.890    9.054
  202.401    0.302    0.485   62.699    8.698
  202.701    0.308    0.497   65.731    8.196
  203.001    0.292    0.480   69.377    7.869
  203.301    0.292    0.478   71.796    7.563
  203.601    0.258    0.487   72.386    6.729
  203.901    0.233    0.470   72.369    5.983
  204.201    0.227    0.511   68.077    5.640
  204.501    0.216    0.515   62.562    5.316
  204.801    0.174    0.415   60.101    5.728
  205.101    0.105    0.333   57.639    8.887
  205.401    0.122    0.312   53.348   11.600
  205.701    0.186    0.365   50.278   12.742
  206.001    0.094    0.367   45.374   14.824
  206.301    0.057    0.320   39.861   17.584
  206.601    0.000    0.164   38.009   31.803
  206.901    0.000    0.169   37.986   43.971
  207.201    0.000    0.177   37.969   43.048
  207.501    0.046    0.195   41.000   35.480
  207.801    0.099    0.225   45.253   28.132
  208.101    0.172    0.269   50.729   23.180
  208.401    0.214    0.361   55.593   16.700
  208.701    0.268    0.430   58.016   13.761
  209.001    0.281    0.435   58.607   11.559
  209.301    0.286    0.435   58.581   10.478
  209.601    0.292    0.440   58.561   10.264
  209.901    0.285    0.451   58.542   10.050
  210.201    0.280    0.459   59.134   10.029
  210.501    0.278    0.448   59.726    9.636
  210.801    0.288    0.435   60.319    9.802
  211.101    0.300    0.429   60.911   10.365
  211.401    0.298    0.427   62.722   11.386
  211.701    0.286    0.444   67.582   11.809
  212.001    0.284    0.455   70.618   10.506
  212.301    0.270    0.448   80.976    7.715
  212.601    0.248    0.455   84.619    5.888
  212.901    0.236    0.495   80.325    5.138
  213.201    0.227    0.499   78.474    4.936
  213.501    0.196    0.510   80.287    4.834
  213.801    0.162    0.480   84.541    4.642
  214.101    0.216    0.478   90.012    4.634
  214.401    0.220    0.500   90.604    4.713
  214.701    0.214    0.499   89.363    4.798
  215.001    0.219    0.487   82.020    5.372
  215.301    0.225    0.471   77.117    6.251
  215.601    0.217    0.459   74.653    7.557
  215.901    0.201    0.455   74.024    8.626
  216.201    0.209    0.455   75.834    9.842
  216.501    0.235    0.467   75.817   10.213
  216.801    0.231    0.470   72.134   10.591
  217.101    0.225    0.466   69.668   10.363
  217.401    0.240    0.465   70.264   10.349
  217.701    0.245    0.450   75.127   10.729
  218.001    0.228    0.455   76.938   10.920
  218.301    0.217    0.457   75.691   10.899
  218.601    0.235    0.448   73.235   10.672
  218.901    0.244    0.435   67.112   10.861
  219.201    0.259    0.413   61.601   11.705
  219.501    0.248    0.383   59.139   12.136
  219.801    0.217    0.385   59.729   12.116
  220.101    0.272    0.417   60.318   11.635
  220.401    0.253    0.433   60.911   11.174
  220.701    0.243    0.414   62.113   10.937
  221.001    0.250    0.424   62.087   11.135
  221.301    0.270    0.416   62.069   11.319
  221.601    0.261    0.401   62.664   11.306
  221.901    0.242    0.423   63.859   11.072
  222.201    0.239    0.444   65.066   10.840
  222.501    0.244    0.452   68.097   10.412
  222.801    0.242    0.449   69.299    9.812
  223.101    0.225    0.473   67.449    9.250
  223.401    0.247    0.488   64.986    8.886
  223.701    0.216    0.487   64.965    8.699
  224.001    0.254    0.459   67.995    8.196
  224.301    0.237    0.448   71.642    7.579
  224.601    0.224    0.474   72.233    6.871
  224.901    0.238    0.477   70.384    6.600
  225.201    0.251    0.463   67.307    6.589
  225.501    0.247    0.447   65.456    7.236
  225.801    0.267    0.455   64.219    7.799
  226.101    0.265    0.474   64.197    7.935
  226.401    0.256    0.483   63.568    7.618
  226.701    0.272    0.473   61.719    7.754
  227.001    0.287    0.446   61.085    8.043
  227.301    0.278    0.445   60.460    9.180
  227.602    0.285    0.446   61.050   10.280
  227.902    0.277    0.438   62.858   10.867
  228.202    0.275    0.438   65.280   10.637
  228.502    0.264    0.454   67.705    9.839
  228.802    0.274    0.454   67.683    8.586
  229.102    0.265    0.455   67.664    7.937
  229.402    0.239    0.474   70.695    7.920
  229.702    0.240    0.494   73.121    8.059
  230.002    0.234    0.490   74.319    8.203
  230.302    0.222    0.485   71.855    7.723
  230.602    0.211    0.497   70.619    7.569
  230.902    0.238    0.506   73.038    7.131
  231.202    0.248    0.489   76.075    6.982
  231.502    0.257    0.484   78.496    6.968
  231.802    0.247    0.480   75.421    7.093
  232.102    0.253    0.467   73.570    7.355
  232.402    0.244    0.472   75.382    7.774
  232.702    0.233    0.464   79.027    7.615
  233.002    0.227    0.458   80.227    6.771
  233.302    0.259    0.464   79.599    6.631
  233.602    0.241    0.457   70.420    7.148
  233.902    0.224    0.441   69.791    8.979
  234.202    0.222    0.413   71.604   10.652
  234.502    0.271    0.416   69.754   13.125
  234.802    0.294    0.436   65.456   14.146
  235.102    0.273    0.451   63.610   14.668
  235.402    0.284    0.457   61.758   14.090
  235.702    0.296    0.468   66.009   13.273
  236.002    0.284    0.476   71.486   12.271
  236.302    0.261    0.466   73.909   11.135
