~VERSION INFORMATION
 VERS.                 2.0:   CWLS LOG ASCII STANDARD -VERSION 2.0
 WRAP.                  NO:   ONE LINE PER DEPTH STEP
~WELL INFORMATION BLOCK
#MNEM.UNIT           DATA                    DESCRIPTION OF MNEMONIC
#---------    -------------------            -------------------------------
# Generated from Intellog Unique Number	CX_WELLS/WELL/2759
WELL.         05-20-080-13W4                 : Well_name    - WELL
LOC .         00/05-20-080-13W4/0            : Location     - LOCATION
UWI .         00/05-20-080-13W4/0            : Uwi          - UNIQUE WELL ID
ENTR.         T                              : Entered      - ENTERED BY
SRVC.         SCHLUMBERGER                   : Scn          - SERVICE COMPANY
STRT.M        270                            : top_depth    - START DEPTH
STOP.M        500                            : bot_depth    - STOP DEPTH
STEP.M        0.25                           : increment    - STEP LENGTH
 NULL. -999.2500:NULL Value
~CURVE INFORMATION BLOCK
#MNEM UNIT       ERCB CURVE CODE    CURVE DESCRIPTION
#-----------   ------------------   ----------------------------------
DEPT.M        00 001 00 00         : DEPTH        - DEPTH
GR  .API      00 310 00 00         : GR           - GAMMA RAY
NPHI.V/V      00 330 00 00         : PHIN         - NEUTRON POROSITY (SANDSTONE)
DPHI.V/V      00 890 00 00         : PHID         - DENSITY POROSITY (SANDSTONE)
ILD .OHMM     00 120 00 00         : RESD         - DEEP RESISTIVITY (DLL)
~PARAMETER INFORMATION
#MNEM.UNIT           DATA             DESCRIPTION OF MNEMONIC
#---------         -----------     ------------------------------
GL  .M        689.7                : gl           - GROUND LEVEL ELEVATION
EREF.M        692.9                : kb           - ELEVATION OF DEPTH REFERENCE
DATM.M        692.9                : datum        - DATUM ELEVATION
TDD .M        502                  : tdd          - TOTAL DEPTH DRILLER
RUN .         ONE                  : Run          - RUN NUMBER
ENG .         BILL                 : Engineer     - RECORDING ENGINEER
WIT .         JIM                  : Witness      - WITNESSED BY
MUD .         GEL                  : Mud_type     - MUD TYPE
MATR.         SANDSTONE            : Logunit      - NEUTRON MATRIX
TMAX.C        20                   : BHT          - MAXIMUM RECORDED TEMPERATURE
BHTD.M        504                  : BHTDEP       - MAXIMUM RECORDED TEMPERATURE
MATR.         1                    : LOGUNIT      - NEUTRON MATRIX
RMT .C        19                   : MDTP         - TEMPERATURE OF MUD
NEUT.         1                    : NEUTRON      - NEUTRON TYPE
RESI.         5.36                 : RESIST       - RESISTIVITY TYPE
RMC .OHMM     5.2                  : RMC          - RESISTIVITY OF MUD CAKE
RMF .OHMM     5.5                  : RMF          - RESISTIVITY OF MUD FILTRATE
SUFT.C        4                    : SUFT         - SURFACE TEMPERATURE
~A  DEPTH       GR     PHIN     PHID     RESD
# ...
  357.000   68.507    0.453    0.311   12.788
  357.250   67.951    0.449    0.313   12.802
  357.500   68.589    0.444    0.300   12.567
  357.750   69.208    0.440    0.294   12.116
  358.000   71.621    0.440    0.292   11.897
  358.250   73.424    0.447    0.293   11.682
  358.500   74.644    0.470    0.293   11.262
  358.750   75.273    0.471    0.292   11.270
  359.000   76.502    0.448    0.291   11.066
  359.250   78.314    0.437    0.288   10.666
  359.500   80.727    0.435    0.287   10.279
  359.750   80.163    0.436    0.286    9.906
  360.000   77.231    0.439    0.284    9.191
  360.250   71.349    0.439    0.284    8.530
  360.500   66.650    0.442    0.284    8.378
  360.750   61.369    0.469    0.296    9.045
  361.000   59.038    0.501    0.342    9.763
  361.250   57.299    0.517    0.328   11.159
  361.500   57.336    0.521    0.310   12.048
  361.750   57.372    0.453    0.313   12.763
  362.000   57.399    0.427    0.316   13.265
  362.250   56.853    0.419    0.316   13.789
  362.500   57.472    0.418    0.315   14.611
  362.750   58.101    0.420    0.314   15.486
  363.000   58.729    0.425    0.314   15.492
  363.250   59.358    0.425    0.309   14.930
  363.500   59.394    0.425    0.306   14.391
  363.750   58.866    0.421    0.302   14.133
  364.000   58.875    0.419    0.297   13.883
  364.250   58.320    0.411    0.293   13.635
  364.500   58.356    0.405    0.294   13.641
  364.750   58.402    0.415    0.296   13.656
  365.000   59.631    0.432    0.300   13.665
  365.250   62.035    0.440    0.298   13.169
  365.500   65.022    0.433    0.295   11.993
  365.750   68.018    0.425    0.290   11.125
  366.000   72.198    0.428    0.286   10.323
  366.250   76.969    0.459    0.281    8.879
  366.500   85.319    0.478    0.276    7.495
  366.750   85.929    0.472    0.238    6.697
  367.000   86.558    0.454    0.240    6.962
  367.250   86.002    0.445    0.244    6.585
  367.500   84.855    0.468    0.256    6.226
  367.750   84.892    0.479    0.268    5.776
  368.000   86.121    0.488    0.262    5.065
  368.250   89.108    0.486    0.248    4.698
  368.500   95.063    0.514    0.245    4.279
  368.750  104.569    0.556    0.241    3.896
  369.000  109.350    0.570    0.236    3.684
  369.250  111.162    0.557    0.235    3.484
  369.500  111.199    0.534    0.233    3.420
  369.750  110.662    0.512    0.230    3.296
  370.000  110.088    0.516    0.231    3.177
  370.250  109.533    0.536    0.238    3.179
  370.500  108.413    0.542    0.247    3.124
  370.750  107.839    0.568    0.250    3.125
  371.000  107.284    0.585    0.249    3.128
  371.250  106.719    0.575    0.249    3.132
  371.500  104.980    0.566    0.249    3.193
  371.750  102.649    0.555    0.251    3.384
  372.000   96.767    0.555    0.252    3.654
  372.250   92.078    0.551    0.255    3.944
  372.500   91.531    0.542    0.258    4.507
  372.750   92.151    0.528    0.259    5.054
  373.000   92.788    0.521    0.259    5.667
  373.250   92.806    0.516    0.262    6.354
  373.500   91.668    0.506    0.266    7.263
  373.750   89.347    0.496    0.270    7.841
  374.000   87.598    0.493    0.270    8.468
  374.250   85.850    0.488    0.269    8.635
  374.500   83.528    0.471    0.272    8.812
  374.750   81.206    0.469    0.279    8.816
  375.000   80.041    0.481    0.282    8.824
  375.250   77.127    0.480    0.284    8.344
  375.500   74.796    0.474    0.284    7.597
  375.750   76.026    0.465    0.283    6.918
  376.000   77.829    0.469    0.278    6.418
  376.250   80.224    0.471    0.275    5.735
  376.500   84.403    0.471    0.267    5.221
  376.750   89.175    0.470    0.258    4.664
  377.000   95.740    0.481    0.245    4.166
  377.250   97.543    0.503    0.236    3.793
  377.500   98.772    0.523    0.232    3.326
  377.750   99.392    0.545    0.243    2.971
  378.000  100.621    0.558    0.250    2.556
  378.250  101.841    0.560    0.257    2.038
  378.500  102.460    0.554    0.257    1.625
  378.750  101.923    0.547    0.254    1.272
  379.000   98.390    0.546    0.249    1.014
  379.250   93.692    0.550    0.249    0.793
  379.500   90.186    0.565    0.252    0.645
  379.750   94.949    0.574    0.259    0.576
  380.000   99.720    0.579    0.264    0.724
  380.250  101.532    0.550    0.270    1.432
  380.500   99.793    0.535    0.268    3.116
  380.750   93.920    0.526    0.253    4.555
  381.000   90.988    0.512    0.247    5.207
  381.250   89.258    0.507    0.250    5.311
  381.500   92.254    0.499    0.255    4.836
  381.750   95.241    0.497    0.255    4.488
  382.000   96.470    0.498    0.251    4.407
  382.250   94.740    0.501    0.251    4.328
  382.500   92.409    0.507    0.251    4.331
  382.750   90.670    0.509    0.251    4.335
  383.000   90.106    0.514    0.249    4.341
  383.250   90.151    0.516    0.246    4.427
  383.500   90.179    0.516    0.240    4.603
  383.750   90.215    0.515    0.235    4.784
  384.000   90.252    0.510    0.239    5.166
  384.250   90.297    0.504    0.245    5.471
  384.500   90.325    0.493    0.240    5.907
  384.750   92.155    0.484    0.229    6.258
  385.000   93.366    0.476    0.216    6.383
  385.250   93.995    0.459    0.215    6.037
  385.500   92.274    0.448    0.219    5.818
  385.750   92.292    0.451    0.227    5.607
  386.000   91.145    0.463    0.231    5.719
  386.250   91.172    0.479    0.230    5.945
  386.500   88.841    0.471    0.230    6.063
  386.750   87.102    0.465    0.229    6.304
  387.000   88.914    0.460    0.231    6.679
  387.250   89.552    0.465    0.240    7.076
  387.500   87.803    0.466    0.251    7.495
  387.750   86.074    0.461    0.268    8.248
  388.000   86.110    0.452    0.281    8.738
  388.250   86.739    0.445    0.286    9.083
  388.500   85.600    0.437    0.285    8.923
  388.750   84.435    0.437    0.284    8.931
  389.000   83.288    0.432    0.284    8.769
  389.250   81.558    0.427    0.282    8.612
  389.500   80.420    0.422    0.279    8.460
  389.750   79.846    0.421    0.274    8.153
  390.000   78.116    0.428    0.266    8.008
  390.250   77.561    0.437    0.246    8.167
  390.500   79.965    0.447    0.245    8.172
  390.750   83.552    0.445    0.247    8.338
  391.000   86.548    0.436    0.251    8.505
  391.250   87.778    0.425    0.252    8.514
  391.500   87.823    0.423    0.248    8.518
  391.750   87.841    0.426    0.240    8.366
  392.000   89.071    0.427    0.232    8.062
  392.250   88.516    0.430    0.247    7.623
  392.500   87.359    0.443    0.256    7.346
  392.750   86.813    0.445    0.262    6.948
  393.000   86.258    0.450    0.265    6.572
  393.250   83.936    0.458    0.268    6.453
  393.500   83.371    0.469    0.276    6.219
  393.750   82.816    0.476    0.278    5.770
  394.000   83.435    0.482    0.276    5.355
  394.250   85.839    0.483    0.271    5.159
  394.500   91.221    0.484    0.260    4.972
  394.750   94.808    0.486    0.249    4.978
  395.000   94.854    0.489    0.246    4.981
  395.250   93.698    0.490    0.244    5.278
  395.500   91.950    0.489    0.242    5.699
  395.750   89.036    0.486    0.247    6.035
  396.000   86.113    0.484    0.250    6.517
  396.250   84.966    0.480    0.251    7.311
  396.500   85.011    0.474    0.248    7.454
  396.750   85.030    0.459    0.218    7.751
  397.000   80.923    0.447    0.160    7.906
  397.250   76.826    0.383    0.188    7.913
  397.500   80.404    0.366    0.213    7.342
  397.750   87.552    0.362    0.242    6.812
  398.000   91.131    0.413    0.249    6.564
  398.250   94.127    0.450    0.231    6.207
  398.500   96.531    0.459    0.230    5.984
  398.750   97.751    0.459    0.235    5.988
  399.000   99.591    0.465    0.235    5.881
  399.250   99.017    0.468    0.232    5.885
  399.500   98.462    0.474    0.231    6.118
  399.750   96.722    0.481    0.243    6.362
  400.000   94.391    0.486    0.248    6.739
  400.250   93.845    0.480    0.250    7.415
