~VERSION INFORMATION
 VERS.                 2.0:   CWLS LOG ASCII STANDARD -VERSION 2.0
 WRAP.                  NO:   ONE LINE PER DEPTH STEP
~WELL INFORMATION BLOCK
#MNEM.UNIT           DATA                    DESCRIPTION OF MNEMONIC
#---------    -------------------            -------------------------------
# Generated from Intellog Unique Number	CN_94_101/WELL/3210
WELL.         PARAMOUNT RESOURCES LTD.       : Well_name    - WELL
LOC .         00/04-05-095-17W4/0            : Location     - LOCATION
UWI .         00/04-05-095-17W400            : Uwi          - UNIQUE WELL ID
ENTR.         JOETTE                         : Entered      - ENTERED BY
SRVC.         COMPUTALOG                     : Scn          - SERVICE COMPANY
DATE.         07/20/92                       : Date         - LOG DATE
STRT.M        175                            : top_depth    - START DEPTH
STOP.M        290                            : bot_depth    - STOP DEPTH
STEP.M        0.25                           : increment    - STEP LENGTH
 NULL. -999.2500:NULL Value
~CURVE INFORMATION BLOCK
#MNEM UNIT       ERCB CURVE CODE    CURVE DESCRIPTION
#-----------   ------------------   ----------------------------------
DEPT.M        00 001 00 00         : DEPTH        - DEPTH
GR  .API      00 310 00 00         : GR           - GAMMA RAY
NPHI.V/V      00 330 00 00         : PHIN         - NEUTRON POROSITY (SANDSTONE)
DPHI.V/V      00 890 00 00         : PHID         - DENSITY POROSITY (SANDSTONE)
ILD .OHMM     00 120 00 00         : RESD         - DEEP RESISTIVITY (DIL)
~PARAMETER INFORMATION
#MNEM.UNIT           DATA             DESCRIPTION OF MNEMONIC
#---------         -----------     ------------------------------
GL  .M        556.2                : gl           - GROUND LEVEL ELEVATION
EREF.M        557.6                : kb           - ELEVATION OF DEPTH REFERENCE
DATM.M        557.6                : datum        - DATUM ELEVATION
TDD .M        300                  : tdd          - TOTAL DEPTH DRILLER
RUN .         ONE                  : Run          - RUN NUMBER
ENG .         JO                   : Engineer     - RECORDING ENGINEER
WIT .         TIM                  : Witness      - WITNESSED BY
MUD .         GEL                  : Mud_type     - MUD TYPE
MATR.         SANDSTONE            : Logunit      - NEUTRON MATRIX
TMAX.C        30                   : BHT          - MAXIMUM RECORDED TEMPERATURE
BHTD.M        300                  : BHTDEP       - MAXIMUM RECORDED TEMPERATURE
RMT .C        15                   : MDTP         - TEMPERATURE OF MUD
MUDD.KG/M     1090                 : MWT          - MUD DENSITY
NEUT.         1                    : NEUTRON      - NEUTRON TYPE
RESI.         0                    : RESIST       - RESISTIVITY TYPE
RM  .OHMM     3.9                  : RM           - RESISTIVITY OF MUD
RMC .OHMM     3.9                  : RMC          - RESISTIVITY OF MUD CAKE
RMF .OHMM     6                    : RMF          - RESISTIVITY OF MUD FILTRATE
SUFT.C        4                    : SUFT         - SURFACE TEMPERATURE
~A  DEPTH       GR     PHIN     PHID     RESD
# ...
  218.500   85.755    0.324    0.179   10.640
  218.750   83.330    0.330    0.183   10.639
  219.000   82.139    0.342    0.210   10.636
  219.250   82.790    0.353    0.231   10.434
  219.500   83.475    0.353    0.244   10.433
  219.750   83.497    0.354    0.243   10.235
  220.000   83.542    0.361    0.243   10.233
  220.250   80.522    0.381    0.243   10.040
  220.500   79.927    0.385    0.246   10.037
  220.750   85.529    0.383    0.243   10.036
  221.000   91.760    0.370    0.233   10.034
  221.250   93.657    0.363    0.222   10.032
  221.500   94.936    0.360    0.218   10.031
  221.750   94.992    0.364    0.217   10.029
  222.000   93.802    0.374    0.215   10.027
  222.250   92.601    0.399    0.210   10.025
  222.500   90.175    0.375    0.203   10.216
  222.750   84.663    0.360    0.189   10.213
  223.000   84.090    0.354    0.191   10.212
  223.250   89.692    0.384    0.206    9.830
  223.500   97.147    0.412    0.213    9.462
  223.750  106.465    0.419    0.213    9.283
  224.000  106.510    0.432    0.204    9.281
  224.250  103.467    0.379    0.194    9.105
  224.500   96.719    0.346    0.142    8.932
  224.750   89.343    0.334    0.094    8.598
  225.000   88.781    0.375    0.125    8.277
  225.250   96.854    0.410    0.191    7.526
  225.500  102.456    0.424    0.207    6.589
  225.750  100.042    0.381    0.216    6.588
  226.000   95.135    0.384    0.225    6.462
  226.250   90.858    0.410    0.234    6.104
  226.500   91.520    0.442    0.248    5.551
  226.750   95.887    0.474    0.265    4.768
  227.000  101.489    0.477    0.273    4.096
  227.250  103.409    0.468    0.264    3.585
  227.500   98.513    0.441    0.253    3.723
  227.750   88.678    0.421    0.239    4.172
  228.000   86.859    0.394    0.237    5.238
  228.250   83.817    0.368    0.229    6.962
  228.500   80.763    0.331    0.165    8.908
  228.750   80.190    0.332    0.133   10.767
  229.000   87.027    0.358    0.183   10.170
  229.250   98.198    0.408    0.212    8.903
  229.500  105.664    0.451    0.211    8.251
  229.750  101.375    0.473    0.207    7.646
  230.000   94.627    0.379    0.205    7.792
  230.250   90.967    0.346    0.191    8.730
  230.500   87.935    0.320    0.159    9.781
  230.750   88.597    0.326    0.139   10.959
  231.000   94.189    0.352    0.120   12.047
  231.250   96.108    0.346    0.177   12.512
  231.500   94.918    0.340    0.196   12.993
  231.750   94.334    0.347    0.221   13.240
  232.000   93.155    0.358    0.221   13.238
  232.250   92.571    0.356    0.211   12.987
  232.500   92.020    0.328    0.166   12.739
  232.750   91.425    0.306    0.114   12.737
  233.000   90.235    0.331    0.078   12.735
  233.250   88.427    0.341    0.072   12.733
  233.500   88.472    0.359    0.102   12.731
  233.750   90.998    0.366    0.177   12.729
  234.000   92.278    0.371    0.203   12.488
  234.250   92.940    0.378    0.202   12.485
  234.500   92.973    0.387    0.200   12.248
  234.750   94.264    0.383    0.200   12.016
  235.000   95.544    0.378    0.207   11.789
  235.250   95.589    0.374    0.208   11.787
  235.500   95.633    0.374    0.200   12.010
  235.750   95.678    0.374    0.189   12.238
  236.000   95.712    0.368    0.181   12.470
  236.250   95.161    0.353    0.185   12.469
  236.500   91.490    0.355    0.192   12.705
  236.750   87.818    0.361    0.202   12.703
  237.000   83.541    0.365    0.212   12.943
  237.250   79.880    0.374    0.227   13.189
  237.500   78.073    0.381    0.237   13.960
  237.750   78.128    0.322    0.227   15.057
  238.000   78.162    0.279    0.209   15.344
  238.250   79.453    0.278    0.112   15.635
  238.500   80.126    0.290    0.085   15.337
  238.750   81.406    0.311    0.101   15.047
  239.000   83.303    0.345    0.159   15.045
  239.250   83.977    0.353    0.197   14.482
  239.500   83.999    0.337    0.216   14.208
  239.750   84.044    0.326    0.236   13.938
  240.000   84.717    0.326    0.245   13.673
  240.250   84.762    0.329    0.251   13.671
  240.500   84.795    0.336    0.253   13.669
  240.750   84.862    0.345    0.253   14.195
  241.000   84.885    0.354    0.250   14.741
  241.250   80.607    0.365    0.160   15.022
  241.500   70.783    0.314    0.125   15.899
  241.750   72.680    0.246    0.096   16.201
  242.000   77.654    0.273    0.076   15.300
  242.250   88.825    0.323    0.178   14.729
  242.500   93.203    0.366    0.231   13.650
  242.750   93.259    0.407    0.225   12.650
  243.000   91.429    0.416    0.212   12.410
  243.250   84.681    0.346    0.175   13.134
  243.500   72.387    0.324    0.134   15.286
  243.750   69.333    0.303    0.121   20.705
  244.000   63.203    0.277    0.074   25.027
  244.250   61.406    0.225    0.061   26.996
  244.500   62.675    0.221    0.037   23.190
  244.750   66.424    0.257    0.013   18.117
  245.000   80.672    0.331    0.029   14.701
  245.250   89.373    0.391    0.109   12.628
  245.500   99.915    0.422    0.163   11.483
  245.750  107.392    0.427    0.189   10.053
  246.000  107.414    0.434    0.190    9.316
  246.250  106.841    0.431    0.187    8.799
  246.500  106.886    0.423    0.182    8.470
  246.750  107.560    0.421    0.173    8.309
  247.000  108.850    0.429    0.168    8.308
  247.250  109.513    0.444    0.172    8.306
  247.500  108.951    0.458    0.180    8.305
  247.750  108.356    0.447    0.184    8.303
  248.000  107.794    0.423    0.164    8.302
  248.250  107.210    0.410    0.138    8.301
  248.500  106.020    0.402    0.141    8.299
  248.750  105.447    0.395    0.145    8.298
  249.000  104.875    0.390    0.132    8.296
  249.250  105.548    0.377    0.105    8.453
  249.500  106.210    0.364    0.081    8.614
  249.750  106.872    0.356    0.091    8.777
  250.000  108.152    0.387    0.122    8.945
  250.250  109.421    0.394    0.140    8.775
  250.500  114.417    0.406    0.167    8.608
  250.750  117.549    0.407    0.178    8.445
  251.000  120.075    0.418    0.181    8.285
  251.250  118.267    0.439    0.184    8.128
  251.500  117.066    0.444    0.183    7.974
  251.750  116.493    0.439    0.176    7.675
  252.000  115.325    0.429    0.166    7.530
  252.250  114.741    0.425    0.160    7.528
  252.500  114.168    0.428    0.151    7.527
  252.750  112.978    0.439    0.139    7.526
  253.000  112.405    0.447    0.126    7.525
  253.250  111.821    0.431    0.125    7.243
  253.500  110.631    0.425    0.125    7.106
  253.750  110.687    0.427    0.131    6.585
  254.000  111.349    0.428    0.145    6.339
  254.250  112.629    0.425    0.158    6.102
  254.500  113.291    0.423    0.166    6.337
  254.750  113.336    0.422    0.172    6.835
  255.000  112.763    0.417    0.173    7.235
  255.250  112.808    0.412    0.173    7.803
  255.500  113.470    0.414    0.163    7.656
  255.750  114.143    0.417    0.151    7.230
  256.000  116.647    0.421    0.151    6.829
  256.250  119.790    0.423    0.149    6.450
  256.500  116.119    0.404    0.135    5.865
  256.750  109.988    0.374    0.094    5.333
  257.000  105.711    0.362    0.076    5.037
  257.250   98.963    0.369    0.088    5.036
  257.500   98.401    0.374    0.123    5.132
  257.750  102.769    0.380    0.139    5.229
  258.000  106.507    0.391    0.142    5.431
  258.250  110.874    0.410    0.161    5.858
  258.500  110.324    0.432    0.157    5.969
  258.750  109.145    0.436    0.144    6.199
  259.000  108.550    0.440    0.142    6.198
  259.250  107.977    0.447    0.139    6.197
  259.500  108.650    0.442    0.138    6.314
  259.750  108.066    0.438    0.135    6.558
  260.000  103.171    0.417    0.143    7.347
  260.250   93.953    0.375    0.213    8.551
  260.500   86.577    0.347    0.243   10.736
  260.750   74.889    0.322    0.250   14.542
  261.000   61.349    0.310    0.183   24.735
  261.250   51.525    0.296    0.124   28.244
  261.500   49.695    0.276    0.178   32.869
  261.750   52.838    0.243    0.232   45.376
