~VERSION INFORMATION
 VERS.                 2.0:   CWLS LOG ASCII STANDARD -VERSION 2.0
 WRAP.                  NO:   ONE LINE PER DEPTH STEP
~WELL INFORMATION BLOCK
#MNEM.UNIT           DATA                    DESCRIPTION OF MNEMONIC
#---------    -------------------            -------------------------------
# Generated from Intellog Unique Number	CW_82_90/WELL/3054
WELL.         TEXEX WOODEN                   : Well_name    - WELL
LOC .         00/06-11-087-22W4/0            : Location     - LOCATION
UWI .         00/06-11-087-22W4/0            : Uwi          - UNIQUE WELL ID
ENTR.         MAX                            : Entered      - ENTERED BY
SRVC.         SCHLUMBERGER                   : Scn          - SERVICE COMPANY
STRT.M        106.68                         : top_depth    - START DEPTH
STOP.M        335.18                         : bot_depth    - STOP DEPTH
STEP.M        0.25                           : increment    - STEP LENGTH
 NULL. -999.2500:NULL Value
~CURVE INFORMATION BLOCK
#MNEM UNIT       ERCB CURVE CODE    CURVE DESCRIPTION
#-----------   ------------------   ----------------------------------
DEPT.M        00 001 00 00         : DEPTH        - DEPTH
GR  .API      00 310 00 00         : GR           - GAMMA RAY
CALI.MM       00 280 01 00         : CAL          - CALIPER
DPHI.V/V      00 890 00 00         : PHID         - DENSITY POROSITY (SANDSTONE)
NPHI.V/V      00 330 00 00         : PHIN         - NEUTRON POROSITY (SANDSTONE)
ILD .OHMM     00 120 00 00         : RESD         - DEEP RESISTIVITY (DIL)
~PARAMETER INFORMATION
#MNEM.UNIT           DATA             DESCRIPTION OF MNEMONIC
#---------         -----------     ------------------------------
GL  .M        559.613              : gl           - GROUND LEVEL ELEVATION
EREF.M        563.27               : kb           - ELEVATION OF DEPTH REFERENCE
DATM.M        559.613              : datum        - DATUM ELEVATION
TDD .M        338.633              : tdd          - TOTAL DEPTH DRILLER
RUN .         ONE                  : Run          - RUN NUMBER
ENG .         BILL                 : Engineer     - RECORDING ENGINEER
WIT .         JIM                  : Witness      - WITNESSED BY
MUD .         GEL                  : Mud_type     - MUD TYPE
MATR.         SANDSTONE            : Logunit      - NEUTRON MATRIX
TMAX.C        22.2222              : BHT          - MAXIMUM RECORDED TEMPERATURE
BHTD.M        338.633              : BHTDEP       - MAXIMUM RECORDED TEMPERATURE
MATR.         1                    : LOGUNIT      - NEUTRON MATRIX
RMT .C        14.4444              : MDTP         - TEMPERATURE OF MUD
NEUT.         1                    : NEUTRON      - NEUTRON TYPE
RESI.         0                    : RESIST       - RESISTIVITY TYPE
RMC .OHMM     5.92                 : RMC          - RESISTIVITY OF MUD CAKE
RMF .OHMM     5.92                 : RMF          - RESISTIVITY OF MUD FILTRATE
SUFT.C        -20.5556             : SUFT         - SURFACE TEMPERATURE
~A  DEPTH       GR      CAL     PHID     PHIN     RESD
# ...
  252.680   73.457  212.796    0.008    0.280   20.158
  252.930   87.503  212.332    0.027    0.371   17.152
  253.180   94.826  214.842    0.164    0.437   15.128
  253.430   96.018  219.824    0.176    0.449   11.658
  253.680   96.041  221.336    0.176    0.456   10.192
  253.930   96.347  221.371    0.179    0.453    9.664
  254.180   96.658  221.407    0.175    0.440    9.498
  254.430   96.094  221.937    0.171    0.440    9.503
  254.680   97.868  222.467    0.164    0.474    9.511
  254.930   99.056  222.498    0.161    0.485    9.602
  255.180   99.079  222.529    0.173    0.481    9.698
  255.430   99.093  222.557    0.182    0.475    9.791
  255.680   99.700  222.592    0.172    0.484    9.797
  255.930  100.888  222.133    0.165    0.499    9.983
  256.180  101.783  222.168    0.154    0.501   10.171
  256.430  100.635  222.195    0.141    0.459   10.551
  256.680   97.731  221.736    0.124    0.452   10.946
  256.930   97.748  221.272    0.111    0.446   11.356
  257.180   94.849  220.318    0.191    0.442   11.887
  257.430   91.363  216.391    0.206    0.440   12.331
  257.680   89.916  212.464    0.213    0.437   12.794
  257.930   91.400  211.510    0.209    0.436   13.153
  258.180   93.172  211.538    0.199    0.431   13.281
  258.430   94.359  211.078    0.177    0.421   13.410
  258.680   94.670  209.629    0.164    0.402   13.540
  258.930   94.983  210.155    0.163    0.394   13.550
  259.180   94.125  211.679    0.174    0.412   13.438
  259.430   96.191  212.692    0.229    0.430   13.208
  259.680   99.134  212.727    0.221    0.437   12.634
  259.930  100.031  212.766    0.218    0.460   12.086
  260.180  100.924  213.284    0.211    0.443   11.878
  260.430  102.406  215.299    0.193    0.420   11.570
  260.680  103.008  217.317    0.185    0.420   11.788
  260.930  100.986  217.839    0.205    0.434   11.690
  261.180   99.539  215.899    0.202    0.437   11.700
  261.430   97.223  212.954    0.192    0.436   11.708
  261.680   95.490  212.004    0.199    0.438   11.716
  261.930   93.756  211.536    0.198    0.440   11.723
  262.180   91.731  212.074    0.178    0.445   11.731
  262.430   91.750  212.600    0.153    0.448   11.530
  262.680   95.569  212.628    0.211    0.440   10.545
  262.930  100.552  215.137    0.210    0.442    9.818
  263.180  102.621  219.617    0.199    0.449    9.477
  263.430  100.302  222.130    0.190    0.448    9.399
  263.680   97.104  221.663    0.176    0.442    9.236
  263.930   93.911  218.239    0.174    0.425    8.836
  264.180   95.392  216.291    0.161    0.423    7.451
  264.430   99.214  216.318    0.133    0.465    6.284
  264.680  100.689  216.856    0.156    0.535    5.157
  264.930  101.294  217.869    0.194    0.538    4.428
  265.180  101.020  218.407    0.208    0.532    4.274
  265.430  100.165  218.435    0.195    0.528    4.638
  265.680   98.725  217.967    0.197    0.512    5.218
  265.930   96.113  217.017    0.200    0.497    5.766
  266.180   93.792  215.069    0.211    0.497    5.983
  266.430   94.692  214.602    0.231    0.490    5.986
  266.680   92.957  215.132    0.205    0.482    5.990
  266.930   89.759  215.171    0.190    0.486    6.159
  267.180   77.214  215.206    0.173    0.472    6.331
  267.430   71.391  214.735    0.173    0.449    6.688
  267.680   76.669  215.768    0.153    0.445    7.193
  267.930   84.581  217.276    0.130    0.460    7.948
  268.180   88.103  216.812    0.110    0.486    8.319
  268.430   91.630  216.851    0.134    0.480    8.787
  268.680   95.742  214.904    0.171    0.461    9.367
  268.930   98.390  215.924    0.180    0.449    9.457
  269.180  102.499  221.398    0.157    0.454    9.465
  269.430  102.230  220.440    0.186    0.455    9.470
  269.680  102.246  222.953    0.185    0.495    9.476
  269.930  101.098  223.479    0.185    0.503    9.744
  270.180   98.197  216.093    0.184    0.479   10.016
  270.430   95.876  214.640    0.201    0.440   10.487
  270.680   94.434  216.152    0.191    0.411   10.978
  270.930   92.704  216.187    0.195    0.410   11.284
  271.180   90.385  214.738    0.207    0.437   12.029
  271.430   85.726  213.281    0.204    0.439   12.937
  271.680   80.195  212.331    0.229    0.428   13.913
  271.930   74.954  212.358    0.204    0.404   15.097
  272.180   74.388  212.393    0.121    0.367   17.294
  272.430   79.084  212.429    0.091    0.311   20.537
  272.680   77.057  212.460    0.042    0.302   25.057
  272.930   76.496  211.502    0.014    0.291   24.851
  273.180   85.278  210.049    0.003    0.290   23.137
  273.430   91.142  209.589    0.081    0.400   20.782
  273.680   95.544  209.130    0.109    0.424   19.002
  273.930   97.032  208.662    0.149    0.434   17.378
  274.180   96.170  208.211    0.190    0.441   15.749
  274.430   93.559  208.238    0.181    0.439   14.146
  274.680   89.194  207.783    0.180    0.428   12.819
  274.930   80.447  207.311    0.130    0.413   12.947
  275.180   79.589  208.827    0.109    0.392   12.954
  275.430   86.330  210.845    0.105    0.436   12.847
  275.680   88.686  210.876    0.150    0.445   12.628
  275.930   88.707  208.438    0.140    0.440   12.299
  276.180   91.358  206.985    0.125    0.450   11.763
  276.430   91.084  208.995    0.174    0.453   11.563
  276.680   88.475  210.016    0.188    0.439   11.467
  276.930   85.277  209.561    0.193    0.426   12.003
  277.180   77.407  209.588    0.188    0.389   13.625
  277.430   68.954  209.129    0.157    0.328   16.624
  277.680   62.837  209.160    0.123    0.268   19.214
  277.930   70.747  208.704    0.016    0.271   21.425
  278.180   80.992  208.728    0.041    0.344   21.634
  278.430   87.148  208.763    0.123    0.416   20.143
  278.680   88.922  209.293    0.164    0.439   16.984
  278.930   90.694  210.805    0.170    0.456   14.583
  279.180   93.342  210.840    0.178    0.451   13.826
  279.430   94.536  210.875    0.190    0.487   13.467
  279.680   93.384  210.915    0.201    0.497   13.236
  279.930   92.234  210.938    0.212    0.489   13.243
  280.180   89.917  211.476    0.199    0.478   14.374
  280.430   86.135  211.994    0.173    0.483   15.738
  280.680   82.647  212.520    0.162    0.458   18.028
  280.930   79.748  213.054    0.144    0.421   20.099
  281.180   76.843  212.591    0.118    0.385   21.813
  281.430   75.108  213.121    0.091    0.314   21.634
  281.680   79.804  213.152    0.018    0.350   19.962
  281.930   84.789  214.672    0.064    0.385   18.755
  282.180   89.487  213.219    0.102    0.414   17.780
  282.430   89.212  212.261    0.133    0.421   16.557
  282.680   88.360  211.797    0.138    0.418   15.416
  282.930   88.959  211.342    0.117    0.422   14.615
  283.180   92.194  211.365    0.139    0.428   14.106
  283.430   93.965  211.404    0.129    0.449   13.740
  283.680   93.399  209.951    0.155    0.466   13.873
  283.930   93.420  209.990    0.156    0.450   14.009
  284.180   93.731  210.022    0.118    0.446   14.148
  284.430   94.338  210.049    0.128    0.473   14.155
  284.680   94.941  210.081    0.133    0.460   13.540
  284.930   95.542  210.116    0.161    0.445   13.072
  285.180   98.487  210.147    0.175    0.461   12.846
  285.430  100.258  211.172    0.190    0.481   12.514
  285.680   98.526  211.199    0.196    0.501   12.521
  285.930   96.789  210.245    0.183    0.476   12.417
  286.180   95.931  210.280    0.168    0.452   12.314
  286.430   96.539  209.817    0.149    0.441   12.103
  286.680   96.557  209.856    0.196    0.459   12.443
  286.930   95.701  208.890    0.204    0.444   12.678
  287.180   93.675  208.434    0.183    0.442   12.918
  287.430   92.524  209.451    0.161    0.438   13.402
  287.680   96.052  210.971    0.138    0.431   13.411
  287.930   98.990  210.508    0.089    0.421   13.299
  288.180  102.519  214.996    0.116    0.436   12.954
  288.430  103.996  214.536    0.174    0.440   12.392
  288.680  106.357  212.585    0.167    0.439   12.069
  288.930  106.667  214.108    0.162    0.442   11.757
