~VERSION INFORMATION
 VERS.                 2.0:   CWLS LOG ASCII STANDARD -VERSION 2.0
 WRAP.                  NO:   ONE LINE PER DEPTH STEP
~WELL INFORMATION BLOCK
#MNEM.UNIT           DATA                    DESCRIPTION OF MNEMONIC
#---------    -------------------            -------------------------------
# Generated from Intellog Unique Number	CW_73_75/WELL/502
WELL.         MANNVILLE ET AL MARTENH 05-36  : Well_name    - WELL
LOC .         00/05-36-074-23W4/0            : Location     - LOCATION
UWI .         00/05-36-074-23W4/0            : Uwi          - UNIQUE WELL ID
ENTR.         JAYE                           : Entered      - ENTERED BY
SRVC.         SCHLUMBERGER                   : Scn          - SERVICE COMPANY
DATE.         29 MAR 81                      : Date         - LOG DATE
STRT.M        455                            : top_depth    - START DEPTH
STOP.M        660                            : bot_depth    - STOP DEPTH
STEP.M        0.25                           : increment    - STEP LENGTH
 NULL. -999.2500:NULL Value
~CURVE INFORMATION BLOCK
#MNEM UNIT       ERCB CURVE CODE    CURVE DESCRIPTION
#-----------   ------------------   ----------------------------------
DEPT.M        00 001 00 00         : DEPTH        - DEPTH
ILD .OHMM     00 120 00 00         : RESD         - DEEP RESISTIVITY (DIL)
NPHI.V/V      00 330 00 00         : PHIN         - NEUTRON POROSITY (SANDSTONE)
DPHI.V/V      00 890 00 00         : PHID         - DENSITY POROSITY (SANDSTONE)
CALI.MM       00 280 01 00         : CAL          - CALIPER
GR  .API      00 310 00 00         : GR           - GAMMA RAY
~PARAMETER INFORMATION
#MNEM.UNIT           DATA             DESCRIPTION OF MNEMONIC
#---------         -----------     ------------------------------
GL  .M        723.3                : gl           - GROUND LEVEL ELEVATION
EREF.M        726.2                : kb           - ELEVATION OF DEPTH REFERENCE
DATM.M        723.3                : datum        - DATUM ELEVATION
TDD .M        691                  : tdd          - TOTAL DEPTH DRILLER
RUN .         ONE                  : Run          - RUN NUMBER
ENG .         ASHTON               : Engineer     - RECORDING ENGINEER
WIT .         SANOIA               : Witness      - WITNESSED BY
BASE.         EDM                  : Branch       - HOME BASE OF LOGGING UNIT
MUD .         GEL CHEM             : Mud_type     - MUD TYPE
MATR.         SANDSTONE            : Logunit      - NEUTRON MATRIX
TMAX.C        27.2                 : BHT          - MAXIMUM RECORDED TEMPERATURE
BHTD.M        691                  : BHTDEP       - MAXIMUM RECORDED TEMPERATURE
RMT .C        27.2                 : MDTP         - TEMPERATURE OF MUD
MUDD.KG/M     1095                 : MWT          - MUD DENSITY
NEUT.         1                    : NEUTRON      - NEUTRON TYPE
RESI.         0                    : RESIST       - RESISTIVITY TYPE
RM  .OHMM     2.784                : RM           - RESISTIVITY OF MUD
RMC .OHMM     0                    : RMC          - RESISTIVITY OF MUD CAKE
RMF .OHMM     4.4                  : RMF          - RESISTIVITY OF MUD FILTRATE
SUFT.C        0                    : SUFT         - SURFACE TEMPERATURE
~A  DEPTH     RESD     PHIN     PHID      CAL       GR
# ...
  601.000    5.746    0.443    0.176  194.607  127.001
  601.250    5.777    0.476    0.170  196.073  120.790
  601.500    5.785    0.447    0.170  197.223  113.317
  601.750    5.772    0.422    0.172  198.375  108.943
  602.000    5.705    0.426    0.167  199.096  108.112
  602.250    5.638    0.440    0.180  199.297  114.687
  602.500    5.636    0.427    0.183  199.386  118.855
  602.750    5.634    0.428    0.184  199.805  119.670
  603.000    5.632    0.447    0.187  200.320  119.477
  603.250    5.630    0.449    0.189  201.151  121.932
  603.500    5.638    0.430    0.186  201.450  129.963
  603.750    5.636    0.417    0.176  201.654  131.916
  604.000    5.655    0.437    0.174  201.850  123.243
  604.250    5.696    0.439    0.197  202.058  118.297
  604.500    5.693    0.431    0.199  202.459  115.695
  604.750    5.702    0.433    0.186  202.971  115.755
  605.000    5.743    0.436    0.183  203.170  116.316
  605.250    5.839    0.441    0.192  203.156  116.184
  605.500    5.915    0.445    0.179  203.143  114.782
  605.750    6.003    0.457    0.164  203.443  113.762
  606.000    6.115    0.457    0.172  203.543  116.478
  606.250    6.136    0.451    0.190  203.742  123.996
  606.500    6.168    0.449    0.180  203.941  126.077
  606.750    6.142    0.448    0.163  204.039  122.272
  607.000    6.105    0.450    0.159  203.813  126.380
  607.250    6.068    0.439    0.167  204.008  126.124
  607.500    5.963    0.433    0.175  203.899  122.189
  607.750    5.883    0.426    0.161  201.667  122.249
  608.000    5.825    0.420    0.161  200.174  123.946
  608.250    5.790    0.437    0.173  200.579  120.330
  608.500    5.821    0.470    0.178  200.368  113.429
  608.750    5.907    0.459    0.176  199.925  111.905
  609.000    5.950    0.427    0.183  199.707  113.986
  609.250    5.981    0.407    0.184  199.376  113.154
  609.500    5.990    0.422    0.183  199.050  115.927
  609.750    5.965    0.438    0.173  198.829  117.251
  610.000    5.952    0.444    0.159  198.496  110.344
  610.250    5.916    0.430    0.164  198.592  108.501
  610.500    5.869    0.428    0.171  198.381  112.734
  610.750    5.800    0.438    0.182  198.036  117.791
  611.000    5.733    0.448    0.196  197.394  115.567
  611.250    5.634    0.454    0.196  196.857  110.878
  611.500    5.568    0.444    0.190  196.625  108.402
  611.750    5.524    0.463    0.179  196.084  110.736
  612.000    5.606    0.471    0.166  195.235  114.592
  612.250    5.776    0.457    0.155  194.265  113.885
  612.500    5.940    0.436    0.160  193.103  110.208
  612.750    6.050    0.430    0.181  191.711  111.153
  613.000    6.187    0.424    0.189  189.914  114.119
  613.250    6.303    0.418    0.201  188.213  114.685
  613.500    6.408    0.418    0.209  186.203  112.522
  613.750    6.454    0.425    0.203  184.814  107.198
  614.000    6.476    0.412    0.189  183.005  101.811
  614.250    6.498    0.394    0.174  181.946  102.059
  614.500    6.570    0.403    0.169  181.510  102.876
  614.750    6.756    0.415    0.184  180.968  108.116
  615.000    7.014    0.428    0.194  180.752  106.527
  615.250    7.213    0.436    0.180  180.515   94.877
  615.500    7.237    0.332    0.124  180.192   82.847
  615.750    7.112    0.295    0.096  179.969   93.977
  616.000    6.924    0.350    0.144  179.844  115.672
  616.250    6.614    0.407    0.185  180.048  121.929
  616.500    6.354    0.422    0.186  180.884  123.505
  616.750    6.070    0.432    0.178  182.244  120.906
  617.000    5.898    0.448    0.170  183.816  125.895
  617.250    5.797    0.439    0.164  184.745  134.112
  617.500    5.718    0.445    0.161  185.574  139.801
  617.750    5.694    0.451    0.164  186.298  133.782
  618.000    5.724    0.434    0.158  185.758  130.421
  618.250    6.114    0.410    0.147  185.008  128.009
  618.500    6.335    0.401    0.137  184.050  124.460
  618.750    6.478    0.403    0.154  183.401  117.870
  619.000    6.674    0.407    0.167  182.447  111.472
  619.250    6.889    0.420    0.177  180.224  111.975
  619.500    6.965    0.386    0.175  179.476  113.801
  619.750    6.949    0.354    0.166  179.459  115.374
  620.000    6.842    0.359    0.158  178.920  118.977
  620.250    6.762    0.376    0.158  178.583  121.247
  620.500    6.734    0.391    0.174  178.147  123.203
  620.750    6.782    0.383    0.190  177.713  123.821
  621.000    6.831    0.375    0.169  177.082  122.043
  621.250    6.907    0.363    0.146  177.059  118.112
  621.500    7.348    0.348    0.134  176.625  120.827
  621.750    8.058    0.372    0.119  176.723  116.325
  622.000    8.820    0.335    0.108  177.027   93.556
  622.250    8.883    0.266    0.069  177.113   95.495
  622.500    8.813    0.271    0.091  177.530  102.509
  622.750    8.531    0.302    0.122  178.462  109.970
  623.000    7.317    0.350    0.145  180.134  123.883
  623.250    6.820    0.403    0.157  182.019  125.962
  623.500    6.602    0.425    0.152  184.340  120.831
  623.750    6.464    0.431    0.145  185.902  117.850
  624.000    6.364    0.427    0.143  187.256  116.197
  624.250    6.362    0.412    0.143  189.570  113.405
  624.500    6.335    0.391    0.148  191.560  115.676
  624.750    6.393    0.394    0.163  193.874  119.275
  625.000    6.415    0.409    0.165  196.074  116.547
  625.250    6.449    0.407    0.158  198.388  117.618
  625.500    6.410    0.393    0.146  200.165  121.341
  625.750    6.359    0.398    0.138  201.521  119.561
  626.000    6.320    0.421    0.136  202.767  119.619
  626.250    6.294    0.437    0.141  204.760  117.966
  626.500    6.304    0.417    0.152  206.329  116.758
  626.750    6.254    0.406    0.162  208.113  119.659
  627.000    6.228    0.407    0.163  209.369  119.466
  627.250    6.225    0.403    0.166  210.301  117.810
  627.500    6.235    0.394    0.162  211.450  115.144
  627.750    6.291    0.389    0.159  212.279  114.317
  628.000    6.313    0.399    0.157  213.117  114.373
  628.250    6.322    0.403    0.158  213.642  115.756
  628.500    6.416    0.400    0.163  213.936  120.052
  628.750    6.450    0.416    0.157  214.351  123.016
  629.000    6.375    0.423    0.147  214.746  123.390
  629.250    6.241    0.408    0.141  215.264  124.584
  629.500    6.157    0.393    0.144  215.572  125.339
  629.750    6.062    0.384    0.159  215.769  117.672
  630.000    6.026    0.374    0.166  216.073  120.702
  630.250    6.012    0.372    0.169  216.384  125.567
  630.500    5.987    0.370    0.154  216.684  123.726
  630.750    5.928    0.366    0.135  216.571  117.454
  631.000    5.826    0.375    0.153  216.547  116.750
  631.250    5.513    0.385    0.164  216.446  119.403
  631.500    4.649    0.397    0.170  216.417  122.177
  631.750    3.972    0.445    0.185  216.408  129.446
  632.000    2.974    0.481    0.208  216.189  133.172
  632.250    2.580    0.525    0.244  215.861  131.392
  632.500    2.255    0.555    0.234  215.008  125.881
  632.750    2.134    0.536    0.228  213.830  123.025
  633.000    2.101    0.555    0.222  212.761  126.941
  633.250    2.100    0.565    0.216  210.854  130.097
  633.500    2.127    0.562    0.211  207.680  131.675
  633.750    2.272    0.536    0.204  205.234  131.918
  634.000    2.587    0.504    0.194  203.118  121.786
  634.250    3.282    0.437    0.182  201.956  116.210
  634.500    4.147    0.426    0.165  200.766  113.043
  634.750    5.161    0.419    0.140  198.233  109.048
  635.000    5.735    0.393    0.105  196.523  111.442
  635.250    5.887    0.383    0.126  194.520  125.103
  635.500    5.731    0.410    0.160  191.755  128.702
  635.750    5.761    0.410    0.129  188.051  119.648
  636.000    5.803    0.391    0.090  183.727  119.641
  636.250    5.617    0.378    0.098  180.857  121.341
  636.500    5.604    0.371    0.135  177.683  120.953
  636.750    5.655    0.411    0.151  173.679  120.250
  637.000    5.904    0.432    0.132  170.908  103.032
  637.250    6.258    0.411    0.131  167.204   89.168
