~VERSION INFORMATION
 VERS.                 2.0:   CWLS LOG ASCII STANDARD -VERSION 2.0
 WRAP.                  NO:   ONE LINE PER DEPTH STEP
~WELL INFORMATION BLOCK
#MNEM.UNIT           DATA                    DESCRIPTION OF MNEMONIC
#---------    -------------------            -------------------------------
# Generated from Intellog Unique Number	CW_82_90/WELL/3057
WELL.         TOTAL ET AL LIVOCK             : Well_name    - WELL
LOC .         00/06-34-086-23W4/0            : Location     - LOCATION
UWI .         00/06-34-086-23W4/0            : Uwi          - UNIQUE WELL ID
ENTR.         MAX                            : Entered      - ENTERED BY
SRVC.         SCHLUMBERGER                   : Scn          - SERVICE COMPANY
STRT.M        155.448                        : top_depth    - START DEPTH
STOP.M        332.198                        : bot_depth    - STOP DEPTH
STEP.M        0.25                           : increment    - STEP LENGTH
 NULL. -999.2500:NULL Value
~CURVE INFORMATION BLOCK
#MNEM UNIT       ERCB CURVE CODE    CURVE DESCRIPTION
#-----------   ------------------   ----------------------------------
DEPT.M        00 001 00 00         : DEPTH        - DEPTH
ILD .OHMM     00 120 00 00         : RESD         - DEEP RESISTIVITY (DIL)
NPHI.V/V      00 330 00 00         : PHIN         - NEUTRON POROSITY (SANDSTONE)
DPHI.V/V      00 890 00 00         : PHID         - DENSITY POROSITY (SANDSTONE)
CALI.MM       00 280 01 00         : CAL          - CALIPER
GR  .API      00 310 00 00         : GR           - GAMMA RAY
~PARAMETER INFORMATION
#MNEM.UNIT           DATA             DESCRIPTION OF MNEMONIC
#---------         -----------     ------------------------------
GL  .M        530.962              : gl           - GROUND LEVEL ELEVATION
EREF.M        534.01               : kb           - ELEVATION OF DEPTH REFERENCE
DATM.M        530.962              : datum        - DATUM ELEVATION
TDD .M        335.89               : tdd          - TOTAL DEPTH DRILLER
RUN .         ONE                  : Run          - RUN NUMBER
ENG .         BILL                 : Engineer     - RECORDING ENGINEER
WIT .         JIM                  : Witness      - WITNESSED BY
MUD .         GEL                  : Mud_type     - MUD TYPE
MATR.         SANDSTONE            : Logunit      - NEUTRON MATRIX
TMAX.C        24.4444              : BHT          - MAXIMUM RECORDED TEMPERATURE
BHTD.M        335.89               : BHTDEP       - MAXIMUM RECORDED TEMPERATURE
MATR.         1                    : LOGUNIT      - NEUTRON MATRIX
RMT .C        15.5556              : MDTP         - TEMPERATURE OF MUD
NEUT.         1                    : NEUTRON      - NEUTRON TYPE
RESI.         0                    : RESIST       - RESISTIVITY TYPE
RMC .OHMM     3.5                  : RMC          - RESISTIVITY OF MUD CAKE
RMF .OHMM     3.5                  : RMF          - RESISTIVITY OF MUD FILTRATE
SUFT.C        -20.5556             : SUFT         - SURFACE TEMPERATURE
~A  DEPTH     RESD     PHIN     PHID      CAL       GR
# ...
  264.948   17.756    0.423    0.168  206.493   88.399
  265.198   16.957    0.440    0.193  206.435   93.101
  265.448   15.900    0.440    0.190  206.397   93.366
  265.698   15.751    0.433    0.170  206.345   92.452
  265.948   15.895    0.430    0.147  206.288   88.862
  266.198   16.039    0.443    0.128  206.236   85.583
  266.448   16.036    0.454    0.162  206.686   85.548
  266.698   16.034    0.446    0.163  207.637   86.698
  266.948   16.032    0.430    0.136  208.093   87.552
  267.198   16.029    0.420    0.140  208.537   86.937
  267.448   15.879    0.429    0.112  208.485   85.127
  267.698   15.733    0.428    0.141  209.931   84.508
  267.948   15.730    0.430    0.141  210.381   87.734
  268.198   15.727    0.444    0.170  210.824   92.736
  268.448   15.581    0.459    0.191  211.287   96.846
  268.698   15.579    0.455    0.179  211.236   94.744
  268.948   15.434    0.450    0.167  211.171   91.753
  269.198   15.432    0.446    0.151  210.625   90.247
  269.448   15.429    0.455    0.128  209.076   88.736
  269.698   15.427    0.455    0.124  206.519   88.406
  269.948   15.144    0.450    0.140  205.966   88.960
  270.198   15.142    0.469    0.164  206.403   89.529
  270.448   15.140    0.465    0.196  206.352   90.091
  270.698   15.137    0.453    0.191  206.307   90.649
  270.948   14.859    0.443    0.178  207.258   90.915
  271.198   14.857    0.434    0.154  207.206   90.884
  271.448   14.855    0.452    0.129  207.148   91.738
  271.698   14.717    0.467    0.111  206.596   93.192
  271.948   14.581    0.466    0.136  206.043   93.457
  272.198   14.445    0.454    0.145  205.992   92.539
  272.448   14.311    0.456    0.152  205.947   93.393
  272.698   14.178    0.459    0.168  206.390   96.626
  272.948   14.046    0.460    0.174  206.345   99.844
  273.198   13.915    0.463    0.179  206.274  100.114
  273.448   13.914    0.466    0.177  205.734   99.199
  273.698   13.911    0.453    0.158  205.670  100.057
  273.948   13.909    0.445    0.142  205.632   96.763
  274.198   14.427    0.439    0.130  205.580   92.588
  274.448   14.572    0.394    0.101  200.441   87.038
  274.698   15.117    0.403    0.128  199.918   90.566
  274.948   15.118    0.417    0.154  199.398   91.734
  275.198   14.710    0.407    0.176  199.378   92.608
  275.448   14.445    0.393    0.174  199.860   93.184
  275.698   15.975    0.388    0.154  199.837   92.579
  275.948   17.994    0.384    0.138  199.811   91.683
  276.198   17.996    0.378    0.121  199.794   89.903
  276.448   17.193    0.355    0.092  199.776   88.710
  276.698   16.577    0.332    0.064  200.255   92.534
  276.948   15.838    0.394    0.108  200.734   98.422
  277.198   14.455    0.419    0.136  201.710   98.999
  277.448   13.315    0.419    0.164  202.689   97.217
  277.698   12.956    0.414    0.152  202.669   96.615
  277.948   13.440    0.412    0.138  202.646   97.486
  278.198   14.728    0.409    0.113  202.128   96.296
  278.448   14.729    0.388    0.101  200.604   93.037
  278.698   14.201    0.361    0.090  200.089   92.731
  278.948   12.844    0.354    0.071  200.066   95.963
  279.198   11.302    0.412    0.112  200.546  100.966
  279.448   10.221    0.455    0.155  203.021  105.085
  279.698    9.244    0.478    0.139  203.999  107.138
  279.948    8.672    0.459    0.152  202.980  107.126
  280.198    8.515    0.475    0.154  200.964  105.639
  280.448    8.595    0.480    0.140  200.444  101.201
  280.698    8.834    0.460    0.115  200.423  103.549
  280.948    9.419    0.493    0.094  200.398  108.552
  281.198   10.228    0.512    0.116  199.880  104.704
  281.448   11.415    0.480    0.156  199.857  100.561
  281.698   12.858    0.462    0.167  199.834   94.942
  281.948   14.090    0.440    0.152  199.814   91.980
  282.198   14.886    0.428    0.144  199.799   89.901
  282.448   16.017    0.422    0.144  199.276   89.889
  282.698   17.553    0.429    0.153  199.251   88.403
  282.948   18.545    0.442    0.154  198.736   83.966
  283.198   19.237    0.445    0.122  197.714   80.118
  283.448   19.416    0.405    0.099  197.196   76.564
  283.698   19.066    0.315    0.046  197.173   86.878
  283.948   17.562    0.349    0.095  197.652   94.241
  284.198   16.324    0.425    0.149  199.123   94.230
  284.448   15.454    0.433    0.170  200.107   93.038
  284.698   15.176    0.408    0.153  199.087   89.189
  284.948   15.317    0.391    0.119  199.567   90.946
  285.198   14.904    0.392    0.114  200.046   92.412
  285.448   14.635    0.418    0.155  203.525   97.415
  285.698   14.240    0.440    0.160  204.504   98.285
  285.948   13.856    0.459    0.138  200.981   96.503
  286.198   13.238    0.456    0.130  201.461   97.378
  286.448   13.119    0.429    0.119  202.442   99.136
  286.698   13.001    0.432    0.107  202.921  101.779
  286.948   12.767    0.457    0.166  203.400  102.946
  287.198   13.004    0.461    0.169  203.377  102.344
  287.448   13.613    0.460    0.152  202.355   99.380
  287.698   13.740    0.455    0.130  201.835   99.366
  287.948   13.127    0.431    0.124  201.315  101.716
  288.198   12.657    0.423    0.096  200.795  104.951
  288.448   12.316    0.474    0.168  200.775  111.430
  288.698   11.766    0.480    0.170  201.257  112.596
  288.948   11.038    0.463    0.164  201.234  112.586
  289.198   10.740    0.441    0.160  201.213  114.639
  289.448   10.741    0.422    0.155  202.192  117.871
  289.698   11.041    0.421    0.147  201.672  113.433
  289.948   11.880    0.436    0.132  201.647  106.045
  290.198   12.666    0.438    0.118  201.631  105.443
  290.448   13.505    0.427    0.091  201.606  103.956
  290.698   14.268    0.419    0.064  201.091  102.469
  290.948   14.270    0.393    0.101  201.565  105.404
  291.198   14.012    0.387    0.093  201.545  107.162
  291.448   13.387    0.389    0.110  201.524  106.857
  291.698   12.674    0.396    0.122  202.006  107.730
  291.948   12.675    0.403    0.144  201.983  111.848
  292.198   13.269    0.410    0.128  201.466  115.672
  292.448   14.541    0.414    0.119  200.941  115.660
  292.698   16.529    0.400    0.111  200.421  105.910
  292.948   19.311    0.361    0.087  200.398   95.571
  293.198   22.152    0.283    0.058  200.380   89.067
  293.448   22.562    0.296    0.019  199.860   89.352
  293.698   21.556    0.332    0.041  199.839   95.830
  293.948   18.624    0.378    0.105  199.819   99.064
  294.198   16.388    0.404    0.134  199.799  100.816
  294.448   15.657    0.410    0.147  200.278  100.807
  294.698   16.095    0.396    0.161  200.752   98.731
  294.948   16.695    0.381    0.173  201.236   96.949
  295.198   17.964    0.383    0.146  201.211   95.757
  295.448   19.686    0.395    0.118  201.193   91.909
  295.698   20.235    0.376    0.092  200.673   92.189
  295.948   20.054    0.347    0.064  201.150   93.946
  296.198   18.985    0.362    0.029  201.129   96.297
  296.448   18.473    0.402    0.074  202.108   98.940
  296.698   18.474    0.421    0.146  202.590   97.748
  296.948   19.698    0.395    0.125  202.567   94.196
  297.198   20.621    0.364    0.088  201.547   91.232
  297.448   21.003    0.351    0.025  201.025   91.808
  297.698   20.252    0.345    0.002  200.502   93.863
  297.948   18.825    0.390    0.025  200.981   97.095
  298.198   17.499    0.382    0.108  201.466   98.855
  298.448   16.118    0.392    0.113  201.443  101.496
  298.698   14.711    0.403    0.089  201.924  103.845
  298.948   13.675    0.418    0.124  202.401  107.965
  299.198   12.595    0.402    0.124  202.376  112.673
  299.448   11.602    0.408    0.086  202.358  117.677
  299.698   10.883    0.428    0.070  202.840  125.041
  299.948   10.210    0.449    0.120  202.817  129.745
  300.198    9.754    0.460    0.117  202.799  130.913
  300.448    9.405    0.463    0.145  202.773  132.377
  300.698    9.068    0.448    0.158  203.258  135.907
  300.948    8.823    0.432    0.155  203.732  137.666
  301.198    8.744    0.428    0.140  203.209  140.012
