~VERSION INFORMATION
 VERS.                 2.0:   CWLS LOG ASCII STANDARD -VERSION 2.0
 WRAP.                  NO:   ONE LINE PER DEPTH STEP
~WELL INFORMATION BLOCK
#MNEM.UNIT           DATA                    DESCRIPTION OF MNEMONIC
#---------    -------------------            -------------------------------
# Generated from Intellog Unique Number	CW_70_72/WELL/3298
NULL.         -999.25                        : NULL_VALUE
WELL.         CALSTAN SOBC HONDO             : Well_name    - WELL              
LOC .         02-03-071-04W5                 : Location     - LOCATION          
UWI .         00/02-03-071-04W5/0            : Uwi          - UNIQUE WELL ID    
ENTR.         CAMPBELL                       : Entered      - ENTERED BY        
SRVC.         SCHLUMBERGER                   : Scn          - SERVICE COMPANY   
DATE.         10 OCT 1964                    : Date         - LOG DATE          
STRT.M        676.656                        : top_depth    - START DEPTH       
STOP.M        819.906                        : bot_depth    - STOP DEPTH        
STEP.M        0.25                           : increment    - STEP LENGTH       
~CURVE INFORMATION BLOCK
#MNEM UNIT       ERCB CURVE CODE    CURVE DESCRIPTION
#-----------   ------------------   ----------------------------------
DEPT.M        00 001 00 00         : DEPTH        - DEPTH                       
GR  .API      00 310 00 00         : GR           - GAMMA RAY                   
ILD .OHMM     00 120 00 00         : RESD         - DEEP RESISTIVITY (DIL)      
DELT.US/F     00 520 00 00         : DELT         - SONIC TRAVEL TIME           
~PARAMETER INFORMATION       
#MNEM.UNIT           DATA             DESCRIPTION OF MNEMONIC
#---------         -----------     ------------------------------
GL  .M        742.334              : gl           - GROUND LEVEL ELEVATION      
EREF.M        746.15               : kb           - ELEVATION OF DEPTH REFERENCE
DATM.M        746.15               : datum        - DATUM ELEVATION             
TDD .M        1853.18              : tdd          - TOTAL DEPTH DRILLER         
RUN .         ONE                  : Run          - RUN NUMBER                  
ENG .         KAWOLSKI             : Engineer     - RECORDING ENGINEER          
WIT .         BROWN                : Witness      - WITNESSED BY                
MUD .         GEL                  : Mud_type     - MUD TYPE                    
MATR.         SANDSTONE            : Logunit      - NEUTRON MATRIX              
TMAX.C        124                  : BHT          - MAXIMUM RECORDED TEMPERATURE
BHTD.M        1853.18              : BHTDEP       - MAXIMUM RECORDED TEMPERATURE
RMT .C        23.8889              : MDTP         - TEMPERATURE OF MUD          
MUDD.KG/M     10500                : MWT          - MUD DENSITY                 
NEUT.         1                    : NEUTRON      - NEUTRON TYPE                
RESI.         0                    : RESIST       - RESISTIVITY TYPE            
RM  .OHMM     0.97                 : RM           - RESISTIVITY OF MUD          
RMC .OHMM     1.29                 : RMC          - RESISTIVITY OF MUD CAKE     
RMF .OHMM     0.76                 : RMF          - RESISTIVITY OF MUD FILTRATE 
SUFT.C        10                   : SUFT         - SURFACE TEMPERATURE         
~A  DEPTH       GR     RESD     DELT
  676.656   59.291    4.697  367.145
  676.906   56.947    5.005  368.736
  677.156   55.308    5.995  284.603
  677.406   53.906    6.889  275.884
  677.656   54.158    7.195  303.581
  677.906   54.409    7.600  332.887
  678.156   53.952    8.003  347.051
  678.406   53.496    8.017  348.644
  678.656   53.984    7.933  350.557
  678.906   54.708    7.751  353.120
  679.156   55.668    7.761  350.197
  679.406   56.391    7.774  347.279
  679.656   57.119    7.592  350.486
  679.906   55.951    7.507  353.366
  680.156   55.494    7.614  353.026
  680.406   56.690    7.827  350.430
  680.656   57.418    7.836  344.931
  680.906   57.433    8.047  350.069
  681.156   56.974    8.352  353.594
  681.406   55.574    9.147  353.256
  681.656   54.408    9.551  354.525
  681.906   53.006    9.367  355.472
  682.156   51.840    8.989  351.911
  682.406   51.855    8.804  329.977
  682.656   53.291    8.526  255.834
  682.906   54.251    8.243  277.085
  683.156   54.504    8.061  329.921
  683.406   55.464    7.876  346.339
  683.656   55.007    7.890  345.354
  683.906   55.967    8.001  346.625
  684.156   56.691    8.110  352.406
  684.406   57.180    8.125  352.385
  684.656   57.195    8.137  348.503
  684.906   56.974    8.247  341.393
  685.156   55.810    8.357  332.996
  685.406   54.879    8.468  322.019
  685.656   54.423    8.479  334.569
  685.906   54.202    7.909  342.285
  686.156   53.745    7.722  333.244
  686.406   53.997    7.542  335.482
  686.656   54.484    7.552  343.196
  686.906   53.554    7.564  350.268
  687.156   53.101    7.774  356.049
  687.406   52.644    8.179  359.256
  687.656   52.895    8.484  354.082
  687.906   52.436    8.790  350.517
  688.156   50.800    9.096  351.788
  688.406   48.925    9.109  345.324
  688.656   47.998    8.926  310.175
  688.906   49.666    8.744  282.120
  689.156   51.098    8.756  290.801
  689.406   53.479    8.768  297.551
  689.656   54.672    8.684  321.060
  689.906   55.633    8.402  331.353
  690.156   56.593    8.121  336.491
  690.406   58.026    7.840  340.985
  690.656   58.990    7.363  345.156
  690.906   59.479    7.277  345.139
  691.156   59.728    7.094  343.185
  691.406   57.856    6.912  340.909
  691.656   56.216    6.337  339.282
  691.906   54.814    6.057  334.750
  692.156   53.178    5.970  327.320
  692.406   52.012    5.690  321.497
  692.656   49.903    5.705  315.358
  692.906   48.971    5.717  327.586
  693.156   47.806    6.021  333.367
  693.406   46.405    6.718  335.282
  693.656   44.529    7.808  323.985
  693.906   41.950    8.800  309.463
  694.156   41.256    9.398  289.143
  694.406   41.272   10.292  272.042
  694.656   40.812   11.088  242.696
  694.906   40.123   11.883  195.303
  695.156   39.429   12.091  200.763
  695.406   39.444   11.614  193.331
  695.656   39.696   10.455  184.290
  695.906   39.947    9.586  204.897
  696.156   42.324    8.914  221.959
  696.406   45.646    7.946  232.576
  696.656   48.736    7.176  233.523
  696.906   50.639    6.410  230.280
  697.156   53.252    6.128  257.657
  697.406   53.978    5.943  291.156
  697.656   53.284    5.857  304.351
  697.906   52.591    5.676  315.613
  698.156   51.663    5.588  327.194
  698.406   50.733    5.504  329.752
  698.656   50.514    5.518  331.668
  698.906   51.238    5.530  332.617
  699.156   51.253    5.542  332.923
  699.406   51.506    5.750  333.872
  699.656   51.520    5.863  333.850
  699.906   50.830    5.872  334.799
  700.156   50.373    6.086  333.816
  700.406   50.152    6.191  333.149
  700.656   49.931    6.205  332.487
  700.906   49.946    6.219  332.469
  701.156   49.961    6.327  332.131
  701.406   49.744    6.437  330.175
  701.656   49.757    6.452  329.837
  701.906   50.955    6.464  327.239
  702.156   52.624    6.574  325.932
  702.406   53.584    6.586  324.300
  702.656   53.361    6.502  341.042
  702.906   53.143    6.418  348.114
  703.156   52.920    6.331  350.992
  703.406   52.699    6.345  353.552
  703.656   52.715    6.453  354.504
  703.906   53.442    6.564  353.519
  704.156   54.166    6.580  355.435
  704.406   54.652    6.495  352.192
  704.656   56.794    6.505  343.473
  704.906   58.465    6.419  355.056
  705.156   57.533    6.433  359.550
  705.406   58.499    6.543  350.182
  705.656   59.219    6.750  349.200
  705.906   58.998    7.056  342.412
  706.156   58.777    7.268  338.847
  706.406   58.087    7.377  340.762
  706.656   56.213    7.389  336.555
  706.906   54.573    7.305  337.826
  707.156   55.062    7.123  339.420
  707.406   55.313    7.034  333.276
  707.656   55.329    7.046  332.289
  707.906   56.054    7.060  345.809
  708.156   57.252    7.465  347.400
  708.406   55.850    7.573  344.159
  708.656   55.157    7.685  341.561
  708.906   55.170    7.501  345.735
  709.156   54.477    7.417  354.418
  709.406   53.549    7.136  353.756
  709.656   53.092    7.050  346.968
  709.906   53.109    7.161  347.915
  710.156   53.360    7.175  343.061
  710.406   52.905    7.089  341.756
  710.656   52.920    7.198  343.671
  710.906   53.169    7.212  347.843
  711.156   54.133    7.225  351.366
  711.406   54.855    7.434  350.705
  711.656   55.343    7.642  351.652
  711.906   55.360    7.751  349.056
  712.156   54.902    7.959  352.258
  712.406   54.209    7.974  356.430
  712.656   53.279    7.986  360.281
  712.906   52.824    7.998  358.974
  713.156   52.369    8.108  352.509
  713.406   52.382    8.122  346.690
  713.656   51.925    8.134  356.016
  713.906   53.359    7.658  359.221
  714.156   54.083    6.593  358.878
  714.406   56.462    5.432  357.893
  714.656   59.311    5.446  352.719
  714.906   62.633    5.750  344.967
  715.156   65.246    6.154  335.603
  715.406   63.374    6.655  327.844
  715.656   59.846    7.454  324.931
  715.906   58.446    7.858  322.655
  716.156   57.989    8.260  339.394
  716.406   58.238    8.565  344.530
  716.656   59.202    8.578  346.771
  716.906   59.453    8.591  347.720
  717.156   59.468    8.802  347.377
  717.406   58.068    9.008  346.390
  717.656   59.026    9.315  345.730
  717.906   60.224    9.720  344.743
  718.156   61.655   10.024  344.076
  718.406   62.380   10.430  343.414
  718.656   61.689   10.735  342.753
  718.906   61.466   11.041  342.091
  719.156   60.304   11.346  324.671
  719.406   58.429   10.869  290.168
  719.656   56.083    9.905  251.798
  719.906   53.972    8.842  287.552
  720.156   56.347    7.778  332.331
  720.406   60.852    6.713  338.114
  720.656   62.993    5.747  338.094
  720.906   67.264    4.976  330.664
  721.156   67.281    4.792  303.896
  721.406   66.113    4.809  308.067
  721.656   64.473    5.211  301.602
  721.906   62.364    5.712  301.262
  722.156   60.255    6.507  305.111
  722.406   58.381    8.771  307.349
  722.656   54.381   11.229  276.713
  722.906   50.379   13.395  248.334
  723.156   47.559   12.331  216.732
  723.406   52.300    9.702  193.831
  723.656   56.803    7.561  271.159
  723.906   60.836    6.695  315.938
  724.156   62.977    6.221  305.605
  724.406   64.409    6.036  321.703
  724.656   66.318    5.852  337.476
  724.906   67.984    5.670  340.356
  725.156   70.834    5.485  342.594
  725.406   71.325    5.303  339.031
  725.656   71.575    5.023  317.097
  725.906   72.298    4.840  332.870
  726.156   72.788    4.655  330.596
  726.406   74.456    4.670  334.123
  726.656   76.363    4.581  331.847
  726.906   76.850    4.595  334.728
  727.156   77.102    4.608  338.257
  727.406   76.883    4.620  352.096
  727.656   76.660    4.636  336.285
  727.906   76.204    4.649  328.533
  728.156   75.513    4.657  343.984
  728.406   74.820    4.672  390.050
  728.656   75.779    4.686  367.473
  728.906   76.269    4.699  324.267
  729.156   75.812    4.699  338.107
  729.406   74.644    4.821  328.421
  729.656   73.478    4.928  331.623
  729.906   75.150    5.236  320.971
  730.156   75.165    5.443  324.820
  730.406   74.236    5.847  334.148
  730.656   73.543    6.351  331.874
