~VERSION INFORMATION
 VERS.                 2.0:   CWLS LOG ASCII STANDARD -VERSION 2.0
 WRAP.                  NO:   ONE LINE PER DEPTH STEP
~WELL INFORMATION BLOCK
#MNEM.UNIT           DATA                    DESCRIPTION OF MNEMONIC
#---------    -------------------            -------------------------------
# Generated from Intellog Unique Number	CS_71_72/WELL/829
WELL.         BRENDA ET AL NIXON             : Well_name    - WELL
LOC .         00/07-31-072-15W4/0            : Location     - LOCATION
UWI .         00/07-31-072-15W4/0            : Uwi          - UNIQUE WELL ID
ENTR.         SP                             : Entered      - ENTERED BY
SRVC.         SCHLUMBERGER                   : Scn          - SERVICE COMPANY
STRT.M        240                            : top_depth    - START DEPTH
STOP.M        445                            : bot_depth    - STOP DEPTH
STEP.M        0.25                           : increment    - STEP LENGTH
 NULL. -999.2500:NULL Value
~CURVE INFORMATION BLOCK
#MNEM UNIT       ERCB CURVE CODE    CURVE DESCRIPTION
#-----------   ------------------   ----------------------------------
DEPT.M        00 001 00 00         : DEPTH        - DEPTH
GR  .API      00 310 00 00         : GR           - GAMMA RAY
NPHI.V/V      00 330 00 00         : PHIN         - NEUTRON POROSITY (LIMESTONE)
DPHI.V/V      00 890 00 00         : PHID         - DENSITY POROSITY (LIMESTONE)
ILD .OHMM     00 120 00 00         : RESD         - DEEP RESISTIVITY (DIL)
~PARAMETER INFORMATION
#MNEM.UNIT           DATA             DESCRIPTION OF MNEMONIC
#---------         -----------     ------------------------------
GL  .M        575                  : gl           - GROUND LEVEL ELEVATION
EREF.M        577.75               : kb           - ELEVATION OF DEPTH REFERENCE
DATM.M        575                  : datum        - DATUM ELEVATION
TDD .M        470                  : tdd          - TOTAL DEPTH DRILLER
RUN .         ONE                  : Run          - RUN NUMBER
ENG .         BILL                 : Engineer     - RECORDING ENGINEER
WIT .         JIM                  : Witness      - WITNESSED BY
MUD .         GEL                  : Mud_type     - MUD TYPE
MATR.         LIMESTONE            : Logunit      - NEUTRON MATRIX
TMAX.C        23                   : BHT          - MAXIMUM RECORDED TEMPERATURE
BHTD.M        470                  : BHTDEP       - MAXIMUM RECORDED TEMPERATURE
MATR.         1                    : LOGUNIT      - NEUTRON MATRIX
RMT .C        25                   : MDTP         - TEMPERATURE OF MUD
NEUT.         1                    : NEUTRON      - NEUTRON TYPE
RESI.         0                    : RESIST       - RESISTIVITY TYPE
RMC .OHMM     0.25                 : RMC          - RESISTIVITY OF MUD CAKE
RMF .OHMM     0.25                 : RMF          - RESISTIVITY OF MUD FILTRATE
SUFT.C        15                   : SUFT         - SURFACE TEMPERATURE
~A  DEPTH       GR     PHIN     PHID     RESD
# ...
  327.000  102.664    0.422    0.320    4.651
  327.250   97.746    0.431    0.331    4.832
  327.500   92.828    0.431    0.303    5.020
  327.750   89.139    0.420    0.285    5.022
  328.000   85.451    0.427    0.276    4.841
  328.250  100.205    0.436    0.282    4.578
  328.500  106.352    0.428    0.287    4.171
  328.750  111.885    0.425    0.293    4.020
  329.000  116.189    0.421    0.299    4.022
  329.250  119.877    0.414    0.301    4.258
  329.500  113.115    0.409    0.301    4.424
  329.750  103.279    0.404    0.300    4.864
  330.000  102.664    0.419    0.298    4.957
  330.250  107.902    0.427    0.299    5.249
  330.500  104.834    0.425    0.317    5.454
  330.750  101.151    0.409    0.329    5.560
  331.000   96.855    0.394    0.334    5.777
  331.250   97.477    0.392    0.299    5.889
  331.500   98.094    0.390    0.288    6.120
  331.750  104.863    0.395    0.271    6.122
  332.000  111.631    0.407    0.257    6.242
  332.250  117.170    0.417    0.255    6.246
  332.500  120.251    0.415    0.261    6.251
  332.750  116.569    0.409    0.263    6.372
  333.000  108.585    0.406    0.266    6.378
  333.250  106.130    0.420    0.264    6.381
  333.500  104.290    0.421    0.258    6.506
  333.750  107.986    0.417    0.253    6.510
  334.000  109.221    0.431    0.253    6.516
  334.250  107.997    0.435    0.257    6.518
  334.500  110.461    0.418    0.252    6.524
  334.750  111.697    0.416    0.255    6.651
  335.000  108.629    0.413    0.257    6.656
  335.250  114.784    0.394    0.262    6.658
  335.500  111.718    0.386    0.272    6.539
  335.750  107.418    0.388    0.263    6.545
  336.000   97.588    0.388    0.257    6.548
  336.250  103.128    0.397    0.259    6.432
  336.500  106.206    0.408    0.258    6.434
  336.750  111.131    0.423    0.259    6.320
  337.000  115.440    0.430    0.261    6.323
  337.250  118.519    0.424    0.254    6.211
  337.500  114.222    0.406    0.251    6.213
  337.750  116.074    0.407    0.247    6.217
  338.000  116.079    0.412    0.247    6.106
  338.250  111.166    0.406    0.254    6.109
  338.500  106.869    0.408    0.259    6.114
  338.750  113.024    0.424    0.264    6.005
  339.000  116.103    0.441    0.263    6.007
  339.250  115.495    0.441    0.259    6.012
  339.500  111.813    0.419    0.257    6.016
  339.750  108.129    0.408    0.260    5.909
  340.000  107.521    0.416    0.264    5.911
  340.250  108.141    0.414    0.263    5.915
  340.500  110.608    0.412    0.260    5.918
  340.750  111.228    0.412    0.255    5.812
  341.000  111.233    0.418    0.254    5.816
  341.250  110.626    0.427    0.252    5.819
  341.500  110.629    0.434    0.254    5.824
  341.750  108.792    0.442    0.259    5.720
  342.000  110.642    0.442    0.268    5.722
  342.250  113.721    0.435    0.266    5.619
  342.500  111.883    0.428    0.264    5.519
  342.750  108.200    0.429    0.263    5.420
  343.000  111.281    0.424    0.268    5.321
  343.250  111.901    0.423    0.271    5.325
  343.500  108.218    0.433    0.265    5.231
  343.750  112.528    0.439    0.259    5.136
  344.000  111.304    0.433    0.266    5.140
  344.250  104.548    0.439    0.283    5.046
  344.500   98.408    0.442    0.297    5.051
  344.750   97.182    0.434    0.305    4.959
  345.000   95.345    0.445    0.310    4.962
  345.250   92.276    0.431    0.316    4.965
  345.500   92.283    0.425    0.319    4.970
  345.750   91.674    0.435    0.321    4.880
  346.000   88.606    0.428    0.331    4.882
  346.250   85.542    0.415    0.338    4.886
  346.500   84.931    0.406    0.349    4.888
  346.750   83.706    0.403    0.352    4.802
  347.000   80.638    0.413    0.350    4.805
  347.250   80.030    0.424    0.349    4.807
  347.500   80.035    0.410    0.346    4.720
  347.750   79.427    0.402    0.341    4.724
  348.000   86.811    0.414    0.338    4.816
  348.250   89.889    0.421    0.338    4.911
  348.500   91.126    0.396    0.324    5.101
  348.750   85.600    0.355    0.247    5.401
  349.000   83.146    0.325    0.154    5.611
  349.250   82.537    0.305    0.214    5.720
  349.500   86.846    0.404    0.277    5.724
  349.750   90.541    0.426    0.317    5.518
  350.000   91.160    0.410    0.325    5.417
  350.250   87.479    0.397    0.320    5.222
  350.500   79.492    0.382    0.304    5.225
  350.750   72.121    0.356    0.268    5.228
  351.000   66.595    0.308    0.220    5.233
  351.250   76.438    0.321    0.117    5.235
  351.500   83.205    0.385    0.178    5.240
  351.750   86.284    0.405    0.239    5.242
  352.000   85.676    0.409    0.316    5.148
  352.250   83.224    0.410    0.339    5.055
  352.500   80.770    0.413    0.349    4.782
  352.750   78.933    0.409    0.351    4.609
  353.000   84.472    0.415    0.329    4.442
  353.250   94.313    0.419    0.303    4.280
  353.500  102.312    0.420    0.285    3.974
  353.750  109.080    0.425    0.289    3.758
  354.000  112.773    0.430    0.295    3.622
  354.250  116.468    0.433    0.298    3.558
  354.500  117.704    0.427    0.293    3.559
  354.750  114.022    0.420    0.287    3.629
  355.000  112.798    0.415    0.272    3.915
  355.250  112.803    0.397    0.267    4.067
  355.500  109.121    0.388    0.262    4.387
  355.750  112.202    0.398    0.269    4.732
  356.000  114.665    0.412    0.271    4.916
  356.250  111.598    0.421    0.260    5.108
  356.500  108.530    0.428    0.254    5.110
  356.750  113.455    0.412    0.263    5.114
  357.000  114.689    0.405    0.272    5.119
  357.250  112.236    0.400    0.278    5.120
  357.500  107.939    0.396    0.278    5.124
  357.750  106.103    0.392    0.264    5.127
  358.000  104.264    0.414    0.258    5.133
  358.250  108.572    0.434    0.263    5.135
  358.500  109.807    0.424    0.271    5.138
  358.750  112.889    0.424    0.272    5.140
  359.000  114.738    0.421    0.269    5.049
  359.250  111.058    0.413    0.267    5.051
  359.500  109.831    0.406    0.267    4.960
  359.750  107.381    0.400    0.283    4.872
  360.000  107.998    0.406    0.296    4.783
  360.250  100.628    0.417    0.312    4.612
  360.500   86.494    0.423    0.323    4.614
  360.750   79.123    0.418    0.343    4.530
  361.000   76.058    0.413    0.356    4.450
  361.250   77.291    0.423    0.357    4.452
  361.500   77.298    0.430    0.351    4.456
  361.750   77.918    0.417    0.342    4.457
  362.000   79.768    0.400    0.329    4.545
  362.250   76.701    0.351    0.296    4.722
  362.500   74.862    0.317    0.197    4.906
  362.750   74.253    0.347    0.246    5.002
  363.000   78.564    0.435    0.309    4.913
  363.250   78.568    0.444    0.338    4.915
  363.500   74.887    0.429    0.355    4.650
  363.750   74.893    0.411    0.361    4.482
  364.000   76.742    0.396    0.361    4.483
  364.250   77.979    0.397    0.359    4.403
  364.500   77.370    0.410    0.358    4.324
  364.750   75.533    0.425    0.351    4.246
  365.000   75.537    0.446    0.356    4.249
  365.250   74.927    0.425    0.357    4.251
  365.500   74.936    0.417    0.352    4.176
  365.750   74.941    0.413    0.351    4.178
  366.000   75.560    0.408    0.351    4.181
  366.250   77.413    0.408    0.348    4.183
  366.500   76.802    0.403    0.342    4.186
  366.750   74.350    0.403    0.341    4.110
  367.000   79.890    0.403    0.345    4.114
  367.250   82.353    0.403    0.347    4.116
  367.500   76.826    0.401    0.348    4.120
  367.750   75.602    0.405    0.353    4.121
  368.000   80.526    0.409    0.362    4.202
  368.250   80.532    0.414    0.362    4.284
  368.500   80.539    0.412    0.356    4.452
  368.750   85.463    0.418    0.362    4.712
  369.000   87.928    0.411    0.363    5.179
  369.250   85.475    0.390    0.354    5.586
  369.500   77.491    0.309    0.170    6.257
  369.750   75.651    0.247    0.126    6.623
  370.000   74.427    0.205    0.095    6.880
  370.250   71.974    0.243    0.088    6.884
