~VERSION INFORMATION
 VERS.                 2.0:   CWLS LOG ASCII STANDARD -VERSION 2.0
 WRAP.                  NO:   ONE LINE PER DEPTH STEP
~WELL INFORMATION BLOCK
#MNEM.UNIT           DATA                    DESCRIPTION OF MNEMONIC
#---------    -------------------            -------------------------------
# Generated from Intellog Unique Number	CW_82_90/WELL/468
WELL.         STAR GASCAN HOOLE 6-3          : Well_name    - WELL
LOC .         00/06-03-082-26W4/0            : Location     - LOCATION
UWI .         00/06-03-082-26W4/0            : Uwi          - UNIQUE WELL ID
ENTR.         os                             : Entered      - ENTERED BY
SRVC.         SCHLUMBERGER                   : Scn          - SERVICE COMPANY
DATE.         01 FEB 1982                    : Date         - LOG DATE
STRT.M        215                            : top_depth    - START DEPTH
STOP.M        432                            : bot_depth    - STOP DEPTH
STEP.M        0.25                           : increment    - STEP LENGTH
 NULL. -999.2500:NULL Value
~CURVE INFORMATION BLOCK
#MNEM UNIT       ERCB CURVE CODE    CURVE DESCRIPTION
#-----------   ------------------   ----------------------------------
DEPT.M        00 001 00 00         : DEPTH        - DEPTH
ILD .OHMM     00 120 00 00         : RESD         - DEEP RESISTIVITY (DIL)
GR  .API      00 310 00 00         : GR           - GAMMA RAY
CALI.MM       00 280 01 00         : CAL          - CALIPER
DPHI.V/V      00 890 00 00         : PHID         - DENSITY POROSITY (SANDSTONE)
NPHI.V/V      00 330 00 00         : PHIN         - NEUTRON POROSITY (SANDSTONE)
~PARAMETER INFORMATION
#MNEM.UNIT           DATA             DESCRIPTION OF MNEMONIC
#---------         -----------     ------------------------------
GL  .M        561.1                : gl           - GROUND LEVEL ELEVATION
EREF.M        564.6                : kb           - ELEVATION OF DEPTH REFERENCE
DATM.M        561.1                : datum        - DATUM ELEVATION
TDD .M        433                  : tdd          - TOTAL DEPTH DRILLER
RUN .         ONE                  : Run          - RUN NUMBER
ENG .         NIGHTINGALE & HEATH  : Engineer     - RECORDING ENGINEER
WIT .         WEBSTER              : Witness      - WITNESSED BY
BASE.         EDMONTON             : Branch       - HOME BASE OF LOGGING UNIT
MUD .         GEL CHEM             : Mud_type     - MUD TYPE
MATR.         SANDSTONE            : Logunit      - NEUTRON MATRIX
TMAX.C        29.4                 : BHT          - MAXIMUM RECORDED TEMPERATURE
BHTD.M        433                  : BHTDEP       - MAXIMUM RECORDED TEMPERATURE
RMT .C        29.4                 : MDTP         - TEMPERATURE OF MUD
MUDD.KG/M     1100                 : MWT          - MUD DENSITY
NEUT.         1                    : NEUTRON      - NEUTRON TYPE
RESI.         0                    : RESIST       - RESISTIVITY TYPE
RM  .OHMM     3.88                 : RM           - RESISTIVITY OF MUD
RMC .OHMM     3.9                  : RMC          - RESISTIVITY OF MUD CAKE
RMF .OHMM     6                    : RMF          - RESISTIVITY OF MUD FILTRATE
SUFT.C        4                    : SUFT         - SURFACE TEMPERATURE
~A  DEPTH     RESD       GR      CAL     PHID     PHIN
  215.000    2.993   96.856  247.957    0.236    0.523
  215.250    2.983   96.846  247.943    0.227    0.537
  215.500    2.984   98.784  249.285    0.220    0.571
  215.750    2.826  101.286  250.838    0.242    0.593
  216.000    2.791  100.961  250.928    0.250    0.553
  216.250    2.982  103.905  251.330    0.238    0.549
  216.500    3.109  104.586  251.525    0.238    0.527
  216.750    3.139   99.929  252.242    0.241    0.536
  217.000    3.170   90.560  253.795    0.240    0.541
  217.250    3.043   83.201  255.346    0.237    0.501
  217.500    3.004   80.490  256.480    0.241    0.526
  217.750    3.097   81.988  256.465    0.259    0.557
  218.000    3.235   81.413  255.511    0.272    0.544
  218.250    3.589   76.064  252.781    0.271    0.540
  218.500    4.425   71.784  250.155    0.261    0.493
  218.750    6.747   63.231  249.930    0.246    0.465
  219.000   12.440   56.124  251.274    0.211    0.384
  219.250   21.076   52.157  251.050    0.193    0.379
  219.500   19.629   53.340  249.573    0.288    0.412
  219.750   19.125   56.157  248.304    0.323    0.459
  220.000   19.867   55.394  246.096    0.328    0.438
  220.250   20.176   52.935  245.350    0.338    0.420
  220.500   20.412   49.345  248.575    0.349    0.432
  220.750   21.444   49.273  251.274    0.343    0.454
  221.000   21.859   50.895  251.574    0.342    0.476
  221.250   21.991   50.885  250.933    0.340    0.422
  221.500   21.875   49.432  251.754    0.312    0.385
  221.750   21.315   48.542  250.800    0.277    0.403
  222.000   20.652   48.910  248.486    0.299    0.427
  222.250   20.351   51.224  246.696    0.332    0.480
  222.500   21.139   54.984  246.054    0.338    0.494
  222.750   21.630   54.597  246.562    0.335    0.475
  223.000   21.720   53.205  248.217    0.332    0.468
  223.250   20.769   54.514  248.934    0.337    0.476
  223.500   19.821   52.872  249.338    0.336    0.490
  223.750   18.989   52.485  249.218    0.332    0.491
  224.000   18.433   54.863  249.308    0.330    0.467
  224.250   29.183   54.602  248.876    0.307    0.396
  224.500   29.919   45.861  249.593    0.234    0.319
  224.750   29.316   38.565  251.146    0.216    0.304
  225.000   27.099   36.294  253.533    0.240    0.338
  225.250   26.010   40.116  254.458    0.271    0.418
  225.500   24.823   45.257  257.264    0.346    0.428
  225.750   23.827   46.566  261.010    0.345    0.428
  226.000   23.215   42.097  263.504    0.339    0.439
  226.250   19.643   41.898  264.114    0.352    0.449
  226.500   15.738   43.459  263.057    0.369    0.458
  226.750   14.143   44.958  262.729    0.349    0.473
  227.000   15.456   46.392  261.773    0.357    0.497
  227.250   19.784   44.561  261.131    0.365    0.497
  227.500   22.492   40.468  263.103    0.355    0.446
  227.750   24.078   37.443  268.101    0.354    0.423
  228.000   24.269   38.438  270.280    0.354    0.424
  228.250   24.508   37.487  273.085    0.353    0.447
  228.500   24.703   35.279  275.160    0.353    0.459
  228.750   24.758   34.139  276.505    0.355    0.435
  229.000   24.628   34.569  277.220    0.356    0.431
  229.250   24.452   36.318  278.043    0.348    0.437
  229.500   24.601   35.178  279.908    0.346    0.442
  229.750   24.655   31.650  281.147    0.340    0.441
  230.000   24.898   31.075  281.863    0.333    0.417
  230.250   25.001   33.138  281.744    0.333    0.401
  230.500   24.684   33.506  281.417    0.344    0.404
  230.750   25.351   33.119  281.296    0.354    0.418
  231.000   25.650   34.491  281.179    0.360    0.424
  231.250   25.756   34.481  280.849    0.359    0.420
  231.500   25.816   32.650  280.627    0.342    0.435
  231.750   25.921   31.070  279.777    0.334    0.439
  232.000   25.930   30.998  278.299    0.332    0.407
  232.250   25.844   31.742  273.166    0.333    0.404
  232.500   25.951   33.994  268.555    0.349    0.420
  232.750   25.670   34.926  265.718    0.360    0.398
  233.000   25.632   35.104  265.495    0.368    0.386
  233.250   25.785   35.094  267.256    0.360    0.413
  233.500   26.136   34.331  270.063    0.342    0.429
  233.750   26.147   31.244  271.093    0.344    0.435
  234.000   25.961   29.287  268.467    0.355    0.430
  234.250   26.020   28.775  265.733    0.358    0.429
  234.500   26.176   30.085  265.303    0.356    0.440
  234.750   26.334   31.456  266.543    0.344    0.454
  235.000   26.643   30.253  268.722    0.332    0.419
  235.250   28.520   30.620  270.064    0.330    0.395
  235.500   27.324   32.872  268.900    0.329    0.384
  235.750   27.957   35.438  266.482    0.331    0.390
  236.000   28.180   36.119  263.440    0.334    0.393
  236.250   28.509   39.123  258.515    0.340    0.388
  236.500   29.336   39.994  249.830    0.352    0.417
  236.750   29.075   39.795  245.113    0.343    0.441
  237.000   29.526   41.042  244.367    0.332    0.443
  237.250   29.928   44.174  243.096    0.334    0.423
  237.500   29.270   47.681  242.351    0.329    0.413
  237.750   29.391   51.503  242.129    0.321    0.442
  238.000   29.457   53.755  241.801    0.316    0.452
  238.250   29.581   52.488  242.413    0.295    0.452
  238.500   28.984   47.579  242.815    0.292    0.458
  238.750   27.874   43.487  243.009    0.325    0.476
  239.000   27.623   40.651  243.206    0.343    0.474
  239.250   27.529   38.191  243.190    0.345    0.448
  239.500   28.811   36.235  243.385    0.339    0.419
  239.750   32.755   34.341  243.998    0.343    0.423
  240.000   36.961   33.640  244.923    0.321    0.452
  240.250   45.821   32.939  244.177    0.238    0.323
  240.500   54.809   33.054  241.446    0.073    0.122
  240.750   67.947   34.804  241.640    0.018    0.095
  241.000   69.394   39.380  243.609    0.005    0.109
  241.250   62.480   41.506  243.804    0.081    0.147
  241.500   55.515   42.815  241.075    0.256    0.262
  241.750   48.045   42.805  238.029    0.296    0.432
  242.000   41.114   41.225  236.656    0.302    0.455
  242.250   35.716   38.766  236.642    0.321    0.447
  242.500   33.832   36.934  237.567    0.332    0.438
  242.750   32.473   38.997  238.806    0.338    0.430
  243.000   31.463   40.683  238.793    0.340    0.420
  243.250   30.946   42.119  237.942    0.336    0.418
  243.500   30.552   42.675  238.449    0.324    0.428
  243.750   30.108   41.785  240.313    0.321    0.428
  244.000   29.558   40.519  241.032    0.319    0.429
  244.250   28.909   44.467  241.016    0.331    0.437
  244.500   28.433   46.279  244.032    0.342    0.432
  244.750   27.757   46.771  253.733    0.335    0.434
  245.000   27.046   48.018  269.388    0.335    0.454
  245.250   26.253   46.187  274.074    0.329    0.471
  245.500   25.870   47.874  276.671    0.319    0.484
  245.750   25.831   51.256  281.357    0.331    0.485
  246.000   25.792   53.444  288.656    0.342    0.486
  246.250   25.998   52.995  295.014    0.341    0.497
  246.500   26.254   52.420  299.804    0.349    0.493
  246.750   27.014   46.003  308.460    0.346    0.475
  247.000   27.747   42.162  316.385    0.343    0.471
  247.250   28.018   41.524  317.311    0.361    0.465
  247.500   28.348   44.593  303.820    0.336    0.467
  247.750   28.253   45.839  307.984    0.314    0.483
  248.000   28.263   46.269  315.596    0.311    0.467
  248.250   27.486   47.516  321.431    0.323    0.446
  248.500   26.381   46.312  304.075    0.352    0.453
  248.750   25.179   46.428  290.480    0.406    0.471
  249.000   24.349   52.951  278.346    0.419    0.471
  249.250   23.904   58.594  272.586    0.393    0.477
  249.500   23.512   56.889  273.928    0.362    0.495
  249.750   21.733   48.777  262.737    0.362    0.509
  250.000   20.625   45.187  245.694    0.360    0.491
  250.250   18.465   47.815  242.232    0.347    0.446
  250.500   15.772   55.280  241.171    0.343    0.449
  250.750   11.698   64.127  241.366    0.329    0.450
  251.000    8.154   72.722  241.664    0.287    0.426
  251.250    6.939   70.451  241.859    0.267    0.439
