~VERSION INFORMATION
 VERS.                 2.0:   CWLS LOG ASCII STANDARD -VERSION 2.0
 WRAP.                  NO:   ONE LINE PER DEPTH STEP
~WELL INFORMATION BLOCK
#MNEM.UNIT           DATA                    DESCRIPTION OF MNEMONIC
#---------    -------------------            -------------------------------
# Generated from Intellog Unique Number	CW_70_72/WELL/3012
NULL.         -999.25                         : NULL_VALUE
WELL.         CITADEL ET AL MEYER 06-32      : Well_name    - WELL              
LOC .         06-32-070-25W4                 : Location     - LOCATION          
UWI .         00/06-32-070-25W4/0            : Uwi          - UNIQUE WELL ID    
ENTR.         J                              : Entered      - ENTERED BY        
SRVC.         COMPUTALOG                     : Scn          - SERVICE COMPANY   
DATE.         7 MAR 82                       : Date         - LOG DATE          
STRT.M        490                            : top_depth    - START DEPTH       
STOP.M        690                            : bot_depth    - STOP DEPTH        
STEP.M        0.25                           : increment    - STEP LENGTH       
~CURVE INFORMATION BLOCK
#MNEM UNIT       ERCB CURVE CODE    CURVE DESCRIPTION
#-----------   ------------------   ----------------------------------
DEPT.M        00 001 00 00         : DEPTH        - DEPTH                       
ILD .OHMM     00 120 00 00         : RESD         - DEEP RESISTIVITY (DIL)      
CALI.MM       00 280 01 00         : CAL          - CALIPER                     
GR  .API      00 310 00 00         : GR           - GAMMA RAY                   
NPHI.V/V      00 330 00 00         : PHIN         - NEUTRON POROSITY (SANDSTONE)
DPHI.V/V      00 890 00 00         : PHID         - DENSITY POROSITY (SANDSTONE)
~PARAMETER INFORMATION       
#MNEM.UNIT           DATA             DESCRIPTION OF MNEMONIC
#---------         -----------     ------------------------------
GL  .M        661                  : gl           - GROUND LEVEL ELEVATION      
EREF.M        665                  : kb           - ELEVATION OF DEPTH REFERENCE
DATM.M        661                  : datum        - DATUM ELEVATION             
TDD .M        725                  : tdd          - TOTAL DEPTH DRILLER         
RUN .         ONE                  : Run          - RUN NUMBER                  
ENG .         SVRCEL/BRULE         : Engineer     - RECORDING ENGINEER          
WIT .         CRIPPS/WETHERLY      : Witness      - WITNESSED BY                
BASE.         EDM                  : Branch       - HOME BASE OF LOGGING UNIT   
MUD .         GEL CHEM             : Mud_type     - MUD TYPE                    
MATR.         SANDSTONE            : Logunit      - NEUTRON MATRIX              
TMAX.C        30                   : BHT          - MAXIMUM RECORDED TEMPERATURE
BHTD.M        722                  : BHTDEP       - MAXIMUM RECORDED TEMPERATURE
RMT .C        16.6                 : MDTP         - TEMPERATURE OF MUD          
MUDD.KG/M     1210                 : MWT          - MUD DENSITY                 
NEUT.         1                    : NEUTRON      - NEUTRON TYPE                
RESI.         0                    : RESIST       - RESISTIVITY TYPE            
RM  .OHMM     3.4                  : RM           - RESISTIVITY OF MUD          
RMC .OHMM     3.5                  : RMC          - RESISTIVITY OF MUD CAKE     
RMF .OHMM     3.5                  : RMF          - RESISTIVITY OF MUD FILTRATE 
SUFT.C        0                    : SUFT         - SURFACE TEMPERATURE         
~A  DEPTH     RESD      CAL       GR     PHIN     PHID
# ...
  526.500    3.103  190.644   92.419    0.381    0.253
  526.750    3.333  192.553  103.046    0.354    0.212
  527.000    3.494  193.298  107.856    0.336    0.187
  527.250    3.663  194.470  113.047    0.334    0.174
  527.500    3.691  197.008  117.541    0.349    0.174
  527.750    3.650  200.707  122.731    0.362    0.175
  528.000    3.575  204.197  124.889    0.385    0.177
  528.250    3.483  205.156  116.615    0.398    0.182
  528.500    3.386  204.851  105.180    0.405    0.197
  528.750    3.243  203.495   94.314    0.421    0.216
  529.000    3.118  199.819   89.581    0.436    0.238
  529.250    3.003  196.775   85.291    0.437    0.255
  529.500    2.903  194.573   83.021    0.417    0.250
  529.750    2.871  191.108   80.878    0.400    0.242
  530.000    2.887  190.595   86.701    0.375    0.237
  530.250    2.965  193.027   89.299    0.371    0.233
  530.500    3.143  195.568   87.536    0.383    0.229
  530.750    3.370  195.791   86.912    0.374    0.226
  531.000    3.532  194.959   90.838    0.405    0.216
  531.250    3.566  193.074   95.270    0.417    0.207
  531.500    3.474  191.400   96.667    0.426    0.185
  531.750    3.296  193.626   95.031    0.437    0.188
  532.000    3.121  196.901   91.939    0.420    0.206
  532.250    2.950  199.969   84.741    0.432    0.228
  532.500    2.831  198.927   79.059    0.435    0.244
  532.750    2.727  196.939   72.935    0.432    0.252
  533.000    2.631  196.526   69.148    0.424    0.260
  533.250    2.578  196.856   73.959    0.403    0.267
  533.500    2.554  196.973   77.253    0.381    0.271
  533.750    2.617  196.984   74.353    0.407    0.275
  534.000    2.811  196.679   72.464    0.420    0.279
  534.250    3.219  200.061   76.137    0.420    0.267
  534.500    3.828  199.862   80.000    0.356    0.239
  534.750    4.542  199.350   81.650    0.326    0.203
  535.000    5.661  199.358   77.991    0.308    0.173
  535.250    6.706  198.949   72.814    0.302    0.149
  535.500    7.189  198.749   67.638    0.290    0.139
  535.750    6.387  198.236   65.307    0.274    0.126
  536.000    5.403  198.247   65.947    0.258    0.115
  536.250    4.657  198.048   67.914    0.239    0.128
  536.500    3.933  197.741   70.258    0.284    0.161
  536.750    3.461  197.753   76.080    0.305    0.208
  537.000    3.034  198.822   80.385    0.328    0.235
  537.250    2.762  199.147   89.367    0.354    0.253
  537.500    2.660  200.212  100.438    0.411    0.235
  537.750    2.706  201.805  108.345    0.444    0.234
  538.000    2.837  201.815  102.283    0.396    0.238
  538.250    2.990  200.248   94.326    0.362    0.243
  538.500    3.182  198.993   92.247    0.357    0.239
  538.750    3.298  198.057   88.904    0.405    0.230
  539.000    3.438  197.963   83.538    0.428    0.224
  539.250    3.503  195.343   78.993    0.419    0.218
  539.500    3.597  195.036   93.033    0.366    0.211
  539.750    3.693  195.787  100.183    0.353    0.198
  540.000    3.785  198.115  102.719    0.365    0.182
  540.250    3.857  199.707  103.675    0.399    0.169
  540.500    3.946  201.301  104.755    0.413    0.152
  540.750    3.968  202.153  106.913    0.391    0.143
  541.000    3.961  203.008  110.331    0.374    0.156
  541.250    3.925  202.808  115.838    0.371    0.180
  541.500    3.866  202.293  114.201    0.405    0.186
  541.750    3.717  199.883  109.467    0.442    0.185
  542.000    3.560  197.366  103.345    0.475    0.169
  542.250    3.327  198.113   99.937    0.476    0.190
  542.500    3.110  201.181   95.961    0.458    0.215
  542.750    2.901  200.877   92.175    0.456    0.237
  543.000    2.805  199.204   87.568    0.427    0.254
  543.250    2.784  196.793   84.288    0.389    0.261
  543.500    2.805  195.221   81.893    0.373    0.245
  543.750    2.880  193.337   77.349    0.369    0.215
  544.000    2.997  191.031   78.938    0.406    0.194
  544.250    3.059  191.148   88.109    0.428    0.183
  544.500    3.077  195.585   94.563    0.406    0.207
  544.750    3.060  199.811   88.124    0.392    0.232
  545.000    3.148  200.244   83.705    0.366    0.243
  545.250    3.318  199.308   80.867    0.359    0.238
  545.500    3.551  198.476   84.668    0.389    0.239
  545.750    3.722  197.644   82.272    0.420    0.244
  546.000    3.808  197.235   86.389    0.424    0.251
  546.250    3.830  198.301   89.934    0.412    0.254
  546.500    3.801  200.525   90.511    0.396    0.255
  546.750    3.703  202.540   89.001    0.402    0.248
  547.000    3.573  203.392   91.284    0.373    0.235
  547.250    3.474  204.142   96.790    0.339    0.220
  547.500    3.346  203.943  102.674    0.385    0.214
  547.750    3.247  203.532  102.178    0.413    0.220
  548.000    3.110  202.491   99.401    0.419    0.233
  548.250    3.035  199.660   91.950    0.399    0.245
  548.500    2.946  198.192   86.458    0.375    0.253
  548.750    2.913  196.413   82.039    0.372    0.257
  549.000    2.946  194.636   80.530    0.383    0.256
  549.250    3.065  194.961   84.076    0.412    0.250
  549.500    3.213  195.078   85.220    0.402    0.233
  549.750    3.195  195.620   82.194    0.382    0.206
  550.000    3.037  196.578   81.378    0.364    0.189
  550.250    2.839  197.958   81.829    0.462    0.208
  550.500    2.802  199.129   81.203    0.481    0.240
  550.750    2.760  199.561   76.532    0.473    0.261
  551.000    2.709  197.993   73.821    0.416    0.263
  551.250    2.719  196.636   73.449    0.407    0.268
  551.500    2.756  196.436   76.555    0.403    0.271
  551.750    2.787  195.190   78.206    0.399    0.270
  552.000    2.788  194.669   79.539    0.384    0.266
  552.250    2.720  193.838   79.229    0.397    0.263
  552.500    2.675  193.745   76.328    0.383    0.261
  552.750    2.631  194.599   74.186    0.371    0.260
  553.000    2.631  194.821   74.319    0.395    0.259
  553.250    2.636  194.621   75.907    0.424    0.256
  553.500    2.646  195.266   78.506    0.416    0.254
  553.750    2.671  195.697   81.231    0.428    0.251
  554.000    2.727  196.553   82.375    0.443    0.251
  554.250    2.854  198.355   80.487    0.454    0.252
  554.500    2.854  199.945   77.332    0.426    0.249
  554.750    3.286  199.431   75.568    0.365    0.242
  555.000    3.517  197.652   81.013    0.406    0.242
  555.250    3.517  195.663   84.242    0.442    0.239
  555.500    3.517  194.092   85.325    0.394    0.218
  555.750    4.020  193.789   84.257    0.375    0.185
  556.000    4.051  194.645   79.839    0.347    0.149
  556.250    4.287  196.130   73.778    0.350    0.178
  556.500    4.360  198.037   77.831    0.381    0.203
  556.750    5.175  199.418   83.336    0.407    0.213
  557.000    6.027  199.219   81.004    0.361    0.182
  557.250    7.274  199.760   67.422    0.315    0.139
  557.500    8.409  200.929   57.061    0.266    0.104
  557.750    8.160  203.365   52.833    0.274    0.110
  558.000    7.470  205.377   64.091    0.313    0.139
  558.250    6.737  206.757   76.994    0.308    0.169
  558.500    5.807  206.768   79.213    0.317    0.190
  558.750    5.267  204.568   79.790    0.330    0.207
  559.000    4.876  200.788   80.112    0.369    0.223
  559.250    4.697  198.059   88.463    0.396    0.230
  559.500    4.823  194.280   92.199    0.405    0.218
  559.750    5.017  192.182   95.050    0.402    0.190
  560.000    5.056  190.508   93.730    0.416    0.179
  560.250    4.953  190.310   90.766    0.421    0.167
  560.500    4.585  191.166   90.900    0.405    0.161
  560.750    4.190  194.759   91.412    0.414    0.165
  561.000    3.821  199.195   91.609    0.407    0.186
  561.250    3.538  199.945   90.857    0.431    0.203
  561.500    3.579  197.953   87.703    0.461    0.219
  561.750    3.794  194.488   82.464    0.480    0.230
  562.000    4.015  191.760   78.425    0.377    0.224
  562.250    4.084  189.980   74.703    0.239    0.166
  562.500    4.038  189.886   69.021    0.217    0.131
  562.750    3.669  191.163   63.276    0.211    0.114
