~VERSION INFORMATION
 VERS.                 2.0:   CWLS LOG ASCII STANDARD -VERSION 2.0
 WRAP.                  NO:   ONE LINE PER DEPTH STEP
~WELL INFORMATION BLOCK
#MNEM.UNIT           DATA                    DESCRIPTION OF MNEMONIC
#---------    -------------------            -------------------------------
# Generated from Intellog Unique Number	CW_73_75/WELL/3517
WELL.         CABRE EXPLORATION              : Well_name    - WELL
LOC .         00/02-05-074-04W5/0            : Location     - LOCATION
UWI .         00/02-05-074-04W5/0            : Uwi          - UNIQUE WELL ID
ENTR.         T                              : Entered      - ENTERED BY
SRVC.         SCHLUMBERGER                   : Scn          - SERVICE COMPANY
DATE.         05\15\92                       : Date         - LOG DATE
STRT.M        335                            : top_depth    - START DEPTH
STOP.M        590                            : bot_depth    - STOP DEPTH
STEP.M        0.25                           : increment    - STEP LENGTH
 NULL. -999.2500:NULL Value
~CURVE INFORMATION BLOCK
#MNEM UNIT       ERCB CURVE CODE    CURVE DESCRIPTION
#-----------   ------------------   ----------------------------------
DEPT.M        00 001 00 00         : DEPTH        - DEPTH
ILD .OHMM     00 120 00 00         : RESD         - DEEP RESISTIVITY (DIL)
DPHI.V/V      00 890 00 00         : PHID         - DENSITY POROSITY (SANDSTONE)
NPHI.V/V      00 330 00 00         : PHIN         - NEUTRON POROSITY (SANDSTONE)
GR  .API      00 310 00 00         : GR           - GAMMA RAY
~PARAMETER INFORMATION
#MNEM.UNIT           DATA             DESCRIPTION OF MNEMONIC
#---------         -----------     ------------------------------
GL  .M        593                  : gl           - GROUND LEVEL ELEVATION
EREF.M        597                  : kb           - ELEVATION OF DEPTH REFERENCE
DATM.M        597                  : datum        - DATUM ELEVATION
TDD .M        1628                 : tdd          - TOTAL DEPTH DRILLER
RUN .         ONE                  : Run          - RUN NUMBER
ENG .         JO                   : Engineer     - RECORDING ENGINEER
WIT .         TIM                  : Witness      - WITNESSED BY
MUD .         GEL                  : Mud_type     - MUD TYPE
MATR.         SANDSTONE            : Logunit      - NEUTRON MATRIX
TMAX.C        44                   : BHT          - MAXIMUM RECORDED TEMPERATURE
BHTD.M        1628                 : BHTDEP       - MAXIMUM RECORDED TEMPERATURE
RMT .C        15                   : MDTP         - TEMPERATURE OF MUD
MUDD.KG/M     1080                 : MWT          - MUD DENSITY
NEUT.         1                    : NEUTRON      - NEUTRON TYPE
RESI.         0                    : RESIST       - RESISTIVITY TYPE
RM  .OHMM     0.97                 : RM           - RESISTIVITY OF MUD
RMC .OHMM     0.688                : RMC          - RESISTIVITY OF MUD CAKE
RMF .OHMM     0.84                 : RMF          - RESISTIVITY OF MUD FILTRATE
SUFT.C        4                    : SUFT         - SURFACE TEMPERATURE
~A  DEPTH     RESD     PHID     PHIN       GR
# ...
  465.500    4.314    0.251    0.390   69.802
  465.750    4.314    0.245    0.388   70.963
  466.000    4.314    0.240    0.398   71.536
  466.250    4.236    0.246    0.402   70.928
  466.500    4.160    0.256    0.398   67.971
  466.750    4.084    0.250    0.395   65.597
  467.000    4.011    0.237    0.401   64.409
  467.250    4.011    0.234    0.408   63.212
  467.500    4.085    0.238    0.400   66.727
  467.750    4.160    0.242    0.392   66.707
  468.000    4.476    0.252    0.393   66.695
  468.250    4.559    0.258    0.393   66.684
  468.500    4.316    0.262    0.383   67.252
  468.750    4.086    0.258    0.371   68.413
  469.000    4.086    0.251    0.367   68.986
  469.250    4.559    0.244    0.376   68.966
  469.500    4.905    0.235    0.395   68.362
  469.750    5.277    0.228    0.400   70.700
  470.000    5.375    0.257    0.412   71.277
  470.250    5.182    0.265    0.398   71.261
  470.500    4.560    0.280    0.381   68.303
  470.750    4.087    0.282    0.382   64.165
  471.000    4.013    0.279    0.386   64.145
  471.250    3.941    0.267    0.393   67.072
  471.500    3.870    0.256    0.404   68.817
  471.750    3.870    0.255    0.406   69.394
  472.000    3.800    0.253    0.394   70.555
  472.250    3.800    0.245    0.387   71.720
  472.500    3.800    0.240    0.379   71.700
  472.750    3.800    0.235    0.376   71.088
  473.000    3.800    0.231    0.381   70.492
  473.250    3.801    0.223    0.391   68.703
  473.500    3.801    0.221    0.402   67.515
  473.750    3.801    0.223    0.395   66.915
  474.000    3.871    0.226    0.389   66.306
  474.250    3.943    0.227    0.390   68.060
  474.500    4.165    0.227    0.395   70.986
  474.750    4.320    0.228    0.406   72.735
  475.000    4.648    0.230    0.414   73.300
  475.250    5.092    0.234    0.418   71.523
  475.500    5.186    0.237    0.394   67.973
  475.750    5.001    0.251    0.389   65.016
  476.000    4.564    0.259    0.382   63.235
  476.250    4.243    0.258    0.388   64.396
  476.500    4.091    0.253    0.391   69.680
  476.750    4.017    0.247    0.399   71.421
  477.000    4.091    0.241    0.407   71.409
  477.250    4.091    0.240    0.390   70.801
  477.500    4.091    0.264    0.381   70.786
  477.750    4.167    0.278    0.389   70.774
  478.000    4.167    0.263    0.405   68.989
  478.250    4.167    0.247    0.411   67.800
  478.500    4.167    0.228    0.385   66.016
  478.750    4.168    0.222    0.369   66.592
  479.000    4.168    0.219    0.370   70.103
  479.250    4.168    0.216    0.379   70.672
  479.500    4.168    0.221    0.380   70.660
  479.750    4.168    0.225    0.382   69.460
  480.000    4.168    0.231    0.386   69.448
  480.250    4.169    0.234    0.380   68.844
  480.500    4.093    0.234    0.373   67.059
  480.750    3.947    0.233    0.372   66.459
  481.000    3.875    0.232    0.377   70.562
  481.250    3.876    0.231    0.378   72.307
  481.500    4.246    0.230    0.378   71.703
  481.750    4.915    0.228    0.384   72.276
  482.000    5.688    0.231    0.414   71.087
  482.250    7.213    0.257    0.428   68.718
  482.500    8.197    0.281    0.416   66.349
  482.750    9.316    0.289    0.395   63.980
  483.000    9.488    0.302    0.379   58.661
  483.250    9.488    0.320    0.377   55.707
  483.500    9.317    0.341    0.376   53.334
  483.750    9.317    0.347    0.372   50.965
  484.000    9.149    0.346    0.370   48.595
  484.250    8.984    0.345    0.370   46.819
  484.500    8.984    0.345    0.375   45.030
  484.750    8.985    0.345    0.381   46.779
  485.000    8.985    0.345    0.380   47.352
  485.250    8.985    0.345    0.369   46.744
  485.500    8.986    0.345    0.368   46.148
  485.750    8.986    0.345    0.370   45.544
  486.000    9.152    0.345    0.374   47.293
  486.250    9.152    0.345    0.381   49.042
  486.500    9.153    0.345    0.388   49.615
  486.750    9.153    0.343    0.382   49.595
  487.000    9.322    0.340    0.376   49.580
  487.250    9.323    0.334    0.374   48.972
  487.500    9.495    0.331    0.375   47.775
  487.750    9.670    0.331    0.375   47.175
  488.000    9.671    0.330    0.373   46.575
  488.250    9.671    0.330    0.364   45.971
  488.500    9.671    0.330    0.360   45.367
  488.750    9.672    0.330    0.360   47.697
  489.000    9.672    0.330    0.362   47.093
  489.250    9.673    0.330    0.363   47.073
  489.500    9.673    0.330    0.362   47.061
  489.750    9.673    0.329    0.360   47.638
  490.000    9.852    0.317    0.353   48.203
  490.250    9.853    0.300    0.350   48.783
  490.500    9.853    0.280    0.339   49.352
  490.750    9.853    0.278    0.342   49.924
  491.000    9.854    0.288    0.347   48.732
  491.250    9.676    0.306    0.365   47.532
  491.500    9.501    0.328    0.360   46.347
  491.750    9.329    0.330    0.353   45.147
  492.000    9.161    0.330    0.350   45.139
  492.250    9.161    0.326    0.353   48.649
  492.500    8.996    0.325    0.354   50.399
  492.750    8.833    0.324    0.359   50.375
  493.000    8.062    0.325    0.364   50.367
  493.250    7.495    0.328    0.365   50.936
  493.500    6.967    0.332    0.364   51.513
  493.750    6.717    0.335    0.362   52.666
  494.000    6.596    0.340    0.361   53.246
  494.250    6.596    0.342    0.362   53.231
  494.500    6.718    0.343    0.365   52.038
  494.750    6.968    0.344    0.364   51.430
  495.000    7.097    0.346    0.363   51.999
  495.250    7.228    0.346    0.364   53.160
  495.500    7.228    0.346    0.370   53.148
  495.750    7.229    0.347    0.375   51.363
  496.000    7.229    0.347    0.379   50.763
  496.250    7.098    0.347    0.380   49.571
  496.500    6.970    0.346    0.390   50.728
  496.750    6.844    0.346    0.402   53.070
  497.000    6.721    0.345    0.399   55.403
  497.250    6.480    0.343    0.388   55.388
  497.500    6.248    0.342    0.387   55.960
  497.750    5.915    0.339    0.401   55.945
  498.000    5.498    0.336    0.411   55.925
  498.250    5.399    0.332    0.405   56.494
  498.500    5.205    0.327    0.399   56.478
  498.750    5.206    0.322    0.392   56.470
  499.000    5.302    0.319    0.388   57.043
  499.250    5.704    0.320    0.384   57.611
  499.500    5.916    0.323    0.383   61.126
  499.750    6.848    0.327    0.383   68.755
  500.000    7.367    0.329    0.382   68.740
  500.250    7.503    0.329    0.377   67.551
  500.500    6.724    0.328    0.375   64.590
  500.750    6.138    0.327    0.367   62.224
  501.000    5.705    0.324    0.367   59.855
  501.250    5.602    0.311    0.376   61.604
  501.500    5.304    0.280    0.380   62.758
  501.750    5.208    0.257    0.374   62.157
  502.000    5.208    0.263    0.367   63.907
  502.250    5.304    0.273    0.363   65.652
  502.500    5.502    0.286    0.370   63.283
  502.750    5.604    0.298    0.380   60.914
  503.000    5.209    0.308    0.389   62.075
  503.250    4.755    0.301    0.377   67.355
  503.500    4.584    0.279    0.371   67.931
  503.750    4.420    0.261    0.369   66.146
  504.000    4.340    0.261    0.386   64.366
  504.250    4.340    0.260    0.393   63.173
  504.500    4.340    0.265    0.395   66.684
  504.750    4.341    0.274    0.406   67.849
  505.000    4.341    0.290    0.405   65.475
  505.250    4.341    0.293    0.395   63.691
  505.500    4.341    0.286    0.387   63.094
  505.750    4.341    0.266    0.384   63.075
  506.000    4.341    0.259    0.388   64.232
  506.250    4.342    0.252    0.390   65.393
  506.500    4.342    0.257    0.397   67.146
  506.750    4.342    0.261    0.404   69.484
  507.000    4.342    0.270    0.415   70.645
  507.250    4.342    0.278    0.431   70.041
  507.500    4.342    0.280    0.406   68.256
  507.750    4.343    0.278    0.398   66.475
  508.000    4.264    0.268    0.387   65.871
  508.250    4.264    0.260    0.384   65.856
  508.500    4.112    0.250    0.388   66.428
  508.750    4.037    0.241    0.390   66.409
