~VERSION INFORMATION
 VERS.                 2.0:   CWLS LOG ASCII STANDARD -VERSION 2.0
 WRAP.                  NO:   ONE LINE PER DEPTH STEP
~WELL INFORMATION BLOCK
#MNEM.UNIT           DATA                    DESCRIPTION OF MNEMONIC
#---------    -------------------            -------------------------------
# Generated from Intellog Unique Number	CX_WELLS/WELL/3156
WELL.         SURMONT                        : Well_name    - WELL
LOC .         00/06-27-083-09W4/0            : Location     - LOCATION
UWI .         00/06-27-083-09W400            : Uwi          - UNIQUE WELL ID
ENTR.         TIM                            : Entered      - ENTERED BY
SRVC.         SCHLUMBERGER                   : Scn          - SERVICE COMPANY
DATE.         03/04/92                       : Date         - LOG DATE
STRT.F        900                            : top_depth    - START DEPTH
STOP.F        1649.67                        : bot_depth    - STOP DEPTH
STEP.F        0.82                           : increment    - STEP LENGTH
 NULL. -999.2500:NULL Value
~CURVE INFORMATION BLOCK
#MNEM UNIT       ERCB CURVE CODE    CURVE DESCRIPTION
#-----------   ------------------   ----------------------------------
DEPT.F        00 001 00 00         : DEPTH        - DEPTH
GR  .API      00 310 00 00         : GR           - GAMMA RAY
NPHI.V/V      00 330 00 00         : PHIN         - NEUTRON POROSITY (SANDSTONE)
DPHI.V/V      00 890 00 00         : PHID         - DENSITY POROSITY (SANDSTONE)
ILD .OHMM     00 120 00 00         : RESD         - DEEP RESISTIVITY (OTHER)
~PARAMETER INFORMATION
#MNEM.UNIT           DATA             DESCRIPTION OF MNEMONIC
#---------         -----------     ------------------------------
GL  .F        2455.75              : gl           - GROUND LEVEL ELEVATION
EREF.F        2465.25              : kb           - ELEVATION OF DEPTH REFERENCE
DATM.F        2465.25              : datum        - DATUM ELEVATION
TDD .F        1694                 : tdd          - TOTAL DEPTH DRILLER
RUN .         ONE                  : Run          - RUN NUMBER
ENG .         JO                   : Engineer     - RECORDING ENGINEER
WIT .         TIM                  : Witness      - WITNESSED BY
MUD .         GEL                  : Mud_type     - MUD TYPE
MATR.         SANDSTONE            : Logunit      - NEUTRON MATRIX
TMAX.F        72                   : BHT          - MAXIMUM RECORDED TEMPERATURE
BHTD.F        1694                 : BHTDEP       - MAXIMUM RECORDED TEMPERATURE
RMT .F        72                   : MDTP         - TEMPERATURE OF MUD
MUDD.LB/G     1                    : MWT          - MUD DENSITY
NEUT.         1                    : NEUTRON      - NEUTRON TYPE
RESI.         8.35                 : RESIST       - RESISTIVITY TYPE
RM  .OHMM     7.8                  : RM           - RESISTIVITY OF MUD
RMC .OHMM     9.7                  : RMC          - RESISTIVITY OF MUD CAKE
RMF .OHMM     9.7                  : RMF          - RESISTIVITY OF MUD FILTRATE
SUFT.F        32                   : SUFT         - SURFACE TEMPERATURE
~A  DEPTH       GR     PHIN     PHID     RESD
  900.000  126.766    0.511    0.246    3.936
  900.820  125.594    0.512    0.247    3.945
  901.640  124.438    0.513    0.244    4.105
  902.461  123.266    0.514    0.243    4.192
  903.281  120.887    0.518    0.243    4.281
  904.101  119.137    0.519    0.248    4.294
  904.921  118.576    0.526    0.254    4.145
  905.741  118.067    0.532    0.263    4.152
  906.562  118.101    0.532    0.274    4.161
  907.382  117.574    0.532    0.276    4.171
  908.202  117.642    0.530    0.273    4.180
  909.022  117.116    0.530    0.265    4.190
  909.843  117.150    0.530    0.259    4.126
  910.663  115.994    0.531    0.255    4.054
  911.483  114.244    0.535    0.255    3.990
  912.303  113.718    0.536    0.259    3.924
  913.123  113.157    0.540    0.262    3.935
  913.944  112.002    0.543    0.267    3.942
  914.764  111.441    0.544    0.274    3.949
  915.584  111.526    0.546    0.282    3.884
  916.404  111.577    0.549    0.285    3.823
  917.224  111.662    0.554    0.290    3.832
  918.045  110.507    0.557    0.287    3.769
  918.865  110.558    0.563    0.282    3.777
  919.685  110.048    0.566    0.277    3.716
  920.505  109.488    0.574    0.269    3.722
  921.325  107.738    0.575    0.250    3.597
  922.146  106.582    0.575    0.249    3.534
  922.966  105.410    0.568    0.242    3.350
  923.786  102.436    0.563    0.238    3.173
  924.606  101.264    0.557    0.232    3.061
  925.427   99.480    0.550    0.222    2.846
  926.247   97.101    0.543    0.214    2.801
  927.067   96.574    0.533    0.211    2.862
  927.887   97.237    0.525    0.244    2.975
  928.707   99.141    0.512    0.249    3.098
  929.528  101.027    0.505    0.245    3.221
  930.348  103.559    0.500    0.239    3.417
  931.168  105.462    0.496    0.237    3.490
  931.988  107.366    0.496    0.237    3.704
  932.808  109.898    0.500    0.236    3.779
  933.629  111.172    0.502    0.234    3.859
  934.449  113.093    0.499    0.232    3.941
  935.269  113.755    0.494    0.232    4.027
  936.089  113.824    0.490    0.230    4.036
  936.909  111.445    0.488    0.229    4.043
  937.730  106.007    0.488    0.224    4.052
  938.550  106.704    0.490    0.221    4.066
  939.370  106.143    0.497    0.225    4.075
  940.190  105.600    0.503    0.233    4.082
  941.010  106.280    0.512    0.237    4.013
  941.831  107.571    0.514    0.237    4.022
  942.651  107.673    0.510    0.237    4.035
  943.471  107.707    0.501    0.235    4.040
  944.291  106.552    0.500    0.235    4.049
  945.112  106.620    0.500    0.235    4.060
  945.932  106.093    0.500    0.236    4.072
  946.752  106.145    0.501    0.237    4.077
  947.572  107.453    0.502    0.238    4.010
  948.392  108.150    0.506    0.239    4.019
  949.213  108.796    0.505    0.244    3.884
  950.033  108.269    0.500    0.243    3.891
  950.853  106.502    0.499    0.230    3.825
  951.673  106.570    0.495    0.225    3.836
  952.493  109.068    0.494    0.220    3.847
  953.314  111.583    0.493    0.217    3.851
  954.134  110.445    0.493    0.210    3.860
  954.954  106.214    0.491    0.204    3.871
  955.774   98.329    0.480    0.196    3.809
  956.594   93.521    0.468    0.187    3.814
  957.415   91.719    0.458    0.198    3.968
  958.235   88.117    0.449    0.271    4.535
  959.055   84.515    0.453    0.279    5.483
  959.875   84.583    0.461    0.277    8.004
  960.696   86.486    0.471    0.267    8.481
  961.516   88.407    0.473    0.259    9.513
  962.336   89.715    0.466    0.247   11.077
  963.156   90.990    0.467    0.244   11.757
  963.976   93.505    0.473    0.241   11.572
  964.797   96.037    0.474    0.239   11.158
  965.617   95.493    0.476    0.238   10.370
  966.437   94.950    0.480    0.245    8.951
  967.257   94.389    0.477    0.252    8.476
  968.077   95.069    0.471    0.255    8.035
  968.898   96.360    0.464    0.248    7.899
  969.718   97.040    0.461    0.236    7.770
  970.538  101.390    0.462    0.237    8.085
  971.358  103.906    0.464    0.244    8.577
  972.178  106.421    0.469    0.252    8.924
  972.999  108.953    0.481    0.261    9.114
  973.819  112.062    0.488    0.270    8.965
  974.639  109.072    0.490    0.301    8.650
  975.459   97.517    0.493    0.299    8.350
  976.280   98.197    0.490    0.290    8.378
  977.100   97.653    0.472    0.285    8.388
  977.920   97.721    0.463    0.280    9.238
  978.740  100.865    0.464    0.269   10.356
  979.560  103.380    0.466    0.255   12.533
  980.381  102.837    0.474    0.244   13.281
  981.201   99.829    0.471    0.233   12.583
  982.021   93.780    0.456    0.240   11.700
  982.841   74.867    0.440    0.263   10.873
  983.661   68.223    0.432    0.270    9.739
  984.482   67.050    0.425    0.269   10.343
  985.302   65.895    0.423    0.264   10.750
  986.122   67.187    0.420    0.259   11.186
  986.942   69.719    0.419    0.252   11.646
  987.762   72.846    0.419    0.244   13.062
  988.583   76.567    0.422    0.232   14.919
  989.403   80.917    0.432    0.220   17.721
  990.223   88.955    0.434    0.202   17.422
  991.043   93.917    0.433    0.197   16.809
  991.864   92.150    0.431    0.228   16.227
  992.684   87.936    0.431    0.260   15.383
  993.504   83.705    0.431    0.287   14.859
  994.324   78.284    0.437    0.305   14.599
  995.144   77.112    0.441    0.311   14.909
  995.965   79.644    0.442    0.310   15.816
  996.785   81.530    0.444    0.309   16.467
  997.605   82.227    0.445    0.309   16.797
  998.425   82.312    0.445    0.306   17.488
  999.245   81.123    0.449    0.300   17.528
 1000.070   78.132    0.452    0.289   17.558
 1000.890   76.977    0.452    0.285   17.598
 1001.710   78.285    0.446    0.285   17.647
 1002.530   77.759    0.441    0.289   17.687
 1003.350   77.198    0.438    0.292   17.727
 1004.170   75.431    0.436    0.290   17.777
 1004.990   74.276    0.434    0.278   17.807
 1005.810   71.285    0.433    0.276   17.868
 1006.630   67.683    0.433    0.279   17.878
 1007.450   67.139    0.432    0.284   17.595
 1008.270   68.414    0.431    0.289   17.645
 1009.090   71.592    0.431    0.291   17.675
 1009.910   73.478    0.431    0.291   17.725
 1010.730   75.347    0.432    0.292   17.745
 1011.550   80.938    0.433    0.292   17.785
 1012.370   84.082    0.436    0.292   17.825
 1013.190   87.820    0.439    0.289   17.896
 1014.010   89.724    0.443    0.282   17.926
 1014.830   91.015    0.445    0.280   17.947
 1015.650   91.083    0.445    0.284   17.997
 1016.470   90.540    0.443    0.292   18.048
 1017.290   89.979    0.442    0.302   18.079
 1018.110   87.617    0.442    0.305   18.130
 1018.930   82.774    0.443    0.304   18.161
 1019.750   82.843    0.444    0.295   18.536
 1020.570   86.598    0.447    0.291   18.588
 1021.390   86.666    0.449    0.290   18.993
 1022.210   87.346    0.450    0.288   19.015
 1023.030   88.026    0.450    0.281   19.430
 1023.850   89.300    0.450    0.275   19.484
 1024.670   92.461    0.450    0.266   19.166
 1025.490   94.348    0.449    0.252   18.831
 1026.310   98.086    0.449    0.237   17.214
 1027.130  101.825    0.450    0.235   16.609
 1027.950  103.745    0.451    0.235   15.727
 1028.770  103.218    0.453    0.235   15.174
 1029.590  103.270    0.454    0.234   14.384
 1030.410  103.355    0.456    0.223   13.383
 1031.230  103.406    0.456    0.209   12.437
 1032.050  105.309    0.459    0.196   11.565
 1032.870  109.048    0.462    0.176   10.747
 1033.690  113.381    0.465    0.166    9.993
 1034.510  119.583    0.471    0.161    9.115
 1035.330  123.322    0.478    0.166    8.016
 1036.150  124.019    0.488    0.177    7.450
 1036.980  123.492    0.499    0.196    6.798
 1037.800  122.931    0.509    0.224    5.871
 1038.620  123.000    0.519    0.239    5.662
 1039.440  123.662    0.520    0.249    5.268
 1040.260  122.524    0.506    0.260    5.079
 1041.080  119.516    0.474    0.266    4.904
 1041.900  111.615    0.455    0.273    5.011
