~VERSION INFORMATION
 VERS.                 2.0:   CWLS LOG ASCII STANDARD -VERSION 2.0
 WRAP.                  NO:   ONE LINE PER DEPTH STEP
~WELL INFORMATION BLOCK
#MNEM.UNIT           DATA                    DESCRIPTION OF MNEMONIC
#---------    -------------------            -------------------------------
# Generated from Intellog Unique Number	CC_80_83/WELL/2492
WELL.         GULF PONY                      : Well_name    - WELL
LOC .         00/06-25-081-09W4/0            : Location     - LOCATION
UWI .         00/06-25-081-09W4/0            : Uwi          - UNIQUE WELL ID
ENTR.         JHS                            : Entered      - ENTERED BY
SRVC.         SCHLUMBERGER                   : Scn          - SERVICE COMPANY
STRT.M        274.32                         : top_depth    - START DEPTH
STOP.M        477.07                         : bot_depth    - STOP DEPTH
STEP.M        0.25                           : increment    - STEP LENGTH
 NULL. -999.2500:NULL Value
~CURVE INFORMATION BLOCK
#MNEM UNIT       ERCB CURVE CODE    CURVE DESCRIPTION
#-----------   ------------------   ----------------------------------
DEPT.M        00 001 00 00         : DEPTH        - DEPTH
GR  .API      00 310 00 00         : GR           - GAMMA RAY
DPHI.V/V      00 890 00 00         : PHID         - DENSITY POROSITY (SANDSTONE)
NPHI.V/V      00 330 00 00         : PHIN         - NEUTRON POROSITY (SANDSTONE)
ILD .OHMM     00 120 00 00         : RESD         - DEEP RESISTIVITY (DIL)
~PARAMETER INFORMATION
#MNEM.UNIT           DATA             DESCRIPTION OF MNEMONIC
#---------         -----------     ------------------------------
GL  .M        706.344              : gl           - GROUND LEVEL ELEVATION
EREF.M        709.879              : kb           - ELEVATION OF DEPTH REFERENCE
DATM.M        709.879              : datum        - DATUM ELEVATION
TDD .M        484.632              : tdd          - TOTAL DEPTH DRILLER
RUN .         ONE                  : Run          - RUN NUMBER
ENG .         BILL                 : Engineer     - RECORDING ENGINEER
WIT .         JIM                  : Witness      - WITNESSED BY
MUD .         GEL                  : Mud_type     - MUD TYPE
MATR.         SANDSTONE            : Logunit      - NEUTRON MATRIX
TMAX.C        60                   : BHT          - MAXIMUM RECORDED TEMPERATURE
BHTD.M        484.632              : BHTDEP       - MAXIMUM RECORDED TEMPERATURE
MATR.         1                    : LOGUNIT      - NEUTRON MATRIX
RMT .C        25                   : MDTP         - TEMPERATURE OF MUD
NEUT.         1                    : NEUTRON      - NEUTRON TYPE
RESI.         0                    : RESIST       - RESISTIVITY TYPE
RMC .OHMM     0.25                 : RMC          - RESISTIVITY OF MUD CAKE
RMF .OHMM     0.25                 : RMF          - RESISTIVITY OF MUD FILTRATE
SUFT.C        15                   : SUFT         - SURFACE TEMPERATURE
~A  DEPTH       GR     PHID     PHIN     RESD
# ...
  361.320   94.101    0.233    0.538    2.875
  361.570   95.231    0.242    0.537    2.895
  361.820   95.296    0.236    0.518    2.901
  362.070   92.202    0.226    0.497    2.993
  362.320   91.835    0.245    0.499    3.109
  362.570   91.219    0.254    0.525    3.378
  362.820   88.031    0.239    0.548    3.819
  363.070   85.152    0.230    0.539    4.284
  363.320   84.340    0.243    0.503    4.685
  363.570   81.535    0.252    0.488    5.083
  363.820   78.936    0.251    0.486    5.235
  364.070   78.452    0.236    0.475    5.260
  364.320   79.410    0.221    0.472    5.215
  364.570   80.363    0.224    0.487    5.161
  364.820   80.882    0.240    0.488    5.408
  365.070   80.316    0.271    0.493    5.773
  365.320   75.131    0.278    0.481    5.972
  365.570   72.830    0.250    0.462    5.950
  365.820   77.482    0.228    0.460    5.854
  366.070   81.665    0.238    0.465    5.766
  366.320   81.996    0.245    0.465    5.594
  366.570   79.831    0.246    0.464    5.476
  366.820   77.471    0.246    0.463    5.475
  367.070   75.936    0.256    0.466    5.653
  367.320   75.170    0.273    0.476    5.906
  367.570   74.733    0.282    0.486    6.078
  367.820   73.518    0.290    0.491    6.561
  368.070   71.255    0.294    0.490    6.874
  368.320   69.011    0.282    0.482    7.057
  368.570   68.219    0.276    0.468    7.258
  368.820   68.883    0.295    0.458    7.361
  369.070   69.397    0.293    0.459    7.482
  369.320   69.954    0.277    0.460    7.504
  369.570   70.148    0.289    0.468    7.506
  369.820   70.204    0.300    0.474    7.475
  370.070   70.087    0.288    0.466    7.345
  370.320   69.087    0.296    0.460    7.237
  370.570   67.901    0.311    0.467    7.248
  370.820   64.791    0.313    0.470    7.147
  371.070   62.266    0.315    0.467    7.147
  371.320   64.367    0.315    0.462    7.259
  371.570   68.694    0.298    0.456    7.244
  371.820   67.781    0.286    0.452    7.248
  372.070   65.675    0.289    0.448    7.240
  372.320   64.265    0.288    0.455    7.311
  372.570   63.955    0.282    0.456    7.439
  372.820   64.710    0.282    0.451    7.551
  373.070   65.730    0.284    0.463    7.669
  373.320   66.442    0.292    0.461    7.789
  373.570   65.728    0.295    0.466    7.908
  373.820   66.977    0.284    0.465    8.034
  374.070   67.972    0.287    0.452    8.151
  374.320   65.032    0.303    0.442    8.288
  374.570   63.489    0.286    0.437    8.546
  374.820   65.194    0.288    0.442    8.848
  375.070   66.709    0.298    0.444    8.938
  375.320   66.052    0.298    0.452    8.910
  375.570   63.611    0.291    0.458    8.919
  375.820   60.721    0.286    0.445    8.923
  376.070   59.551    0.285    0.450    8.939
  376.320   59.962    0.286    0.452    8.815
  376.570   60.233    0.297    0.455    8.765
  376.820   61.650    0.305    0.463    8.735
  377.070   64.678    0.304    0.469    8.603
  377.320   65.172    0.306    0.474    8.612
  377.570   62.909    0.295    0.485    8.616
  377.820   61.014    0.297    0.484    8.635
  378.070   61.453    0.294    0.466    8.565
  378.320   63.113    0.288    0.444    8.455
  378.570   63.994    0.304    0.432    8.470
  378.820   64.804    0.305    0.448    8.463
  379.070   67.707    0.301    0.469    8.569
  379.320   69.304    0.300    0.481    8.711
  379.570   68.419    0.303    0.484    8.857
  379.820   67.691    0.309    0.474    8.969
  380.070   67.297    0.307    0.459    8.964
  380.320   63.783    0.291    0.463    9.097
  380.570   63.128    0.294    0.467    9.171
  380.820   65.275    0.308    0.461    9.081
  381.070   65.907    0.313    0.452    8.947
  381.320   64.201    0.311    0.447    8.806
  381.570   62.715    0.308    0.448    8.536
  381.820   62.196    0.300    0.450    8.400
  382.070   64.055    0.285    0.452    8.202
  382.320   67.559    0.281    0.447    7.980
  382.570   70.032    0.289    0.440    7.890
  382.820   70.930    0.288    0.447    7.770
  383.070   73.636    0.274    0.462    7.465
  383.320   77.554    0.257    0.531    6.903
  383.570   83.114    0.244    0.590    5.835
  383.820   88.374    0.240    0.586    4.732
  384.070   90.230    0.241    0.552    4.192
  384.320   89.792    0.248    0.525    3.771
  384.570   88.422    0.271    0.507    3.434
  384.820   86.890    0.224    0.493    3.450
  385.070   84.086    0.177    0.483    3.671
  385.320   80.046    0.174    0.468    4.034
  385.570   77.860    0.146    0.442    4.713
  385.820   80.251    0.204    0.453    5.274
  386.070   86.146    0.229    0.482    5.676
  386.320   90.316    0.223    0.514    5.877
  386.570   89.850    0.233    0.509    5.911
  386.820   86.572    0.240    0.463    5.912
  387.070   84.511    0.223    0.449    5.917
  387.320   87.330    0.231    0.450    5.836
  387.570   91.043    0.240    0.459    5.767
  387.820   91.448    0.242    0.479    5.601
  388.070   90.767    0.244    0.505    5.352
  388.320   93.656    0.247    0.530    5.106
  388.570   97.527    0.253    0.552    4.540
  388.820   97.001    0.254    0.568    3.998
  389.070   97.783    0.255    0.578    3.559
  389.320   98.859    0.266    0.593    3.133
  389.570   96.510    0.282    0.601    2.734
  389.820   95.183    0.280    0.580    2.460
  390.070   91.801    0.260    0.581    2.368
  390.320   86.661    0.250    0.564    2.328
  390.570   83.124    0.248    0.523    2.318
  390.820   82.719    0.235    0.491    2.381
  391.070   83.228    0.228    0.477    2.498
  391.320   82.610    0.260    0.468    2.678
  391.570   83.809    0.257    0.472    3.090
  391.820   82.574    0.238    0.458    3.578
  392.070   82.212    0.232    0.444    4.265
  392.320   86.368    0.239    0.452    5.169
  392.570   88.211    0.261    0.452    5.814
  392.820   86.197    0.270    0.450    6.119
  393.070   86.534    0.243    0.467    6.323
  393.320   88.429    0.223    0.475    6.477
  393.570   88.808    0.229    0.453    6.548
  393.820   88.280    0.230    0.424    6.673
  394.070   88.659    0.213    0.407    6.993
  394.320   90.700    0.203    0.411    7.265
  394.570   88.959    0.207    0.424    7.929
  394.820   87.230    0.218    0.423    8.788
  395.070   89.411    0.219    0.413    9.393
  395.320   90.265    0.203    0.422    9.819
  395.570   89.069    0.200    0.443   10.019
  395.820   86.577    0.211    0.463    9.863
  396.070   85.030    0.234    0.468    9.332
  396.320   86.325    0.245    0.473    8.233
  396.570   88.696    0.227    0.479    6.995
  396.820   88.198    0.208    0.459    6.705
  397.070   87.259    0.221    0.455    6.364
  397.320   85.871    0.232    0.458    5.982
  397.570   83.254    0.244    0.452    5.862
  397.820   79.609    0.258    0.436    5.870
  398.070   76.310    0.249    0.419    5.878
  398.320   75.486    0.248    0.420    6.238
  398.570   77.237    0.254    0.428    6.608
  398.820   78.619    0.260    0.436    7.212
  399.070   77.521    0.262    0.443    8.023
  399.320   75.732    0.248    0.445    8.556
  399.570   77.220    0.221    0.450    8.678
  399.820   81.893    0.215    0.459    8.709
  400.070   83.497    0.219    0.456    8.540
  400.320   82.949    0.229    0.454    8.227
  400.570   84.170    0.240    0.463    7.802
  400.820   86.737    0.245    0.470    7.219
  401.070   87.694    0.253    0.473    6.775
  401.320   84.347    0.256    0.451    6.560
  401.570   83.545    0.230    0.437    6.307
  401.820   85.538    0.223    0.435    6.069
  402.070   84.731    0.249    0.424    6.015
  402.320   81.716    0.232    0.418    6.107
  402.570   80.124    0.223    0.442    6.584
  402.820   78.676    0.241    0.482    6.928
  403.070   77.731    0.260    0.493    7.000
  403.320   76.090    0.267    0.470    6.975
  403.570   71.938    0.271    0.453    6.851
  403.820   69.590    0.272    0.442    6.549
  404.070   72.776    0.258    0.434    6.298
  404.320   73.851    0.260    0.434    6.289
  404.570   72.613    0.270    0.443    6.444
