~VERSION INFORMATION
 VERS.                 2.0:   CWLS LOG ASCII STANDARD -VERSION 2.0
 WRAP.                  NO:   ONE LINE PER DEPTH STEP
~WELL INFORMATION BLOCK
#MNEM.UNIT           DATA                    DESCRIPTION OF MNEMONIC
#---------    -------------------            -------------------------------
# Generated from Intellog Unique Number	CW_73_75/WELL/3520
WELL.         MANNVILLE OIL                  : Well_name    - WELL
LOC .         00/07-08-073-03W5/0            : Location     - LOCATION
UWI .         00/07-08-073-03W5/0            : Uwi          - UNIQUE WELL ID
ENTR.         TIM                            : Entered      - ENTERED BY
SRVC.         SCHLUMBERGER                   : Scn          - SERVICE COMPANY
DATE.         05\15\92                       : Date         - LOG DATE
STRT.M        350                            : top_depth    - START DEPTH
STOP.M        620                            : bot_depth    - STOP DEPTH
STEP.M        0.25                           : increment    - STEP LENGTH
 NULL. -999.2500:NULL Value
~CURVE INFORMATION BLOCK
#MNEM UNIT       ERCB CURVE CODE    CURVE DESCRIPTION
#-----------   ------------------   ----------------------------------
DEPT.M        00 001 00 00         : DEPTH        - DEPTH
GR  .API      00 310 00 00         : GR           - GAMMA RAY
NPHI.V/V      00 330 00 00         : PHIN         - NEUTRON POROSITY (SANDSTONE)
DPHI.V/V      00 890 00 00         : PHID         - DENSITY POROSITY (SANDSTONE)
ILD .OHMM     00 120 00 00         : RESD         - DEEP RESISTIVITY (DIL)
~PARAMETER INFORMATION
#MNEM.UNIT           DATA             DESCRIPTION OF MNEMONIC
#---------         -----------     ------------------------------
GL  .M        590                  : gl           - GROUND LEVEL ELEVATION
EREF.M        593.5                : kb           - ELEVATION OF DEPTH REFERENCE
DATM.M        593.5                : datum        - DATUM ELEVATION
TDD .M        621                  : tdd          - TOTAL DEPTH DRILLER
RUN .         ONE                  : Run          - RUN NUMBER
ENG .         JO                   : Engineer     - RECORDING ENGINEER
WIT .         TIM                  : Witness      - WITNESSED BY
MUD .         GEL                  : Mud_type     - MUD TYPE
MATR.         SANDSTONE            : Logunit      - NEUTRON MATRIX
TMAX.C        28                   : BHT          - MAXIMUM RECORDED TEMPERATURE
BHTD.M        620                  : BHTDEP       - MAXIMUM RECORDED TEMPERATURE
RMT .C        15                   : MDTP         - TEMPERATURE OF MUD
MUDD.KG/M     1080                 : MWT          - MUD DENSITY
NEUT.         1                    : NEUTRON      - NEUTRON TYPE
RESI.         0                    : RESIST       - RESISTIVITY TYPE
RM  .OHMM     2.53                 : RM           - RESISTIVITY OF MUD
RMC .OHMM     2.78                 : RMC          - RESISTIVITY OF MUD CAKE
RMF .OHMM     2.33                 : RMF          - RESISTIVITY OF MUD FILTRATE
SUFT.C        4                    : SUFT         - SURFACE TEMPERATURE
~A  DEPTH       GR     PHIN     PHID     RESD
# ...
  567.500   91.572    0.466    0.307    1.640
  567.750   92.686    0.483    0.305    1.696
  568.000   97.316    0.525    0.301    1.724
  568.250  100.196    0.499    0.291    1.786
  568.500  101.899    0.470    0.248    1.952
  568.750  103.013    0.446    0.227    2.135
  569.000  102.362    0.486    0.224    2.378
  569.250  101.107    0.458    0.223    2.649
  569.500  100.487    0.414    0.218    2.897
  569.750   86.283    0.389    0.079    3.345
  570.000   83.867    0.319    0.099    3.466
  570.250   92.028    0.357    0.133    4.003
  570.500   91.965    0.356    0.156    4.379
  570.750   90.709    0.354    0.153    4.878
  571.000   90.678    0.359    0.151    5.237
  571.250   92.969    0.369    0.150    5.317
  571.500   95.850    0.364    0.149    5.308
  571.750  101.068    0.355    0.151    5.299
  572.000  103.948    0.346    0.158    5.285
  572.250  105.062    0.337    0.158    4.988
  572.500  105.015    0.332    0.148    4.708
  572.750  102.583    0.326    0.144    4.618
  573.000  101.343    0.319    0.138    4.774
  573.250  101.280    0.316    0.143    4.857
  573.500  104.145    0.344    0.149    5.410
  573.750  105.879    0.384    0.158    6.026
  574.000  108.170    0.383    0.168    6.712
  574.250  110.446    0.355    0.181    7.336
  574.500  110.972    0.337    0.179    7.881
  574.750  109.143    0.311    0.172    8.618
  575.000   98.487    0.299    0.148    9.599
  575.250   89.008    0.291    0.127   10.503
  575.500   79.513    0.289    0.273   11.908
  575.750   71.210    0.279    0.204   12.553
  576.000   55.242    0.265    0.172   13.226
  576.250   45.747    0.236    0.104   13.456
  576.500   49.215    0.302    0.174   13.668
  576.750   53.288    0.336    0.202   14.147
  577.000   56.756    0.330    0.213   14.369
  577.250   56.694    0.324    0.201   14.345
  577.500   51.891    0.310    0.181   14.571
  577.750   48.902    0.297    0.168   14.824
  578.000   46.485    0.288    0.155   14.767
  578.250   45.802    0.282    0.154   15.015
  578.500   45.771    0.278    0.158   15.821
  578.750   45.692    0.274    0.163   16.096
  579.000   45.630    0.269    0.164   17.273
  579.250   43.213    0.254    0.162   17.553
  579.500   40.780    0.232    0.147   17.839
  579.750   39.541    0.214    0.108   17.800
  580.000   38.316    0.181    0.089   17.770
  580.250   37.665    0.148    0.066   17.390
  580.500   37.014    0.118    0.046   17.362
  580.750   36.935    0.107    0.042   17.333
  581.000   37.461    0.105    0.037   17.596
  581.250   40.341    0.103    0.029   17.901
  581.500   43.810    0.110    0.037   18.192
  581.750   47.294    0.196    0.064   18.143
  582.000   54.294    0.232    0.072   18.093
  582.250   61.294    0.221    0.186   17.725
  582.500   60.054    0.209    0.142   17.375
  582.750   58.225    0.238    0.123   17.022
  583.000   58.163    0.252    0.142   16.975
  583.250   51.610    0.249    0.163   17.251
  583.500   46.251    0.224    0.135   17.541
  583.750   44.422    0.213    0.061   18.146
  584.000   43.151    0.173    0.048   18.441
  584.250   43.104    0.120    0.046   18.411
  584.500   43.042    0.112    0.046   18.371
  584.750   42.979    0.126    0.045   18.330
  585.000   43.489    0.140    0.044   17.632
  585.250   45.192    0.146    0.042   16.634
  585.500   45.129    0.148    0.041   15.991
  585.750   45.066    0.154    0.047   15.964
  586.000   45.004    0.181    0.074   15.921
  586.250   45.530    0.195    0.083   15.903
  586.500   46.056    0.186    0.088   16.452
  586.750   45.389    0.167    0.084   16.719
  587.000   44.753    0.160    0.075   17.305
  587.250   44.117    0.147    0.057   18.234
  587.500   42.273    0.137    0.048   18.894
  587.750   40.461    0.132    0.056   21.021
  588.000   37.424    0.122    0.053   21.386
  588.250   36.788    0.114    0.049   23.374
  588.500   35.549    0.107    0.041   24.655
  588.750   34.293    0.106    0.037   25.977
  589.000   34.819    0.106    0.041   26.414
  589.250   35.949    0.106    0.051   26.843
  589.500   37.621    0.110    0.060   27.265
  589.750   38.178    0.112    0.069   27.220
  590.000   38.688    0.114    0.077   27.145
  590.250   37.448    0.115    0.085   27.101
  590.500   35.031    0.115    0.084   26.521
  590.750   33.791    0.115    0.077   25.496
  591.000   35.494    0.116    0.070   25.468
  591.250   37.770    0.117    0.057   24.951
  591.500   39.473    0.121    0.050   23.987
  591.750   40.014    0.122    0.048   23.500
  592.000   39.920    0.126    0.048   23.022
  592.250   39.873    0.127    0.049   22.542
  592.500   39.826    0.128    0.049   22.096
  592.750   39.748    0.130    0.051   21.635
  593.000   39.670    0.131    0.051   21.600
  593.250   39.623    0.131    0.051   21.149
  593.500   40.148    0.131    0.051   20.731
  593.750   40.690    0.131    0.051   19.930
  594.000   41.773    0.133    0.053   19.897
  594.250   41.742    0.136    0.054   19.128
  594.500   41.663    0.139    0.054   18.740
  594.750   41.012    0.144    0.054   18.359
  595.000   39.772    0.145    0.054   17.996
  595.250   39.709    0.144    0.053   17.611
  595.500   41.985    0.139    0.053   17.253
  595.750   41.938    0.137    0.054   16.903
  596.000   41.271    0.136    0.054   16.866
  596.250   40.620    0.136    0.054   16.532
  596.500   39.969    0.140    0.054   16.196
  596.750   39.890    0.145    0.054   16.152
  597.000   39.859    0.146    0.054   15.823
  597.250   40.369    0.146    0.057   15.511
  597.500   42.645    0.147    0.058   15.476
  597.750   46.733    0.147    0.059   15.154
  598.000   53.129    0.148    0.062   14.838
  598.250   53.639    0.151    0.063   14.805
  598.500   53.019    0.155    0.065   14.512
  598.750   51.175    0.162    0.064   14.473
  599.000   48.758    0.168    0.061   14.178
  599.250   50.461    0.176    0.059   14.140
  599.500   53.325    0.179    0.062   14.385
  599.750   52.086    0.172    0.063   14.882
  600.000   50.846    0.161    0.057   15.132
  600.250   51.960    0.162    0.055   15.662
  600.500   54.252    0.170    0.059   16.203
  600.750   55.382    0.173    0.063   18.037
  601.000   54.715    0.174    0.066   18.330
  601.250   49.959    0.171    0.065   18.648
  601.500   47.527    0.169    0.063   18.952
  601.750   46.271    0.167    0.057   19.595
  602.000   45.605    0.166    0.052   19.562
  602.250   45.573    0.166    0.042   19.881
  602.500   45.510    0.166    0.042   19.826
  602.750   46.021    0.169    0.044   19.782
  603.000   45.974    0.172    0.047   20.115
  603.250   45.895    0.176    0.051   20.049
  603.500   45.244    0.180    0.055   20.386
  603.750   44.593    0.180    0.059   20.342
  604.000   43.957    0.175    0.063   20.286
  604.250   43.306    0.169    0.064   20.264
  604.500   43.227    0.165    0.063   20.186
  604.750   43.149    0.160    0.061   20.153
  605.000   43.086    0.157    0.054   20.119
  605.250   41.847    0.153    0.050   19.711
  605.500   42.977    0.147    0.046   19.310
  605.750   46.445    0.152    0.041   18.907
  606.000   49.914    0.161    0.040   18.866
  606.250   47.497    0.166    0.039   18.835
  606.500   45.080    0.160    0.038   18.442
  606.750   43.824    0.153    0.039   18.067
  607.000   44.350    0.147    0.042   18.028
  607.250   44.876    0.147    0.041   17.671
  607.500   44.829    0.153    0.036   16.988
  607.750   45.355    0.156    0.039   16.625
  608.000   48.219    0.156    0.040   16.296
  608.250   53.469    0.157    0.040   15.956
  608.500   58.115    0.163    0.040   15.939
  608.750   59.818    0.171    0.040   15.606
  609.000   57.958    0.174    0.043   15.298
  609.250   57.338    0.176    0.045   14.970
  609.500   53.713    0.177    0.046   14.674
  609.750   54.254    0.177    0.045   14.384
  610.000   57.134    0.179    0.041   13.821
  610.250   61.764    0.179    0.038   13.287
  610.500   64.675    0.181    0.037   13.017
  610.750   66.362    0.187    0.040   12.766
