~VERSION INFORMATION
 VERS.                 2.0:   CWLS LOG ASCII STANDARD -VERSION 2.0
 WRAP.                  NO:   ONE LINE PER DEPTH STEP
~WELL INFORMATION BLOCK
#MNEM.UNIT           DATA                    DESCRIPTION OF MNEMONIC
#---------    -------------------            -------------------------------
# Generated from Intellog Unique Number	CC_84_87/WELL/2551
WELL.         GULF AOSTRA RESDELN            : Well_name    - WELL
LOC .         00/06-05-084-06W4/0            : Location     - LOCATION
UWI .         00/06-05-084-06W400            : Uwi          - UNIQUE WELL ID
ENTR.         JHS                            : Entered      - ENTERED BY
SRVC.         SCHLUMBERGER                   : Scn          - SERVICE COMPANY
STRT.M        150                            : top_depth    - START DEPTH
STOP.M        409.75                         : bot_depth    - STOP DEPTH
STEP.M        0.25                           : increment    - STEP LENGTH
 NULL. -999.2500:NULL Value
~CURVE INFORMATION BLOCK
#MNEM UNIT       ERCB CURVE CODE    CURVE DESCRIPTION
#-----------   ------------------   ----------------------------------
DEPT.M        00 001 00 00         : DEPTH        - DEPTH
GR  .API      00 310 00 00         : GR           - GAMMA RAY
DPHI.V/V      00 890 00 00         : PHID         - DENSITY POROSITY (SANDSTONE)
NPHI.V/V      00 330 00 00         : PHIN         - NEUTRON POROSITY (SANDSTONE)
ILD .OHMM     00 120 00 00         : RESD         - DEEP RESISTIVITY (DIL)
~PARAMETER INFORMATION
#MNEM.UNIT           DATA             DESCRIPTION OF MNEMONIC
#---------         -----------     ------------------------------
GL  .M        571                  : gl           - GROUND LEVEL ELEVATION
EREF.M        574.68               : kb           - ELEVATION OF DEPTH REFERENCE
DATM.M        574.68               : datum        - DATUM ELEVATION
TDD .M        420                  : tdd          - TOTAL DEPTH DRILLER
RUN .         ONE                  : Run          - RUN NUMBER
ENG .         BILL                 : Engineer     - RECORDING ENGINEER
WIT .         JIM                  : Witness      - WITNESSED BY
MUD .         GEL                  : Mud_type     - MUD TYPE
MATR.         SANDSTONE            : Logunit      - NEUTRON MATRIX
TMAX.C        21                   : BHT          - MAXIMUM RECORDED TEMPERATURE
BHTD.M        420                  : BHTDEP       - MAXIMUM RECORDED TEMPERATURE
MATR.         1                    : LOGUNIT      - NEUTRON MATRIX
RMT .C        25                   : MDTP         - TEMPERATURE OF MUD
NEUT.         1                    : NEUTRON      - NEUTRON TYPE
RESI.         0                    : RESIST       - RESISTIVITY TYPE
RMC .OHMM     0.25                 : RMC          - RESISTIVITY OF MUD CAKE
RMF .OHMM     0.25                 : RMF          - RESISTIVITY OF MUD FILTRATE
SUFT.C        15                   : SUFT         - SURFACE TEMPERATURE
~A  DEPTH       GR     PHID     PHIN     RESD
  150.000   83.546    0.285    0.427   12.203
  150.250   85.459    0.267    0.431   11.280
  150.500   84.749    0.262    0.427   10.472
  150.750   85.976    0.251    0.448    9.551
  151.000   89.084    0.237    0.466    8.835
  151.250   90.216    0.238    0.466    8.750
  151.500   87.901    0.259    0.472    9.049
  151.750   84.914    0.287    0.452    9.608
  152.000   81.234    0.287    0.442   12.303
  152.250   76.122    0.283    0.444   16.389
  152.500   68.992    0.286    0.448   19.194
  152.750   61.735    0.288    0.446   20.484
  153.000   56.278    0.300    0.430   22.166
  153.250   49.585    0.324    0.413   23.273
  153.500   44.942    0.331    0.398   24.070
  153.750   44.008    0.339    0.398   24.624
  154.000   47.066    0.342    0.406   24.829
  154.250   52.568    0.331    0.408   24.761
  154.500   56.363    0.330    0.416   24.328
  154.750   55.636    0.341    0.437   23.214
  155.000   53.267    0.345    0.455   22.402
  155.250   52.854    0.346    0.468   21.747
  155.500   53.532    0.346    0.461   21.128
  155.750   53.293    0.349    0.443   20.974
  156.000   52.791    0.362    0.451   21.342
  156.250   53.057    0.360    0.472   21.673
  156.500   55.902    0.351    0.493   22.046
  156.750   57.960    0.351    0.497   22.185
  157.000   57.035    0.348    0.473   22.137
  157.250   53.957    0.339    0.443   22.156
  157.500   51.048    0.342    0.435   22.148
  157.750   51.497    0.345    0.431   21.864
  158.000   51.960    0.331    0.416   20.982
  158.250   53.524    0.300    0.411   19.963
  158.500   55.123    0.264    0.412   19.088
  158.750   55.548    0.234    0.411   18.178
  159.000   57.842    0.230    0.416   17.370
  159.250   62.153    0.283    0.424   17.311
  159.500   62.792    0.298    0.439   17.743
  159.750   58.491    0.298    0.446   18.612
  160.000   54.193    0.315    0.433   20.084
  160.250   53.856    0.334    0.413   20.899
  160.500   55.495    0.338    0.409   19.789
  160.750   56.697    0.332    0.412   18.668
  161.000   61.981    0.294    0.420   16.603
  161.250   68.043    0.263    0.425   13.876
  161.500   72.487    0.260    0.428   11.626
  161.750   77.442    0.262    0.429   10.268
  162.000   82.409    0.252    0.433    9.552
  162.250   82.246    0.247    0.440    9.401
  162.500   80.208    0.245    0.446    9.154
  162.750   80.850    0.247    0.444    8.908
  163.000   81.940    0.253    0.440    8.869
  163.250   82.097    0.251    0.452    8.839
  163.500   83.716    0.242    0.468    8.698
  163.750   82.858    0.256    0.453    8.818
  164.000   80.890    0.252    0.445    9.062
  164.250   76.255    0.253    0.451    9.509
  164.500   70.914    0.274    0.457   10.712
  164.750   65.209    0.297    0.456   12.516
  165.000   57.580    0.312    0.451   14.396
  165.250   56.127    0.311    0.431   16.944
  165.500   58.057    0.318    0.418   18.198
  165.750   62.373    0.305    0.414   18.466
  166.000   69.041    0.286    0.415   18.060
  166.250   75.969    0.286    0.421   16.690
  166.500   80.229    0.289    0.435   14.939
  166.750   80.566    0.309    0.451   13.757
  167.000   78.266    0.304    0.458   13.229
  167.250   76.034    0.302    0.454   12.942
  167.500   75.280    0.304    0.440   12.902
  167.750   75.483    0.292    0.433   13.162
  168.000   77.266    0.290    0.446   13.352
  168.250   83.323    0.293    0.469   13.354
  168.500   88.244    0.299    0.470   13.366
  168.750   88.225    0.301    0.462   13.259
  169.000   85.172    0.290    0.464   12.985
  169.250   81.321    0.281    0.470   12.879
  169.500   74.913    0.291    0.454   13.349
  169.750   65.143    0.298    0.424   14.395
  170.000   58.355    0.291    0.408   15.788
  170.250   57.363    0.307    0.402   17.276
  170.500   60.919    0.327    0.399   18.291
  170.750   66.310    0.318    0.406   18.210
  171.000   71.344    0.298    0.417   17.011
  171.250   75.196    0.275    0.422   15.471
  171.500   76.335    0.266    0.426   14.418
  171.750   78.670    0.264    0.422   13.681
  172.000   81.122    0.248    0.428   13.205
  172.250   80.132    0.245    0.442   13.088
  172.500   78.747    0.286    0.428   13.094
  172.750   82.498    0.289    0.411   13.096
  173.000   87.915    0.258    0.417   13.083
  173.250   89.243    0.241    0.429   13.127
  173.500   88.497    0.243    0.436   12.982
  173.750   91.401    0.254    0.437   12.505
  174.000   97.737    0.272    0.432   11.924
  174.250  101.724    0.270    0.444   11.107
  174.500  102.009    0.254    0.445    9.607
  174.750  103.089    0.235    0.448    8.376
  175.000  106.690    0.219    0.467    7.593
  175.250  107.794    0.214    0.481    6.988
  175.500  104.531    0.221    0.473    6.809
  175.750  106.005    0.229    0.473    6.686
  176.000  106.336    0.232    0.471    6.802
  176.250  104.815    0.226    0.468    7.223
  176.500  101.951    0.229    0.469    7.935
  176.750   97.628    0.234    0.466    8.875
  177.000   94.862    0.217    0.448    9.888
  177.250   95.979    0.224    0.429   10.752
  177.500   95.390    0.238    0.435   10.945
  177.750   97.472    0.243    0.456   10.645
  178.000  100.506    0.233    0.464   10.388
  178.250  101.306    0.221    0.458   10.201
  178.500  102.875    0.229    0.459    9.885
  178.750  101.619    0.241    0.465   10.009
  179.000   98.161    0.254    0.471   10.334
  179.250   92.620    0.275    0.483   10.612
  179.500   86.737    0.304    0.472   11.113
  179.750   83.835    0.315    0.441   12.164
  180.000   85.886    0.296    0.438   13.323
  180.250   91.228    0.289    0.449   13.592
  180.500   92.692    0.288    0.460   13.429
  180.750   90.490    0.285    0.462   13.112
  181.000   88.299    0.288    0.451   12.603
  181.250   86.817    0.293    0.445   12.031
  181.500   84.144    0.288    0.458   11.687
  181.750   80.506    0.291    0.469   11.652
  182.000   76.561    0.308    0.488   12.019
  182.250   59.828    0.359    0.541   13.133
  182.500   44.606    0.386    0.552   14.746
  182.750   45.058    0.331    0.476   16.860
  183.000   48.252    0.261    0.409   19.342
  183.250   53.044    0.260    0.411   20.344
  183.500   54.930    0.288    0.421   20.973
  183.750   55.014    0.299    0.428   21.538
  184.000   53.379    0.300    0.433   21.532
  184.250   51.210    0.309    0.430   21.194
  184.500   52.608    0.316    0.427   21.229
  184.750   55.307    0.311    0.429   21.233
  185.000   56.005    0.331    0.436   21.222
  185.250   54.915    0.331    0.437   21.235
  185.500   53.092    0.319    0.442   21.203
  185.750   51.070    0.323    0.443   21.264
  186.000   49.648    0.320    0.417   21.623
  186.250   49.569    0.320    0.406   21.985
  186.500   50.305    0.322    0.413   22.069
  186.750   52.176    0.319    0.419   21.900
  187.000   53.811    0.318    0.416   21.322
  187.250   54.935    0.320    0.413   20.796
  187.500   57.660    0.312    0.413   20.825
  187.750   60.531    0.312    0.418   20.191
  188.000   59.780    0.318    0.427   19.771
  188.250   58.021    0.309    0.439   19.530
  188.500   57.811    0.301    0.450   19.168
  188.750   58.455    0.306    0.453   18.964
  189.000   57.747    0.301    0.447   19.321
  189.250   53.412    0.299    0.434   20.202
  189.500   48.024    0.303    0.419   21.474
  189.750   46.823    0.313    0.406   22.759
  190.000   48.852    0.318    0.404   23.455
  190.250   48.988    0.316    0.405   23.843
  190.500   46.248    0.325    0.395   24.621
  190.750   44.913    0.329    0.386   25.012
  191.000   46.676    0.329    0.380   25.442
  191.250   47.998    0.334    0.380   25.544
  191.500   48.316    0.341    0.392   25.698
  191.750   47.803    0.345    0.408   26.056
  192.000   45.724    0.344    0.420   26.032
  192.250   46.210    0.344    0.424   26.451
  192.500   46.144    0.335    0.425   26.558
  192.750   45.125    0.335    0.415   26.505
  193.000   44.290    0.342    0.400   26.521
  193.250   44.906    0.342    0.391   26.516
