~VERSION INFORMATION
 VERS.                 2.0:   CWLS LOG ASCII STANDARD -VERSION 2.0
 WRAP.                  NO:   ONE LINE PER DEPTH STEP
~WELL INFORMATION BLOCK
#MNEM.UNIT           DATA                    DESCRIPTION OF MNEMONIC
#---------    -------------------            -------------------------------
# Generated from Intellog Unique Number	CS_77_79/WELL/904
WELL.         DOME PETROLEUM                 : Well_name    - WELL
LOC .         00/07-22-077-15W4/0            : Location     - LOCATION
UWI .         00/07-22-077-15W4/0            : Uwi          - UNIQUE WELL ID
ENTR.         SP                             : Entered      - ENTERED BY
SRVC.         SCHLUMBERGER                   : Scn          - SERVICE COMPANY
STRT.M        290.25                         : top_depth    - START DEPTH
STOP.M        546                            : bot_depth    - STOP DEPTH
STEP.M        0.25                           : increment    - STEP LENGTH
 NULL. -999.2500:NULL Value
~CURVE INFORMATION BLOCK
#MNEM UNIT       ERCB CURVE CODE    CURVE DESCRIPTION
#-----------   ------------------   ----------------------------------
DEPT.M        00 001 00 00         : DEPTH        - DEPTH
ILD .OHMM     00 120 00 00         : RESD         - DEEP RESISTIVITY (DIL)
DPHI.V/V      00 890 00 00         : PHID         - DENSITY POROSITY (LIMESTONE)
NPHI.V/V      00 330 00 00         : PHIN         - NEUTRON POROSITY (LIMESTONE)
GR  .API      00 310 00 00         : GR           - GAMMA RAY
~PARAMETER INFORMATION
#MNEM.UNIT           DATA             DESCRIPTION OF MNEMONIC
#---------         -----------     ------------------------------
GL  .M        689.6                : gl           - GROUND LEVEL ELEVATION
EREF.M        693.74               : kb           - ELEVATION OF DEPTH REFERENCE
DATM.M        689.6                : datum        - DATUM ELEVATION
TDD .M        554                  : tdd          - TOTAL DEPTH DRILLER
RUN .         ONE                  : Run          - RUN NUMBER
ENG .         BILL                 : Engineer     - RECORDING ENGINEER
WIT .         JIM                  : Witness      - WITNESSED BY
MUD .         GEL                  : Mud_type     - MUD TYPE
MATR.         LIMESTONE            : Logunit      - NEUTRON MATRIX
TMAX.C        22                   : BHT          - MAXIMUM RECORDED TEMPERATURE
BHTD.M        554                  : BHTDEP       - MAXIMUM RECORDED TEMPERATURE
MATR.         1                    : LOGUNIT      - NEUTRON MATRIX
RMT .C        25                   : MDTP         - TEMPERATURE OF MUD
NEUT.         1                    : NEUTRON      - NEUTRON TYPE
RESI.         0                    : RESIST       - RESISTIVITY TYPE
RMC .OHMM     0.25                 : RMC          - RESISTIVITY OF MUD CAKE
RMF .OHMM     0.25                 : RMF          - RESISTIVITY OF MUD FILTRATE
SUFT.C        15                   : SUFT         - SURFACE TEMPERATURE
~A  DEPTH     RESD     PHID     PHIN       GR
# ...
  333.750    9.066    0.249    0.417   85.509
  334.000    9.242    0.273    0.424   83.692
  334.250    8.737    0.264    0.426   84.900
  334.500    8.260    0.264    0.424   86.711
  334.750    7.958    0.250    0.417   87.314
  335.000    7.960    0.237    0.412   87.917
  335.250    8.116    0.239    0.421   85.495
  335.500    8.118    0.239    0.424   84.284
  335.750    8.276    0.243    0.426   86.097
  336.000    8.436    0.232    0.418   90.933
  336.250    8.599    0.215    0.412   93.955
  336.500    8.765    0.212    0.405   96.372
  336.750    9.103    0.222    0.402   96.974
  337.000    9.634    0.269    0.401   94.553
  337.250    9.458    0.288    0.397   86.083
  337.500    9.825    0.296    0.388   80.638
  337.750   10.399    0.294    0.379   72.772
  338.000   10.402    0.280    0.383   67.327
  338.250   10.021    0.269    0.385   61.276
  338.500    9.839    0.235    0.382   60.064
  338.750    9.842    0.223    0.384   59.457
  339.000    9.845    0.250    0.389   58.246
  339.250    9.664    0.254    0.399   59.454
  339.500    9.310    0.276    0.407   63.684
  339.750    8.638    0.290    0.407   66.102
  340.000    8.321    0.290    0.400   68.520
  340.250    8.017    0.277    0.401   69.726
  340.500    7.438    0.265    0.409   71.539
  340.750    6.523    0.255    0.412   73.352
  341.000    6.166    0.232    0.421   78.792
  341.250    5.720    0.212    0.417   81.210
  341.500    5.511    0.202    0.421   86.651
  341.750    5.513    0.207    0.425   91.488
  342.000    5.947    0.225    0.426   95.115
  342.250    6.177    0.232    0.427   93.298
  342.500    6.415    0.238    0.428   90.877
  342.750    6.664    0.236    0.433   88.456
  343.000    6.666    0.233    0.441   83.010
  343.250    6.669    0.234    0.445   84.217
  343.500    6.799    0.256    0.448   86.634
  343.750    6.674    0.266    0.449   84.817
  344.000    6.551    0.260    0.447   83.606
  344.250    6.431    0.236    0.449   83.604
  344.500    6.195    0.212    0.445   87.231
  344.750    6.198    0.211    0.442   90.252
  345.000    6.560    0.223    0.432   89.041
  345.250    7.209    0.245    0.425   85.409
  345.500    7.488    0.269    0.412   82.988
  345.750    7.633    0.271    0.404   77.542
  346.000    7.216    0.266    0.399   73.306
  346.250    6.572    0.264    0.409   74.513
  346.500    6.451    0.261    0.412   76.931
  346.750    6.453    0.270    0.421   81.768
  347.000    6.830    0.287    0.426   79.346
  347.250    7.228    0.295    0.417   70.271
  347.500    7.651    0.303    0.405   63.011
  347.750    8.898    0.290    0.378   59.380
  348.000    9.417    0.279    0.340   57.563
  348.250   11.588    0.269    0.317   58.771
  348.500   13.475    0.241    0.297   55.140
  348.750   15.379    0.243    0.282   39.412
  349.000   16.585    0.250    0.277   32.152
  349.250   18.578    0.255    0.284   29.125
  349.500   19.661    0.274    0.292   27.914
  349.750   20.813    0.268    0.293   29.121
  350.000   21.212    0.258    0.284   29.119
  350.250   22.036    0.239    0.270   28.512
  350.500   22.040    0.227    0.254   29.720
  350.750   22.468    0.221    0.244   32.136
  351.000   22.901    0.220    0.238   33.949
  351.250   23.346    0.214    0.235   35.761
  351.500   22.916    0.217    0.235   37.573
  351.750   20.868    0.221    0.239   37.571
  352.000   20.103    0.219    0.236   35.755
  352.250   20.108    0.214    0.231   33.333
  352.500   20.497    0.211    0.228   32.726
  352.750   22.531    0.210    0.228   31.514
  353.000   23.402    0.188    0.231   30.908
  353.250   24.305    0.184    0.235   29.694
  353.500   25.728    0.192    0.237   30.297
  353.750   27.230    0.195    0.246   31.505
  354.000   28.822    0.201    0.253   32.714
  354.250   28.295    0.190    0.254   35.735
  354.500   26.251    0.184    0.258   36.943
  354.750   23.456    0.184    0.263   38.150
  355.000   21.760    0.188    0.280   36.334
  355.250   19.443    0.215    0.298   35.727
  355.500   17.374    0.252    0.310   37.539
  355.750   15.821    0.289    0.319   40.561
  356.000   15.241    0.294    0.333   41.164
  356.250   14.682    0.286    0.334   42.975
  356.500   14.146    0.270    0.321   43.578
  356.750   13.887    0.236    0.307   43.575
  357.000   13.633    0.245    0.314   44.178
  357.250   12.889    0.314    0.335   44.781
  357.500   12.652    0.334    0.354   45.384
  357.750   12.187    0.341    0.373   45.988
  358.000   11.741    0.346    0.382   49.009
  358.250   11.525    0.349    0.381   50.217
  358.500   11.313    0.337    0.373   51.424
  358.750   11.318    0.323    0.370   52.632
  359.000   11.321    0.303    0.364   53.839
  359.250   11.113    0.312    0.365   54.442
  359.500   11.117    0.328    0.372   53.230
  359.750   11.332    0.334    0.382   52.624
  360.000   11.338    0.332    0.388   52.621
  360.250   11.342    0.350    0.391   53.829
  360.500   11.345    0.354    0.387   54.432
  360.750   11.348    0.371    0.382   53.219
  361.000   11.353    0.370    0.375   52.613
  361.250   11.356    0.365    0.371   50.796
  361.500   11.360    0.348    0.373   47.165
  361.750   11.364    0.346    0.381   45.348
  362.000   11.368    0.345    0.389   44.137
  362.250   11.588    0.332    0.404   42.923
  362.500   11.592    0.319    0.412   42.922
  362.750   11.596    0.315    0.409   42.920
  363.000   11.600    0.308    0.408   42.918
  363.250   11.604    0.302    0.410   42.916
  363.500   11.607    0.307    0.419   42.914
  363.750   11.611    0.315    0.416   43.516
  364.000   11.615    0.317    0.405   43.514
  364.250   11.619    0.318    0.394   43.511
  364.500   11.623    0.322    0.385   42.904
  364.750   11.848    0.328    0.378   43.507
  365.000   11.852    0.344    0.374   43.506
  365.250   12.082    0.350    0.371   44.712
  365.500   12.086    0.350    0.371   44.711
  365.750   11.213    0.336    0.374   44.709
  366.000   11.216    0.339    0.385   44.101
  366.250   11.219    0.350    0.390   44.100
  366.500   11.435    0.359    0.394   43.492
  366.750   11.658    0.356    0.396   43.490
  367.000   11.661    0.338    0.388   42.884
  367.250   11.887    0.321    0.385   42.276
  367.500   12.118    0.306    0.381   41.064
  367.750   12.123    0.318    0.387   41.062
  368.000   12.128    0.326    0.391   40.456
  368.250   10.833    0.332    0.392   39.243
  368.500   10.635    0.328    0.388   39.241
  368.750   10.440    0.331    0.379   39.844
  369.000   10.641    0.336    0.375   41.052
  369.250   10.648    0.327    0.371   41.654
  369.500   10.854    0.318    0.368   39.837
  369.750   11.063    0.314    0.365   39.231
  370.000   11.066    0.311    0.361   38.624
  370.250   11.068    0.312    0.370   39.225
  370.500   11.074    0.314    0.380   40.433
  370.750   11.076    0.315    0.390   41.035
  371.000   11.080    0.317    0.398   41.639
  371.250   11.083    0.318    0.398   42.242
  371.500   11.087    0.323    0.395   41.635
  371.750   11.091    0.332    0.393   41.028
  372.000   10.889    0.323    0.399   41.026
  372.250   10.690    0.312    0.408   40.419
  372.500   10.694    0.309    0.413   40.417
  372.750   10.303    0.309    0.403   40.414
  373.000   10.305    0.320    0.396   39.807
  373.250   10.307    0.344    0.388   37.990
  373.500   10.507    0.355    0.381   37.383
  373.750   10.512    0.358    0.384   36.171
  374.000   10.514    0.355    0.386   35.564
  374.250   10.517    0.346    0.385   36.168
  374.500   10.521    0.341    0.379   37.980
  374.750   10.725    0.334    0.388   41.607
  375.000   10.729    0.328    0.393   46.443
  375.250   10.937    0.323    0.393   48.256
  375.500   10.939    0.325    0.390   49.464
  375.750   11.152    0.325    0.386   51.275
  376.000   11.155    0.321    0.385   51.273
  376.250   11.159    0.325    0.389   51.270
  376.500   11.162    0.322    0.391   50.664
  376.750   11.379    0.315    0.386   50.057
  377.000   11.383    0.325    0.381   50.055
