~VERSION INFORMATION
 VERS.                 2.0:   CWLS LOG ASCII STANDARD -VERSION 2.0
 WRAP.                  NO:   ONE LINE PER DEPTH STEP
~WELL INFORMATION BLOCK
#MNEM.UNIT           DATA                    DESCRIPTION OF MNEMONIC
#---------    -------------------            -------------------------------
# Generated from Intellog Unique Number	CX_WELLS/WELL/2759
WELL.         05-20-080-13W4                 : Well_name    - WELL
LOC .         00/05-20-080-13W4/0            : Location     - LOCATION
UWI .         00/05-20-080-13W4/0            : Uwi          - UNIQUE WELL ID
ENTR.         T                              : Entered      - ENTERED BY
SRVC.         SCHLUMBERGER                   : Scn          - SERVICE COMPANY
STRT.M        270                            : top_depth    - START DEPTH
STOP.M        500                            : bot_depth    - STOP DEPTH
STEP.M        0.25                           : increment    - STEP LENGTH
 NULL. -999.2500:NULL Value
~CURVE INFORMATION BLOCK
#MNEM UNIT       ERCB CURVE CODE    CURVE DESCRIPTION
#-----------   ------------------   ----------------------------------
DEPT.M        00 001 00 00         : DEPTH        - DEPTH
GR  .API      00 310 00 00         : GR           - GAMMA RAY
NPHI.V/V      00 330 00 00         : PHIN         - NEUTRON POROSITY (SANDSTONE)
DPHI.V/V      00 890 00 00         : PHID         - DENSITY POROSITY (SANDSTONE)
ILD .OHMM     00 120 00 00         : RESD         - DEEP RESISTIVITY (DLL)
~PARAMETER INFORMATION
#MNEM.UNIT           DATA             DESCRIPTION OF MNEMONIC
#---------         -----------     ------------------------------
GL  .M        689.7                : gl           - GROUND LEVEL ELEVATION
EREF.M        692.9                : kb           - ELEVATION OF DEPTH REFERENCE
DATM.M        692.9                : datum        - DATUM ELEVATION
TDD .M        502                  : tdd          - TOTAL DEPTH DRILLER
RUN .         ONE                  : Run          - RUN NUMBER
ENG .         BILL                 : Engineer     - RECORDING ENGINEER
WIT .         JIM                  : Witness      - WITNESSED BY
MUD .         GEL                  : Mud_type     - MUD TYPE
MATR.         SANDSTONE            : Logunit      - NEUTRON MATRIX
TMAX.C        20                   : BHT          - MAXIMUM RECORDED TEMPERATURE
BHTD.M        504                  : BHTDEP       - MAXIMUM RECORDED TEMPERATURE
MATR.         1                    : LOGUNIT      - NEUTRON MATRIX
RMT .C        19                   : MDTP         - TEMPERATURE OF MUD
NEUT.         1                    : NEUTRON      - NEUTRON TYPE
RESI.         5.36                 : RESIST       - RESISTIVITY TYPE
RMC .OHMM     5.2                  : RMC          - RESISTIVITY OF MUD CAKE
RMF .OHMM     5.5                  : RMF          - RESISTIVITY OF MUD FILTRATE
SUFT.C        4                    : SUFT         - SURFACE TEMPERATURE
~A  DEPTH       GR     PHIN     PHID     RESD
# ...
  444.000   73.656    0.369    0.228   11.976
  444.250   76.069    0.369    0.229   12.449
  444.500   80.239    0.375    0.215   12.944
  444.750   84.428    0.384    0.202   13.713
  445.000   88.608    0.377    0.195   13.725
  445.250   92.787    0.363    0.202   13.476
  445.500   96.967    0.360    0.223   13.238
  445.750   94.636    0.363    0.244   13.761
  446.000   89.937    0.369    0.250   15.428
  446.250   86.413    0.370    0.255   17.967
  446.500   82.899    0.372    0.258   22.152
  446.750   78.792    0.357    0.261   24.373
  447.000   76.461    0.313    0.263   26.817
  447.250   75.915    0.314    0.254   26.847
  447.500   75.350    0.323    0.222   27.378
  447.750   74.795    0.332    0.215   27.933
  448.000   74.841    0.344    0.235   27.951
  448.250   74.877    0.348    0.239   26.942
  448.500   74.923    0.348    0.232   25.482
  448.750   74.359    0.339    0.228   25.021
  449.000   72.629    0.326    0.228   25.043
  449.250   70.880    0.318    0.238   27.038
  449.500   67.957    0.324    0.263   31.488
  449.750   64.434    0.342    0.292   36.679
  450.000   67.448    0.356    0.299   38.848
  450.250   69.852    0.366    0.292   37.438
  450.500   72.256    0.363    0.288   35.409
  450.750   71.700    0.361    0.280   34.116
  451.000   69.369    0.355    0.264   30.479
  451.250   69.406    0.352    0.234   26.217
  451.500   72.393    0.343    0.137   22.552
  451.750   78.348    0.313    0.118   19.403
  452.000   83.119    0.307    0.178   17.666
  452.250   86.716    0.335    0.202   16.705
  452.500   89.120    0.346    0.220   15.796
  452.750   87.381    0.363    0.233   15.223
  453.000   80.306    0.360    0.231   14.395
  453.250   73.832    0.354    0.222   14.404
  453.500   76.828    0.345    0.190   14.153
  453.750   79.250    0.342    0.177   14.709
  454.000   77.511    0.343    0.200   15.293
  454.250   76.355    0.344    0.210   15.898
  454.500   74.024    0.344    0.226   16.522
  454.750   70.518    0.344    0.241   17.508
  455.000   71.738    0.345    0.248   18.902
  455.250   72.367    0.345    0.246   20.407
  455.500   70.628    0.344    0.252   22.878
  455.750   68.287    0.339    0.274   27.684
  456.000   64.190    0.316    0.291   29.882
  456.250   62.442    0.286    0.298   32.262
  456.500   60.703    0.264    0.286   32.291
  456.750   58.381    0.266    0.273   32.326
  457.000   56.041    0.270    0.299   32.981
  457.250   53.109    0.281    0.305   34.276
  457.500   50.778    0.279    0.299   36.312
  457.750   49.640    0.276    0.290   38.468
  458.000   50.860    0.234    0.302   40.753
  458.250   53.865    0.232    0.317   43.183
  458.500   55.076    0.240    0.332   44.047
  458.750   56.296    0.249    0.339   41.661
  459.000   54.557    0.261    0.334   40.130
  459.250   52.235    0.276    0.324   37.956
  459.500   51.088    0.286    0.325   36.578
  459.750   51.116    0.246    0.337   36.610
  460.000   52.937    0.257    0.335   37.343
  460.250   55.332    0.310    0.313   38.082
  460.500   59.511    0.309    0.314   42.711
  460.750   61.323    0.297    0.313   48.819
  461.000   57.809    0.259    0.310   53.702
  461.250   48.967    0.225    0.313   59.101
  461.500   43.085    0.191    0.329   60.284
  461.750   46.090    0.183    0.363   57.017
  462.000   49.669    0.198    0.349   55.973
  462.250   60.368    0.253    0.309   56.035
  462.500   59.221    0.273    0.308   58.249
  462.750   56.298    0.249    0.320   60.551
  463.000   54.568    0.213    0.337   62.943
  463.250   55.187    0.191    0.353   65.416
  463.500   55.233    0.199    0.350   69.317
  463.750   54.677    0.211    0.346   76.301
  464.000   52.337    0.218    0.342   80.833
  464.250   48.231    0.213    0.339   84.008
  464.500   44.133    0.210    0.350   92.433
  464.750   41.793    0.201    0.367   99.772
  465.000   38.870    0.131    0.382  111.876
  465.250   39.508    0.122    0.404  118.520
  465.500   40.728    0.122    0.408  130.434
  465.750   40.755    0.124    0.407  140.822
  466.000   40.792    0.129    0.408  154.978
  466.250   40.828    0.124    0.420  167.283
  466.500   40.874    0.118    0.425  173.894
  466.750   38.534    0.117    0.420  174.047
  467.000   33.836    0.116    0.415  184.465
  467.250   27.380    0.112    0.413  184.547
  467.500   26.815    0.108    0.413  191.882
  467.750   26.843    0.107    0.414  199.508
  468.000   28.072    0.108    0.416  207.392
  468.250   29.292    0.109    0.422  203.682
  468.500   29.912    0.110    0.424  188.990
  468.750   30.549    0.114    0.426  168.805
  469.000   30.576    0.146    0.427  150.808
  469.250   30.622    0.168    0.427  132.203
  469.500   30.668    0.221    0.426  109.493
  469.750   30.686    0.242    0.419   95.985
  470.000   30.732    0.306    0.410   90.764
  470.250   30.759    0.368    0.394   92.601
  470.500   31.396    0.392    0.376   96.239
  470.750   31.433    0.407    0.364  101.977
  471.000   31.470    0.401    0.356  108.034
  471.250   30.914    0.387    0.349  125.788
  471.500   30.951    0.377    0.344  155.089
  471.750   30.978    0.372    0.342  180.616
  472.000   31.042    0.373    0.343  191.342
  472.250   31.069    0.378    0.345  191.554
  472.500   31.097    0.379    0.349  191.681
  472.750   31.133    0.386    0.353  181.255
  473.000   29.986    0.417    0.358  165.027
  473.250   30.023    0.434    0.363  147.498
  473.500   30.068    0.439    0.362  144.795
  473.750   30.105    0.437    0.358  139.537
  474.000   31.325    0.423    0.355  134.470
  474.250   33.729    0.412    0.354  132.064
  474.500   33.766    0.405    0.355  132.181
  474.750   32.035    0.413    0.355  132.327
  475.000   31.471    0.419    0.355  132.444
  475.250   30.916    0.416    0.355  137.678
  475.500   31.535    0.421    0.355  137.799
  475.750   32.755    0.419    0.354  137.982
  476.000   35.159    0.413    0.351  138.073
  476.250   36.971    0.405    0.349  138.226
  476.500   33.457    0.407    0.350  135.723
  476.750   28.758    0.419    0.350  133.324
  477.000   28.203    0.442    0.351  130.910
  477.250   31.199    0.443    0.346  128.568
  477.500   38.939    0.427    0.338  119.295
  477.750   41.343    0.396    0.326  110.666
  478.000   46.114    0.384    0.307  104.646
  478.250   45.559    0.389    0.280   98.977
  478.500   41.461    0.410    0.284   95.382
  478.750   39.121    0.420    0.310   95.467
  479.000   35.024    0.429    0.323  111.205
  479.250   32.693    0.400    0.340  124.668
  479.500   30.954    0.402    0.344  150.791
  479.750   31.573    0.409    0.347  179.008
  480.000   31.609    0.424    0.351  182.591
  480.250   31.054    0.439    0.351  175.921
  480.500   31.109    0.436    0.348  169.533
  480.750   31.127    0.425    0.312  166.500
  481.000   31.164    0.411    0.271  173.156
  481.250   31.200    0.411    0.273  173.271
  481.500   31.838    0.411    0.296  163.919
  481.750   32.457    0.412    0.318  154.969
  482.000   34.278    0.414    0.324  146.540
  482.250   34.907    0.417    0.334  138.539
  482.500   34.952    0.414    0.296  133.508
  482.750   34.980    0.394    0.278  128.660
  483.000   35.626    0.387    0.282  124.016
  483.250   36.236    0.384    0.303  119.486
  483.500   37.466    0.382    0.307  110.892
  483.750   39.269    0.387    0.312  108.884
  484.000   39.906    0.396    0.316  106.960
  484.250   35.208    0.399    0.320  107.030
  484.500   32.868    0.403    0.326  111.309
  484.750   31.128    0.400    0.332  113.512
  485.000   30.573    0.399    0.341  122.579
  485.250   30.036    0.398    0.349  127.395
  485.500   30.054    0.407    0.353  132.429
  485.750   30.100    0.416    0.349  132.546
  486.000   30.137    0.417    0.342  127.789
  486.250   29.590    0.409    0.340  123.122
  486.500   29.627    0.402    0.340  118.625
  486.750   29.645    0.392    0.339  112.197
  487.000   31.457    0.386    0.332  104.105
  487.250   31.494    0.382    0.322   96.617
