~VERSION INFORMATION
 VERS.                 2.0:   CWLS LOG ASCII STANDARD -VERSION 2.0
 WRAP.                  NO:   ONE LINE PER DEPTH STEP
~WELL INFORMATION BLOCK
#MNEM.UNIT           DATA                    DESCRIPTION OF MNEMONIC
#---------    -------------------            -------------------------------
# Generated from Intellog Unique Number	CW_79_81/WELL/288
WELL.         04-23-079-23W4                 : Well_name    - WELL
LOC .         00/04-23-079-23W4/0            : Location     - LOCATION
UWI .         00/04-23-079-23W4/0            : Uwi          - UNIQUE WELL ID
ENTR.         MAX                            : Entered      - ENTERED BY
SRVC.         COMPUTALOG                     : Scn          - SERVICE COMPANY
STRT.M        225                            : top_depth    - START DEPTH
STOP.M        477                            : bot_depth    - STOP DEPTH
STEP.M        0.25                           : increment    - STEP LENGTH
 NULL. -999.2500:NULL Value
~CURVE INFORMATION BLOCK
#MNEM UNIT       ERCB CURVE CODE    CURVE DESCRIPTION
#-----------   ------------------   ----------------------------------
DEPT.M        00 001 00 00         : DEPTH        - DEPTH
ILD .OHMM     00 120 00 00         : RESD         - DEEP RESISTIVITY (DIL)
NPHI.V/V      00 330 00 00         : PHIN         - NEUTRON POROSITY (SANDSTONE)
DPHI.V/V      00 890 00 00         : PHID         - DENSITY POROSITY (SANDSTONE)
CALI.MM       00 280 01 00         : CAL          - CALIPER
GR  .API      00 310 00 00         : GR           - GAMMA RAY
~PARAMETER INFORMATION
#MNEM.UNIT           DATA             DESCRIPTION OF MNEMONIC
#---------         -----------     ------------------------------
GL  .M        565.2                : gl           - GROUND LEVEL ELEVATION
EREF.M        570.2                : kb           - ELEVATION OF DEPTH REFERENCE
DATM.M        565.2                : datum        - DATUM ELEVATION
TDD .M        482                  : tdd          - TOTAL DEPTH DRILLER
RUN .         ONE                  : Run          - RUN NUMBER
ENG .         BILL                 : Engineer     - RECORDING ENGINEER
WIT .         JIM                  : Witness      - WITNESSED BY
MUD .         GEL                  : Mud_type     - MUD TYPE
MATR.         SANDSTONE            : Logunit      - NEUTRON MATRIX
TMAX.C        20                   : BHT          - MAXIMUM RECORDED TEMPERATURE
BHTD.M        482                  : BHTDEP       - MAXIMUM RECORDED TEMPERATURE
RMT .C        17.8                 : MDTP         - TEMPERATURE OF MUD
MUDD.KG/M     1080                 : MWT          - MUD DENSITY
NEUT.         1                    : NEUTRON      - NEUTRON TYPE
RESI.         0                    : RESIST       - RESISTIVITY TYPE
RM  .OHMM     7                    : RM           - RESISTIVITY OF MUD
RMC .OHMM     5.5                  : RMC          - RESISTIVITY OF MUD CAKE
RMF .OHMM     6                    : RMF          - RESISTIVITY OF MUD FILTRATE
SUFT.C        -5                   : SUFT         - SURFACE TEMPERATURE
~A  DEPTH     RESD     PHIN     PHID      CAL       GR
# ...
  334.500   27.589    0.304    0.097  217.909   58.961
  334.750   28.850    0.310    0.103  212.986   60.700
  335.000   28.303    0.332    0.118  210.515   66.233
  335.250   27.007    0.349    0.158  209.020   65.626
  335.500   25.074    0.358    0.187  208.495   65.603
  335.750   23.711    0.363    0.196  210.895   67.336
  336.000   23.711    0.374    0.185  215.729   68.773
  336.250   22.594    0.399    0.178  218.130   68.166
  336.500   21.574    0.407    0.171  217.604   67.848
  336.750   20.774    0.410    0.165  218.055   69.291
  337.000   20.752    0.407    0.137  222.396   69.268
  337.250   20.175    0.404    0.130  224.314   68.368
  337.500   18.389    0.413    0.179  224.276   70.394
  337.750   16.763    0.420    0.196  221.791   74.760
  338.000   15.277    0.420    0.195  220.783   79.711
  338.250   14.186    0.429    0.194  224.154   84.659
  338.500   13.168    0.437    0.199  226.067   81.711
  338.750   12.802    0.444    0.196  225.054   79.641
  339.000   12.802    0.447    0.195  223.057   78.445
  339.250   12.199    0.444    0.198  224.009   79.595
  339.500   11.754    0.435    0.199  227.872   83.371
  339.750   11.743    0.432    0.194  231.248   83.056
  340.000   12.057    0.435    0.186  233.161   82.153
  340.250   12.047    0.434    0.189  235.069   81.550
  340.500   12.035    0.437    0.189  235.519   80.650
  340.750   12.024    0.446    0.182  236.457   80.040
  341.000   12.014    0.457    0.183  236.907   82.065
  341.250   12.002    0.463    0.201  236.865   85.261
  341.500   11.991    0.463    0.196  236.832   85.824
  341.750   11.978    0.447    0.189  236.790   84.923
  342.000   11.967    0.435    0.187  236.752   82.552
  342.250   11.958    0.434    0.183  236.227   81.657
  342.500   11.944    0.451    0.177  235.697   81.930
  342.750   11.934    0.453    0.176  235.172   82.493
  343.000   12.367    0.453    0.183  234.647   82.760
  343.250   13.297    0.461    0.183  234.127   83.320
  343.500   14.967    0.467    0.180  231.646   83.885
  343.750   17.798    0.478    0.187  230.136   82.107
  344.000   20.216    0.473    0.216  229.611   80.037
  344.250   22.137    0.463    0.221  229.583   83.815
  344.500   23.576    0.467    0.228  230.029   87.888
  344.750   24.435    0.468    0.239  230.962   85.233
  345.000   24.189    0.426    0.233  230.924   81.992
  345.250   23.728    0.406    0.206  230.887   76.703
  345.500   23.063    0.398    0.178  230.854   72.289
  345.750   22.213    0.406    0.148  231.304   73.142
  346.000   20.621    0.421    0.152  231.754   75.749
  346.250   18.970    0.427    0.167  232.682   78.366
  346.500   16.668    0.435    0.182  232.649   79.218
  346.750   13.739    0.431    0.191  232.607   80.076
  347.000   13.598    0.425    0.195  232.087   82.099
  347.250   13.587    0.432    0.191  231.562   81.198
  347.500   13.698    0.443    0.190  230.056   80.585
  347.750   14.327    0.445    0.188  227.581   80.861
  348.000   15.401    0.439    0.186  224.121   80.543
  348.250   16.108    0.432    0.184  221.645   78.762
  348.500   16.393    0.427    0.182  220.637   79.620
  348.750   15.934    0.421    0.187  222.058   81.938
  349.000   14.930    0.422    0.215  225.433   83.671
  349.250   14.117    0.440    0.205  228.809   82.768
  349.500   13.719    0.438    0.193  232.180   81.575
  349.750   13.707    0.439    0.182  234.098   80.675
  350.000   13.119    0.442    0.166  231.844   80.061
  350.250   12.766    0.441    0.175  231.863   80.069
  350.500   12.768    0.439    0.180  231.880   80.374
  350.750   13.005    0.442    0.177  231.897   80.975
  351.000   13.125    0.443    0.168  231.916   82.465
  351.250   13.247    0.432    0.170  231.931   82.772
  351.500   13.369    0.422    0.177  231.948   82.779
  351.750   13.249    0.424    0.182  232.457   81.903
  352.000   13.130    0.434    0.180  232.966   79.847
  352.250   13.012    0.441    0.169  232.985   76.606
  352.500   13.012    0.444    0.167  232.507   77.800
  352.750   13.135    0.439    0.192  231.540   79.877
  353.000   13.624    0.438    0.211  227.620   82.841
  353.250   13.878    0.446    0.230  225.173   86.101
  353.500   14.263    0.451    0.250  224.207   90.247
  353.750   17.759    0.451    0.249  225.703   84.349
  354.000   19.636    0.433    0.224  225.228   65.453
  354.250   25.127    0.417    0.207  224.262   58.964
  354.500   29.617    0.407    0.192  223.782   59.270
  354.750   35.229    0.402    0.200  227.248   62.826
  355.000   37.557    0.408    0.230  226.282   66.676
  355.250   37.562    0.402    0.231  223.835   67.277
  355.500   37.913    0.395    0.225  222.867   64.040
  355.750   38.262    0.386    0.219  223.380   64.640
  356.000   40.053    0.365    0.214  223.393   65.239
  356.250   42.699    0.319    0.197  222.429   63.182
  356.500   47.214    0.294    0.090  221.952   56.989
  356.750   53.168    0.257    0.068  221.478   51.978
  357.000   60.422    0.216    0.018  221.497   46.377
  357.250   68.041    0.182    0.008  221.510   46.681
  357.500   77.325    0.181    0.006  222.021   49.646
  357.750   75.934    0.199    0.014  222.531   52.609
  358.000   70.594    0.235    0.078  222.548   57.347
  358.250   61.007    0.288    0.159  222.567   61.493
  358.500   51.769    0.333    0.208  222.581   66.820
  358.750   44.740    0.373    0.211  222.598   70.967
  359.000   40.470    0.384    0.187  217.694   71.862
  359.250   37.623    0.390    0.160  215.741   73.351
  359.500   35.623    0.385    0.187  218.712   74.249
  359.750   34.349    0.376    0.229  229.068   74.260
  360.000   33.425    0.381    0.225  236.963   72.790
  360.250   32.230    0.400    0.211  238.457   71.917
  360.500   29.963    0.399    0.202  236.012   73.107
  360.750   27.856    0.409    0.190  235.536   73.119
  361.000   25.428    0.423    0.187  235.555   76.377
  361.250   23.002    0.424    0.182  236.064   81.116
  361.500   21.384    0.416    0.171  236.081   82.011
  361.750   20.246    0.411    0.165  236.098   81.431
  362.000   19.169    0.419    0.162  236.115   79.963
  362.250   18.654    0.422    0.155  236.132   79.088
  362.500   18.654    0.411    0.153  235.663   79.099
  362.750   18.321    0.405    0.154  235.185   78.812
  363.000   18.155    0.404    0.156  235.202   78.232
  363.250   18.323    0.408    0.154  234.727   75.586
  363.500   18.494    0.406    0.151  234.741   76.185
  363.750   18.836    0.390    0.150  234.266   77.675
  364.000   19.185    0.386    0.150  233.797   76.504
  364.250   19.901    0.389    0.152  232.825   76.513
  364.500   20.643    0.393    0.157  232.351   77.703
  364.750   21.609    0.388    0.155  232.366   79.486
  365.000   23.037    0.370    0.150  234.849   81.269
  365.250   24.785    0.345    0.128  237.323   80.396
  365.500   25.476    0.318    0.083  236.850   76.268
  365.750   25.948    0.305    0.022  235.390   68.597
  366.000   25.951    0.298   -0.001  232.455   63.290
  366.250   25.718    0.313    0.003  228.038   64.777
  366.500   25.255    0.369    0.061  226.580   73.651
  366.750   23.479    0.405    0.122  225.610   79.569
  367.000   22.847    0.415    0.139  225.627   81.352
  367.250   22.642    0.394    0.097  224.661   70.432
  367.500   23.486    0.410    0.120  223.203   70.148
  367.750   24.363    0.422    0.181  222.235   74.292
  368.000   24.143    0.429    0.200  226.189   79.622
  368.250   23.493    0.433    0.206  230.639   80.520
  368.500   22.448    0.433    0.211  228.687   78.460
  368.750   21.448    0.435    0.214  222.795   76.701
  369.000   20.682    0.431    0.212  223.305   78.186
  369.250   20.125    0.430    0.206  227.753   79.673
  369.500   19.763    0.427    0.204  228.264   81.455
  369.750   19.585    0.426    0.197  225.327   83.533
  370.000   19.587    0.430    0.185  222.882   77.044
  370.250   19.769    0.404    0.144  222.899   71.148
  370.500   19.771    0.389    0.098  225.872   71.747
  370.750   19.416    0.389    0.123  230.812   79.736
