~VERSION INFORMATION
 VERS.                 2.0:   CWLS LOG ASCII STANDARD -VERSION 2.0
 WRAP.                  NO:   ONE LINE PER DEPTH STEP
~WELL INFORMATION BLOCK
#MNEM.UNIT           DATA                    DESCRIPTION OF MNEMONIC
#---------    -------------------            -------------------------------
# Generated from Intellog Unique Number	CS_69_70/WELL/799
WELL.         AEC FISHER                     : Well_name    - WELL
LOC .         00/06-06-069-04W4/0            : Location     - LOCATION
UWI .         00/06-06-069-04W4/0            : Uwi          - UNIQUE WELL ID
ENTR.         SP                             : Entered      - ENTERED BY
SRVC.         SCHLUMBERGER                   : Scn          - SERVICE COMPANY
STRT.M        340                            : top_depth    - START DEPTH
STOP.M        595                            : bot_depth    - STOP DEPTH
STEP.M        0.25                           : increment    - STEP LENGTH
 NULL. -999.2500:NULL Value
~CURVE INFORMATION BLOCK
#MNEM UNIT       ERCB CURVE CODE    CURVE DESCRIPTION
#-----------   ------------------   ----------------------------------
DEPT.M        00 001 00 00         : DEPTH        - DEPTH
ILD .OHMM     00 120 00 00         : RESD         - DEEP RESISTIVITY (DIL)
DPHI.V/V      00 890 00 00         : PHID         - DENSITY POROSITY (LIMESTONE)
NPHI.V/V      00 330 00 00         : PHIN         - NEUTRON POROSITY (LIMESTONE)
GR  .API      00 310 00 00         : GR           - GAMMA RAY
~PARAMETER INFORMATION
#MNEM.UNIT           DATA             DESCRIPTION OF MNEMONIC
#---------         -----------     ------------------------------
GL  .M        695.6                : gl           - GROUND LEVEL ELEVATION
EREF.M        699.3                : kb           - ELEVATION OF DEPTH REFERENCE
DATM.M        695.6                : datum        - DATUM ELEVATION
TDD .M        600                  : tdd          - TOTAL DEPTH DRILLER
RUN .         ONE                  : Run          - RUN NUMBER
ENG .         BILL                 : Engineer     - RECORDING ENGINEER
WIT .         JIM                  : Witness      - WITNESSED BY
MUD .         GEL                  : Mud_type     - MUD TYPE
MATR.         LIMESTONE            : Logunit      - NEUTRON MATRIX
TMAX.C        22                   : BHT          - MAXIMUM RECORDED TEMPERATURE
BHTD.M        600                  : BHTDEP       - MAXIMUM RECORDED TEMPERATURE
MATR.         1                    : LOGUNIT      - NEUTRON MATRIX
RMT .C        25                   : MDTP         - TEMPERATURE OF MUD
NEUT.         1                    : NEUTRON      - NEUTRON TYPE
RESI.         0                    : RESIST       - RESISTIVITY TYPE
RMC .OHMM     0.25                 : RMC          - RESISTIVITY OF MUD CAKE
RMF .OHMM     0.25                 : RMF          - RESISTIVITY OF MUD FILTRATE
SUFT.C        15                   : SUFT         - SURFACE TEMPERATURE
~A  DEPTH     RESD     PHID     PHIN       GR
# ...
  557.500    6.788    0.270    0.347   65.197
  557.750    6.625    0.259    0.349   61.094
  558.000    6.393    0.251    0.346   50.677
  558.250    6.170    0.299    0.369   44.747
  558.500    6.114    0.343    0.391   37.792
  558.750    6.245    0.330    0.399   42.253
  559.000    6.414    0.297    0.375   53.522
  559.250    6.589    0.275    0.365   60.293
  559.500    6.756    0.246    0.349   61.234
  559.750    6.758    0.258    0.351   59.804
  560.000    6.710    0.231    0.348   59.770
  560.250    6.512    0.268    0.347   56.336
  560.500    6.296    0.294    0.358   51.870
  560.750    5.962    0.276    0.350   56.636
  561.000    5.731    0.268    0.367   57.273
  561.250    5.366    0.297    0.381   46.485
  561.500    5.158    0.324    0.366   35.701
  561.750    4.950    0.341    0.357   25.160
  562.000    4.840    0.341    0.352   24.093
  562.250    4.805    0.342    0.356   27.825
  562.500    4.974    0.329    0.368   29.738
  562.750    5.109    0.324    0.375   31.346
  563.000    5.238    0.331    0.372   35.019
  563.250    5.412    0.340    0.364   44.163
  563.500    5.708    0.317    0.359   53.305
  563.750    5.998    0.296    0.356   59.226
  564.000    6.267    0.274    0.377   58.525
  564.250    6.549    0.261    0.389   52.296
  564.500    6.817    0.271    0.385   48.253
  564.750    7.002    0.267    0.358   63.837
  565.000    7.032    0.240    0.336   74.132
  565.250    6.684    0.217    0.320   68.513
  565.500    6.140    0.230    0.342   56.873
  565.750    5.694    0.280    0.368   42.200
  566.000    5.291    0.317    0.380   32.083
  566.250    4.916    0.334    0.366   26.701
  566.500    4.594    0.328    0.358   26.003
  566.750    4.492    0.321    0.355   27.620
  567.000    4.477    0.316    0.356   28.737
  567.250    4.487    0.332    0.362   29.130
  567.500    4.480    0.345    0.369   29.398
  567.750    4.457    0.343    0.371   29.798
  568.000    4.450    0.344    0.371   29.819
  568.250    4.451    0.348    0.364   30.029
  568.500    4.503    0.342    0.361   31.272
  568.750    4.635    0.333    0.381   32.822
  569.000    4.898    0.329    0.387   36.007
  569.250    5.458    0.308    0.365   53.229
  569.500    5.934    0.275    0.349   62.493
  569.750    6.177    0.243    0.349   63.438
  570.000    6.298    0.245    0.357   53.923
  570.250    6.135    0.268    0.363   35.785
  570.500    5.447    0.298    0.376   24.512
  570.750    5.013    0.326    0.366   20.470
  571.000    4.659    0.345    0.380   22.018
  571.250    4.504    0.347    0.377   23.324
  571.500    4.363    0.349    0.375   23.899
  571.750    4.323    0.364    0.396   23.929
  572.000    4.300    0.374    0.433   22.317
  572.250    4.302    0.368    0.416   20.949
  572.500    4.311    0.361    0.405   21.338
  572.750    4.371    0.356    0.395   23.318
  573.000    4.447    0.352    0.397   24.071
  573.250    4.586    0.359    0.387   24.345
  573.500    4.756    0.347    0.373   24.367
  573.750    4.848    0.330    0.362   23.972
  574.000    4.933    0.318    0.349   24.365
  574.250    5.001    0.325    0.353   26.154
  574.500    5.040    0.330    0.357   28.615
  574.750    5.071    0.322    0.348   31.747
  575.000    5.140    0.318    0.340   33.658
  575.250    5.231    0.318    0.353   34.410
  575.500    5.312    0.315    0.353   33.712
  575.750    5.375    0.300    0.345   32.947
  576.000    5.397    0.290    0.339   33.220
  576.250    5.409    0.300    0.335   35.133
  576.500    5.391    0.292    0.332   35.464
  576.750    5.373    0.293    0.328   32.759
  577.000    5.364    0.303    0.323   30.301
  577.250    5.336    0.310    0.326   28.989
  577.500    5.328    0.316    0.343   28.409
  577.750    5.310    0.317    0.336   29.351
  578.000    5.282    0.318    0.328   30.412
  578.250    5.224    0.320    0.332   31.474
  578.500    5.137    0.322    0.344   31.806
  578.750    5.071    0.318    0.339   31.589
  579.000    4.959    0.322    0.345   29.126
  579.250    4.813    0.330    0.354   27.031
  579.500    4.724    0.338    0.362   25.054
  579.750    4.611    0.343    0.359   23.685
  580.000    4.578    0.347    0.372   23.228
  580.250    4.623    0.345    0.381   24.410
  580.500    4.740    0.340    0.387   26.328
  580.750    4.850    0.334    0.368   27.686
  581.000    5.020    0.330    0.358   29.536
  581.250    5.118    0.333    0.357   31.204
  581.500    5.198    0.327    0.363   40.288
  581.750    5.299    0.325    0.358   44.690
  582.000    5.271    0.332    0.351   44.657
  582.250    5.223    0.327    0.347   44.017
  582.500    5.137    0.313    0.346   42.712
  582.750    5.052    0.304    0.341   39.579
  583.000    4.912    0.305    0.345   32.931
  583.250    4.831    0.315    0.347   29.429
  583.500    4.724    0.332    0.342   26.116
  583.750    4.646    0.344    0.346   23.652
  584.000    4.647    0.345    0.348   23.621
  584.250    4.738    0.337    0.375   27.178
  584.500    4.839    0.330    0.375   29.393
  584.750    4.962    0.328    0.368   31.181
  585.000    5.049    0.328    0.371   32.910
  585.250    5.089    0.321    0.353   31.418
  585.500    5.130    0.323    0.337   28.837
  585.750    5.151    0.326    0.352   27.284
  586.000    5.143    0.323    0.354   25.980
  586.250    5.184    0.317    0.350   26.003
  586.500    5.295    0.312    0.348   26.761
  586.750    5.459    0.304    0.337   25.877
  587.000    5.694    0.295    0.324   25.481
  587.250    6.321    0.286    0.313   27.578
  587.500    6.833    0.278    0.318   31.310
  587.750    7.643    0.267    0.302   35.594
  588.000    8.730    0.248    0.269   39.024
  588.250    9.545    0.228    0.258   41.664
  588.500   10.596    0.215    0.257   46.617
  588.750   11.943    0.214    0.268   52.475
  589.000   14.464    0.225    0.294   56.452
  589.250   19.403    0.167    0.313   57.210
  589.500   25.016   -0.012    0.300   49.039
  589.750   30.817   -0.014    0.240   42.867
  590.000   41.264   -0.013    0.189   32.080
  590.250   53.097   -0.010    0.159   20.139
  590.500   70.958   -0.007    0.112   15.976
  590.750   77.735   -0.003    0.105   19.895
  591.000   75.301    0.001    0.111   24.297
  591.250   70.902    0.005    0.128   30.036
  591.500   68.808    0.009    0.149   34.379
  591.750   68.184    0.010    0.157   37.936
  592.000   71.653    0.008    0.143   39.602
  592.250   80.452    0.008    0.130   38.595
  592.500   88.973    0.012    0.127   37.714
  592.750   94.920    0.019    0.130   36.829
  593.000   99.935    0.023    0.131   45.121
  593.250  101.301    0.025    0.132   79.052
  593.500   93.062    0.022    0.142  105.144
  593.750   92.044    0.018    0.152  119.390
  594.000  101.612    0.015    0.158  123.857
  594.250  107.990    0.014    0.162  124.066
  594.500  115.423    0.016    0.162  124.281
  594.750  124.554    0.022    0.162  124.307
  595.000  131.628    0.026    0.162  124.211
