~VERSION INFORMATION
 VERS.                 2.0:   CWLS LOG ASCII STANDARD -VERSION 2.0
 WRAP.                  NO:   ONE LINE PER DEPTH STEP
~WELL INFORMATION BLOCK
#MNEM.UNIT           DATA                    DESCRIPTION OF MNEMONIC
#---------    -------------------            -------------------------------
# Generated from Intellog Unique Number	CS_69_70/WELL/699
NULL.         -999.25                        : NULL_VALUE
WELL.         HUSKY AEC FISHER               : Well_name    - WELL              
LOC .         00/05-09-070-05W4/0            : Location     - LOCATION          
UWI .         00/05-09-070-05W4/0            : Uwi          - UNIQUE WELL ID    
ENTR.         SP                             : Entered      - ENTERED BY        
SRVC.         SCHLUMBERGER                   : Scn          - SERVICE COMPANY   
STRT.M        315                            : top_depth    - START DEPTH       
STOP.M        545                            : bot_depth    - STOP DEPTH        
STEP.M        0.25                           : increment    - STEP LENGTH       
~CURVE INFORMATION BLOCK
#MNEM UNIT       ERCB CURVE CODE    CURVE DESCRIPTION
#-----------   ------------------   ----------------------------------
DEPT.M        00 001 00 00         : DEPTH        - DEPTH                       
ILD .OHMM     00 120 00 00         : RESD         - DEEP RESISTIVITY (DIL)      
DPHI.V/V      00 890 00 00         : PHID         - DENSITY POROSITY (SANDSTONE)
NPHI.V/V      00 330 00 00         : PHIN         - NEUTRON POROSITY (SANDSTONE)
GR  .API      00 310 00 00         : GR           - GAMMA RAY                   
~PARAMETER INFORMATION       
#MNEM.UNIT           DATA             DESCRIPTION OF MNEMONIC
#---------         -----------     ------------------------------
GL  .M        678.3                : gl           - GROUND LEVEL ELEVATION      
EREF.M        682                  : kb           - ELEVATION OF DEPTH REFERENCE
DATM.M        678.3                : datum        - DATUM ELEVATION             
TDD .M        551.5                : tdd          - TOTAL DEPTH DRILLER         
RUN .         ONE                  : Run          - RUN NUMBER                  
ENG .         BILL                 : Engineer     - RECORDING ENGINEER          
WIT .         JIM                  : Witness      - WITNESSED BY                
MUD .         GEL                  : Mud_type     - MUD TYPE                    
MATR.         SANDSTONE            : Logunit      - NEUTRON MATRIX              
TMAX.C        25                   : BHT          - MAXIMUM RECORDED TEMPERATURE
BHTD.M        551.5                : BHTDEP       - MAXIMUM RECORDED TEMPERATURE
MATR.         1                    : LOGUNIT      - NEUTRON MATRIX              
RMT .C        25                   : MDTP         - TEMPERATURE OF MUD          
NEUT.         1                    : NEUTRON      - NEUTRON TYPE                
RESI.         0                    : RESIST       - RESISTIVITY TYPE            
RMC .OHMM     0.25                 : RMC          - RESISTIVITY OF MUD CAKE     
RMF .OHMM     0.25                 : RMF          - RESISTIVITY OF MUD FILTRATE 
SUFT.C        15                   : SUFT         - SURFACE TEMPERATURE         
~A  DEPTH     RESD     PHID     PHIN       GR
# ...
  358.500    8.439    0.246    0.383   91.504
  358.750    8.282    0.244    0.391   89.107
  359.000    8.128    0.245    0.398   90.322
  359.250    7.829    0.246    0.396   93.340
  359.500    7.542    0.235    0.396   99.376
  359.750    7.265    0.217    0.420  101.192
  360.000    7.264    0.213    0.445   94.576
  360.250    7.263    0.225    0.450   93.987
  360.500    7.262    0.228    0.445   95.198
  360.750    7.261    0.234    0.430   92.802
  361.000    7.535    0.241    0.425   91.003
  361.250    7.676    0.244    0.417   88.601
  361.500    8.115    0.244    0.422   85.600
  361.750    8.422    0.245    0.462   72.961
  362.000    8.739    0.289    0.441   56.103
  362.250    8.902    0.312    0.419   51.896
  362.500    9.069    0.322    0.393   53.111
  362.750    9.411    0.311    0.382   54.929
  363.000    9.587    0.312    0.402   55.542
  363.250    9.585    0.320    0.414   54.346
  363.500    9.407    0.328    0.418   53.152
  363.750    9.231    0.332    0.423   51.958
  364.000    9.230    0.332    0.432   51.365
  364.250    9.059    0.339    0.410   50.772
  364.500    9.057    0.336    0.402   49.576
  364.750    9.056    0.336    0.390   50.792
  365.000    9.054    0.337    0.391   52.006
  365.250    9.053    0.341    0.403   49.608
  365.500    9.052    0.344    0.406   43.595
  365.750    8.883    0.346    0.397   39.988
  366.000    8.882    0.348    0.410   38.193
  366.250    8.881    0.348    0.411   44.828
  366.500    8.879    0.346    0.395   52.668
  366.750    8.878    0.340    0.390   58.105
  367.000    8.877    0.332    0.395   58.111
  367.250    8.875    0.329    0.400   63.545
  367.500    8.873    0.320    0.407   70.785
  367.750    8.872    0.316    0.407   75.008
  368.000    8.871    0.315    0.410   80.440
  368.250    8.870    0.313    0.412   79.244
  368.500    9.034    0.320    0.414   75.641
  368.750    8.866    0.328    0.408   77.460
  369.000    9.032    0.321    0.403   76.865
  369.250    8.864    0.317    0.400   67.841
  369.500    8.863    0.317    0.404   61.224
  369.750    8.862    0.320    0.406   63.645
  370.000    8.696    0.325    0.400   64.859
  370.250    8.695    0.326    0.398   64.869
  370.500    8.694    0.322    0.396   63.674
  370.750    8.692    0.316    0.396   66.094
  371.000    8.854    0.313    0.399   69.717
  371.250    8.853    0.317    0.409   73.341
  371.500    8.852    0.322    0.420   76.367
  371.750    9.016    0.321    0.412   77.579
  372.000    9.015    0.316    0.405   75.784
  372.250    9.183    0.301    0.397   75.793
  372.500    9.182    0.281    0.391   77.612
  372.750    9.353    0.268    0.384   80.029
  373.000    9.352    0.265    0.392   83.051
  373.250    9.350    0.267    0.405   86.075
  373.500    9.176    0.273    0.409   86.684
  373.750    8.839    0.278    0.417   81.275
  374.000    8.675    0.290    0.421   75.259
  374.250    8.357    0.307    0.418   68.642
  374.500    7.901    0.311    0.412   65.038
  374.750    7.611    0.307    0.422   66.256
  375.000    7.332    0.309    0.445   62.650
  375.250    7.196    0.315    0.429   59.647
  375.500    6.804    0.309    0.422   60.863
  375.750    6.554    0.302    0.422   65.693
  376.000    6.432    0.293    0.422   71.731
  376.250    6.431    0.289    0.416   72.941
  376.500    6.430    0.286    0.458   71.749
  376.750    6.429    0.287    0.451   69.949
  377.000    6.549    0.289    0.443   68.150
  377.250    6.548    0.286    0.431   66.353
  377.500    6.547    0.282    0.437   66.365
  377.750    6.307    0.273    0.423   68.180
  378.000    5.535    0.267    0.435   75.422
  378.250    4.950    0.265    0.472   80.251
  378.500    4.264    0.263    0.500   80.863
  378.750    4.263    0.263    0.487   80.874
  379.000    4.855    0.263    0.478   80.882
  379.250    5.230    0.262    0.467   80.894
  379.500    6.070    0.262    0.459   81.505
  379.750    6.914    0.267    0.452   73.080
  380.000    8.023    0.304    0.431   56.824
  380.250    8.804    0.329    0.409   51.415
  380.500    9.137    0.340    0.397   49.014
  380.750    9.660    0.345    0.395   47.818
  381.000    9.658    0.344    0.401   47.834
  381.250    9.656    0.345    0.382   48.442
  381.500    9.655    0.348    0.373   51.464
  381.750    9.476    0.340    0.384   52.682
  382.000    9.652    0.335    0.390   52.688
  382.250    9.832    0.335    0.391   52.098
  382.500   10.204    0.336    0.397   50.901
  382.750   11.198    0.331    0.385   48.502
  383.000   13.487    0.327    0.385   49.115
  383.250   14.801    0.292    0.422   46.717
  383.500   15.360    0.217    0.204   43.113
  383.750   14.523    0.114    0.177   41.915
  384.000   13.231    0.102    0.239   43.131
  384.250   11.612    0.215    0.344   44.951
  384.500    9.819    0.264    0.381   46.163
  384.750    9.113    0.275    0.395   47.379
  385.000    8.778    0.305    0.402   47.994
  385.250    8.615    0.334    0.414   48.000
  385.500    8.455    0.350    0.420   46.204
  385.750    8.298    0.349    0.422   45.008
  386.000    8.295    0.354    0.425   43.817
  386.250    8.294    0.355    0.411   43.225
  386.500    8.140    0.357    0.427   43.233
  386.750    8.139    0.358    0.440   42.641
  387.000    8.138    0.354    0.415   40.844
  387.250    8.137    0.350    0.395   40.252
  387.500    8.135    0.349    0.400   40.860
  387.750    8.134    0.351    0.403   42.076
  388.000    8.133    0.350    0.403   43.896
  388.250    8.132    0.343    0.404   46.313
  388.500    7.981    0.341    0.403   52.346
  388.750    7.546    0.337    0.401   66.211
  389.000    6.873    0.338    0.409   72.247
  389.250    6.746    0.325    0.429   73.460
  389.500    6.621    0.305    0.448   74.076
  389.750    7.265    0.288    0.457   63.240
  390.000    7.681    0.305    0.470   53.011
  390.250    8.121    0.321    0.446   51.212
  390.500    8.428    0.323    0.417   53.030
  390.750    8.585    0.327    0.395   53.040
  391.000    8.746    0.334    0.405   51.243
  391.250    8.583    0.338    0.411   50.047
  391.500    8.423    0.333    0.416   50.058
  391.750    8.580    0.327    0.426   51.878
  392.000    9.416    0.322    0.437   53.091
  392.250   11.341    0.326    0.414   54.306
  392.500   13.161    0.281    0.399   53.711
  392.750   14.176    0.211    0.363   38.663
  393.000   14.174    0.015    0.194   35.058
  393.250   13.911    0.047    0.187   41.698
  393.500   11.123    0.149    0.217   45.921
  393.750    9.232    0.231    0.293   53.763
  394.000    7.663    0.269    0.357   59.194
  394.250    6.725    0.276    0.414   61.011
  394.500    6.600    0.283    0.437   62.228
  394.750    6.849    0.299    0.426   62.236
  395.000    6.977    0.303    0.414   59.840
  395.250    7.107    0.306    0.402   58.645
  395.500    7.240    0.310    0.397   58.049
  395.750    7.374    0.308    0.408   58.663
  396.000    7.373    0.303    0.412   60.478
  396.250    6.972    0.297    0.415   64.706
  396.500    6.716    0.289    0.422   68.933
  396.750    6.591    0.283    0.434   72.560
  397.000    6.840    0.296    0.448   72.567
  397.250    6.968    0.310    0.479   67.159
  397.500    7.231    0.315    0.517   66.562
  397.750    7.366    0.322    0.477   67.782
  398.000    7.228    0.310    0.438   68.993
  398.250    7.094    0.307    0.447   72.621
  398.500    7.093    0.307    0.455   73.831
  398.750    7.361    0.298    0.460   76.251
  399.000    7.782    0.290    0.446   77.467
  399.250    8.076    0.283    0.428   73.259
  399.500    8.227    0.313    0.420   64.237
  399.750    8.225    0.323    0.420   60.630
  400.000    8.072    0.332    0.419   63.052
  400.250    7.922    0.313    0.427   64.264
  400.500    7.775    0.307    0.440   64.876
  400.750    7.774    0.305    0.435   64.284
  401.000    7.773    0.297    0.415   67.309
  401.250    8.067    0.292    0.408   70.933
  401.500    8.217    0.284    0.397   73.956
  401.750    8.064    0.268    0.393   75.171
