~VERSION INFORMATION
 VERS.                 2.0:   CWLS LOG ASCII STANDARD -VERSION 2.0
 WRAP.                  NO:   ONE LINE PER DEPTH STEP
~WELL INFORMATION BLOCK
#MNEM.UNIT           DATA                    DESCRIPTION OF MNEMONIC
#---------    -------------------            -------------------------------
# Generated from Intellog Unique Number	CW_76_78/WELL/2574
WELL.         NOVALTA BOVINE                 : Well_name    - WELL
LOC .         00/08-28-078-20W4/0            : Location     - LOCATION
UWI .         00/08-28-078-20W4/0            : Uwi          - UNIQUE WELL ID
ENTR.         MAX                            : Entered      - ENTERED BY
SRVC.         WESTERN ATLAS                  : Scn          - SERVICE COMPANY
STRT.M        200                            : top_depth    - START DEPTH
STOP.M        390                            : bot_depth    - STOP DEPTH
STEP.M        0.25                           : increment    - STEP LENGTH
 NULL. -999.2500:NULL Value
~CURVE INFORMATION BLOCK
#MNEM UNIT       ERCB CURVE CODE    CURVE DESCRIPTION
#-----------   ------------------   ----------------------------------
DEPT.M        00 001 00 00         : DEPTH        - DEPTH
ILD .OHMM     00 120 00 00         : RESD         - DEEP RESISTIVITY (DIL)
NPHI.V/V      00 330 00 00         : PHIN         - NEUTRON POROSITY (SANDSTONE)
DPHI.V/V      00 890 00 00         : PHID         - DENSITY POROSITY (SANDSTONE)
CALI.MM       00 280 01 00         : CAL          - CALIPER
GR  .API      00 310 00 00         : GR           - GAMMA RAY
~PARAMETER INFORMATION
#MNEM.UNIT           DATA             DESCRIPTION OF MNEMONIC
#---------         -----------     ------------------------------
GL  .M        568                  : gl           - GROUND LEVEL ELEVATION
EREF.M        572                  : kb           - ELEVATION OF DEPTH REFERENCE
DATM.M        568                  : datum        - DATUM ELEVATION
TDD .M        389.6                : tdd          - TOTAL DEPTH DRILLER
RUN .         ONE                  : Run          - RUN NUMBER
ENG .         BILL                 : Engineer     - RECORDING ENGINEER
WIT .         JIM                  : Witness      - WITNESSED BY
MUD .         GEL                  : Mud_type     - MUD TYPE
MATR.         SANDSTONE            : Logunit      - NEUTRON MATRIX
TMAX.C        17                   : BHT          - MAXIMUM RECORDED TEMPERATURE
BHTD.M        389.6                : BHTDEP       - MAXIMUM RECORDED TEMPERATURE
RMT .C        21                   : MDTP         - TEMPERATURE OF MUD
MUDD.KG/M     1170                 : MWT          - MUD DENSITY
NEUT.         1                    : NEUTRON      - NEUTRON TYPE
RESI.         0                    : RESIST       - RESISTIVITY TYPE
RM  .OHMM     3.5                  : RM           - RESISTIVITY OF MUD
RMC .OHMM     3.5                  : RMC          - RESISTIVITY OF MUD CAKE
RMF .OHMM     3.8                  : RMF          - RESISTIVITY OF MUD FILTRATE
SUFT.C        -20                  : SUFT         - SURFACE TEMPERATURE
~A  DEPTH     RESD     PHIN     PHID      CAL       GR
# ...
  346.000   36.315    0.207    0.139  162.419   64.746
  346.250   45.301    0.183    0.062  161.390   60.852
  346.500   43.248    0.176    0.068  160.365   58.450
  346.750   33.389    0.193    0.150  159.336   56.939
  347.000   23.505    0.226    0.201  158.815   58.411
  347.250   20.652    0.232    0.208  158.754   61.065
  347.500   17.167    0.240    0.226  158.746   61.348
  347.750   15.504    0.260    0.244  158.714   63.113
  348.000   15.504    0.300    0.254  158.677   66.967
  348.250   15.211    0.315    0.253  158.148   78.264
  348.500   14.656    0.319    0.248  158.116   79.434
  348.750   14.517    0.323    0.246  158.580   74.652
  349.000   14.647    0.322    0.250  158.547   71.952
  349.250   14.643    0.313    0.255  159.007   75.209
  349.500   14.504    0.302    0.255  158.979   74.593
  349.750   14.234    0.307    0.248  158.942   73.678
  350.000   14.495    0.338    0.230  158.906   74.549
  350.250   14.898    0.358    0.215  158.873   74.235
  350.500   14.893    0.337    0.208  158.849   74.210
  350.750   14.752    0.329    0.199  158.812   74.196
  351.000   14.748    0.324    0.191  159.272   76.854
  351.250   15.157    0.319    0.179  159.736   82.198
  351.500   16.314    0.305    0.165  159.707   85.454
  351.750   19.614    0.279    0.149  159.667   82.156
  352.000   25.625    0.255    0.134  159.142   73.202
  352.250   26.826    0.216    0.080  159.105   65.440
  352.500   22.300    0.202    0.098  159.069   65.118
  352.750   16.140    0.271    0.229  159.045   68.079
  353.000   14.712    0.339    0.233  159.012   73.420
  353.250   15.121    0.345    0.221  158.976   73.400
  353.500   16.886    0.329    0.214  158.943   72.485
  353.750   19.209    0.308    0.206  158.907   75.148
  354.000   21.256    0.297    0.196  159.375   78.998
  354.250   22.667    0.273    0.174  159.342   76.300
  354.500   22.245    0.249    0.160  159.305   67.344
  354.750   20.279    0.254    0.141  159.769   67.320
  355.000   18.148    0.292    0.150  159.733   75.639
  355.250   16.390    0.319    0.216  159.704   80.389
  355.500   15.792    0.333    0.239  159.668   81.261
  355.750   15.498    0.338    0.238  159.635   80.350
  356.000   15.494    0.337    0.231  159.607   78.840
  356.250   15.633    0.328    0.220  159.570   77.927
  356.500   15.774    0.320    0.214  159.534   78.203
  356.750   16.211    0.323    0.207  159.497   79.374
  357.000   16.971    0.331    0.202  159.465   80.546
  357.250   17.767    0.331    0.198  159.432   82.313
  357.500   18.773    0.325    0.193  159.404   82.892
  357.750   20.205    0.316    0.187  159.372   81.681
  358.000   21.548    0.304    0.179  159.835   80.468
  358.250   22.350    0.289    0.156  160.295   77.468
  358.500   21.734    0.291    0.167  160.755   76.255
  358.750   20.558    0.299    0.194  160.731   79.516
  359.000   18.913    0.317    0.202  161.190   83.666
  359.250   16.770    0.334    0.202  161.162   85.731
  359.500   16.009    0.344    0.196  161.618   87.201
  359.750   16.004    0.345    0.182  162.086   88.668
  360.000   16.000    0.339    0.168  162.049   90.433
  360.250   15.995    0.320    0.158  162.517   91.605
  360.500   15.698    0.313    0.149  162.481   92.178
  360.750   15.406    0.322    0.152  163.437   93.353
  361.000   14.706    0.331    0.164  164.405   96.314
  361.250   14.301    0.337    0.174  164.865   96.289
  361.500   13.652    0.335    0.174  165.825   96.272
  361.750   13.033    0.327    0.168  167.282   99.231
  362.000   12.327    0.326    0.153  169.235  108.146
  362.250   11.768    0.330    0.142  168.706  113.189
  362.500   11.337    0.326    0.117  168.177  114.361
  362.750   11.127    0.324    0.114  168.140  113.448
  363.000   10.921    0.329    0.125  168.108  114.322
  363.250   10.424    0.333    0.139  168.564  116.084
  363.500   10.137    0.337    0.143  169.036  115.769
  363.750   10.039    0.335    0.146  169.496  114.559
  364.000    9.946    0.328    0.148  169.463  118.113
  364.250   10.128    0.322    0.148  169.923  125.243
  364.500   11.415    0.325    0.137  170.395  129.090
  364.750   12.748    0.330    0.138  170.354  123.415
  365.000   12.512    0.328    0.149  170.326  118.928
  365.250   12.623    0.324    0.167  168.800  122.780
  365.500   13.713    0.321    0.176  166.286  127.223
  365.750   14.624    0.305    0.192  163.768  123.930
  366.000   15.030    0.312    0.193  163.247  117.061
  366.250   15.163    0.318    0.169  163.206  110.192
  366.500   15.585    0.313    0.146  164.171  111.959
  366.750   16.467    0.303    0.123  164.134  115.513
  367.000   17.081    0.289    0.109  163.609  111.620
  367.250   17.235    0.285    0.123  162.584  102.366
  367.500   17.072    0.281    0.179  161.559  109.496
  367.750   16.754    0.299    0.192  162.011  113.644
  368.000   16.750    0.308    0.192  163.471  108.564
  368.250   17.374    0.305    0.187  163.935  107.944
  368.500   19.224    0.287    0.170  164.395  112.096
  368.750   21.667    0.280    0.133  164.867  116.244
  369.000   23.537    0.266    0.110  165.331  113.246
  369.250   24.641    0.255    0.101  165.294  109.653
  369.500   24.408    0.252    0.117  165.262  101.890
  369.750   22.873    0.256    0.135  165.229   96.801
  370.000   21.045    0.282    0.146  166.182   97.384
  370.250   17.655    0.312    0.176  167.646   99.747
  370.500   11.979    0.325    0.191  170.087  103.004
  370.750   11.123    0.313    0.176  170.559  107.154
  371.000   11.538    0.298    0.153  171.019  111.003
  371.250   12.885    0.276    0.138  171.979  107.708
  371.500   15.781    0.267    0.116  172.940  100.538
  371.750   18.626    0.264    0.097  174.392  101.713
  372.000   18.620    0.270    0.127  174.860  116.881
  372.250   17.132    0.286    0.143  175.816  138.604
  372.500   14.506    0.301    0.144  176.276  151.986
  372.750   12.511    0.317    0.140  177.236  151.967
  373.000   11.943    0.330    0.137  178.201  146.882
  373.250   11.296    0.341    0.147  178.664  145.076
  373.500   10.985    0.353    0.158  179.124  148.032
  373.750   10.294    0.358    0.166  179.088  147.717
  374.000    9.737    0.335    0.167  178.067  142.335
  374.250    9.556    0.318    0.163  177.538  144.698
  374.500    9.207    0.315    0.149  176.008  144.974
  374.750    8.549    0.318    0.121  175.479  137.807
  375.000    7.306    0.326    0.147  174.454  130.640
  375.250    5.962    0.335    0.172  173.933  138.068
  375.500    4.910    0.345    0.180  173.405  142.215
  375.750    4.314    0.414    0.194  172.872  143.387
  376.000    4.080    0.410    0.212  172.339  145.452
  376.250    4.116    0.394    0.233  172.803  147.813
  376.500    5.042    0.374    0.226  173.271  144.818
  376.750    6.175    0.343    0.214  173.726  132.290
  377.000   12.220    0.329    0.210  174.687  122.738
  377.250   23.523    0.301    0.227  174.658  106.637
  377.500   36.284    0.293    0.251  175.122   89.938
  377.750   42.828    0.293    0.279  175.082   82.473
  378.000   47.829    0.297    0.276  175.554   76.793
  378.250   36.585    0.300    0.250  176.013   74.984
  378.500   25.287    0.299    0.197  176.481   77.645
  378.750   17.476    0.290    0.170  176.941   80.606
  379.000   13.618    0.278    0.153  177.401   86.543
  379.250    9.499    0.279    0.139  177.372   90.392
  379.500    9.496    0.298    0.146  177.836   94.544
  379.750   10.034    0.319    0.166  178.292  126.093
  380.000   12.175    0.323    0.181  178.756  131.434
  380.250   12.985    0.308    0.182  179.228  137.371
  380.500   16.807    0.290    0.160  179.187  121.567
  380.750   18.945    0.273    0.139  179.155  106.059
  381.000   20.017    0.262    0.131  179.126  112.889
  381.250   18.758    0.272    0.132  179.086  127.763
  381.500   15.883    0.300    0.131  179.062  138.762
  381.750   13.826    0.312    0.132  179.062  146.188
  382.000   12.604    0.316    0.132  178.993  147.360
  382.250   11.596    0.313    0.134  179.448  150.318
