~VERSION INFORMATION
 VERS.                 2.0:   CWLS LOG ASCII STANDARD -VERSION 2.0
 WRAP.                  NO:   ONE LINE PER DEPTH STEP
~WELL INFORMATION BLOCK
#MNEM.UNIT           DATA                    DESCRIPTION OF MNEMONIC
#---------    -------------------            -------------------------------
# Generated from Intellog Unique Number	CS_69_70/WELL/851
WELL.         BOW VALLEY INDUSTRIES LTD      : Well_name    - WELL
LOC .         00/07-35-070-17W4/0            : Location     - LOCATION
UWI .         00/07-35-070-17W4/0            : Uwi          - UNIQUE WELL ID
ENTR.         SP                             : Entered      - ENTERED BY
SRVC.         SCHLUMBERGER                   : Scn          - SERVICE COMPANY
STRT.M        280                            : top_depth    - START DEPTH
STOP.M        473                            : bot_depth    - STOP DEPTH
STEP.M        0.25                           : increment    - STEP LENGTH
 NULL. -999.2500:NULL Value
~CURVE INFORMATION BLOCK
#MNEM UNIT       ERCB CURVE CODE    CURVE DESCRIPTION
#-----------   ------------------   ----------------------------------
DEPT.M        00 001 00 00         : DEPTH        - DEPTH
DPHI.V/V      00 890 00 00         : PHID         - DENSITY POROSITY (LIMESTONE)
NPHI.V/V      00 330 00 00         : PHIN         - NEUTRON POROSITY (LIMESTONE)
GR  .API      00 310 00 00         : GR           - GAMMA RAY
ILD .OHMM     00 120 00 00         : RESD         - DEEP RESISTIVITY (DIL)
~PARAMETER INFORMATION
#MNEM.UNIT           DATA             DESCRIPTION OF MNEMONIC
#---------         -----------     ------------------------------
GL  .M        520.17               : gl           - GROUND LEVEL ELEVATION
EREF.M        524.67               : kb           - ELEVATION OF DEPTH REFERENCE
DATM.M        520.17               : datum        - DATUM ELEVATION
TDD .M        476                  : tdd          - TOTAL DEPTH DRILLER
RUN .         ONE                  : Run          - RUN NUMBER
ENG .         BILL                 : Engineer     - RECORDING ENGINEER
WIT .         JIM                  : Witness      - WITNESSED BY
MUD .         GEL                  : Mud_type     - MUD TYPE
MATR.         LIMESTONE            : Logunit      - NEUTRON MATRIX
TMAX.C        221                  : BHT          - MAXIMUM RECORDED TEMPERATURE
BHTD.M        476                  : BHTDEP       - MAXIMUM RECORDED TEMPERATURE
MATR.         1                    : LOGUNIT      - NEUTRON MATRIX
RMT .C        25                   : MDTP         - TEMPERATURE OF MUD
NEUT.         1                    : NEUTRON      - NEUTRON TYPE
RESI.         0                    : RESIST       - RESISTIVITY TYPE
RMC .OHMM     0.25                 : RMC          - RESISTIVITY OF MUD CAKE
RMF .OHMM     0.25                 : RMF          - RESISTIVITY OF MUD FILTRATE
SUFT.C        15                   : SUFT         - SURFACE TEMPERATURE
~A  DEPTH     PHID     PHIN       GR     RESD
# ...
  367.000    0.208    0.418   84.990    4.820
  367.250    0.227    0.414   83.725    4.714
  367.500    0.247    0.410   82.341    4.541
  367.750    0.279    0.402   82.037    4.449
  368.000    0.273    0.396   82.634    4.343
  368.250    0.267    0.390   84.131    4.232
  368.500    0.264    0.385   86.468    4.154
  368.750    0.263    0.380   88.024    4.171
  369.000    0.263    0.378   87.480    4.267
  369.250    0.251    0.381   86.276    4.448
  369.500    0.255    0.383   85.071    4.645
  369.750    0.270    0.378   84.166    5.220
  370.000    0.252    0.339   83.264    6.159
  370.250    0.214    0.233   77.738    7.186
  370.500    0.177    0.195   72.572    8.367
  370.750    0.113    0.171   66.565   10.270
  371.000    0.038    0.156   61.520   12.700
  371.250    0.010    0.148   59.115   12.007
  371.500    0.013    0.145   60.372    9.374
  371.750    0.067    0.169   64.929    6.515
  372.000    0.117    0.225   67.927    3.940
  372.250    0.156    0.279   71.464    3.482
  372.500    0.203    0.342   73.022    3.195
  372.750    0.241    0.375   72.538    3.026
  373.000    0.278    0.400   70.913    2.899
  373.250    0.309    0.413   69.109    3.120
  373.500    0.322    0.427   68.084    3.402
  373.750    0.326    0.440   68.201    3.816
  374.000    0.328    0.449   68.917    4.092
  374.250    0.335    0.457   70.654    4.513
  374.500    0.330    0.447   71.311    4.775
  374.750    0.321    0.440   70.166    4.968
  375.000    0.311    0.436   68.962    4.448
  375.250    0.308    0.433   66.857    4.551
  375.500    0.314    0.438   65.413    4.587
  375.750    0.310    0.445   64.448    4.377
  376.000    0.306    0.450   66.786    4.123
  376.250    0.310    0.446   69.303    3.804
  376.500    0.320    0.441   71.100    3.439
  376.750    0.332    0.432   72.236    3.257
  377.000    0.340    0.422   72.832    3.132
  377.250    0.329    0.419   72.949    3.046
  377.500    0.319    0.419   72.224    2.990
  377.750    0.327    0.426   71.381    2.963
  378.000    0.317    0.425   70.237    2.941
  378.250    0.332    0.422   71.914    3.136
  378.500    0.329    0.420   72.870    3.149
  378.750    0.329    0.420   72.986    3.156
  379.000    0.323    0.418   72.683    3.162
  379.250    0.313    0.416   70.876    3.157
  379.500    0.302    0.416   70.094    3.099
  379.750    0.294    0.417   69.550    3.088
  380.000    0.300    0.419   67.806    3.083
  380.250    0.306    0.418   67.922    3.090
  380.500    0.305    0.415   69.418    3.102
  380.750    0.286    0.414   69.295    3.115
  381.000    0.285    0.414   69.891    3.127
  381.250    0.304    0.417   72.287    3.116
  381.500    0.322    0.422   73.065    3.088
  381.750    0.343    0.425   71.320    3.071
  382.000    0.328    0.428   69.756    3.049
  382.250    0.310    0.429   69.032    3.038
  382.500    0.305    0.431   68.848    3.028
  382.750    0.307    0.429   69.204    2.863
  383.000    0.319    0.423   71.301    2.858
  383.250    0.332    0.419   72.558    2.870
  383.500    0.324    0.416   73.275    2.903
  383.750    0.313    0.415   73.631    2.947
  384.000    0.311    0.412   73.867    2.987
  384.250    0.309    0.413   74.043    3.050
  384.500    0.321    0.423   73.856    3.156
  384.750    0.318    0.430   73.855    3.253
  385.000    0.316    0.432   73.852    3.416
  385.250    0.318    0.430   73.847    3.575
  385.500    0.325    0.426   73.664    3.755
  385.750    0.337    0.421   73.420    3.841
  386.000    0.345    0.415   73.116    3.864
  386.250    0.326    0.414   71.672    3.843
  386.500    0.277    0.414   70.768    3.816
  386.750    0.265    0.420   70.644    3.809
  387.000    0.259    0.426   72.261    3.797
  387.250    0.264    0.428   73.578    3.797
  387.500    0.270    0.421   73.274    3.784
  387.750    0.267    0.411   72.850    3.799
  388.000    0.259    0.406   73.146    3.800
  388.250    0.255    0.401   73.742    3.815
  388.500    0.259    0.399   74.699    3.823
  388.750    0.277    0.402   75.956    3.839
  389.000    0.282    0.406   76.312    3.832
  389.250    0.270    0.402   75.768    3.862
  389.500    0.262    0.399   76.545    3.877
  389.750    0.256    0.395   79.722    3.886
  390.000    0.246    0.395   82.359    3.894
  390.250    0.239    0.398   84.457    3.902
  390.500    0.233    0.405   86.013    3.896
  390.750    0.228    0.410   86.308    3.904
  391.000    0.224    0.413   86.005    3.935
  391.250    0.232    0.418   85.762    3.966
  391.500    0.250    0.423   85.578    3.974
  391.750    0.264    0.426   85.214    3.997
  392.000    0.274    0.425   84.370    3.999
  392.250    0.264    0.419   81.844    3.970
  392.500    0.260    0.411   79.920    3.941
  392.750    0.259    0.405   79.076    3.804
  393.000    0.261    0.399   80.272    3.664
  393.250    0.269    0.397   81.769    3.426
  393.500    0.277    0.408   82.905    3.126
  393.750    0.282    0.425   84.222    2.906
  394.000    0.278    0.446   84.339    2.676
  394.250    0.287    0.485   87.036    2.455
  394.500    0.332    0.511   91.114    2.317
  394.750    0.366    0.533   95.432    2.270
  395.000    0.387    0.548   98.610    2.216
  395.250    0.378    0.554  100.766    2.314
  395.500    0.343    0.554  101.903    2.547
  395.750    0.323    0.542  101.900    2.944
  396.000    0.316    0.514  104.356    3.327
  396.250    0.307    0.485  105.612    3.732
  396.500    0.288    0.457  105.310    4.108
  396.750    0.263    0.447  102.724    4.396
  397.000    0.240    0.433   99.539    4.617
  397.250    0.216    0.422   96.055    4.697
  397.500    0.187    0.413   91.849    4.734
  397.750    0.160    0.400   91.065    4.691
  398.000    0.145    0.393   92.681    4.666
  398.250    0.153    0.388   95.138    4.615
  398.500    0.166    0.388   97.356    4.564
  398.750    0.182    0.390   99.752    4.506
  399.000    0.193    0.392  100.828    4.456
  399.250    0.203    0.392  100.945    4.457
  399.500    0.210    0.393   99.800    4.526
  399.750    0.215    0.392   97.937    4.709
  400.000    0.215    0.387   93.851    5.154
  400.250    0.213    0.383   90.846    6.150
  400.500    0.211    0.370   85.620    7.189
  400.750    0.152    0.348   81.415    7.884
  401.000    0.094    0.324   75.049    8.081
  401.250    0.078    0.298   69.163    7.569
  401.500    0.081    0.277   65.198    6.601
  401.750    0.122    0.282   72.276    5.922
  402.000    0.181    0.310   81.395    5.175
  402.250    0.210    0.332   87.755    4.748
  402.500    0.240    0.365   94.714    4.348
  402.750    0.260    0.397   91.589    4.065
  403.000    0.277    0.409   83.842    3.843
  403.250    0.290    0.409   78.436    3.751
  403.500    0.300    0.408   75.071    3.717
  403.750    0.304    0.408   73.687    3.677
  404.000    0.307    0.410   72.541    3.643
  404.250    0.311    0.415   73.498    3.543
  404.500    0.309    0.419   74.935    3.517
  404.750    0.295    0.426   76.192    3.466
  405.000    0.285    0.432   78.649    3.473
  405.250    0.290    0.436   82.007    3.587
  405.500    0.299    0.440   84.644    3.642
  405.750    0.272    0.441   86.201    3.847
  406.000    0.262    0.446   87.517    3.980
  406.250    0.259    0.451   86.733    4.094
  406.500    0.266    0.446   84.449    4.150
  406.750    0.277    0.424   83.004    4.151
  407.000    0.263    0.408   82.820    4.136
  407.250    0.234    0.392   82.936    4.106
  407.500    0.213    0.384   82.932    4.055
  407.750    0.208    0.381   82.387    4.047
  408.000    0.207    0.380   81.842    4.056
  408.250    0.207    0.380   81.118    4.095
  408.500    0.211    0.379   80.154    4.222
  408.750    0.214    0.378   79.490    4.262
  409.000    0.226    0.375   79.549    4.435
  409.250    0.241    0.374   80.505    4.444
  409.500    0.235    0.376   81.822    4.590
  409.750    0.234    0.376   83.558    4.642
  410.000    0.220    0.378   84.875    4.714
  410.250    0.211    0.373   85.651    4.786
