~VERSION INFORMATION
 VERS.                 2.0:   CWLS LOG ASCII STANDARD -VERSION 2.0
 WRAP.                  NO:   ONE LINE PER DEPTH STEP
~WELL INFORMATION BLOCK
#MNEM.UNIT           DATA                    DESCRIPTION OF MNEMONIC
#---------    -------------------            -------------------------------
# Generated from Intellog Unique Number	CW_82_90/WELL/3063
WELL.         PARA ET AL LIVOCK 07-19        : Well_name    - WELL
LOC .         00/07-19-085-19W4/0            : Location     - LOCATION
UWI .         00/07-19-085-19W4/0            : Uwi          - UNIQUE WELL ID
ENTR.         JAYE                           : Entered      - ENTERED BY
SRVC.         COMPUTALOG                     : Scn          - SERVICE COMPANY
DATE.         21 FEB 78                      : Date         - LOG DATE
STRT.M        192.024                        : top_depth    - START DEPTH
STOP.M        347.524                        : bot_depth    - STOP DEPTH
STEP.M        0.25                           : increment    - STEP LENGTH
 NULL. -999.2500:NULL Value
~CURVE INFORMATION BLOCK
#MNEM UNIT       ERCB CURVE CODE    CURVE DESCRIPTION
#-----------   ------------------   ----------------------------------
DEPT.M        00 001 00 00         : DEPTH        - DEPTH
CALI.MM       00 280 01 00         : CAL          - CALIPER
GR  .API      00 310 00 00         : GR           - GAMMA RAY
DPHI.V/V      00 890 00 00         : PHID         - DENSITY POROSITY (SANDSTONE)
NPHI.V/V      00 330 00 00         : PHIN         - NEUTRON POROSITY (SANDSTONE)
ILD .OHMM     00 120 00 00         : RESD         - DEEP RESISTIVITY (DLL)
~PARAMETER INFORMATION
#MNEM.UNIT           DATA             DESCRIPTION OF MNEMONIC
#---------         -----------     ------------------------------
GL  .M        610.057              : gl           - GROUND LEVEL ELEVATION
EREF.M        613.105              : kb           - ELEVATION OF DEPTH REFERENCE
DATM.M        610.057              : datum        - DATUM ELEVATION
TDD .M        350.215              : tdd          - TOTAL DEPTH DRILLER
RUN .         ONE                  : Run          - RUN NUMBER
ENG .         DOPF                 : Engineer     - RECORDING ENGINEER
WIT .         GEORGE               : Witness      - WITNESSED BY
BASE.         EDMONTON             : Branch       - HOME BASE OF LOGGING UNIT
MUD .         GEL CHEM             : Mud_type     - MUD TYPE
MATR.         SANDSTONE            : Logunit      - NEUTRON MATRIX
TMAX.C        15.5556              : BHT          - MAXIMUM RECORDED TEMPERATURE
BHTD.M        350.215              : BHTDEP       - MAXIMUM RECORDED TEMPERATURE
RMT .C        18.3333              : MDTP         - TEMPERATURE OF MUD
MUDD.KG/M     9300                 : MWT          - MUD DENSITY
NEUT.         0                    : NEUTRON      - NEUTRON TYPE
RESI.         1                    : RESIST       - RESISTIVITY TYPE
RM  .OHMM     4.1                  : RM           - RESISTIVITY OF MUD
RMC .OHMM     4.2                  : RMC          - RESISTIVITY OF MUD CAKE
RMF .OHMM     4.5                  : RMF          - RESISTIVITY OF MUD FILTRATE
SUFT.C        -17.7778             : SUFT         - SURFACE TEMPERATURE
~A  DEPTH      CAL       GR     PHID     PHIN     RESD
# ...
  301.524  158.305   73.150    0.184    0.429   11.679
  301.774  157.454   75.618    0.158    0.432   11.665
  302.024  157.233   72.640    0.168    0.419   11.399
  302.274  157.009   73.870    0.192    0.413   11.442
  302.524  157.206   77.763    0.204    0.424   11.615
  302.774  157.406   74.970    0.187    0.463   11.593
  303.024  158.231   77.066    0.186    0.433   11.458
  303.274  159.373   76.751    0.198    0.423   11.216
  303.524  160.619   76.310    0.203    0.429   11.357
  303.774  161.864   79.769    0.212    0.429   11.823
  304.024  161.642   78.896    0.196    0.446   12.192
  304.274  160.477   68.674    0.101    0.282   12.398
  304.524  159.207   57.339    0.090    0.263   12.539
  304.774  157.935   59.250    0.121    0.281   12.696
  305.024  157.816   82.210    0.194    0.331   12.650
  305.274  158.017   80.221    0.182    0.390   12.017
  305.524  158.632   78.852    0.168    0.371   11.604
  305.774  159.140   80.082    0.160    0.359   11.533
  306.024  159.444   77.723    0.156    0.360   11.593
  306.274  159.540   77.778    0.174    0.398   11.449
  306.524  159.527   74.428    0.164    0.421   11.126
  306.774  159.619   78.382    0.172    0.439   10.828
  307.024  159.607   77.075    0.185    0.420   10.610
  307.274  159.280   77.811    0.176    0.423   10.441
  307.524  159.059   82.384    0.177    0.451   10.575
  307.774  158.523   87.515    0.191    0.449   10.707
  308.024  157.882   83.237    0.171    0.431   10.742
  308.274  157.555   76.915    0.141    0.418   10.647
  308.524  157.750   77.775    0.094    0.431   10.511
  308.774  157.845   80.552    0.119    0.418   10.269
  309.024  158.252   81.783    0.141    0.428   10.019
  309.274  158.973   86.975    0.193    0.458    9.941
  309.524  159.275   89.756    0.181    0.483   10.431
  309.774  159.157   85.229    0.204    0.468   10.841
  310.024  158.516   82.435    0.198    0.441   11.103
  310.274  158.399   80.262    0.165    0.422   11.440
  310.524  159.959   80.873    0.144    0.413   11.540
  310.774  161.310   82.972    0.158    0.426   11.323
  311.024  162.554   81.787    0.170    0.426   11.049
  311.274  163.800   82.400    0.181    0.415   10.986
  311.524  164.834   83.816    0.192    0.427   11.314
  311.774  165.137   84.614    0.195    0.422   11.992
  312.024  164.392   86.835    0.189    0.391   12.434
  312.274  162.913   87.322    0.181    0.384   13.014
  312.524  161.746   77.844    0.210    0.404   13.709
  312.774  161.211   78.147    0.197    0.395   14.965
  313.024  160.569   78.201    0.166    0.384   17.328
  313.274  160.031   77.450    0.145    0.365   18.617
  313.524  159.287   83.016    0.089    0.258   18.953
  313.774  158.752   80.222    0.095    0.260   18.427
  314.024  158.424   77.553    0.122    0.347   17.835
  314.274  157.886   81.941    0.174    0.370   16.844
  314.524  158.293   77.476    0.193    0.382   14.697
  314.774  158.177   73.384    0.195    0.386   14.146
  315.024  158.269   80.372    0.188    0.396   14.027
  315.274  158.258   82.531    0.174    0.406   14.323
  315.524  157.409   77.694    0.195    0.391   14.846
  315.774  156.347   75.026    0.179    0.384   15.369
  316.024  155.077   77.309    0.137    0.378   15.893
  316.274  154.749   81.325    0.086    0.347   15.196
  316.524  155.785   75.747    0.117    0.306   14.579
  316.774  157.239   74.253    0.150    0.330   13.157
  317.024  158.487   77.466    0.175    0.363   12.182
  317.274  160.465   79.749    0.177    0.391   11.306
  317.524  162.863   82.155    0.171    0.423   10.397
  317.774  164.317   91.001    0.183    0.427    9.634
  318.024  165.249   82.945    0.184    0.434    8.545
  318.274  165.972   83.806    0.177    0.421    6.757
  318.524  166.379   93.085    0.184    0.419    6.964
  318.774  165.319   98.091    0.175    0.429    7.300
  319.024  165.202   98.577    0.171    0.406    7.717
  319.274  166.029   97.024    0.171    0.396    8.460
  319.524  167.064   86.679    0.156    0.411    9.667
  319.774  167.052   78.314    0.074    0.319   12.853
  320.024  166.307   74.779    0.061    0.284   13.059
  320.274  164.303   72.605    0.076    0.307   10.831
  320.524  161.878   75.011    0.094    0.369   10.174
  320.774  160.714   79.400    0.165    0.392    9.281
  321.024  161.016   83.230    0.165    0.435    7.843
  321.274  161.634   84.833    0.138    0.433    7.593
  321.524  162.667   87.240    0.139    0.438    7.880
  321.774  162.971   84.447    0.129    0.436    8.485
  322.024  163.482   83.448    0.125    0.413    9.000
  322.274  164.310   86.971    0.152    0.412    9.377
  322.524  166.603   82.382    0.159    0.431    9.616
  322.774  167.954   82.499    0.166    0.413    9.358
  323.024  167.626   84.844    0.170    0.408    8.783
  323.274  167.509   78.337    0.157    0.431    8.956
  323.524  165.294   79.444    0.151    0.456    8.836
  323.774  164.655   94.417    0.152    0.459    8.505
  324.024  165.691   94.348    0.163    0.472    8.125
  324.274  167.249   91.123    0.177    0.472    7.932
  324.524  168.706  100.896    0.182    0.468    7.772
  324.774  170.369  100.641    0.176    0.445    7.758
  325.024  171.301  103.543    0.178    0.433    8.241
  325.274  171.708   96.045    0.174    0.441    8.968
  325.524  171.067   93.562    0.156    0.458    9.776
  325.774  168.014   90.026    0.156    0.440   10.486
  326.024  166.012   83.024    0.149    0.345   11.775
  326.274  163.377   89.207    0.161    0.336   13.894
  326.524  161.163   88.891    0.166    0.354   14.011
  326.774  159.790   88.388    0.154    0.350   13.826
  327.024  158.730   90.422    0.144    0.353   13.771
  327.274  158.402   85.773    0.149    0.345   14.173
  327.524  158.074   84.466    0.146    0.335   14.753
  327.774  158.378   86.749    0.145    0.332   15.505
  328.024  158.680   90.827    0.129    0.349   16.549
  328.274  159.297   91.191    0.021    0.353   17.610
  328.524  159.808   82.518    0.048    0.322   18.182
  328.774  159.795   71.801    0.124    0.308   18.096
  329.024  159.784   76.499    0.168    0.330   17.691
  329.274  159.246   81.568    0.177    0.342   17.310
  329.524  158.606   87.442    0.180    0.334   17.525
  329.774  158.384   84.400    0.176    0.339   18.228
  330.024  158.686   82.351    0.160    0.332   18.718
  330.274  158.884   82.157    0.166    0.328   19.575
  330.524  158.977   78.684    0.144    0.346   20.319
  330.774  158.965   74.962    0.128    0.333   20.842
  331.024  158.951   71.178    0.136    0.312   21.715
  331.274  159.150   72.719    0.158    0.306   22.028
  331.524  159.138   69.307    0.133    0.319   21.956
  331.774  158.916   65.647    0.116    0.323   21.805
  332.024  158.589   65.022    0.128    0.303   21.644
  332.274  158.471   62.909    0.148    0.304   21.565
  332.524  158.039   57.640    0.152    0.306   21.722
  332.774  156.558   63.885    0.143    0.304   21.863
  333.024  155.395   64.123    0.109    0.314   21.931
  333.274  155.381   63.623    0.116    0.294   22.007
  333.524  156.521   66.092    0.145    0.291   22.123
  333.774  157.349   70.109    0.140    0.347   22.215
  334.024  157.755   73.630    0.125    0.363   22.193
  334.274  157.115   69.599    0.104    0.344   21.707
  334.524  158.778   67.425    0.082    0.319   21.083
  334.774  160.340   66.859    0.050    0.275   20.548
  335.024  161.688   64.563    0.050    0.227   19.891
  335.274  162.097   65.856    0.088    0.245   18.925
  335.524  162.505   77.548    0.169    0.274   18.577
  335.774  162.490   77.850    0.175    0.314   18.018
  336.024  162.585   77.967    0.181    0.358   17.410
  336.274  163.829   82.168    0.173    0.340   16.997
  336.524  165.286   80.862    0.146    0.320   16.267
  336.774  165.378   78.316    0.078    0.283   15.586
  337.024  164.212   75.771    0.105    0.265   14.978
  337.274  163.572   82.450    0.148    0.283   14.533
  337.524  162.931   83.680    0.165    0.359   13.916
  337.774  162.499   81.754    0.168    0.382   13.276
