~VERSION INFORMATION
 VERS.                 2.0:   CWLS LOG ASCII STANDARD -VERSION 2.0
 WRAP.                  NO:   ONE LINE PER DEPTH STEP
~WELL INFORMATION BLOCK
#MNEM.UNIT           DATA                    DESCRIPTION OF MNEMONIC
#---------    -------------------            -------------------------------
# Generated from Intellog Unique Number	CW_70_72/WELL/3009
NULL.         -999.25                        : NULL_VALUE
WELL.         BRASCAN AMOCO MEYER 06-22      : Well_name    - WELL              
LOC .         06-22-070-25W4                 : Location     - LOCATION          
UWI .         00/06-22-070-25W4/0            : Uwi          - UNIQUE WELL ID    
ENTR.         J                              : Entered      - ENTERED BY        
SRVC.         SCHLUMBERGER                   : Scn          - SERVICE COMPANY   
DATE.         10 MAR 73                      : Date         - LOG DATE          
STRT.M        478.536                        : top_depth    - START DEPTH       
STOP.M        701.036                        : bot_depth    - STOP DEPTH        
STEP.M        0.25                           : increment    - STEP LENGTH       
~CURVE INFORMATION BLOCK
#MNEM UNIT       ERCB CURVE CODE    CURVE DESCRIPTION
#-----------   ------------------   ----------------------------------
DEPT.M        00 001 00 00         : DEPTH        - DEPTH                       
ILD .OHMM     00 120 00 00         : RESD         - DEEP RESISTIVITY (DIL)      
CALI.MM       00 280 01 00         : CAL          - CALIPER                     
GR  .API      00 310 00 00         : GR           - GAMMA RAY                   
NPHI.V/V      00 330 00 00         : PHIN         - NEUTRON POROSITY (SANDSTONE)
DPHI.V/V      00 890 00 00         : PHID         - DENSITY POROSITY (SANDSTONE)
~PARAMETER INFORMATION       
#MNEM.UNIT           DATA             DESCRIPTION OF MNEMONIC
#---------         -----------     ------------------------------
GL  .M        643.433              : gl           - GROUND LEVEL ELEVATION      
EREF.M        647.243              : kb           - ELEVATION OF DEPTH REFERENCE
DATM.M        643.433              : datum        - DATUM ELEVATION             
TDD .M        729.996              : tdd          - TOTAL DEPTH DRILLER         
RUN .         ONE                  : Run          - RUN NUMBER                  
ENG .         MACIJUK              : Engineer     - RECORDING ENGINEER          
WIT .         JAMES                : Witness      - WITNESSED BY                
BASE.         EDMONTON             : Branch       - HOME BASE OF LOGGING UNIT   
MUD .         GEL                  : Mud_type     - MUD TYPE                    
MATR.         SANDSTONE            : Logunit      - NEUTRON MATRIX              
TMAX.C        27.7778              : BHT          - MAXIMUM RECORDED TEMPERATURE
BHTD.M        729.996              : BHTDEP       - MAXIMUM RECORDED TEMPERATURE
RMT .C        16.6667              : MDTP         - TEMPERATURE OF MUD          
MUDD.KG/M     1104                 : MWT          - MUD DENSITY                 
NEUT.         1                    : NEUTRON      - NEUTRON TYPE                
RESI.         0                    : RESIST       - RESISTIVITY TYPE            
RM  .OHMM     3.38                 : RM           - RESISTIVITY OF MUD          
RMC .OHMM     0                    : RMC          - RESISTIVITY OF MUD CAKE     
RMF .OHMM     0                    : RMF          - RESISTIVITY OF MUD FILTRATE 
SUFT.C        -17.7778             : SUFT         - SURFACE TEMPERATURE         
~A  DEPTH     RESD      CAL       GR     PHIN     PHID
# ...
  588.036    4.273  160.313   68.184    0.322    0.106
  588.286    3.959  158.628   70.707    0.340    0.108
  588.536    3.621  156.838   72.327    0.362    0.125
  588.786    3.307  155.662   76.252    0.385    0.146
  589.036    3.014  154.488   79.022    0.399    0.167
  589.286    2.892  154.443   79.122    0.429    0.176
  589.536    2.815  153.877   76.725    0.432    0.200
  589.786    2.786  153.638   75.605    0.417    0.208
  590.036    2.777  153.595   77.640    0.426    0.192
  590.286    2.774  153.143   81.145    0.455    0.189
  590.536    2.806  152.998   83.188    0.459    0.203
  590.786    2.870  152.742   82.004    0.434    0.197
  591.036    3.000  153.412   81.191    0.360    0.203
  591.286    3.131  154.414   81.834    0.395    0.199
  591.536    3.238  156.946   83.634    0.434    0.177
  591.786    3.354  160.893   86.404    0.445    0.185
  592.036    3.463  161.494   89.599    0.434    0.175
  592.286    3.502  161.760   91.462    0.431    0.156
  592.536    3.505  161.799   91.433    0.425    0.182
  592.786    3.494  161.567   89.162    0.430    0.180
  593.036    3.477  161.524   87.011    0.437    0.175
  593.286    3.478  161.377   89.052    0.440    0.158
  593.536    3.506  161.023   93.038    0.477    0.151
  593.786    3.515  160.662   91.614    0.467    0.164
  594.036    3.543  160.323   90.007    0.444    0.184
  594.286    3.545  160.282   90.105    0.438    0.172
  594.536    3.553  160.141   92.020    0.429    0.175
  594.786    3.581  160.197   93.759    0.419    0.173
  595.036    3.576  160.159   95.864    0.405    0.161
  595.286    3.572  160.105   98.576    0.404    0.155
  595.536    3.561  160.368   94.598    0.404    0.164
  595.786    3.576  161.053   90.380    0.382    0.173
  596.036    3.605  161.517   86.764    0.468    0.183
  596.286    3.633  161.381   88.446    0.475    0.191
  596.536    3.635  161.342   91.459    0.462    0.166
  596.786    3.637  161.713   93.866    0.434    0.150
  597.036    3.654  162.282   96.453    0.457    0.156
  597.286    3.661  162.653   95.271    0.466    0.169
  597.536    3.637  163.125   92.515    0.456    0.154
  597.786    3.637  164.109   87.870    0.440    0.178
  598.036    3.648  164.892   85.474    0.407    0.164
  598.286    3.656  165.769   88.728    0.402    0.147
  598.536    3.678  166.147   91.867    0.413    0.143
  598.786    3.678  167.032   93.238    0.432    0.161
  599.036    3.738  167.812   90.661    0.433    0.147
  599.286    3.732  168.288   90.144    0.408    0.162
  599.536    3.755  168.855   92.495    0.394    0.172
  599.786    3.755  169.226   93.321    0.410    0.167
  600.036    3.810  169.701   92.015    0.433    0.179
  600.286    3.810  170.275   94.545    0.353    0.142
  600.536    3.764  171.048   95.614    0.329    0.167
  600.786    3.645  171.106   93.582    0.363    0.177
  601.036    3.639  171.067   91.734    0.428    0.162
  601.286    3.588  171.024   91.833    0.417    0.156
  601.536    3.558  170.775   93.753    0.445    0.163
  601.786    3.560  170.744   93.605    0.471    0.154
  602.036    3.561  170.392   86.345    0.480    0.143
  602.286    3.807  170.238   83.525    0.470    0.155
  602.536    4.196  169.682   83.259    0.474    0.167
  602.786    6.067  168.925   87.002    0.458    0.180
  603.036    6.637  166.696   82.661    0.455    0.190
  603.286    7.974  166.263   77.530    0.445    0.177
  603.536    8.291  165.703   73.190    0.374    0.143
  603.786    7.571  164.221   69.031    0.310    0.087
  604.036    6.544  165.210   64.507    0.262    0.053
  604.286    5.543  165.872   69.284    0.276    0.037
  604.536    4.619  166.258   80.319    0.337    0.048
  604.786    4.264  166.832   82.303    0.373    0.090
  605.036    4.061  167.094   83.063    0.354    0.128
  605.286    3.903  167.572   84.076    0.352    0.106
  605.536    3.800  168.237   87.997    0.394    0.126
  605.786    3.733  168.400   90.529    0.424    0.154
  606.036    3.688  168.570   93.354    0.449    0.164
  606.286    3.670  168.531   94.368    0.444    0.163
  606.536    3.705  168.390   91.973    0.445    0.180
  606.786    3.804  168.235   85.383    0.436    0.160
  607.036    3.869  167.892   83.414    0.421    0.157
  607.286    4.135  167.326   84.299    0.397    0.148
  607.536    4.660  167.088   81.661    0.378    0.133
  607.786    4.952  166.735   77.988    0.356    0.113
  608.036    4.937  166.586   85.620    0.354    0.109
  608.286    4.322  166.442   89.972    0.374    0.157
  608.536    3.990  166.084   91.405    0.400    0.188
  608.786    3.821  165.845   89.862    0.406    0.161
  609.036    3.672  165.486   89.711    0.411    0.153
  609.286    3.549  165.238   91.878    0.410    0.150
  609.536    3.519  165.099   94.162    0.363    0.146
  609.786    3.508  165.054   94.153    0.356    0.144
  610.036    3.434  165.085   92.889    0.408    0.146
  610.286    3.469  165.224   89.375    0.448    0.145
  610.536    3.512  165.346   89.393    0.439    0.154
  610.786    3.563  165.168   86.180    0.441    0.164
  611.036    3.627  164.683   86.745    0.438    0.157
  611.286    3.713  165.746   89.991    0.432    0.158
  611.536    3.785  166.594   91.714    0.428    0.181
  611.786    3.826  167.454   94.288    0.436    0.162
  612.036    3.845  167.892   93.451    0.439    0.143
  612.286    3.857  166.888   91.155    0.403    0.135
  612.536    3.855  164.444   89.772    0.402    0.157
  612.786    3.853  162.512   91.251    0.412    0.170
  613.036    3.852  163.780   93.031    0.423    0.159
  613.286    3.871  166.901   92.625    0.429    0.161
  613.536    3.911  169.407   92.216    0.423    0.158
  613.786    3.923  170.467   92.535    0.417    0.152
  614.036    3.972  171.011   97.727    0.407    0.144
  614.286    4.030  171.663  100.791    0.377    0.136
  614.536    4.057  172.202   98.250    0.349    0.134
  614.786    4.093  172.130   97.964    0.405    0.144
  615.036    4.129  171.746   98.711    0.428    0.149
  615.286    4.164  171.367   97.996    0.420    0.155
  615.536    4.216  170.879   95.700    0.402    0.157
  615.786    4.252  170.800   90.909    0.396    0.168
  616.036    4.258  170.625   88.668    0.420    0.159
  616.286    4.233  170.449   89.784    0.440    0.146
  616.536    4.176  170.577   96.803    0.427    0.137
  616.786    4.061  170.810  101.812    0.420    0.139
  617.036    3.915  171.462  102.441    0.416    0.139
  617.286    3.787  171.901  102.700    0.422    0.146
  617.536    3.742  172.650  103.386    0.446    0.155
  617.786    3.686  172.273  104.015    0.458    0.156
  618.036    3.691  171.781  103.973    0.450    0.148
  618.286    3.794  171.914  103.743    0.436    0.149
  618.536    3.839  172.051  103.150    0.419    0.150
  618.786    4.010  171.869   99.821    0.427    0.145
  619.036    4.010  171.895   95.878    0.414    0.134
  619.286    4.305  171.720   90.415    0.378    0.130
  619.536    4.315  171.648   85.862    0.325    0.146
  619.786    4.321  171.987   92.276    0.409    0.155
  620.036    4.264  173.041   92.536    0.406    0.152
  620.286    4.080  173.794   93.466    0.403    0.121
  620.536    3.954  172.378   97.505    0.435    0.109
  620.786    3.923  171.071  100.321    0.440    0.116
  621.036    3.964  170.271  101.252    0.427    0.124
  621.286    4.042  169.473   98.896    0.421    0.125
  621.536    4.191  168.989   96.473    0.419    0.118
  621.786    4.281  169.122   91.926    0.419    0.132
  622.036    4.342  170.286   88.956    0.431    0.151
  622.286    4.317  171.446   88.060    0.430    0.143
  622.536    4.140  172.093   94.532    0.420    0.135
  622.786    4.082  172.026   96.256    0.444    0.134
  623.036    3.993  171.738   95.905    0.470    0.123
  623.286    4.102  169.809   90.747    0.466    0.142
  623.536    4.292  167.157   82.238    0.404    0.126
  623.786    4.497  165.123   74.826    0.308    0.122
  624.036    4.926  163.401   67.839    0.299    0.091
  624.286    5.555  162.502   62.252    0.324    0.069
