~VERSION INFORMATION
 VERS.                 2.0:   CWLS LOG ASCII STANDARD -VERSION 2.0
 WRAP.                  NO:   ONE LINE PER DEPTH STEP
~WELL INFORMATION BLOCK
#MNEM.UNIT           DATA                    DESCRIPTION OF MNEMONIC
#---------    -------------------            -------------------------------
# Generated from Intellog Unique Number	CS_73_76/WELL/2179
WELL.         MIAMI OIL PRODUCERS INC.       : Well_name    - WELL
LOC .         00/07-33-074-11W4/0            : Location     - LOCATION
UWI .         00/07-33-074-11W4/0            : Uwi          - UNIQUE WELL ID
ENTR.         SP                             : Entered      - ENTERED BY
SRVC.         SCHLUMBERGER                   : Scn          - SERVICE COMPANY
STRT.M        280.416                        : top_depth    - START DEPTH
STOP.M        514.916                        : bot_depth    - STOP DEPTH
STEP.M        0.25                           : increment    - STEP LENGTH
 NULL. -999.2500:NULL Value
~CURVE INFORMATION BLOCK
#MNEM UNIT       ERCB CURVE CODE    CURVE DESCRIPTION
#-----------   ------------------   ----------------------------------
DEPT.M        00 001 00 00         : DEPTH        - DEPTH
GR  .API      00 310 00 00         : GR           - GAMMA RAY
DPHI.V/V      00 890 00 00         : PHID         - DENSITY POROSITY (SANDSTONE)
NPHI.V/V      00 330 00 00         : PHIN         - NEUTRON POROSITY (SANDSTONE)
ILD .OHMM     00 120 00 00         : RESD         - DEEP RESISTIVITY (DIL)
~PARAMETER INFORMATION
#MNEM.UNIT           DATA             DESCRIPTION OF MNEMONIC
#---------         -----------     ------------------------------
GL  .M        657.149              : gl           - GROUND LEVEL ELEVATION
EREF.M        660.38               : kb           - ELEVATION OF DEPTH REFERENCE
DATM.M        657.149              : datum        - DATUM ELEVATION
TDD .M        743.712              : tdd          - TOTAL DEPTH DRILLER
RUN .         `                    : Run          - RUN NUMBER
ENG .         BILL                 : Engineer     - RECORDING ENGINEER
WIT .         JIM                  : Witness      - WITNESSED BY
MUD .         GEL                  : Mud_type     - MUD TYPE
MATR.         SANDSTONE            : Logunit      - NEUTRON MATRIX
TMAX.C        26.1111              : BHT          - MAXIMUM RECORDED TEMPERATURE
BHTD.M        743.712              : BHTDEP       - MAXIMUM RECORDED TEMPERATURE
MATR.         1                    : LOGUNIT      - NEUTRON MATRIX
RMT .C        25                   : MDTP         - TEMPERATURE OF MUD
NEUT.         1                    : NEUTRON      - NEUTRON TYPE
RESI.         0                    : RESIST       - RESISTIVITY TYPE
RMC .OHMM     0.25                 : RMC          - RESISTIVITY OF MUD CAKE
RMF .OHMM     0.25                 : RMF          - RESISTIVITY OF MUD FILTRATE
SUFT.C        15                   : SUFT         - SURFACE TEMPERATURE
~A  DEPTH       GR     PHID     PHIN     RESD
  280.416  101.609    0.272    0.781    3.020
  280.666   98.880    0.273    0.780    3.118
  280.916   98.735    0.271    0.777    3.131
  281.166  102.046    0.268    0.777    3.133
  281.416  101.833    0.264    0.777    3.163
  281.666  100.956    0.258    0.777    3.278
  281.916  102.141    0.254    0.773    3.597
  282.166  100.059    0.247    0.760    3.915
  282.416   97.108    0.239    0.719    4.061
  282.666   93.862    0.232    0.690    4.182
  282.916   92.783    0.213    0.659    4.258
  283.166   98.517    0.198    0.681    4.204
  283.416  104.314    0.206    0.710    4.152
  283.666  103.343    0.221    0.745    4.010
  283.916  101.443    0.231    0.763    3.765
  284.166  102.780    0.236    0.772    3.572
  284.416  106.068    0.221    0.786    3.420
  284.666  104.764    0.229    0.795    3.307
  284.916   98.540    0.240    0.793    3.397
  285.166   96.248    0.246    0.787    3.580
  285.416   98.121    0.253    0.767    3.813
  285.666  102.223    0.243    0.743    3.829
  285.916  103.039    0.233    0.750    3.835
  286.166  100.552    0.235    0.761    3.858
  286.416   98.725    0.239    0.775    3.759
  286.666   99.436    0.227    0.779    3.690
  286.916   99.977    0.242    0.787    3.730
  287.166   99.276    0.220    0.789    3.829
  287.416   96.348    0.230    0.781    3.895
  287.666   97.857    0.239    0.783    3.895
  287.916   95.844    0.243    0.757    3.891
  288.166   91.308    0.230    0.757    3.706
  288.416   90.664    0.253    0.759    3.590
  288.666   94.141    0.246    0.761    3.484
  288.916   95.360    0.254    0.772    3.581
  289.166   93.470    0.261    0.771    3.923
  289.416   93.176    0.244    0.778    4.207
  289.666   87.910    0.223    0.779    4.692
  289.916   80.762    0.199    0.736    5.298
  290.166   75.174    0.184    0.676    6.049
  290.416   72.296    0.166    0.688    6.827
  290.666   77.239    0.203    0.714    7.440
  290.916   77.003    0.253    0.672    6.830
  291.166   75.895    0.278    0.660    5.913
  291.416   76.456    0.282    0.672    5.373
  291.666   80.091    0.292    0.689    4.897
  291.916   82.745    0.279    0.698    4.801
  292.166   85.335    0.268    0.698    4.966
  292.416   85.827    0.281    0.697    5.374
  292.666   85.996    0.265    0.703    5.674
  292.916   86.372    0.263    0.710    5.837
  293.166   86.732    0.273    0.711    6.023
  293.416   87.781    0.279    0.705    6.036
  293.666   88.126    0.266    0.682    6.269
  293.916   88.404    0.251    0.651    6.594
  294.166   87.945    0.246    0.602    7.058
  294.416   85.903    0.256    0.566    7.645
  294.666   81.834    0.269    0.552    7.974
  294.916   76.154    0.274    0.558    8.307
  295.166   75.209    0.283    0.589    8.838
  295.416   75.405    0.273    0.641    9.386
  295.666   73.301    0.283    0.620    9.972
  295.916   68.452    0.266    0.570   10.459
  296.166   65.214    0.277    0.554   10.729
  296.416   61.980    0.244    0.566   10.513
  296.666   62.296    0.227    0.565   10.015
  296.916   63.591    0.266    0.574    9.516
  297.166   67.814    0.285    0.585    9.254
  297.416   72.975    0.286    0.602    9.053
  297.666   73.529    0.260    0.617    9.064
  297.916   75.590    0.244    0.618    9.061
  298.166   77.292    0.231    0.613    9.011
  298.416   78.940    0.229    0.615    8.542
  298.666   80.853    0.244    0.618    7.949
  298.916   83.755    0.241    0.613    7.060
  299.166   86.034    0.256    0.619    6.135
  299.416   86.932    0.248    0.647    5.290
  299.666   88.622    0.238    0.656    4.847
  299.916   90.149    0.256    0.772    4.427
  300.166   90.795    0.261    0.784    4.207
  300.416   90.568    0.279    0.782    4.092
  300.666   86.237    0.268    0.748    4.536
  300.916   83.703    0.269    0.701    5.201
  301.166   74.208    0.282    0.686    6.379
  301.416   66.962    0.275    0.669    7.783
  301.666   60.147    0.299    0.660    9.351
  301.916   59.556    0.337    0.630   10.741
  302.166   68.555    0.372    0.624   12.715
  302.416   73.642    0.372    0.618   14.550
  302.666   73.731    0.328    0.649   16.308
  302.916   71.989    0.335    0.656   17.711
  303.166   71.475    0.324    0.648   18.414
  303.416   69.486    0.337    0.629   18.880
  303.666   67.139    0.335    0.609   19.851
  303.916   65.688    0.328    0.589   20.417
  304.166   64.635    0.321    0.589   21.038
  304.416   63.136    0.309    0.620   21.669
  304.666   60.776    0.295    0.650   22.307
  304.916   58.966    0.280    0.681   22.620
  305.166   63.968    0.215    0.639   22.717
  305.416   70.637    0.263    0.619   22.266
  305.666   73.279    0.301    0.648   20.875
  305.916   73.597    0.326    0.671   20.606
  306.166   72.331    0.323    0.667   20.330
  306.416   71.563    0.337    0.654   19.917
  306.666   71.005    0.325    0.614   19.947
  306.916   69.915    0.311    0.603   19.948
  307.166   68.926    0.316    0.611   19.936
  307.416   67.983    0.321    0.626   19.900
  307.666   67.541    0.303    0.624   19.556
  307.916   66.715    0.317    0.629   19.423
  308.166   66.738    0.314    0.638   19.228
  308.416   67.557    0.298    0.640   18.950
  308.666   69.564    0.299    0.618   18.874
  308.916   71.545    0.305    0.617   18.862
  309.166   72.518    0.298    0.628   18.858
  309.416   73.507    0.312    0.639   18.837
  309.666   74.471    0.308    0.627   19.188
  309.916   75.128    0.298    0.610   19.206
  310.166   75.950    0.290    0.594   19.250
  310.416   77.426    0.303    0.582   18.081
  310.666   80.020    0.303    0.571   15.027
  310.916   85.906    0.298    0.602   11.053
  311.166   93.428    0.308    0.643    8.716
  311.416  100.135    0.275    0.668    7.025
  311.666  106.704    0.247    0.738    6.106
  311.916  115.060    0.217    0.761    5.519
  312.166  116.815    0.192    0.710    5.492
  312.416  111.973    0.141    0.683    5.998
  312.666  110.064    0.119    0.676    6.943
  312.916  117.721    0.144    0.663    7.752
  313.166  117.215    0.225    0.623    8.926
  313.416  113.331    0.224    0.634   10.002
  313.666  110.396    0.237    0.640   10.945
  313.916  109.904    0.249    0.608   11.803
  314.166  108.733    0.232    0.589   12.535
  314.416  101.074    0.245    0.576   13.318
  314.666   95.948    0.259    0.570   13.789
  314.916   92.586    0.271    0.577   13.192
  315.166   91.780    0.281    0.600   11.867
  315.416   97.375    0.277    0.605   10.975
  315.666  104.839    0.268    0.627   10.104
  315.916  112.647    0.253    0.628    9.705
  316.166  112.051    0.242    0.651    9.416
  316.416  111.725    0.236    0.657    9.137
  316.666  113.258    0.226    0.666    8.859
  316.916  113.439    0.222    0.669    8.998
  317.166  108.025    0.226    0.664    9.381
  317.416   98.583    0.238    0.652   10.468
  317.666   87.225    0.255    0.634   11.571
  317.916   78.661    0.276    0.623   12.808
  318.166   69.545    0.259    0.620   13.843
  318.416   62.754    0.245    0.618   15.121
  318.666   59.561    0.289    0.616   15.913
  318.916   61.139    0.318    0.610   16.396
  319.166   66.461    0.330    0.604   15.813
  319.416   71.924    0.327    0.595   14.608
  319.666   76.994    0.313    0.580   13.336
  319.916   80.658    0.296    0.559   12.182
  320.166   85.629    0.280    0.544   11.108
  320.416   90.582    0.263    0.537   10.369
  320.666   94.753    0.251    0.549    9.459
  320.916   98.245    0.231    0.559    8.944
  321.166   99.976    0.218    0.592    8.049
  321.416   99.866    0.211    0.602    7.609
  321.666  101.291    0.226    0.638    7.163
  321.916  102.586    0.232    0.657    6.741
  322.166  104.019    0.219    0.676    6.346
  322.416  104.650    0.218    0.696    6.372
  322.666  104.370    0.228    0.701    7.381
  322.916  100.800    0.235    0.695    8.711
  323.166   93.449    0.247    0.684   10.126
  323.416   84.439    0.268    0.664   11.766
  323.666   78.824    0.300    0.656   13.054
