~VERSION INFORMATION
 VERS.                 2.0:   CWLS LOG ASCII STANDARD -VERSION 2.0
 WRAP.                  NO:   ONE LINE PER DEPTH STEP
~WELL INFORMATION BLOCK
#MNEM.UNIT           DATA                    DESCRIPTION OF MNEMONIC
#---------    -------------------            -------------------------------
# Generated from Intellog Unique Number	CW_79_81/WELL/2460
WELL.         GULF PELICAN                   : Well_name    - WELL
LOC .         00/07-21-081-21W4/0            : Location     - LOCATION
UWI .         00/07-21-081-21W4/0            : Uwi          - UNIQUE WELL ID
ENTR.         MAX                            : Entered      - ENTERED BY
SRVC.         SCHLUMBERGER                   : Scn          - SERVICE COMPANY
STRT.M        185                            : top_depth    - START DEPTH
STOP.M        429.75                         : bot_depth    - STOP DEPTH
STEP.M        0.25                           : increment    - STEP LENGTH
 NULL. -999.2500:NULL Value
~CURVE INFORMATION BLOCK
#MNEM UNIT       ERCB CURVE CODE    CURVE DESCRIPTION
#-----------   ------------------   ----------------------------------
DEPT.M        00 001 00 00         : DEPTH        - DEPTH
ILD .OHMM     00 120 00 00         : RESD         - DEEP RESISTIVITY (DIL)
NPHI.V/V      00 330 00 00         : PHIN         - NEUTRON POROSITY (SANDSTONE)
DPHI.V/V      00 890 00 00         : PHID         - DENSITY POROSITY (SANDSTONE)
GR  .API      00 310 00 00         : GR           - GAMMA RAY
CALI.MM       00 280 01 00         : CAL          - CALIPER
~PARAMETER INFORMATION
#MNEM.UNIT           DATA             DESCRIPTION OF MNEMONIC
#---------         -----------     ------------------------------
GL  .M        613.45               : gl           - GROUND LEVEL ELEVATION
EREF.M        616.75               : kb           - ELEVATION OF DEPTH REFERENCE
DATM.M        613.45               : datum        - DATUM ELEVATION
TDD .M        432                  : tdd          - TOTAL DEPTH DRILLER
RUN .         ONE                  : Run          - RUN NUMBER
ENG .         BILL                 : Engineer     - RECORDING ENGINEER
WIT .         JIM                  : Witness      - WITNESSED BY
MUD .         GEL                  : Mud_type     - MUD TYPE
MATR.         SANDSTONE            : Logunit      - NEUTRON MATRIX
TMAX.C        19.4                 : BHT          - MAXIMUM RECORDED TEMPERATURE
BHTD.M        432                  : BHTDEP       - MAXIMUM RECORDED TEMPERATURE
MATR.         1                    : LOGUNIT      - NEUTRON MATRIX
RMT .C        17.8                 : MDTP         - TEMPERATURE OF MUD
NEUT.         1                    : NEUTRON      - NEUTRON TYPE
RESI.         0                    : RESIST       - RESISTIVITY TYPE
RMC .OHMM     2.81                 : RMC          - RESISTIVITY OF MUD CAKE
RMF .OHMM     2.05                 : RMF          - RESISTIVITY OF MUD FILTRATE
SUFT.C        -20                  : SUFT         - SURFACE TEMPERATURE
~A  DEPTH     RESD     PHIN     PHID       GR      CAL
# ...
  367.500   10.933    0.484    0.252   87.876  218.681
  367.750   10.935    0.465    0.249   88.203  213.910
  368.000   10.937    0.458    0.232   88.690  209.797
  368.250   11.018    0.452    0.217   90.573  209.391
  368.500   11.040    0.449    0.214   92.635  211.054
  368.750   11.041    0.456    0.209   94.402  213.801
  369.000   11.043    0.467    0.204   95.813  215.466
  369.250   11.061    0.457    0.216   97.175  212.942
  369.500   11.147    0.445    0.223   96.922  214.160
  369.750   11.394    0.447    0.233   95.499  216.121
  370.000   11.585    0.449    0.226   94.606  217.489
  370.250   11.714    0.449    0.221   94.363  219.053
  370.500   11.780    0.447    0.222   94.770  221.011
  370.750   11.781    0.446    0.219   95.510  223.051
  371.000   11.783    0.448    0.220   94.520  223.452
  371.250   11.785    0.451    0.224   93.331  223.833
  371.500   11.722    0.451    0.217   93.561  224.216
  371.750   11.553    0.452    0.205   94.973  224.600
  372.000   11.306    0.459    0.196   97.330  224.885
  372.250   11.064    0.474    0.201  100.101  224.956
  372.500   11.065    0.464    0.200   98.616  225.357
  372.750   10.986    0.455    0.212   95.773  225.345
  373.000   10.848    0.448    0.214   94.527  225.335
  373.250   10.693    0.439    0.208   94.640  225.521
  373.500   10.540    0.431    0.196   95.461  225.806
  373.750   10.389    0.433    0.178   96.023  225.875
  374.000   10.391    0.436    0.165   96.509  226.277
  374.250   10.316    0.444    0.171   95.558  226.265
  374.500   10.355    0.446    0.183   94.429  226.255
  374.750   10.433    0.447    0.197   94.659  226.442
  375.000   10.492    0.448    0.206   95.717  226.826
  375.250   10.493    0.447    0.206   94.754  227.206
  375.500   10.495    0.447    0.205   93.516  227.195
  375.750   10.573    0.445    0.205   93.511  227.185
  376.000   10.594    0.433    0.192   94.213  227.765
  376.250   10.557    0.426    0.178   95.624  228.542
  376.500   10.443    0.428    0.170   97.331  229.122
  376.750   10.140    0.434    0.174   98.506  229.111
  377.000    9.766    0.433    0.180   98.499  229.100
  377.250    9.142    0.427    0.177   98.966  227.120
  377.500    8.561    0.422    0.173   99.787  226.027
  377.750    8.080    0.426    0.171  100.372  226.411
  378.000    7.810    0.432    0.176   99.716  227.877
  378.250    7.985    0.423    0.197   96.105  228.307
  378.500    8.297    0.420    0.203   94.620  224.602
  378.750    8.358    0.421    0.181   96.977  225.775
  379.000    8.283    0.438    0.177   98.980  227.537
  379.250    8.255    0.450    0.177   98.855  228.314
  379.500    8.546    0.453    0.176   96.487  227.812
  379.750   10.095    0.449    0.175   92.275  226.109
  380.000   12.739    0.442    0.185   86.606  221.586
  380.250   15.009    0.417    0.181   84.473  221.969
  380.500   16.927    0.410    0.204   84.998  222.057
  380.750   19.493    0.408    0.220   84.637  221.455
  381.000   23.616    0.402    0.211   82.150  220.656
  381.250   29.749    0.378    0.171   77.268  220.874
  381.500   36.665    0.336    0.156   70.614  220.042
  381.750   38.023    0.366    0.183   72.498  218.456
  382.000   35.897    0.352    0.133   73.319  218.348
  382.250   31.610    0.332    0.113   73.668  219.520
  382.500   26.506    0.328    0.149   74.134  221.184
  382.750   20.676    0.346    0.185   75.850  221.877
  383.000   17.550    0.381    0.199   78.552  221.455
  383.250   16.675    0.403    0.209   81.145  221.052
  383.500   16.561    0.408    0.202   82.852  220.943
  383.750   16.745    0.398    0.184   81.428  220.932
  384.000   16.932    0.383    0.163   77.582  221.020
  384.250   16.670    0.373    0.155   75.566  221.482
  384.500   15.464    0.388    0.183   78.512  221.884
  384.750   14.801    0.433    0.217   80.633  222.266
  385.000   14.725    0.450    0.207   80.627  222.649
  385.250   15.314    0.450    0.188   78.848  222.836
  385.500   16.507    0.440    0.174   75.239  222.433
  385.750   18.062    0.408    0.150   69.028  220.596
  386.000   18.909    0.376    0.120   67.544  219.355
  386.250   19.050    0.338    0.132   73.209  218.558
  386.500   18.157    0.341    0.133   76.394  217.760
  386.750   16.942    0.346    0.128   79.578  217.159
  387.000   15.666    0.349    0.132   84.002  216.952
  387.250   14.137    0.384    0.175   89.618  217.579
  387.500   13.512    0.406    0.192   89.365  218.799
  387.750   13.221    0.415    0.195   87.704  219.577
  388.000   13.008    0.417    0.196   86.752  219.468
  388.250   12.775    0.415    0.199   86.509  218.274
  388.500   12.683    0.407    0.205   86.680  216.688
  388.750   13.389    0.390    0.207   85.887  216.447
  389.000   14.679    0.387    0.185   81.941  217.258
  389.250   18.151    0.368    0.139   75.555  218.427
  389.500   22.089    0.308    0.103   68.635  218.713
  389.750   23.916    0.267    0.077   66.265  218.703
  390.000   22.498    0.266    0.083   69.567  218.692
  390.250   18.863    0.297    0.171   76.246  218.681
  390.500   14.166    0.347    0.211   78.947  218.670
  390.750   12.778    0.390    0.218   82.250  218.659
  391.000   12.067    0.405    0.211   83.957  218.352
  391.250   11.726    0.411    0.208   84.069  219.130
  391.500   11.537    0.416    0.212   83.354  220.893
  391.750   11.273    0.421    0.210   83.396  222.060
  392.000   11.189    0.427    0.199   83.635  222.051
  392.250   11.437    0.423    0.190   83.156  222.039
  392.500   11.754    0.414    0.183   84.096  222.029
  392.750   11.974    0.405    0.183   85.507  221.625
  393.000   12.020    0.399    0.192   86.032  220.924
  393.250   11.934    0.397    0.205   83.799  220.929
  393.500   11.936    0.404    0.208   83.300  222.970
  393.750   11.851    0.416    0.188   86.839  224.930
  394.000   11.766    0.416    0.172   88.783  225.708
  394.250   11.640    0.410    0.159   91.022  225.499
  394.500   11.430    0.406    0.160   94.207  225.587
  394.750   11.002    0.412    0.193   98.383  228.414
  395.000   10.516    0.431    0.179  101.578  228.812
  395.250    9.991    0.443    0.170  105.352  229.196
  395.500    9.923    0.447    0.170  107.710  229.579
  395.750    9.961    0.445    0.177  108.885  229.963
  396.000    9.944    0.439    0.183  108.937  229.954
  396.250    9.844    0.424    0.171  108.487  228.514
  396.500    9.697    0.415    0.153  112.173  227.272
  396.750    9.281    0.408    0.129  116.893  228.443
  397.000    8.885    0.427    0.153  123.032  229.023
  397.250    8.602    0.434    0.178  128.816  228.224
  397.500    8.555    0.422    0.187  132.885  226.836
  397.750    9.046    0.415    0.194  134.738  227.463
  398.000    9.617    0.411    0.166  136.949  228.683
  398.250   10.265    0.403    0.171  138.360  229.461
  398.500   11.133    0.405    0.186  131.619  228.170
  398.750   12.276    0.412    0.193  120.623  227.176
  399.000   13.794    0.417    0.184  108.152  227.166
  399.250   16.823    0.409    0.164   94.477  226.497
  399.500   23.927    0.389    0.151   87.576  223.204
  399.750   26.465    0.312    0.072   85.915  219.254
  400.000   27.486    0.289    0.071   87.623  217.372
  400.250   27.083    0.299    0.089   91.280  217.164
  400.500   25.882    0.328    0.114   94.405  217.844
  400.750   24.718    0.365    0.180   92.959  218.391
  401.000   25.293    0.352    0.152   90.490  219.200
  401.250   24.567    0.339    0.139   89.539  219.977
  401.500   23.337    0.336    0.124   90.715  220.753
  401.750   22.102    0.351    0.148   93.427  221.531
  402.000   20.969    0.377    0.195   95.784  222.211
  402.250   19.610    0.387    0.193   94.496  222.590
  402.500   18.744    0.381    0.192   93.998  222.581
  402.750   18.884    0.395    0.185   93.992  222.571
  403.000   20.068    0.395    0.187   87.251  221.969
  403.250   23.270    0.382    0.219   77.436  220.776
  403.500   29.272    0.364    0.268   68.568  218.895
  403.750   37.016    0.348    0.280   63.194  215.469
