~VERSION INFORMATION
 VERS.                 2.0:   CWLS LOG ASCII STANDARD -VERSION 2.0
 WRAP.                  NO:   ONE LINE PER DEPTH STEP
~WELL INFORMATION BLOCK
#MNEM.UNIT           DATA                    DESCRIPTION OF MNEMONIC
#---------    -------------------            -------------------------------
# Generated from Intellog Unique Number	CS_73_76/WELL/699
WELL.         PEX KIRBY                      : Well_name    - WELL
LOC .         00/06-34-073-08W4/0            : Location     - LOCATION
UWI .         00/06-34-073-08W4/0            : Uwi          - UNIQUE WELL ID
ENTR.         SP                             : Entered      - ENTERED BY
SRVC.         SCHLUMBERGER                   : Scn          - SERVICE COMPANY
STRT.M        325                            : top_depth    - START DEPTH
STOP.M        550                            : bot_depth    - STOP DEPTH
STEP.M        0.25                           : increment    - STEP LENGTH
 NULL. -999.2500:NULL Value
~CURVE INFORMATION BLOCK
#MNEM UNIT       ERCB CURVE CODE    CURVE DESCRIPTION
#-----------   ------------------   ----------------------------------
DEPT.M        00 001 00 00         : DEPTH        - DEPTH
ILD .OHMM     00 120 00 00         : RESD         - DEEP RESISTIVITY (DIL)
DPHI.V/V      00 890 00 00         : PHID         - DENSITY POROSITY (LIMESTONE)
NPHI.V/V      00 330 00 00         : PHIN         - NEUTRON POROSITY (LIMESTONE)
GR  .API      00 310 00 00         : GR           - GAMMA RAY
~PARAMETER INFORMATION
#MNEM.UNIT           DATA             DESCRIPTION OF MNEMONIC
#---------         -----------     ------------------------------
GL  .M        705.44               : gl           - GROUND LEVEL ELEVATION
EREF.M        708.84               : kb           - ELEVATION OF DEPTH REFERENCE
DATM.M        705.44               : datum        - DATUM ELEVATION
TDD .M        555                  : tdd          - TOTAL DEPTH DRILLER
RUN .         ONE                  : Run          - RUN NUMBER
ENG .         BILL                 : Engineer     - RECORDING ENGINEER
WIT .         JIM                  : Witness      - WITNESSED BY
MUD .         GEL                  : Mud_type     - MUD TYPE
MATR.         LIMESTONE            : Logunit      - NEUTRON MATRIX
TMAX.C        20                   : BHT          - MAXIMUM RECORDED TEMPERATURE
BHTD.M        555                  : BHTDEP       - MAXIMUM RECORDED TEMPERATURE
MATR.         1                    : LOGUNIT      - NEUTRON MATRIX
RMT .C        25                   : MDTP         - TEMPERATURE OF MUD
NEUT.         1                    : NEUTRON      - NEUTRON TYPE
RESI.         0                    : RESIST       - RESISTIVITY TYPE
RMC .OHMM     0.25                 : RMC          - RESISTIVITY OF MUD CAKE
RMF .OHMM     0.25                 : RMF          - RESISTIVITY OF MUD FILTRATE
SUFT.C        15                   : SUFT         - SURFACE TEMPERATURE
~A  DEPTH     RESD     PHID     PHIN       GR
# ...
  499.000    8.168    0.178    0.352   79.008
  499.250    8.018    0.191    0.342   78.389
  499.500    8.020    0.202    0.336   79.609
  499.750    8.174    0.201    0.337   77.151
  500.000    8.329    0.195    0.345   75.922
  500.250    8.812    0.190    0.352   74.692
  500.500    9.324    0.184    0.341   77.135
  500.750    9.682    0.174    0.335   81.413
  501.000   10.053    0.168    0.331   83.858
  501.250    9.869    0.173    0.339   86.299
  501.500    9.688    0.178    0.348   86.905
  501.750    9.162    0.171    0.356   85.064
  502.000    9.163    0.163    0.326   85.058
  502.250    9.696    0.168    0.333   88.724
  502.500   10.257    0.154    0.352   86.268
  502.750   11.057    0.154    0.340   81.978
  503.000   12.848    0.169    0.355   75.237
  503.250   13.592    0.205    0.372   70.945
  503.500   15.212    0.231    0.377   66.653
  503.750   16.398    0.259    0.363   62.972
  504.000   17.676    0.253    0.347   62.355
  504.250   18.702    0.251    0.354   63.572
  504.500   19.787    0.246    0.349   65.403
  504.750   20.546    0.238    0.348   61.110
  505.000   24.322    0.248    0.342   59.269
  505.250   29.337    0.273    0.337   56.199
  505.500   34.084    0.276    0.353   54.358
  505.750   38.142    0.286    0.343   52.517
  506.000   43.493    0.296    0.355   52.510
  506.250   47.771    0.287    0.337   52.502
  506.500   51.500    0.289    0.332   51.274
  506.750   51.511    0.303    0.325   49.431
  507.000   46.048    0.304    0.345   51.259
  507.250   38.917    0.297    0.342   53.092
  507.500   32.890    0.280    0.347   54.923
  507.750   27.282    0.274    0.362   54.303
  508.000   24.849    0.261    0.347   54.298
  508.250   24.856    0.258    0.345   54.292
  508.500   25.809    0.269    0.377   51.837
  508.750   27.306    0.272    0.353   51.830
  509.000   29.440    0.274    0.348   52.436
  509.250   30.570    0.283    0.354   51.206
  509.500   31.152    0.285    0.370   49.363
  509.750   32.351    0.285    0.380   51.806
  510.000   32.968    0.288    0.376   49.963
  510.250   32.973    0.284    0.373   48.733
  510.500   32.987    0.271    0.368   51.175
  510.750   32.994    0.260    0.367   53.619
  511.000   32.999    0.265    0.375   55.449
  511.250   33.004    0.286    0.390   52.993
  511.500   32.402    0.277    0.385   52.989
  511.750   31.219    0.285    0.390   54.205
  512.000   30.076    0.289    0.399   55.425
  512.250   28.439    0.283    0.392   56.644
  512.500   24.954    0.279    0.385   55.412
  512.750   24.041    0.267    0.396   57.242
  513.000   22.734    0.285    0.403   57.238
  513.250   21.905    0.276    0.413   54.782
  513.500   21.907    0.268    0.403   55.388
  513.750   21.506    0.259    0.388   54.769
  514.000   20.721    0.245    0.362   55.375
  514.250   19.963    0.248    0.350   55.981
  514.500   18.529    0.246    0.340   57.201
  514.750   17.520    0.255    0.338   57.194
  515.000   16.567    0.250    0.355   58.411
  515.250   15.091    0.237    0.341   61.465
  515.500   14.270    0.200    0.334   63.298
  515.750   13.243    0.176    0.331   65.127
  516.000   12.290    0.194    0.346   65.736
  516.250   11.406    0.200    0.351   63.892
  516.500   10.989    0.208    0.359   60.824
  516.750   10.789    0.215    0.351   60.819
  517.000   10.591    0.186    0.344   64.484
  517.250   10.593    0.175    0.352   66.317
  517.500   10.595    0.180    0.353   67.535
  517.750   10.798    0.189    0.353   70.590
  518.000   12.085    0.176    0.341   76.095
  518.250   12.786    0.147    0.338   81.599
  518.500   14.043    0.146    0.349   85.879
  518.750   15.424    0.164    0.353   79.748
  519.000   18.261    0.221    0.336   73.007
  519.250   19.684    0.244    0.344   67.490
  519.500   20.825    0.213    0.345   63.201
  519.750   24.197    0.230    0.344   59.521
  520.000   28.113    0.244    0.357   58.902
  520.250   32.054    0.241    0.364   57.672
  520.500   39.393    0.266    0.358   53.380
  520.750   41.677    0.292    0.355   48.474
  521.000   42.474    0.310    0.343   45.408
  521.250   33.308    0.304    0.333   46.014
  521.500   25.634    0.301    0.337   48.458
  521.750   18.651    0.309    0.340   44.778
  522.000   14.354    0.311    0.335   46.608
  522.250   10.642    0.314    0.344   54.561
  522.500    9.163    0.278    0.350   61.903
  522.750    7.891    0.227    0.341   79.039
  523.000    7.187    0.175    0.332   88.217
  523.250    6.925    0.150    0.337   93.721
  523.500    6.548    0.151    0.348   90.652
  523.750    6.192    0.161    0.333   82.687
  524.000    5.536    0.196    0.322   73.498
  524.250    5.234    0.224    0.318   71.043
  524.500    4.680    0.204    0.328   71.038
  524.750    4.425    0.216    0.325   63.072
  525.000    4.343    0.254    0.322   55.718
  525.250    4.107    0.288    0.321   47.140
  525.500    3.957    0.316    0.318   42.849
  525.750    3.885    0.305    0.317   40.395
  526.000    3.959    0.306    0.317   45.898
  526.250    4.035    0.300    0.332   54.463
  526.500    4.269    0.269    0.356   64.254
  526.750    4.433    0.231    0.354   74.044
  527.000    4.779    0.174    0.348   74.038
  527.250    4.780    0.204    0.342   66.071
  527.500    4.781    0.231    0.342   60.556
  527.750    4.693    0.286    0.345   53.814
  528.000    4.438    0.280    0.345   53.807
  528.250    4.276    0.275    0.353   56.252
  528.500    4.120    0.288    0.353   44.614
  528.750    3.970    0.297    0.357   38.485
  529.000    3.897    0.298    0.336   36.030
  529.250    3.825    0.302    0.330   36.633
  529.500    3.755    0.311    0.339   37.242
  529.750    3.686    0.310    0.330   37.848
  530.000    3.619    0.307    0.326   37.842
  530.250    3.620    0.304    0.331   38.448
  530.500    3.553    0.310    0.322   39.666
  530.750    3.488    0.314    0.324   37.824
  531.000    3.489    0.304    0.331   42.100
  531.250    3.490    0.298    0.336   43.933
  531.500    3.557    0.298    0.349   48.824
  531.750    3.693    0.302    0.325   53.716
  532.000    4.056    0.267    0.315   60.445
  532.250    4.456    0.155    0.309   67.786
  532.500    4.626    0.166    0.320   75.740
  532.750    4.804    0.199    0.326   73.285
  533.000    4.805    0.237    0.325   65.932
  533.250    4.459    0.258    0.316   54.906
  533.500    4.216    0.290    0.314   46.328
  533.750    3.841    0.309    0.313   45.709
  534.000    3.701    0.295    0.314   46.925
  534.250    3.633    0.280    0.315   49.980
  534.500    3.566    0.286    0.330   54.873
  534.750    3.567    0.275    0.339   57.318
  535.000    3.635    0.274    0.343   57.924
  535.250    3.569    0.284    0.336   60.366
  535.500    3.570    0.250    0.338   62.810
  535.750    3.504    0.238    0.338   66.476
  536.000    3.376    0.238    0.335   64.022
  536.250    3.253    0.273    0.336   53.608
  536.500    3.076    0.313    0.326   53.600
  536.750    2.964    0.319    0.321   55.432
  537.000    2.855    0.327    0.325   51.139
  537.250    2.803    0.321    0.325   51.134
  537.500    2.752    0.309    0.324   45.617
  537.750    2.752    0.292    0.330   47.448
  538.000    2.702    0.292    0.330   50.503
  538.250    2.652    0.306    0.326   51.109
  538.500    2.653    0.312    0.331   52.325
  538.750    2.653    0.310    0.335   52.320
  539.000    2.704    0.306    0.336   50.479
  539.250    2.756    0.297    0.337   49.860
  539.500    2.808    0.292    0.334   51.079
  539.750    2.862    0.301    0.324   55.358
  540.000    2.917    0.307    0.317   57.802
  540.250    3.087    0.312    0.302   57.795
  540.500    3.087    0.302    0.292   57.790
  540.750    3.088    0.290    0.287   52.273
  541.000    3.031    0.289    0.291   49.205
  541.250    2.976    0.272    0.308   49.811
  541.500    2.867    0.243    0.322   49.191
  541.750    2.814    0.245    0.325   47.349
  542.000    2.763    0.271    0.318   44.895
  542.250    2.713    0.289    0.297   41.828
