~VERSION INFORMATION
 VERS.                 2.0:   CWLS LOG ASCII STANDARD -VERSION 2.0
 WRAP.                  NO:   ONE LINE PER DEPTH STEP
~WELL INFORMATION BLOCK
#MNEM.UNIT           DATA                    DESCRIPTION OF MNEMONIC
#---------    -------------------            -------------------------------
# Generated from Intellog Unique Number	CW_70_72/WELL/591
NULL.         -999.25                        : NULL_VALUE
WELL.         SUNDANCE CANAL 06-07           : Well_name    - WELL              
LOC .         06-07-071-22W4                 : Location     - LOCATION          
UWI .         00/06-07-071-22W4/0            : Uwi          - UNIQUE WELL ID    
ENTR.         JAYE                           : Entered      - ENTERED BY        
SRVC.         SCHLUMBERGER                   : Scn          - SERVICE COMPANY   
DATE.         2 MAR 77                       : Date         - LOG DATE          
STRT.M        429.768                        : top_depth    - START DEPTH       
STOP.M        627.768                        : bot_depth    - STOP DEPTH        
STEP.M        0.25                           : increment    - STEP LENGTH       
~CURVE INFORMATION BLOCK
#MNEM UNIT       ERCB CURVE CODE    CURVE DESCRIPTION
#-----------   ------------------   ----------------------------------
DEPT.M        00 001 00 00         : DEPTH        - DEPTH                       
DPHI.V/V      00 890 00 00         : PHID         - DENSITY POROSITY (SANDSTONE)
NPHI.V/V      00 330 00 00         : PHIN         - NEUTRON POROSITY (SANDSTONE)
GR  .API      00 310 00 00         : GR           - GAMMA RAY                   
CALI.MM       00 280 01 00         : CAL          - CALIPER                     
ILD .OHMM     00 120 00 00         : RESD         - DEEP RESISTIVITY (DIL)      
~PARAMETER INFORMATION       
#MNEM.UNIT           DATA             DESCRIPTION OF MNEMONIC
#---------         -----------     ------------------------------
GL  .M        669.188              : gl           - GROUND LEVEL ELEVATION      
EREF.M        672.998              : kb           - ELEVATION OF DEPTH REFERENCE
DATM.M        669.188              : datum        - DATUM ELEVATION             
TDD .M        632.46               : tdd          - TOTAL DEPTH DRILLER         
RUN .         ONE                  : Run          - RUN NUMBER                  
ENG .         ACKERMAN/MCKAY       : Engineer     - RECORDING ENGINEER          
WIT .         CHRISTENSEN          : Witness      - WITNESSED BY                
BASE.         EDM                  : Branch       - HOME BASE OF LOGGING UNIT   
MUD .         GEL                  : Mud_type     - MUD TYPE                    
MATR.         SANDSTONE            : Logunit      - NEUTRON MATRIX              
TMAX.C        27.2222              : BHT          - MAXIMUM RECORDED TEMPERATURE
BHTD.M        632.46               : BHTDEP       - MAXIMUM RECORDED TEMPERATURE
RMT .C        8.88889              : MDTP         - TEMPERATURE OF MUD          
MUDD.KG/M     1104                 : MWT          - MUD DENSITY                 
NEUT.         1                    : NEUTRON      - NEUTRON TYPE                
RESI.         0                    : RESIST       - RESISTIVITY TYPE            
RM  .OHMM     4.85                 : RM           - RESISTIVITY OF MUD          
RMC .OHMM     0                    : RMC          - RESISTIVITY OF MUD CAKE     
RMF .OHMM     0                    : RMF          - RESISTIVITY OF MUD FILTRATE 
SUFT.C        -17.7778             : SUFT         - SURFACE TEMPERATURE         
~A  DEPTH     PHID     PHIN       GR      CAL     RESD
# ...
  539.268    0.149    0.412  105.624  160.971    5.936
  539.518    0.128    0.407  104.558  159.883    5.886
  539.768    0.110    0.405  101.738  159.517    5.807
  540.018    0.125    0.400   98.551  159.773    5.749
  540.268    0.128    0.404   98.697  160.015    5.721
  540.518    0.145    0.428  101.207  159.955    5.727
  540.768    0.154    0.429  103.289  159.478    5.805
  541.018    0.140    0.421  104.041  158.704    5.863
  541.268    0.149    0.412  107.516  158.024    5.838
  541.518    0.158    0.403  109.054  157.451    5.789
  541.768    0.150    0.404  109.079  156.570    5.741
  542.018    0.159    0.409  110.196  157.230    5.695
  542.268    0.151    0.418  111.732  159.936    5.617
  542.518    0.130    0.423  114.123  160.694    5.520
  542.768    0.133    0.416  116.081  158.069    5.496
  543.018    0.146    0.412  115.622  157.090    5.521
  543.268    0.158    0.417  112.800  158.568    5.535
  543.518    0.164    0.434  111.011  160.045    5.611
  543.768    0.155    0.439  111.457  161.525    5.761
  544.018    0.167    0.435  114.450  162.387    6.124
  544.268    0.168    0.444  115.201  162.732    6.497
  544.518    0.147    0.443  114.136  163.082    7.008
  544.768    0.110    0.433  113.071  163.430    7.409
  545.018    0.116    0.430  110.310  163.882    7.692
  545.268    0.140    0.425  106.217  163.922    7.558
  545.518    0.157    0.405  100.066  162.532    7.071
  545.768    0.151    0.376   95.186  157.654    6.299
  546.018    0.129    0.360   90.668  156.050    5.538
  546.268    0.145    0.379   91.604  157.018    4.897
  546.518    0.140    0.407   90.537  157.467    4.919
  546.768    0.101    0.368   88.018  157.106    4.951
  547.018    0.093    0.345   92.160  156.630    4.973
  547.268    0.134    0.361  101.451  156.166    4.960
  547.518    0.166    0.408  110.317  156.202    4.973
  547.768    0.192    0.422  112.279  156.248    4.986
  548.018    0.184    0.417  105.461  156.293    5.000
  548.268    0.141    0.427  103.789  156.331    5.023
  548.518    0.164    0.433  106.724  156.268    5.009
  548.768    0.163    0.416  111.592  155.697    5.059
  549.018    0.190    0.406  115.672  155.123    5.092
  549.268    0.172    0.429  109.764  155.369    5.161
  549.518    0.155    0.439  108.817  157.868    5.251
  549.768    0.173    0.435  109.816  161.400    5.265
  550.018    0.149    0.417  109.477  156.005    5.270
  550.268    0.154    0.417  108.956  154.100    5.208
  550.518    0.159    0.427  108.072  154.247    5.035
  550.768    0.146    0.426  106.824  154.089    4.859
  551.018    0.119    0.431  101.821  153.916    4.810
  551.268    0.110    0.408  102.819  153.857    4.805
  551.518    0.118    0.406  108.776  153.901    4.776
  551.768    0.137    0.414  115.098  153.947    4.736
  552.018    0.176    0.403  119.481  154.196    4.697
  552.268    0.170    0.403  120.052  154.540    4.762
  552.518    0.181    0.407  119.227  155.709    4.853
  552.768    0.172    0.414  118.225  158.008    5.084
  553.018    0.168    0.424  116.252  160.409    5.515
  553.268    0.171    0.434  112.642  162.295    6.002
  553.518    0.176    0.415  105.218  163.055    6.641
  553.768    0.167    0.405  107.062  162.480    7.215
  554.018    0.159    0.401  110.596  159.242    7.248
  554.268    0.149    0.417  106.079  155.285    6.768
  554.518    0.169    0.427   98.112  153.173    5.812
  554.768    0.161    0.408   90.083  153.111    5.713
  555.018    0.123    0.418   89.198  153.769    6.750
  555.268    0.146    0.438   94.734  154.426    7.523
  555.518    0.162    0.452   97.182  154.784    8.697
  555.768    0.180    0.462   99.266  155.127    9.980
  556.018    0.187    0.425  101.651  155.484   12.007
  556.268    0.168    0.379  100.282  155.417   16.178
  556.518    0.143    0.334   89.351  155.251   18.430
  556.768    0.044    0.280   69.753  155.086   15.741
  557.018    0.025    0.245   67.721  155.138   10.006
  557.268    0.019    0.240   70.227  155.279    8.047
  557.518    0.045    0.256   75.276  155.628    7.101
  557.768    0.068    0.257   80.875  156.282    6.325
  558.018    0.078    0.285   85.501  157.250    5.896
  558.268    0.100    0.319   90.309  156.775    5.795
  558.518    0.138    0.341   95.238  154.563    5.769
  558.768    0.167    0.363  100.289  151.013    5.679
  559.018    0.165    0.374   98.921  149.519    5.551
  559.268    0.134    0.379   98.945  153.258    5.358
  559.518    0.139    0.379  101.334  156.882    5.293
  559.768    0.150    0.367  105.292  159.487    5.308
  560.018    0.164    0.367  111.615  162.301    5.371
  560.268    0.151    0.386  117.213  163.064    5.465
  560.518    0.135    0.411  121.354  163.306    5.560
  560.768    0.148    0.435  124.225  162.629    5.637
  561.018    0.172    0.426  120.011  161.032    5.735
  561.268    0.184    0.396  116.038  158.511    5.997
  561.518    0.205    0.383  113.159  155.683    6.169
  561.768    0.183    0.395  111.304  153.983    5.996
  562.018    0.171    0.403  108.907  152.486    5.589
  562.268    0.138    0.403  105.964  150.990    5.230
  562.518    0.124    0.407  108.170  149.694    4.938
  562.768    0.115    0.421  110.557  150.761    4.739
  563.018    0.114    0.437  114.034  153.778    4.442
  563.268    0.136    0.458  118.115  159.569    4.217
  563.518    0.153    0.486  122.928  162.475    4.251
  563.768    0.184    0.486  125.430  163.852    4.445
  564.018    0.172    0.473  129.816  162.764    4.657
  564.268    0.141    0.449  129.964  160.450    4.826
  564.518    0.129    0.463  129.864  159.363    5.000
  564.768    0.177    0.491  131.466  162.894    5.277
  565.018    0.168    0.504  129.126  164.674    5.507
  565.268    0.156    0.468  126.124  162.461    5.737
  565.518    0.140    0.421  121.061  160.459    5.795
  565.768    0.120    0.407  112.972  159.781    5.833
  566.018    0.101    0.411  103.733  159.113    5.817
  566.268    0.089    0.397  108.482  159.046    5.737
  566.518    0.094    0.391  113.290  158.980    5.547
  566.768    0.139    0.384  115.675  158.617    5.532
  567.018    0.149    0.384  118.487  159.072    5.597
  567.268    0.130    0.392  122.206  159.622    5.779
  567.518    0.122    0.405  119.872  159.664    6.065
  567.768    0.160    0.410  116.081  158.986    6.517
  568.018    0.144    0.405  114.347  154.414    6.927
  568.268    0.141    0.403  112.190  149.952    7.165
  568.518    0.130    0.399  105.312  149.989    7.067
  568.768    0.093    0.376   99.463  152.601    6.587
  569.018    0.076    0.312   90.223  154.787    6.097
  569.268    0.068    0.315   86.918  157.289    5.872
  569.518    0.050    0.330  108.318  159.689    5.617
  569.768    0.078    0.366  112.704  161.575    5.499
  570.018    0.117    0.400  114.908  162.337    5.406
  570.268    0.149    0.412  117.234  162.279    5.360
  570.518    0.140    0.422  118.226  162.012    5.395
  570.768    0.134    0.427  115.104  162.371    5.469
  571.018    0.121    0.427  112.222  162.923    5.534
  571.268    0.096    0.424  117.756  163.265    5.610
  571.518    0.089    0.418  119.239  163.717    5.646
  571.768    0.130    0.408  119.442  163.554    5.619
  572.018    0.137    0.409  120.859  162.984    5.676
  572.268    0.141    0.423  121.065  162.517    5.818
  572.518    0.148    0.429  117.577  160.296    5.973
  572.768    0.155    0.420  111.971  156.236    6.100
  573.018    0.150    0.393  105.578  154.852    6.072
  573.268    0.137    0.368  105.120  155.191    5.807
  573.518    0.125    0.390  107.687  156.475    5.654
  573.768    0.106    0.404  105.408  156.711    5.628
  574.018    0.091    0.384  107.800  156.649    5.655
  574.268    0.077    0.384  110.847  156.084    5.701
  574.518    0.150    0.392  114.325  155.810    5.748
  574.768    0.146    0.396  116.773  154.935    5.795
  575.018    0.143    0.395  116.796  154.256    5.821
  575.268    0.139    0.405  115.005  154.810    5.859
  575.518    0.143    0.400  113.337  157.216    5.917
