~VERSION INFORMATION
 VERS.                 2.0:   CWLS LOG ASCII STANDARD -VERSION 2.0
 WRAP.                  NO:   ONE LINE PER DEPTH STEP
~WELL INFORMATION BLOCK
#MNEM.UNIT           DATA                    DESCRIPTION OF MNEMONIC
#---------    -------------------            -------------------------------
# Generated from Intellog Unique Number	CW_70_72/WELL/620
NULL.         -999.25                        : NULL_VALUE
WELL.         SUNDANCE ET AL CALLS 06-11     : Well_name    - WELL              
LOC .         06-11-071-22W4                 : Location     - LOCATION          
UWI .         00/06-11-071-22W4/0            : Uwi          - UNIQUE WELL ID    
ENTR.         JAYE                           : Entered      - ENTERED BY        
SRVC.         SCHLUMBERGER                   : Scn          - SERVICE COMPANY   
DATE.         4 FEB 71                       : Date         - LOG DATE          
STRT.M        402.336                        : top_depth    - START DEPTH       
STOP.M        647.336                        : bot_depth    - STOP DEPTH        
STEP.M        0.25                           : increment    - STEP LENGTH       
~CURVE INFORMATION BLOCK
#MNEM UNIT       ERCB CURVE CODE    CURVE DESCRIPTION
#-----------   ------------------   ----------------------------------
DEPT.M        00 001 00 00         : DEPTH        - DEPTH                       
DPHI.V/V      00 890 00 00         : PHID         - DENSITY POROSITY (SANDSTONE)
NPHI.V/V      00 330 00 00         : PHIN         - NEUTRON POROSITY (SANDSTONE)
GR  .API      00 310 00 00         : GR           - GAMMA RAY                   
CALI.IN       00 280 01 00         : CAL          - CALIPER                     
ILD .OHMM     00 120 00 00         : RESD         - DEEP RESISTIVITY (DIL)      
~PARAMETER INFORMATION       
#MNEM.UNIT           DATA             DESCRIPTION OF MNEMONIC
#---------         -----------     ------------------------------
GL  .F        2232.5               : gl           - GROUND LEVEL ELEVATION      
EREF.F        2245                 : kb           - ELEVATION OF DEPTH REFERENCE
DATM.F        2232.5               : datum        - DATUM ELEVATION             
TDD .F        2156                 : tdd          - TOTAL DEPTH DRILLER         
RUN .         ONE                  : Run          - RUN NUMBER                  
ENG .         LANGTON/WILLIAMS     : Engineer     - RECORDING ENGINEER          
WIT .         GREENE               : Witness      - WITNESSED BY                
BASE.         EDM                  : Branch       - HOME BASE OF LOGGING UNIT   
MATR.         SANDSTONE            : Logunit      - NEUTRON MATRIX              
TMAX.C        24.4444              : BHT          - MAXIMUM RECORDED TEMPERATURE
BHTD.M        649.224              : BHTDEP       - MAXIMUM RECORDED TEMPERATURE
RMT .C        -17.7778             : MDTP         - TEMPERATURE OF MUD          
MUDD.KG/M     960                  : MWT          - MUD DENSITY                 
NEUT.         1                    : NEUTRON      - NEUTRON TYPE                
RESI.         0                    : RESIST       - RESISTIVITY TYPE            
RM  .OHMM     0                    : RM           - RESISTIVITY OF MUD          
RMC .OHMM     0                    : RMC          - RESISTIVITY OF MUD CAKE     
RMF .OHMM     0                    : RMF          - RESISTIVITY OF MUD FILTRATE 
SUFT.C        0                    : SUFT         - SURFACE TEMPERATURE         
~A  DEPTH     PHID     PHIN       GR      CAL     RESD
# ...
  621.336    0.202    0.433  108.564    6.631    4.323
  621.586    0.223    0.417  112.719    6.904    4.486
  621.836    0.242    0.389  113.104    6.869    4.687
  622.086    0.255    0.377  115.133    6.935    5.091
  622.336    0.271    0.401  115.764    7.164    5.490
  622.586    0.256    0.422  115.908    7.230    5.810
  622.836    0.246    0.442  116.657    7.260    5.552
  623.086    0.231    0.427  118.018    7.261    4.950
  623.336    0.215    0.412  119.193    7.125    4.645
  623.586    0.183    0.400  120.187    6.879    4.562
  623.836    0.199    0.405  121.061    6.888    4.538
  624.086    0.221    0.424  121.082    6.975    4.491
  624.336    0.234    0.440  118.609    7.151    4.450
  624.586    0.218    0.429  115.045    6.921    4.307
  624.836    0.121    0.416  114.883    6.886    4.124
  625.086    0.109    0.411  114.844    6.969    4.094
  625.336    0.125    0.403  113.344    7.015    4.111
  625.586    0.135    0.382  111.299    6.943    4.150
  625.836    0.033    0.370  108.098    6.782    4.251
  626.086    0.022    0.362  105.444    6.671    4.362
  626.336    0.044    0.355  103.397    6.550    4.535
  626.586    0.081    0.346   99.770    6.527    4.679
  626.836    0.127    0.351   97.117    6.646    4.845
  627.086    0.170    0.365   96.408    6.721    5.111
  627.336    0.295    0.506   77.198    6.607    4.909
  627.586    0.442    0.543   66.839    6.574    5.124
  627.836    0.560    0.607   65.176    6.385    5.912
  628.086    0.543    0.661   76.578    6.197    6.578
  628.336    0.498    0.618   96.686    6.242    7.384
  628.586    0.471    0.597   98.801    6.364    8.068
  628.836    0.445    0.579   79.735    6.446    9.140
  629.086    0.495    0.561   63.559    6.393    9.540
  629.336    0.560    0.583   47.111    6.245    9.864
  629.586    0.599    0.635   49.507    6.211   10.679
  629.836    0.601    0.673   56.551    6.255   11.988
  630.086    0.598    0.608   76.369    6.146   13.222
  630.336    0.278    0.571   93.578    6.131   14.979
  630.586    0.246    0.470  108.169    6.214   14.801
  630.836    0.283    0.486  126.837    6.433   11.314
  631.086    0.356    0.551  122.845    6.535   10.488
  631.336    0.388    0.573  113.355    6.560    9.719
  631.586    0.416    0.586  106.764    6.139    9.168
  631.836    0.434    0.600  101.333    5.565    8.732
  632.086    0.380    0.591   97.061    5.512    8.625
  632.336    0.361    0.552   93.959    5.769    8.760
  632.586    0.307    0.525   92.306    6.354    9.744
  632.836    0.278    0.448   88.024    6.477   10.650
  633.086    0.252    0.419   78.525    6.463   12.175
  633.336    0.208    0.368   71.644    6.450   13.420
  633.586    0.188    0.335   74.919    6.435   12.902
  633.836    0.166    0.347   82.552    6.421   11.418
  634.086    0.141    0.343   85.837    6.446   10.393
  634.336    0.117    0.327   89.112    6.529    9.114
  634.586    0.112    0.306   91.797    6.573    8.214
  634.836    0.112    0.308   96.242    6.599    8.264
  635.086    0.120    0.321  100.087    6.623    8.950
  635.336    0.126    0.329   98.134    6.629    9.514
  635.586    0.132    0.326   83.417    6.635   10.203
  635.836    0.139    0.283   66.670    6.640   10.646
  636.086    0.152    0.254   62.987    6.645   10.714
  636.336    0.161    0.238   63.064    6.631   10.104
  636.586    0.157    0.244   58.502    6.599    9.452
  636.836    0.161    0.247   55.409    6.585    8.923
  637.086    0.166    0.250   53.157    6.591    8.498
  637.336    0.172    0.254   49.475    6.615    8.240
  637.586    0.176    0.255   47.522    6.621    8.140
  637.836    0.178    0.257   49.918    6.607    8.043
  638.086    0.171    0.261   56.111    6.613    7.943
  638.336    0.142    0.264   64.305    6.638    7.851
  638.586    0.133    0.270   69.338    6.644    7.682
  638.836    0.136    0.270   69.995    6.648    7.802
  639.086    0.141    0.265   72.971    6.655    7.991
  639.336    0.149    0.262   76.535    6.678    8.116
  639.586    0.160    0.268   80.680    6.703    8.167
  639.836    0.173    0.282   85.994    6.709    8.211
  640.086    0.192    0.325   91.298    6.850    8.194
  640.336    0.259    0.350   94.873    7.126    7.873
  640.586    0.431    0.447   96.109    7.344    7.429
  640.836    0.435    0.487   96.785    7.427    7.011
  641.086    0.418    0.437   97.441    7.278    6.741
  641.336    0.361    0.403   97.808    7.012    6.782
  641.586    0.294    0.352   98.764    6.747    6.946
  641.836    0.247    0.308   97.971    6.657    7.117
  642.086    0.201    0.305   95.747    6.643    7.294
  642.336    0.161    0.312   92.915    6.609    7.681
  642.586    0.133    0.325   88.653    6.519    7.872
  642.836    0.155    0.274   85.550    6.427    7.922
  643.086    0.217    0.223   83.878    6.278    7.208
  643.336    0.240    0.044   82.225    6.147    5.613
  643.586    0.247   -0.001   80.862    6.037    4.705
  643.836    0.240   -0.001   79.788    5.907    3.799
  644.086    0.226   -0.001   78.406    5.719    3.788
  644.336    0.209   -0.001   77.323    5.609    3.575
  644.586    0.204   -0.001   76.259    5.615    3.595
  644.836    0.198   -0.001   75.176    5.601    3.720
  645.086    0.189   -0.002   74.963    5.606    3.810
  645.336    0.183   -0.002   74.769    5.611    3.938
  645.586    0.241   -0.002   74.846    5.637    4.151
  645.836    0.334   -0.002   75.502    5.623    4.703
  646.086    0.357   -0.002   76.748    5.628    5.089
  646.336    0.370   -0.002   77.414    5.672    5.563
  646.586    0.347   -0.002   78.070    5.756    6.538
  646.836    0.235   -0.003   79.316    5.858    7.275
  647.086    0.182   -0.003   80.562    5.960    7.728
  647.336    0.115   -0.003   82.107    6.043    7.849
