~VERSION INFORMATION
 VERS.                 2.0:   CWLS LOG ASCII STANDARD -VERSION 2.0
 WRAP.                  NO:   ONE LINE PER DEPTH STEP
~WELL INFORMATION BLOCK
#MNEM.UNIT           DATA                    DESCRIPTION OF MNEMONIC
#---------    -------------------            -------------------------------
# Generated from Intellog Unique Number	CS_67_68/WELL/2171
WELL.         06-17-067-06W4                 : Well_name    - WELL
LOC .         00/06-17-067-06W4/0            : Location     - LOCATION
UWI .         00/06-17-067-06W4/0            : Uwi          - UNIQUE WELL ID
ENTR.         SP                             : Entered      - ENTERED BY
SRVC.         SCHLUMBERGER                   : Scn          - SERVICE COMPANY
STRT.M        330                            : top_depth    - START DEPTH
STOP.M        535                            : bot_depth    - STOP DEPTH
STEP.M        0.25                           : increment    - STEP LENGTH
 NULL. -999.2500:NULL Value
~CURVE INFORMATION BLOCK
#MNEM UNIT       ERCB CURVE CODE    CURVE DESCRIPTION
#-----------   ------------------   ----------------------------------
DEPT.M        00 001 00 00         : DEPTH        - DEPTH
ILD .OHMM     00 120 00 00         : RESD         - DEEP RESISTIVITY (DIL)
DPHI.V/V      00 890 00 00         : PHID         - DENSITY POROSITY (LIMESTONE)
NPHI.V/V      00 330 00 00         : PHIN         - NEUTRON POROSITY (LIMESTONE)
GR  .API      00 310 00 00         : GR           - GAMMA RAY
CALI.MM       00 280 01 00         : CAL          - CALIPER
~PARAMETER INFORMATION
#MNEM.UNIT           DATA             DESCRIPTION OF MNEMONIC
#---------         -----------     ------------------------------
GL  .M        653.87               : gl           - GROUND LEVEL ELEVATION
EREF.M        656.96               : kb           - ELEVATION OF DEPTH REFERENCE
DATM.M        656.96               : datum        - DATUM ELEVATION
TDD .M        545                  : tdd          - TOTAL DEPTH DRILLER
RUN .         ONE                  : Run          - RUN NUMBER
ENG .         BILL                 : Engineer     - RECORDING ENGINEER
WIT .         JIM                  : Witness      - WITNESSED BY
MUD .         GEL                  : Mud_type     - MUD TYPE
MATR.         LIMESTONE            : Logunit      - NEUTRON MATRIX
TMAX.C        21                   : BHT          - MAXIMUM RECORDED TEMPERATURE
BHTD.M        545.5                : BHTDEP       - MAXIMUM RECORDED TEMPERATURE
MATR.         1                    : LOGUNIT      - NEUTRON MATRIX
RMT .C        25                   : MDTP         - TEMPERATURE OF MUD
NEUT.         1                    : NEUTRON      - NEUTRON TYPE
RESI.         0                    : RESIST       - RESISTIVITY TYPE
RMC .OHMM     0.25                 : RMC          - RESISTIVITY OF MUD CAKE
RMF .OHMM     0.25                 : RMF          - RESISTIVITY OF MUD FILTRATE
SUFT.C        15                   : SUFT         - SURFACE TEMPERATURE
~A  DEPTH     RESD     PHID     PHIN       GR      CAL
# ...
  512.500    3.976    0.228    0.380  104.316  157.955
  512.750    4.199    0.218    0.375  114.270  157.785
  513.000    4.528    0.206    0.374  118.677  157.709
  513.250    4.993    0.188    0.381  116.074  157.737
  513.500    5.517    0.160    0.373   89.819  157.969
  513.750    6.850    0.091    0.261   62.590  158.508
  514.000    8.914    0.000    0.245   48.953  158.842
  514.250    9.980    0.054    0.266   40.133  159.177
  514.500   10.721    0.198    0.298   76.968  160.628
  514.750   10.384    0.228    0.306  110.085  162.078
  515.000    7.996    0.163    0.291  125.768  162.515
  515.250    6.478    0.151    0.327  128.893  161.227
  515.500    5.470    0.159    0.347  124.949  159.834
  515.750    5.229    0.182    0.363   96.684  158.946
  516.000    5.084    0.211    0.376   75.855  158.265
  516.250    4.943    0.252    0.356   62.279  158.091
  516.500    4.717    0.287    0.357   94.115  158.426
  516.750    4.535    0.199    0.375  102.789  158.657
  517.000    4.311    0.172    0.397  100.980  159.096
  517.250    4.098    0.208    0.371   90.512  159.224
  517.500    3.939    0.235    0.330   77.119  159.462
  517.750    3.724    0.241    0.320   77.381  159.796
  518.000    3.845    0.209    0.317   93.249  160.840
  518.250    4.061    0.166    0.317  101.007  162.394
  518.500    4.371    0.155    0.326  107.974  163.742
  518.750    4.660    0.141    0.335  112.745  165.096
  519.000    4.839    0.127    0.367  118.492  165.633
  519.250    4.848    0.112    0.379  105.162  164.949
  519.500    4.566    0.159    0.391   82.381  163.562
  519.750    4.316    0.207    0.409   54.360  162.365
  520.000    3.988    0.219    0.335   64.679  161.380
  520.250    3.576    0.180    0.309   75.791  161.818
  520.500    3.530    0.160    0.330   82.086  162.966
  520.750    3.771    0.186    0.345   82.287  164.214
  521.000    4.159    0.210    0.345   72.004  164.849
  521.250    4.417    0.229    0.338   61.780  164.879
  521.500    4.105    0.254    0.339   53.997  164.708
  521.750    3.525    0.266    0.337   49.199  164.431
  522.000    3.132    0.272    0.339   51.045  164.156
  522.250    2.830    0.278    0.353   63.803  163.882
  522.500    2.695    0.285    0.344   73.939  163.303
  522.750    2.972    0.193    0.320   85.782  162.825
  523.000    3.429    0.164    0.308   96.100  162.654
  523.250    3.732    0.168    0.300   94.902  162.582
  523.500    3.733    0.184    0.321   83.277  162.809
  523.750    3.248    0.217    0.337   77.196  163.046
  524.000    2.800    0.249    0.350   69.780  163.276
  524.250    2.602    0.260    0.358   65.529  163.003
  524.500    2.506    0.258    0.354   61.464  162.726
  524.750    2.451    0.253    0.353   62.578  162.346
  525.000    2.460    0.249    0.356   65.947  161.970
  525.250    2.498    0.254    0.365   65.600  162.000
  525.500    2.536    0.264    0.365   62.265  162.232
  525.750    2.589    0.270    0.356   60.152  162.671
  526.000    2.845    0.261    0.347   64.009  162.903
  526.250    3.108    0.243    0.342   67.012  163.238
  526.500    3.215    0.234    0.341   69.346  163.571
  526.750    3.295    0.230    0.335   73.082  163.703
  527.000    3.296    0.244    0.331   70.357  163.730
  527.250    3.186    0.245    0.343   69.277  163.660
  527.500    3.063    0.223    0.356   77.219  163.384
  527.750    3.145    0.210    0.343   83.150  163.009
  528.000    3.360    0.200    0.321   88.593  162.531
  528.250    3.568    0.193    0.330   94.463  162.051
  528.500    3.769    0.187    0.360   98.014  161.977
  528.750    3.943    0.189    0.388   98.764  161.603
  529.000    4.041    0.197    0.372   93.846  161.229
  529.250    3.929    0.207    0.361   85.633  161.252
  529.500    3.611    0.221    0.350   80.104  161.181
  529.750    3.407    0.236    0.373   79.024  161.518
  530.000    3.388    0.247    0.358   86.966  161.752
  530.250    3.660    0.185    0.367  103.077  161.880
  530.500    3.961    0.179    0.384  108.641  162.010
  530.750    4.223    0.184    0.387  111.769  161.837
  531.000    4.460    0.186    0.386  113.187  161.866
  531.250    4.554    0.162    0.378  108.450  161.698
  531.500    4.580    0.156    0.365  106.091  161.521
  531.750    4.529    0.162    0.363  107.877  161.347
  532.000    4.496    0.163    0.363  110.699  161.377
  532.250    4.556    0.156    0.376  111.203  162.424
  532.500    4.885    0.149    0.371  109.331  163.374
  532.750    5.500    0.154    0.366  111.122  163.908
  533.000    7.103    0.166    0.376  110.037  164.236
  533.250   10.704    0.086    0.407  102.377  164.570
  533.500   14.275    0.000    0.209   89.104  164.500
  533.750   22.003    0.000    0.171   60.961  164.426
  534.000   34.429    0.000    0.147   33.914  163.951
  534.250   43.069    0.000    0.141   31.374  163.269
  534.500   46.966    0.000    0.146   27.245  162.689
  534.750   47.415    0.000    0.121   22.082  162.513
  535.000   43.901    0.000    0.101   21.428  162.341
