~VERSION INFORMATION
 VERS.                 2.0:   CWLS LOG ASCII STANDARD -VERSION 2.0
 WRAP.                  NO:   ONE LINE PER DEPTH STEP
~WELL INFORMATION BLOCK
#MNEM.UNIT           DATA                    DESCRIPTION OF MNEMONIC
#---------    -------------------            -------------------------------
# Generated from Intellog Unique Number	CS_67_68/WELL/770
WELL.         FISHER CREEK                   : Well_name    - WELL
LOC .         00/07-12-068-05W4/0            : Location     - LOCATION
UWI .         00/07-12-068-05W4/0            : Uwi          - UNIQUE WELL ID
ENTR.         SP                             : Entered      - ENTERED BY
SRVC.         SCHLUMBERGER                   : Scn          - SERVICE COMPANY
STRT.M        330                            : top_depth    - START DEPTH
STOP.M        560                            : bot_depth    - STOP DEPTH
STEP.M        0.25                           : increment    - STEP LENGTH
 NULL. -999.2500:NULL Value
~CURVE INFORMATION BLOCK
#MNEM UNIT       ERCB CURVE CODE    CURVE DESCRIPTION
#-----------   ------------------   ----------------------------------
DEPT.M        00 001 00 00         : DEPTH        - DEPTH
ILD .OHMM     00 120 00 00         : RESD         - DEEP RESISTIVITY (DIL)
DPHI.V/V      00 890 00 00         : PHID         - DENSITY POROSITY (LIMESTONE)
NPHI.V/V      00 330 00 00         : PHIN         - NEUTRON POROSITY (LIMESTONE)
GR  .API      00 310 00 00         : GR           - GAMMA RAY
~PARAMETER INFORMATION
#MNEM.UNIT           DATA             DESCRIPTION OF MNEMONIC
#---------         -----------     ------------------------------
GL  .M        683.1                : gl           - GROUND LEVEL ELEVATION
EREF.M        686.8                : kb           - ELEVATION OF DEPTH REFERENCE
DATM.M        683.1                : datum        - DATUM ELEVATION
TDD .M        565                  : tdd          - TOTAL DEPTH DRILLER
RUN .         ONE                  : Run          - RUN NUMBER
ENG .         BILL                 : Engineer     - RECORDING ENGINEER
WIT .         JIM                  : Witness      - WITNESSED BY
MUD .         GEL                  : Mud_type     - MUD TYPE
MATR.         LIMESTONE            : Logunit      - NEUTRON MATRIX
TMAX.C        26.6                 : BHT          - MAXIMUM RECORDED TEMPERATURE
BHTD.M        565                  : BHTDEP       - MAXIMUM RECORDED TEMPERATURE
MATR.         1                    : LOGUNIT      - NEUTRON MATRIX
RMT .C        25                   : MDTP         - TEMPERATURE OF MUD
NEUT.         1                    : NEUTRON      - NEUTRON TYPE
RESI.         0                    : RESIST       - RESISTIVITY TYPE
RMC .OHMM     0.25                 : RMC          - RESISTIVITY OF MUD CAKE
RMF .OHMM     0.25                 : RMF          - RESISTIVITY OF MUD FILTRATE
SUFT.C        15                   : SUFT         - SURFACE TEMPERATURE
~A  DEPTH     RESD     PHID     PHIN       GR
# ...
  373.500    5.951    0.291    0.423   50.795
  373.750    6.029    0.296    0.405   51.905
  374.000    6.075    0.290    0.397   56.883
  374.250    6.076    0.280    0.407   58.913
  374.500    6.054    0.280    0.427   60.758
  374.750    5.998    0.296    0.440   58.493
  375.000    5.954    0.302    0.424   54.447
  375.250    5.921    0.295    0.422   58.136
  375.500    5.922    0.292    0.427   60.043
  375.750    5.955    0.290    0.424   58.576
  376.000    6.001    0.301    0.423   54.346
  376.250    6.035    0.313    0.431   51.281
  376.500    6.058    0.326    0.407   48.218
  376.750    6.081    0.334    0.399   43.866
  377.000    6.081    0.319    0.412   49.762
  377.250    6.093    0.315    0.405   56.089
  377.500    6.105    0.306    0.398   60.268
  377.750    6.094    0.297    0.400   60.949
  378.000    6.106    0.297    0.419   58.560
  378.250    6.050    0.309    0.425   57.460
  378.500    5.983    0.302    0.415   57.649
  378.750    5.928    0.299    0.418   53.051
  379.000    5.907    0.319    0.428   45.630
  379.250    5.896    0.340    0.420   40.664
  379.500    5.864    0.355    0.411   47.912
  379.750    5.854    0.314    0.419   54.423
  380.000    5.821    0.286    0.435   58.601
  380.250    5.833    0.277    0.420   59.650
  380.500    5.855    0.266    0.407   56.709
  380.750    5.888    0.278    0.407   56.346
  381.000    5.922    0.292    0.415   55.982
  381.250    5.955    0.290    0.426   58.567
  381.500    6.001    0.298    0.431   60.228
  381.750    6.023    0.316    0.419   62.013
  382.000    6.069    0.311    0.414   59.624
  382.250    6.115    0.294    0.412   60.734
  382.500    6.161    0.283    0.421   65.404
  382.750    6.254    0.288    0.404   67.926
  383.000    6.396    0.298    0.394   69.158
  383.250    6.517    0.317    0.401   72.785
  383.500    6.603    0.339    0.402   78.130
  383.750    6.616    0.313    0.403   81.449
  384.000    6.641    0.296    0.429   82.988
  384.250    6.666    0.287    0.444   80.416
  384.500    6.717    0.311    0.422   74.283
  384.750    6.805    0.338    0.424   77.972
  385.000    6.831    0.334    0.445   79.817
  385.250    6.908    0.329    0.457   81.051
  385.500    6.961    0.327    0.452   82.099
  385.750    7.013    0.334    0.436   83.024
  386.000    7.053    0.331    0.426   82.784
  386.250    7.067    0.325    0.431   80.395
  386.500    7.120    0.318    0.452   84.268
  386.750    7.188    0.322    0.462   87.464
  387.000    7.242    0.333    0.452   87.838
  387.250    7.283    0.328    0.445   86.124
  387.500    7.297    0.309    0.441   88.462
  387.750    7.298    0.281    0.438   89.940
  388.000    7.299    0.258    0.436   90.988
  388.250    7.326    0.264    0.429   86.451
  388.500    7.313    0.308    0.436   80.135
  388.750    7.287    0.304    0.462   79.772
  389.000    7.247    0.306    0.475   78.059
  389.250    7.207    0.313    0.481   75.854
  389.500    7.181    0.295    0.474   73.772
  389.750    7.208    0.269    0.436   75.988
  390.000    7.236    0.255    0.414   74.519
  390.250    7.304    0.288    0.410   65.564
  390.500    7.442    0.306    0.411   58.634
  390.750    7.653    0.316    0.408   53.790
  391.000    7.856    0.315    0.403   51.708
  391.250    7.990    0.311    0.398   51.161
  391.500    7.990    0.316    0.391   51.412
  391.750    7.888    0.324    0.384   53.258
  392.000    7.815    0.327    0.379   54.676
  392.250    7.658    0.331    0.375   54.864
  392.500    7.630    0.331    0.386   53.089
  392.750    7.716    0.328    0.393   51.745
  393.000    7.833    0.325    0.400   48.681
  393.250    7.877    0.322    0.416   46.906
  393.500    7.981    0.325    0.417   48.139
  393.750    8.026    0.334    0.405   49.064
  394.000    8.072    0.328    0.397   46.737
  394.250    8.073    0.323    0.396   47.604
  394.500    8.028    0.322    0.397   49.572
  394.750    7.910    0.330    0.394   51.602
  395.000    7.751    0.333    0.405   52.220
  395.250    7.665    0.333    0.397   51.673
  395.500    7.680    0.335    0.386   50.696
  395.750    7.738    0.338    0.377   50.824
  396.000    7.811    0.332    0.373   53.407
  396.250    7.900    0.323    0.391   55.745
  396.500    7.945    0.320    0.411   52.988
  396.750    7.975    0.341    0.395   49.863
  397.000    7.931    0.351    0.375   52.507
  397.250    7.888    0.351    0.397   53.924
  397.500    7.786    0.349    0.415   53.193
  397.750    7.729    0.349    0.408   54.425
  398.000    7.687    0.347    0.398   58.727
  398.250    7.644    0.344    0.389   61.126
  398.500    7.645    0.337    0.383   59.964
  398.750    7.631    0.332    0.398   58.313
  399.000    7.632    0.335    0.410   59.546
  399.250    7.647    0.339    0.402   59.612
  399.500    7.648    0.338    0.395   58.022
  399.750    7.634    0.335    0.399   56.247
  400.000    7.606    0.329    0.399   56.067
  400.250    7.579    0.328    0.395   59.816
  400.500    7.537    0.331    0.419   62.953
  400.750    7.496    0.340    0.439   63.816
  401.000    7.468    0.344    0.427   59.894
  401.250    7.400    0.350    0.431   58.181
  401.500    7.332    0.345    0.450   56.835
  401.750    7.292    0.336    0.458   56.165
  402.000    7.252    0.346    0.441   55.986
  402.250    7.239    0.350    0.426   56.299
  402.500    7.226    0.339    0.428   57.776
  402.750    7.213    0.334    0.451   59.377
  403.000    7.160    0.349    0.464   58.645
  403.250    7.134    0.360    0.446   56.810
  403.500    7.069    0.349    0.440   57.122
  403.750    7.004    0.353    0.452   58.232
  404.000    6.888    0.366    0.465   58.728
  404.250    6.863    0.358    0.443   57.997
  404.500    6.838    0.347    0.431   55.362
  404.750    6.839    0.353    0.418   54.079
  405.000    6.776    0.357    0.410   56.784
  405.250    6.764    0.361    0.429   58.569
  405.500    6.764    0.363    0.435   56.794
  405.750    6.778    0.363    0.435   57.168
  406.000    6.778    0.353    0.441   59.874
  406.250    6.741    0.348    0.446   62.027
  406.500    6.742    0.358    0.427   58.718
  406.750    6.692    0.359    0.421   56.452
  407.000    6.631    0.358    0.430   58.482
  407.250    6.521    0.360    0.428   58.365
  407.500    6.354    0.356    0.428   56.099
  407.750    5.920    0.348    0.436   55.798
  408.000    5.394    0.335    0.423   59.424
  408.250    4.998    0.308    0.433   65.137
  408.500    4.623    0.280    0.450   76.926
  408.750    4.529    0.258    0.465   83.805
  409.000    4.598    0.275    0.461   80.680
  409.250    4.737    0.307    0.431   73.198
  409.500    4.982    0.326    0.419   70.809
  409.750    5.249    0.334    0.413   73.884
  410.000    5.698    0.338    0.438   75.730
  410.250    5.992    0.351    0.449   76.718
  410.500    6.278    0.355    0.457   76.599
  410.750    6.384    0.354    0.469   75.377
  411.000    6.338    0.349    0.463   71.086
  411.250    6.315    0.344    0.449   64.524
  411.500    6.351    0.337    0.440   59.742
  411.750    6.399    0.346    0.433   56.800
  412.000    6.447    0.356    0.429   54.535
  412.250    6.520    0.356    0.418   52.944
  412.500    6.086    0.343    0.410   54.300
  412.750    6.934    0.345    0.402   57.865
  413.000    7.013    0.348    0.401   59.466
  413.250    7.185    0.348    0.415   58.182
  413.500    7.226    0.350    0.417   57.452
  413.750    7.267    0.353    0.415   57.947
  414.000    7.295    0.355    0.421   58.934
  414.250    7.323    0.350    0.437   59.492
  414.500    7.323    0.341    0.447   59.067
  414.750    7.365    0.331    0.456   57.844
  415.000    7.504    0.322    0.449   56.193
  415.250    7.703    0.315    0.455   59.757
  415.500    7.966    0.309    0.463   62.279
  415.750    8.223    0.318    0.471   62.161
  416.000    8.568    0.337    0.474   59.773
  416.250    8.762    0.352    0.489   60.330
  416.500    8.681    0.361    0.497   61.502
  416.750    8.365    0.356    0.468   62.428
