~VERSION INFORMATION
 VERS.                 2.0:   CWLS LOG ASCII STANDARD -VERSION 2.0
 WRAP.                  NO:   ONE LINE PER DEPTH STEP
~WELL INFORMATION BLOCK
#MNEM.UNIT           DATA                    DESCRIPTION OF MNEMONIC
#---------    -------------------            -------------------------------
# Generated from Intellog Unique Number	CW_73_75/WELL/642
LOC .         00/07-02-075-24W4/0            : Location     - LOCATION
UWI .         00/07-02-075-24W4/0            : Uwi          - UNIQUE WELL ID
ENTR.         JAYE                           : Entered      - ENTERED BY
SRVC.         SCHLUMBERGER                   : Scn          - SERVICE COMPANY
DATE.         1 MAR 75                       : Date         - LOG DATE
STRT.M        426.72                         : top_depth    - START DEPTH
STOP.M        621.72                         : bot_depth    - STOP DEPTH
STEP.M        0.25                           : increment    - STEP LENGTH
 NULL. -999.2500:NULL Value
~CURVE INFORMATION BLOCK
#MNEM UNIT       ERCB CURVE CODE    CURVE DESCRIPTION
#-----------   ------------------   ----------------------------------
DEPT.M        00 001 00 00         : DEPTH        - DEPTH
ILD .OHMM     00 120 00 00         : RESD         - DEEP RESISTIVITY (DIL)
CALI.MM       00 280 01 00         : CAL          - CALIPER
GR  .API      00 310 00 00         : GR           - GAMMA RAY
DPHI.V/V      00 890 00 00         : PHID         - DENSITY POROSITY (SANDSTONE)
NPHI.V/V      00 330 00 00         : PHIN         - NEUTRON POROSITY (SANDSTONE)
~PARAMETER INFORMATION
#MNEM.UNIT           DATA             DESCRIPTION OF MNEMONIC
#---------         -----------     ------------------------------
GL  .M        702.107              : gl           - GROUND LEVEL ELEVATION
EREF.M        706.222              : kb           - ELEVATION OF DEPTH REFERENCE
DATM.M        702.107              : datum        - DATUM ELEVATION
TDD .M        623.316              : tdd          - TOTAL DEPTH DRILLER
RUN .         ONE                  : Run          - RUN NUMBER
ENG .         EARLE                : Engineer     - RECORDING ENGINEER
WIT .         BRYANT               : Witness      - WITNESSED BY
BASE.         EDM                  : Branch       - HOME BASE OF LOGGING UNIT
MATR.         SANDSTONE            : Logunit      - NEUTRON MATRIX
TMAX.C        29.4444              : BHT          - MAXIMUM RECORDED TEMPERATURE
BHTD.M        622.706              : BHTDEP       - MAXIMUM RECORDED TEMPERATURE
RMT .C        20                   : MDTP         - TEMPERATURE OF MUD
MUDD.KG/M     0                    : MWT          - MUD DENSITY
NEUT.         1                    : NEUTRON      - NEUTRON TYPE
RESI.         0                    : RESIST       - RESISTIVITY TYPE
RM  .OHMM     3.85                 : RM           - RESISTIVITY OF MUD
RMC .OHMM     0                    : RMC          - RESISTIVITY OF MUD CAKE
RMF .OHMM     4.96                 : RMF          - RESISTIVITY OF MUD FILTRATE
SUFT.C        -17.7778             : SUFT         - SURFACE TEMPERATURE
~A  DEPTH     RESD      CAL       GR     PHID     PHIN
# ...
  572.720    6.610  231.956  112.509    0.174    0.432
  572.970    6.622  231.240  113.495    0.172    0.422
  573.220    6.657  230.630  110.136    0.161    0.416
  573.470    6.681  230.226  105.676    0.165    0.421
  573.720    6.766  229.718  100.544    0.184    0.421
  573.970    6.865  229.315   98.043    0.173    0.416
  574.220    6.991  229.326  100.802    0.166    0.414
  574.470    7.211  229.026  103.500    0.188    0.418
  574.720    7.672  229.037   90.965    0.165    0.404
  574.970    8.654  228.633   80.511    0.117    0.378
  575.220   11.011  228.436   76.113    0.097    0.354
  575.470   12.977  228.239   75.876    0.090    0.328
  575.720   13.908  227.939   76.371    0.080    0.300
  575.970   13.831  227.741   77.294    0.068    0.289
  576.220   13.455  227.752   78.647    0.039    0.301
  576.470   13.332  227.763   79.142    0.018    0.346
  576.720   13.331  227.772   79.087    0.051    0.365
  576.970   13.257  227.576   78.665    0.095    0.361
  577.220   13.159  227.484   78.181    0.116    0.338
  577.470   12.826  227.286   80.145    0.108    0.340
  577.720   12.207  227.298   84.311    0.088    0.356
  577.970   11.662  227.620   84.011    0.108    0.374
  578.220   10.979  228.769   81.509    0.121    0.376
  578.470   10.507  230.230   81.516    0.127    0.375
  578.720   10.000  230.757   82.868    0.129    0.382
  578.970    9.519  231.289   84.220    0.125    0.386
  579.220    8.961  231.400   86.491    0.111    0.371
  579.470    8.421  231.307   88.942    0.086    0.357
  579.720    7.928  231.007   92.436    0.100    0.378
  579.970    7.436  231.017   95.928    0.124    0.405
  580.220    7.078  230.820  100.645    0.169    0.415
  580.470    6.811  230.728  105.178    0.157    0.404
  580.720    6.566  230.739  111.484    0.140    0.390
  580.970    6.446  230.748  115.957    0.144    0.399
  581.220    6.458  230.551  117.003    0.153    0.419
  581.470    6.469  230.667  118.783    0.141    0.431
  581.720    6.456  230.780  120.501    0.129    0.438
  581.970    6.456  230.895  117.143    0.152    0.449
  582.220    6.443  230.905  117.701    0.171    0.456
  582.470    6.478  230.502  118.563    0.173    0.451
  582.720    6.609  230.303  118.936    0.165    0.426
  582.970    6.792  229.796  113.376    0.155    0.403
  583.220    7.226  229.082  106.837    0.145    0.374
  583.470    8.077  228.471  101.888    0.154    0.366
  583.720    8.625  227.655   95.533    0.166    0.364
  583.970    9.010  227.457   92.785    0.151    0.360
  584.220    9.413  227.052   92.119    0.127    0.357
  584.470    9.620  226.856   94.572    0.108    0.372
  584.720    9.515  226.763   98.554    0.136    0.373
  584.970    9.189  226.566  102.843    0.150    0.367
  585.220    8.908  226.473  104.806    0.156    0.363
  585.470    8.572  226.587  104.506    0.149    0.359
  585.720    8.279  226.599  105.553    0.143    0.366
  585.970    8.099  226.611  108.067    0.144    0.373
  586.220    7.922  226.621  111.193    0.161    0.370
  586.470    7.736  226.631  114.686    0.170    0.371
  586.720    7.749  226.744  117.567    0.161    0.394
  586.970    8.022  226.858  115.799    0.155    0.408
  587.220    8.244  226.972  112.074    0.146    0.393
  587.470    8.503  227.087  106.819    0.134    0.386
  587.720    8.851  227.097  103.767    0.118    0.374
  587.970    8.611  227.625  108.545    0.075    0.359
  588.220    8.166  228.051  115.403    0.125    0.402
  588.470    7.576  228.268  109.046    0.149    0.448
  588.720    7.304  228.796   99.449    0.162    0.451
  588.970    7.303  229.223   94.867    0.173    0.431
  589.220    7.629  229.647   90.958    0.165    0.404
  589.470    8.058  229.656   89.068    0.144    0.370
  589.720    8.266  229.667   90.176    0.116    0.350
  589.970    8.372  229.678   99.480    0.072    0.321
  590.220    8.234  229.791  106.031    0.089    0.330
  590.470    8.011  230.320  107.812    0.133    0.408
  590.720    7.709  230.330   97.969    0.150    0.395
  590.970    7.541  230.341   94.244    0.134    0.360
  591.220    7.337  230.456  103.242    0.104    0.329
  591.470    7.164  230.671  116.340    0.057    0.325
  591.720    7.008  230.682  116.774    0.120    0.366
  591.970    6.956  230.797  114.272    0.165    0.405
  592.220    6.842  230.912  115.501    0.137    0.406
  592.470    6.779  230.819  117.711    0.148    0.418
  592.720    6.705  230.829  119.062    0.157    0.416
  592.970    6.643  230.838  120.353    0.165    0.406
  593.220    6.606  230.849  121.766    0.179    0.400
  593.470    6.606  230.655  124.709    0.171    0.414
  593.720    6.654  230.560  127.284    0.160    0.424
  593.970    6.689  230.569  126.006    0.146    0.416
  594.220    6.677  230.373  123.626    0.127    0.408
  594.470    6.676  230.489  127.241    0.096    0.398
  594.720    6.639  230.187  129.755    0.078    0.390
  594.970    6.566  229.992  127.437    0.120    0.384
  595.220    6.446  230.208  121.020    0.153    0.400
  595.470    6.318  230.218  114.725    0.155    0.403
  595.720    6.158  230.540  109.838    0.136    0.379
  595.970    5.991  230.447  105.746    0.167    0.356
  596.220    5.818  230.666  104.834    0.164    0.320
  596.470    5.722  231.504  112.426    0.146    0.294
  596.720    5.567  232.860  122.158    0.125    0.447
  596.970    4.680  235.253  126.997    0.150    0.490
  597.220    3.906  239.511  132.631    0.172    0.611
  597.470    3.375  240.971  131.659    0.187    0.584
  597.720    2.652  235.905  126.098    0.191    0.564
  597.970    2.656  232.395  117.846    0.163    0.539
  598.220    2.836  230.024  114.427    0.144    0.504
  598.470    3.136  228.376  108.439    0.153    0.485
  598.720    3.569  226.316   98.595    0.108    0.464
  598.970    3.990  224.772   92.485    0.070    0.427
  599.220    4.591  222.711  102.584    0.037    0.368
  599.470    4.993  221.167  115.069   -0.001    0.381
  599.720    5.391  221.592  119.175    0.122    0.416
  599.970    5.704  223.156  117.590    0.148    0.414
  600.220    5.809  225.238  117.964    0.147    0.407
  600.470    5.766  226.906  121.212    0.141    0.395
  600.720    5.702  228.263  122.258    0.132    0.389
  600.970    5.568  229.206  117.064    0.121    0.418
  601.220    5.507  229.735  108.812    0.109    0.428
  601.470    5.956  227.570   94.993    0.128    0.318
  601.720    7.254  224.059   66.065    0.108    0.242
  601.970    9.504  222.619   46.496    0.103    0.221
  602.220   13.249  222.836   46.443    0.244    0.189
  602.470   30.352  223.675   47.182    0.349    0.172
  602.720   45.686  224.205   48.350    0.367    0.164
  602.970   51.438  224.423   48.969    0.362    0.167
  603.220   48.691  224.743   49.035    0.358    0.178
  603.470   47.544  225.064   48.430    0.356    0.197
  603.720   48.063  225.387   48.008    0.358    0.206
  603.970   48.766  225.811   48.137    0.354    0.208
  604.220   48.672  225.821   48.021    0.348    0.208
  604.470   46.923  226.142   48.211    0.349    0.215
  604.720   45.071  226.671   48.767    0.339    0.229
  604.970   43.929  227.613   49.264    0.328    0.262
  605.220   43.844  228.453   49.208    0.317    0.287
  605.470   44.322  229.292   48.969    0.282    0.305
  605.720   44.644  230.132   48.914    0.249    0.326
  605.970   45.049  230.453   49.043    0.204    0.275
  606.220   44.798  231.291   49.845    0.129    0.247
  606.470   43.903  231.819   50.830    0.112    0.254
  606.720   42.325  231.830   51.875    0.232    0.296
  606.970   40.581  232.566   54.574    0.249    0.330
  607.220   36.632  234.234   55.803    0.258    0.354
  607.470   32.293  236.006   56.237    0.256    0.379
  607.720   29.851  238.502   56.610    0.252    0.405
  607.970   27.898  241.102   57.779    0.251    0.422
  608.220   26.554  242.875   59.131    0.254    0.415
  608.470   25.044  242.366   60.422    0.259    0.441
  608.720   23.924  240.200   61.958    0.263    0.449
  608.970   22.855  238.657   63.248    0.256    0.443
