~VERSION INFORMATION
 VERS.                 2.0:   CWLS LOG ASCII STANDARD -VERSION 2.0
 WRAP.                  NO:   ONE LINE PER DEPTH STEP
~WELL INFORMATION BLOCK
#MNEM.UNIT           DATA                    DESCRIPTION OF MNEMONIC
#---------    -------------------            -------------------------------
# Generated from Intellog Unique Number	CS_77_79/WELL/888
WELL.         CDN-SUP THORNBURY              : Well_name    - WELL
LOC .         00/06-34-078-13W4/0            : Location     - LOCATION
UWI .         00/06-34-078-13W4/0            : Uwi          - UNIQUE WELL ID
ENTR.         JHS                            : Entered      - ENTERED BY
SRVC.         SCHLUMBERGER                   : Scn          - SERVICE COMPANY
STRT.M        250                            : top_depth    - START DEPTH
STOP.M        475                            : bot_depth    - STOP DEPTH
STEP.M        0.25                           : increment    - STEP LENGTH
 NULL. -999.2500:NULL Value
~CURVE INFORMATION BLOCK
#MNEM UNIT       ERCB CURVE CODE    CURVE DESCRIPTION
#-----------   ------------------   ----------------------------------
DEPT.M        00 001 00 00         : DEPTH        - DEPTH
DPHI.V/V      00 890 00 00         : PHID         - DENSITY POROSITY (LIMESTONE)
NPHI.V/V      00 330 00 00         : PHIN         - NEUTRON POROSITY (LIMESTONE)
GR  .API      00 310 00 00         : GR           - GAMMA RAY
ILD .OHMM     00 120 00 00         : RESD         - DEEP RESISTIVITY (DIL)
~PARAMETER INFORMATION
#MNEM.UNIT           DATA             DESCRIPTION OF MNEMONIC
#---------         -----------     ------------------------------
GL  .M        662.5                : gl           - GROUND LEVEL ELEVATION
EREF.M        668                  : kb           - ELEVATION OF DEPTH REFERENCE
DATM.M        668                  : datum        - DATUM ELEVATION
TDD .M        473                  : tdd          - TOTAL DEPTH DRILLER
RUN .         ONE                  : Run          - RUN NUMBER
ENG .         BILL                 : Engineer     - RECORDING ENGINEER
WIT .         JIM                  : Witness      - WITNESSED BY
MUD .         GEL                  : Mud_type     - MUD TYPE
MATR.         LIMESTONE            : Logunit      - NEUTRON MATRIX
TMAX.C        23                   : BHT          - MAXIMUM RECORDED TEMPERATURE
BHTD.M        473                  : BHTDEP       - MAXIMUM RECORDED TEMPERATURE
MATR.         1                    : LOGUNIT      - NEUTRON MATRIX
RMT .C        25                   : MDTP         - TEMPERATURE OF MUD
NEUT.         1                    : NEUTRON      - NEUTRON TYPE
RESI.         0                    : RESIST       - RESISTIVITY TYPE
RMC .OHMM     0.25                 : RMC          - RESISTIVITY OF MUD CAKE
RMF .OHMM     0.25                 : RMF          - RESISTIVITY OF MUD FILTRATE
SUFT.C        15                   : SUFT         - SURFACE TEMPERATURE
~A  DEPTH     PHID     PHIN       GR     RESD
# ...
  424.000    0.197    0.421   97.262    7.371
  424.250    0.189    0.423  100.283    6.973
  424.500    0.196    0.429  101.485    6.720
  424.750    0.203    0.430  101.464    6.477
  425.000    0.204    0.434  100.832    6.244
  425.250    0.215    0.439  100.199    6.246
  425.500    0.198    0.438   97.126    6.248
  425.750    0.193    0.451   92.836    6.022
  426.000    0.191    0.437   91.596    5.488
  426.250    0.202    0.426   92.181    5.191
  426.500    0.208    0.465   92.766    4.820
  426.750    0.222    0.474   92.137    4.559
  427.000    0.248    0.465   89.068    4.233
  427.250    0.270    0.473   85.994    3.449
  427.500    0.283    0.502   85.363    2.707
  427.750    0.282    0.526   85.957    2.421
  428.000    0.262    0.578   90.808    2.166
  428.250    0.256    0.561   90.175    2.087
  428.500    0.280    0.544   88.328    2.088
  428.750    0.280    0.564   85.250    2.089
  429.000    0.270    0.550   84.008    2.169
  429.250    0.243    0.555   85.819    2.428
  429.500    0.228    0.550   89.455    2.521
  429.750    0.215    0.539   89.433    3.097
  430.000    0.184    0.492   91.235    3.531
  430.250    0.181    0.457   92.436    3.878
  430.500    0.183    0.451   91.199    4.766
  430.750    0.211    0.440   92.395    5.136
  431.000    0.207    0.418   92.372    5.642
  431.250    0.194    0.404   89.908    5.751
  431.500    0.194    0.395   91.716    5.754
  431.750    0.215    0.410   92.306    5.442
  432.000    0.203    0.428   90.445    4.868
  432.250    0.190    0.442   87.380    4.520
  432.500    0.176    0.436   84.311    4.522
  432.750    0.181    0.437   82.461    5.253
  433.000    0.162    0.408   81.217    6.699
  433.250    0.176    0.395   82.418    7.088
  433.500    0.214    0.402   87.876    6.581
  433.750    0.221    0.423   90.299    5.886
  434.000    0.223    0.436   92.106    5.265
  434.250    0.234    0.447   93.911    4.536
  434.500    0.235    0.477   96.326    4.134
  434.750    0.228    0.508   99.349    3.767
  435.000    0.228    0.501  101.152    3.498
  435.250    0.223    0.491  101.139    3.499
  435.500    0.222    0.480  103.555    3.437
  435.750    0.210    0.474  102.307    3.502
  436.000    0.218    0.471  101.676    3.707
  436.250    0.218    0.476  102.879    3.849
  436.500    0.193    0.485  105.904    4.072
  436.750    0.192    0.487  104.652    4.151
  437.000    0.204    0.493  104.024    4.001
  437.250    0.195    0.501  102.176    3.856
  437.500    0.209    0.479  101.547    3.716
  437.750    0.209    0.467  102.133    3.788
  438.000    0.158    0.480  101.502    4.240
  438.250    0.137    0.481   99.647    4.320
  438.500    0.161    0.450   99.020    4.572
  438.750    0.210    0.434   99.607    4.573
  439.000    0.223    0.452   98.968    4.326
  439.250    0.225    0.472   93.465    4.932
  439.500    0.218    0.417   84.298    6.653
  439.750    0.239    0.381   78.788    7.874
  440.000    0.253    0.398   78.155    8.811
  440.250    0.252    0.414   84.231    9.500
  440.500    0.249    0.422   87.868   10.050
  440.750    0.241    0.387   86.626   10.635
  441.000    0.227    0.371   82.946   10.840
  441.250    0.217    0.376   78.658   10.846
  441.500    0.223    0.382   71.315   10.650
  441.750    0.217    0.370   70.682   10.264
  442.000    0.233    0.390   76.150    9.709
  442.250    0.240    0.401   85.883    9.715
  442.500    0.238    0.402   90.125   10.089
  442.750    0.229    0.406   87.666   10.475
  443.000    0.226    0.396   87.646   10.880
  443.250    0.204    0.390   89.449   10.486
  443.500    0.197    0.387   95.520    9.378
  443.750    0.188    0.383  100.990    7.932
  444.000    0.184    0.401  107.671    7.364
  444.250    0.186    0.427  112.521    7.368
  444.500    0.178    0.443  113.116    7.795
  444.750    0.195    0.435  108.822    9.055
  445.000    0.214    0.421  100.264   11.335
  445.250    0.218    0.415   95.978   12.924
  445.500    0.192    0.401   91.079   13.673
  445.750    0.202    0.385   86.784   14.202
  446.000    0.194    0.378   87.376   13.945
  446.250    0.188    0.374   89.183   13.191
  446.500    0.196    0.368   90.989   12.478
  446.750    0.200    0.376   93.405   13.202
  447.000    0.190    0.375   90.337   15.626
  447.250    0.207    0.362   83.607   18.493
  447.500    0.225    0.359   79.319   21.480
  447.750    0.236    0.363   74.415   24.491
  448.000    0.254    0.382   71.952   27.411
  448.250    0.268    0.385   71.318   29.549
  448.500    0.238    0.377   74.347   30.119
  448.750    0.227    0.371   77.377   30.698
  449.000    0.211    0.364   81.008   29.589
  449.250    0.196    0.370   81.595   26.965
  449.500    0.177    0.360   84.012   24.571
  449.750    0.206    0.371   85.822   20.780
  450.000    0.185    0.370   88.241   17.906
  450.250    0.187    0.354   90.654   16.316
  450.500    0.198    0.325   91.850   15.149
  450.750    0.220    0.301   90.001   15.732
  451.000    0.268    0.281   83.274   18.277
  451.250    0.263    0.279   71.668   20.450
  451.500    0.210    0.307   62.502   22.888
  451.750    0.192    0.342   67.356   22.474
  452.000    0.200    0.362   81.356   20.101
  452.250    0.200    0.380   91.087   17.321
  452.500    0.207    0.391   91.675   16.387
  452.750    0.219    0.367   85.552   16.393
  453.000    0.236    0.382   79.433   16.708
  453.250    0.263    0.395   74.539   19.773
  453.500    0.294    0.398   68.421   28.204
  453.750    0.313    0.395   62.908   41.764
  454.000    0.304    0.398   64.713   53.260
  454.250    0.295    0.402   71.400   59.609
  454.500    0.287    0.396   78.694   60.750
  454.750    0.294    0.396   86.595   60.783
  455.000    0.299    0.405   91.453   58.586
  455.250    0.299    0.419   90.820   55.425
  455.500    0.289    0.403   82.871   54.424
  455.750    0.279    0.396   77.360   53.431
  456.000    0.282    0.407   80.390   52.466
  456.250    0.268    0.413   85.239   48.712
  456.500    0.275    0.404   84.610   42.763
  456.750    0.266    0.400   82.148   33.565
  457.000    0.237    0.400   80.300   27.865
  457.250    0.226    0.389   82.713   24.008
  457.500    0.212    0.381   89.397   19.927
  457.750    0.200    0.375   93.646   16.852
  458.000    0.186    0.375  100.328   14.520
  458.250    0.175    0.389  103.958   11.397
  458.500    0.159    0.399  108.208   10.194
  458.750    0.154    0.400  111.843    9.643
  459.000    0.145    0.401  105.723   10.396
  459.250    0.155    0.409   91.683   11.207
  459.500    0.070    0.414   74.592   13.513
  459.750    0.066    0.387   65.423   17.558
  460.000    0.090    0.359   61.745   20.781
  460.250    0.218    0.366   66.600   21.180
  460.500    0.221    0.362   84.863   20.415
  460.750    0.222    0.362   89.107   18.954
  461.000    0.218    0.359   92.133   16.333
  461.250    0.208    0.355   95.161   14.071
  461.500    0.202    0.372   98.797   13.065
  461.750    0.197    0.383  101.823   13.070
  462.000    0.191    0.389  101.190   13.078
  462.250    0.202    0.392   98.723   13.580
  462.500    0.199    0.377   96.876   14.105
  462.750    0.205    0.365   91.980   14.925
  463.000    0.217    0.359   77.326   15.212
  463.250    0.232    0.349   66.940   14.937
  463.500    0.245    0.355   58.383   14.132
  463.750    0.258    0.369   54.706   13.877
  464.000    0.271    0.352   51.634   13.882
  464.250    0.280    0.346   43.077   14.966
  464.500    0.285    0.350   39.394   15.833
  464.750    0.283    0.359   41.203   19.455
  465.000    0.281    0.367   41.791   23.024
  465.250    0.275    0.375   35.671   27.764
  465.500    0.271    0.377   29.554   32.855
  465.750    0.275    0.367   26.477   43.491
  466.000    0.289    0.369   25.850   62.040
  466.250    0.295    0.364   25.824   73.421
  466.500    0.285    0.357   25.804   85.296
  466.750    0.273    0.365   25.786   95.456
  467.000    0.264    0.359   25.145   99.137
  467.250    0.261    0.351   25.129  102.940
