~VERSION INFORMATION
 VERS.                 2.0:   CWLS LOG ASCII STANDARD -VERSION 2.0
 WRAP.                  NO:   ONE LINE PER DEPTH STEP
~WELL INFORMATION BLOCK
#MNEM.UNIT           DATA                    DESCRIPTION OF MNEMONIC
#---------    -------------------            -------------------------------
# Generated from Intellog Unique Number	CS_77_79/WELL/3293
WELL.         SCURRY                         : Well_name    - WELL
LOC .         00/06-20-078-02W5/0            : Location     - LOCATION
UWI .         00/06-20-078-02W5/0            : Uwi          - UNIQUE WELL ID
ENTR.         TIM                            : Entered      - ENTERED BY
SRVC.         COMPUTALOG                     : Scn          - SERVICE COMPANY
STRT.M        320.04                         : top_depth    - START DEPTH
STOP.M        573.04                         : bot_depth    - STOP DEPTH
STEP.M        0.25                           : increment    - STEP LENGTH
 NULL. -999.2500:NULL Value
~CURVE INFORMATION BLOCK
#MNEM UNIT       ERCB CURVE CODE    CURVE DESCRIPTION
#-----------   ------------------   ----------------------------------
DEPT.M        00 001 00 00         : DEPTH        - DEPTH
ILD .OHMM     00 120 00 00         : RESD         - DEEP RESISTIVITY (DIL)
GR  .API      00 310 00 00         : GR           - GAMMA RAY
DELT.US/F     00 520 00 00         : DELT         - SONIC TRAVEL TIME
~PARAMETER INFORMATION
#MNEM.UNIT           DATA             DESCRIPTION OF MNEMONIC
#---------         -----------     ------------------------------
GL  .M        641.635              : gl           - GROUND LEVEL ELEVATION
EREF.M        645.262              : kb           - ELEVATION OF DEPTH REFERENCE
DATM.M        645.262              : datum        - DATUM ELEVATION
TDD .M        575.158              : tdd          - TOTAL DEPTH DRILLER
RUN .         ONE                  : Run          - RUN NUMBER
ENG .         BILL                 : Engineer     - RECORDING ENGINEER
WIT .         JIM                  : Witness      - WITNESSED BY
MUD .         GEL                  : Mud_type     - MUD TYPE
MATR.         SANDSTONE            : Logunit      - NEUTRON MATRIX
TMAX.C        27.7778              : BHT          - MAXIMUM RECORDED TEMPERATURE
BHTD.M        573.024              : BHTDEP       - MAXIMUM RECORDED TEMPERATURE
MATR.         1                    : LOGUNIT      - NEUTRON MATRIX
RMT .C        18.8889              : MDTP         - TEMPERATURE OF MUD
NEUT.         1                    : NEUTRON      - NEUTRON TYPE
RESI.         0                    : RESIST       - RESISTIVITY TYPE
RMC .OHMM     4                    : RMC          - RESISTIVITY OF MUD CAKE
RMF .OHMM     13.1                 : RMF          - RESISTIVITY OF MUD FILTRATE
SUFT.C        5                    : SUFT         - SURFACE TEMPERATURE
~A  DEPTH     RESD       GR     DELT
  320.040    9.943  100.560  441.105
  320.290   10.344   64.676  400.154
  320.540   10.348   50.551  395.617
  320.790   10.350   39.363  389.139
  321.040   10.156   36.996  386.559
  321.290    9.960   34.044  382.022
  321.540    9.964   33.441  372.937
  321.790   10.167   34.605  374.259
  322.040   10.170   35.775  387.295
  322.290   10.371   38.704  395.773
  322.540   10.375   43.394  399.707
  322.790    9.980   46.320  399.073
  323.040    9.189   46.311  397.788
  323.290    8.398   45.711  395.219
  323.540    8.201   46.284  393.945
  323.790    7.410   46.858  393.305
  324.040    7.214   46.264  394.628
  324.290    6.820   46.249  399.853
  324.540    6.425   48.002  406.379
  324.790    5.634   54.459  411.609
  325.040    5.041   56.799  415.533
  325.290    4.647   60.904  420.758
  325.540    4.650   65.597  427.290
  325.790    4.852   73.818  429.908
  326.040    5.252   78.511  413.668
  326.290    5.654   82.613  395.477
  326.540    5.658   83.189  392.246
  326.790    6.059   75.532  393.569
  327.040    6.261   58.466  391.649
  327.290    6.463   53.747  393.617
  327.540    6.667   53.733  397.547
  327.790    6.470   54.900  399.514
  328.040    6.275   57.825  400.186
  328.290    5.881   60.163  397.606
  328.540    5.884   60.745  396.993
  328.790    5.490   62.492  397.659
  329.040    5.493   63.659  397.676
  329.290    5.299   65.415  397.702
  329.540    5.301   67.755  395.122
  329.790    5.304   69.508  394.488
  330.040    5.110   70.666  397.122
  330.290    4.716   71.245  399.095
  330.540    4.719   71.822  399.111
  330.790    4.522   72.986  400.439
  331.040    4.527   75.321  406.309
  331.290    4.531   75.903  406.981
  331.540    4.532   76.479  399.853
  331.790    4.536   76.462  403.121
  332.040    4.541   77.629  410.964
  332.290    4.545   77.617  411.625
  332.540    4.546   76.429  413.598
  332.790    4.352   74.653  416.883
  333.040    4.354   72.877  418.194
  333.290    4.357   72.866  418.216
  333.540    4.362   76.968  412.394
  333.790    4.366   76.953  411.770
  334.040    4.370   74.001  413.738
  334.290    4.372   73.989  416.361
  334.540    4.377   76.921  418.990
  334.790    4.577   81.022  419.651
  335.040    4.582   81.602  417.076
  335.290    4.584   80.999  413.200
  335.540    4.588   80.987  410.620
  335.790    4.591   80.387  410.636
  336.040    4.594   77.432  410.658
  336.290    4.400   75.659  406.126
  336.540    4.403   73.292  406.147
  336.790    4.208   72.692  412.673
  337.040    4.211   75.618  418.554
  337.290    4.016   77.373  422.484
  337.540    4.019   80.299  421.205
  337.790    3.824   81.463  420.570
  338.040    3.826   82.628  420.597
  338.290    3.632   84.377  422.570
  338.540    3.436   84.957  425.193
  338.790    3.441   86.124  433.020
  339.040    3.244   88.462  424.586
  339.290    3.051   89.620  420.054
  339.540    3.053   89.611  438.939
  339.790    3.056   89.600  453.926
  340.040    2.859   90.764  457.850
  340.290    2.864   92.519  460.473
  340.540    2.670   94.857  461.145
  340.790    2.672   96.024  455.963
  341.040    2.676   98.359  454.684
  341.290    2.679  100.111  456.006
  341.540    2.681  103.043  456.684
  341.790    2.685  105.381  453.453
  342.040    2.690  104.778  451.534
  342.290    2.693  104.184  453.501
  342.540    2.695  104.760  455.474
  342.790    2.699  105.925  457.447
  343.040    2.704  107.671  460.076
  343.290    2.705  108.245  461.393
  343.540    2.709  108.239  460.769
  343.790    2.713  108.227  458.834
  344.040    2.716  107.036  456.254
  344.290    2.719  105.845  406.190
  344.540    2.723  105.839  405.567
  344.790    2.726  103.469  402.981
  345.040    2.929   99.341  393.246
  345.290    2.934   94.040  397.170
  345.540    2.936   85.795  402.395
  345.790    3.138   78.726  409.572
  346.040    3.341   74.007  415.453
  346.290    3.544   71.640  403.766
  346.540    3.546   73.396  404.438
  346.790    3.748   77.500  405.766
  347.040    3.952   79.838  407.094
  347.290    4.353   80.417  407.104
  347.540    4.553   81.582  407.782
  347.790    4.955   79.800  407.153
  348.040    5.356   78.024  409.131
  348.290    7.148   75.663  413.050
  348.540    8.544   73.296  426.731
  348.790   10.735   73.287  450.174
  349.040   12.329   72.096  463.855
  349.290   13.923   68.559  459.973
  349.540   15.119   62.663  418.366
  349.790   15.520   55.007  396.272
  350.040   15.524   49.702  394.998
  350.290   15.330   47.926  393.069
  350.540   15.332   46.736  392.440
  350.790   15.733   44.960  396.364
  351.040   16.731   44.357  400.283
  351.290   17.729   44.348  404.857
  351.540   18.727   44.333  406.190
  351.790   19.326   45.495  402.315
  352.040   20.523   46.665  401.025
  352.290   20.923   49.003  401.051
  352.540   22.121   51.343  401.073
  352.790   22.521   51.919  398.498
  353.040   23.520   51.317  397.864
  353.290   24.318   49.538  397.885
  353.540   24.919   48.944  400.519
  353.790   25.318   49.520  401.836
  354.040   25.720   53.622  403.153
  354.290   25.724   55.374  404.481
  354.540   25.528   55.948  407.110
  354.790   25.134   56.524  408.427
  355.040   24.739   57.100  411.055
  355.290   24.346   55.910  411.727
  355.540   23.753   55.313  413.695
  355.790   23.558   54.128  413.066
  356.040   23.163   52.937  416.345
  356.290   22.767   52.937  420.920
  356.540   21.976   50.555  419.640
  356.790   21.185   51.726  412.512
  357.040   20.393   53.475  414.490
  357.290   19.601   52.875  415.807
  357.540   19.008   51.684  416.474
  357.790   18.613   51.091  417.796
  358.040   17.623   51.661  420.430
  358.290   16.831   52.237  421.102
  358.540   16.238   53.405  419.173
  358.790   15.447   54.569  415.291
  359.040   15.250   55.142  411.405
  359.290   14.459   55.131  404.922
  359.540   14.463   54.534  392.590
  359.790   14.464   53.343  389.354
  360.040   15.066   52.155  385.473
  360.290   16.062   49.788  381.592
  360.540   17.656   50.364  377.711
  360.790   20.046   51.529  238.531
  361.040   25.020   51.520  206.675
  361.290   28.206   51.508  193.042
  361.540   28.408   51.491  197.622
  361.790   28.610   50.891  202.192
  362.040   28.613   49.703  211.319
  362.290   28.815   47.927  245.170
  362.540   29.017   49.091  263.404
  362.790   28.624   45.554  269.279
  363.040   27.633   39.068  265.398
  363.290   26.642   39.056  262.173
  363.540   24.259   39.632  267.398
  363.790   23.070   40.797  292.787
  364.040   21.881   43.137  342.898
  364.290   20.691   44.890  359.831
  364.540   19.699   46.048  370.916
  364.790   18.510   47.218  378.103
  365.040   16.724   48.383  378.764
  365.290   15.138   49.547  381.393
  365.540   14.146   51.885  383.366
  365.790   12.758   54.228  384.683
  366.040   12.563   56.566  387.322
  366.290   11.571   58.315  387.983
  366.540   11.376   58.898  388.661
  366.790   11.380   58.880  388.682
  367.040   11.383   57.692  388.698
  367.290   11.585   55.328  388.720
  367.540   11.789   53.552  387.446
  367.790   11.791   53.540  386.166
  368.040   11.794   54.117  384.887
  368.290   11.798   53.520  383.618
  368.540   11.800   51.735  383.634
  368.790   11.806   52.317  383.016
  369.040   11.809   54.655  383.027
  369.290   11.813   56.995  383.043
  369.540   11.815   56.395  383.726
  369.790   11.819   55.793  384.392
  370.040   11.822   55.196  385.070
  370.290   11.827   55.775  385.091
  370.540   11.433   56.346  382.506
  370.790   11.235   56.334  385.779
  371.040   10.246   56.322  402.067
  371.290    9.851   56.310  405.992
  371.540    8.860   56.302  411.217
  371.790    7.868   57.463  417.092
  372.040    6.680   59.803  418.420
  372.290    5.888   63.908  413.238
  372.540    5.495   69.777  401.551
  372.790    5.496   73.294  392.461
  373.040    7.488   77.399  364.513
  373.290   11.667   79.151  381.457
  373.540   12.466   73.847  393.832
  373.790   12.471   68.542  402.960
  374.040   12.075   56.178  412.738
