~VERSION INFORMATION
 VERS.                 2.0:   CWLS LOG ASCII STANDARD -VERSION 2.0
 WRAP.                  NO:   ONE LINE PER DEPTH STEP
~WELL INFORMATION BLOCK
#MNEM.UNIT           DATA                    DESCRIPTION OF MNEMONIC
#---------    -------------------            -------------------------------
# Generated from Intellog Unique Number	CS_69_70/WELL/834
WELL.         ET AL TWEEDIE                  : Well_name    - WELL
LOC .         00/07-18-069-12W4/0            : Location     - LOCATION
UWI .         00/07-18-069-12W4/0            : Uwi          - UNIQUE WELL ID
ENTR.         SP                             : Entered      - ENTERED BY
SRVC.         SCHLUMBERGER                   : Scn          - SERVICE COMPANY
STRT.M        290                            : top_depth    - START DEPTH
STOP.M        495                            : bot_depth    - STOP DEPTH
STEP.M        0.25                           : increment    - STEP LENGTH
 NULL. -999.2500:NULL Value
~CURVE INFORMATION BLOCK
#MNEM UNIT       ERCB CURVE CODE    CURVE DESCRIPTION
#-----------   ------------------   ----------------------------------
DEPT.M        00 001 00 00         : DEPTH        - DEPTH
GR  .API      00 310 00 00         : GR           - GAMMA RAY
NPHI.V/V      00 330 00 00         : PHIN         - NEUTRON POROSITY (LIMESTONE)
DPHI.V/V      00 890 00 00         : PHID         - DENSITY POROSITY (LIMESTONE)
ILD .OHMM     00 120 00 00         : RESD         - DEEP RESISTIVITY (DIL)
~PARAMETER INFORMATION
#MNEM.UNIT           DATA             DESCRIPTION OF MNEMONIC
#---------         -----------     ------------------------------
GL  .M        595.57               : gl           - GROUND LEVEL ELEVATION
EREF.M        598.5                : kb           - ELEVATION OF DEPTH REFERENCE
DATM.M        597.57               : datum        - DATUM ELEVATION
TDD .M        495                  : tdd          - TOTAL DEPTH DRILLER
RUN .         ONE                  : Run          - RUN NUMBER
ENG .         BILL                 : Engineer     - RECORDING ENGINEER
WIT .         JIM                  : Witness      - WITNESSED BY
MUD .         GEL                  : Mud_type     - MUD TYPE
MATR.         LIMESTONE            : Logunit      - NEUTRON MATRIX
TMAX.C        26                   : BHT          - MAXIMUM RECORDED TEMPERATURE
BHTD.M        495                  : BHTDEP       - MAXIMUM RECORDED TEMPERATURE
MATR.         1                    : LOGUNIT      - NEUTRON MATRIX
RMT .C        25                   : MDTP         - TEMPERATURE OF MUD
NEUT.         1                    : NEUTRON      - NEUTRON TYPE
RESI.         0                    : RESIST       - RESISTIVITY TYPE
RMC .OHMM     0.25                 : RMC          - RESISTIVITY OF MUD CAKE
RMF .OHMM     0.25                 : RMF          - RESISTIVITY OF MUD FILTRATE
SUFT.C        15                   : SUFT         - SURFACE TEMPERATURE
~A  DEPTH       GR     PHIN     PHID     RESD
  290.000   93.654    0.523    0.244    2.722
  290.250   92.503    0.526    0.239    2.827
  290.500   90.318    0.485    0.234    2.892
  290.750   88.925    0.479    0.255    2.976
  291.000   91.060    0.485    0.258    3.050
  291.250   90.639    0.483    0.248    3.120
  291.500   90.645    0.477    0.256    3.146
  291.750   95.154    0.498    0.247    3.096
  292.000   96.133    0.515    0.284    2.970
  292.250   95.347    0.529    0.265    2.906
  292.500   93.284    0.546    0.272    2.823
  292.750   91.707    0.564    0.282    2.728
  293.000   98.285    0.552    0.265    2.655
  293.250   99.386    0.538    0.322    2.608
  293.500   98.723    0.528    0.314    2.591
  293.750   97.937    0.520    0.291    2.612
  294.000   98.612    0.537    0.301    2.648
  294.250   95.392    0.543    0.319    2.669
  294.500   93.572    0.517    0.332    2.706
  294.750   93.761    0.505    0.249    2.738
  295.000   95.592    0.511    0.309    2.780
  295.250   94.198    0.524    0.332    2.782
  295.500   90.978    0.534    0.316    2.759
  295.750   88.428    0.518    0.336    2.750
  296.000   87.460    0.517    0.348    2.722
  296.250   88.804    0.525    0.293    2.699
  296.500   90.818    0.515    0.313    2.666
  296.750   90.337    0.514    0.332    2.629
  297.000   88.517    0.523    0.390    2.597
  297.250   81.099    0.496    0.413    2.560
  297.500   71.307    0.453    0.437    2.524
  297.750   65.896    0.363    0.211    2.607
  298.000   65.050    0.366    0.228    2.732
  298.250   71.932    0.378    0.270    2.704
  298.500   75.589    0.387    0.280    2.786
  298.750   75.899    0.389    0.261    2.971
  299.000   80.347    0.378    0.249    2.982
  299.250   87.412    0.382    0.238    3.057
  299.500   93.563    0.391    0.242    3.111
  299.750   99.959    0.397    0.254    3.141
  300.000  103.859    0.400    0.257    3.132
  300.250  106.238    0.393    0.274    3.071
  300.500  102.471    0.388    0.286    3.033
  300.750   94.565    0.399    0.288    3.036
  301.000   85.382    0.415    0.297    3.129
  301.250   83.562    0.431    0.318    3.231
  301.500   83.872    0.451    0.349    3.468
  301.750   90.998    0.469    0.322    3.635
  302.000   94.593    0.484    0.351    3.774
  302.250   94.782    0.494    0.321    3.805
  302.500   93.387    0.479    0.307    3.794
  302.750   89.620    0.473    0.306    3.790
  303.000   80.437    0.478    0.322    3.771
  303.250   74.114    0.423    0.307    3.738
  303.500   68.278    0.388    0.336    3.707
  303.750   63.294    0.373    0.260    3.709
  304.000   57.884    0.370    0.278    3.378
  304.250   54.177    0.372    0.283    3.110
  304.500   51.018    0.388    0.299    2.838
  304.750   48.528    0.397    0.313    2.613
  305.000   46.405    0.379    0.314    2.488
  305.250   45.740    0.372    0.304    2.368
  305.500   46.415    0.370    0.293    2.243
  305.750   52.080    0.390    0.302    2.199
  306.000   68.516    0.401    0.279    2.204
  306.250   75.946    0.402    0.262    2.247
  306.500   79.847    0.396    0.238    2.372
  306.750   81.921    0.383    0.232    2.604
  307.000   82.961    0.384    0.231    2.905
  307.250   83.819    0.386    0.246    3.384
  307.500   84.250    0.394    0.259    3.474
  307.750   82.613    0.398    0.256    3.541
  308.000   83.653    0.400    0.267    3.524
  308.250   88.892    0.404    0.273    3.424
  308.500   93.158    0.416    0.239    3.345
  308.750   94.624    0.422    0.232    3.268
  309.000   95.177    0.421    0.219    3.234
  309.250   94.209    0.449    0.203    3.327
  309.500   94.763    0.484    0.223    3.525
  309.750   97.324    0.526    0.204    3.743
  310.000  101.041    0.550    0.215    3.923
  310.250  104.759    0.564    0.255    3.860
  310.500  107.807    0.575    0.288    3.351
  310.750  102.153    0.585    0.307    2.850
  311.000   91.754    0.515    0.314    2.548
  311.250   82.874    0.450    0.321    2.249
  311.500   76.186    0.425    0.296    2.101
  311.750   72.175    0.410    0.279    2.080
  312.000   68.591    0.425    0.255    2.152
  312.250   66.346    0.438    0.242    2.288
  312.500   66.291    0.439    0.259    2.516
  312.750   68.121    0.423    0.270    2.757
  313.000   71.595    0.420    0.280    2.889
  313.250   74.400    0.445    0.263    3.079
  313.500   78.118    0.460    0.260    3.161
  313.750   81.044    0.451    0.256    3.253
  314.000   82.267    0.441    0.244    3.321
  314.250   83.916    0.445    0.240    3.386
  314.500   85.930    0.438    0.265    3.407
  314.750   89.830    0.445    0.250    3.441
  315.000   94.216    0.458    0.230    3.508
  315.250   99.456    0.465    0.242    3.542
  315.500  103.234    0.469    0.242    3.591
  315.750  103.422    0.478    0.206    3.613
  316.000  101.968    0.489    0.178    3.636
  316.250  101.973    0.494    0.189    3.645
  316.500  105.083    0.480    0.235    3.634
  316.750  107.218    0.471    0.256    3.544
  317.000  108.380    0.482    0.260    3.437
  317.250  110.576    0.502    0.266    3.326
  317.500  114.111    0.511    0.248    3.208
  317.750  115.030    0.485    0.221    3.122
  318.000  115.583    0.472    0.266    3.079
  318.250  114.189    0.461    0.265    3.087
  318.500  105.554    0.452    0.285    3.146
  318.750   97.344    0.437    0.292    3.340
  319.000   90.290    0.429    0.305    3.526
  319.250   87.010    0.423    0.322    3.483
  319.500   85.251    0.421    0.333    3.131
  319.750   85.196    0.429    0.299    2.810
  320.000   87.940    0.425    0.285    2.564
  320.250   90.927    0.419    0.291    2.445
  320.500   91.298    0.425    0.292    2.443
  320.750   87.713    0.421    0.273    2.480
  321.000   86.502    0.415    0.256    2.528
  321.250   89.307    0.407    0.245    2.597
  321.500   94.728    0.411    0.240    2.737
  321.750   97.715    0.428    0.247    2.915
  322.000   99.060    0.445    0.253    3.095
  322.250   99.065    0.453    0.248    3.256
  322.500   95.239    0.423    0.256    3.400
  322.750   93.052    0.417    0.260    3.255
  323.000   90.685    0.418    0.261    3.250
  323.250   91.542    0.405    0.275    3.193
  323.500   97.512    0.405    0.270    3.166
  323.750  101.838    0.433    0.263    3.116
  324.000  106.590    0.450    0.282    3.090
  324.250  110.733    0.467    0.278    3.086
  324.500  108.610    0.449    0.254    3.134
  324.750  105.694    0.441    0.239    3.183
  325.000  102.232    0.435    0.229    3.226
  325.250  100.290    0.455    0.253    3.211
  325.500   98.592    0.467    0.286    3.131
  325.750   97.988    0.462    0.296    3.064
  326.000   98.663    0.464    0.289    2.983
  326.250  101.894    0.474    0.292    2.892
  326.500  104.092    0.485    0.302    2.831
  326.750  105.009    0.492    0.310    2.802
  327.000  105.806    0.487    0.302    2.768
  327.250  106.056    0.477    0.294    2.744
  327.500  105.817    0.472    0.297    2.746
  327.750  103.327    0.466    0.305    2.753
  328.000  101.447    0.460    0.299    2.791
  328.250  101.453    0.459    0.291    2.850
  328.500  101.823    0.457    0.287    2.905
  328.750  102.072    0.453    0.279    2.950
  329.000  101.895    0.451    0.267    3.025
  329.250  105.065    0.456    0.260    3.060
  329.500  104.280    0.463    0.272    3.102
  329.750  102.703    0.460    0.282    3.092
  330.000  100.823    0.461    0.289    2.999
  330.250   96.933    0.456    0.291    2.866
  330.500   92.314    0.448    0.273    2.784
  330.750   86.965    0.440    0.306    2.670
  331.000   81.676    0.437    0.290    2.561
  331.250   74.988    0.432    0.322    2.497
  331.500   69.821    0.422    0.351    2.430
  331.750   65.810    0.421    0.345    2.379
  332.000   70.259    0.428    0.338    2.345
  332.250   72.454    0.441    0.323    2.313
  332.500   75.746    0.439    0.307    2.306
  332.750   76.726    0.436    0.293    2.333
  333.000   75.088    0.445    0.301    2.468
  333.250   75.459    0.438    0.299    2.562
