~VERSION INFORMATION
 VERS.                 2.0:   CWLS LOG ASCII STANDARD -VERSION 2.0
 WRAP.                  NO:   ONE LINE PER DEPTH STEP
~WELL INFORMATION BLOCK
#MNEM.UNIT           DATA                    DESCRIPTION OF MNEMONIC
#---------    -------------------            -------------------------------
# Generated from Intellog Unique Number	CW_73_75/WELL/3492
WELL.         SUNLITE CANPLAC MCMILLAN       : Well_name    - WELL
LOC .         00/06-22-075-19W4/0            : Location     - LOCATION
UWI .         00/06-22-075-19W4/0            : Uwi          - UNIQUE WELL ID
ENTR.         JOE                            : Entered      - ENTERED BY
SRVC.         SCHLUMBERGER                   : Scn          - SERVICE COMPANY
DATE.         2 MAR 78                       : Date         - LOG DATE
STRT.M        405.384                        : top_depth    - START DEPTH
STOP.M        490.634                        : bot_depth    - STOP DEPTH
STEP.M        0.25                           : increment    - STEP LENGTH
 NULL. -999.2500:NULL Value
~CURVE INFORMATION BLOCK
#MNEM UNIT       ERCB CURVE CODE    CURVE DESCRIPTION
#-----------   ------------------   ----------------------------------
DEPT.M        00 001 00 00         : DEPTH        - DEPTH
CALI.IN       00 280 01 00         : CAL          - CALIPER
GR  .API      00 310 00 00         : GR           - GAMMA RAY
DELT.US/F     00 520 00 00         : DELT         - SONIC TRAVEL TIME
ILD .OHMM     00 120 00 00         : RESD         - DEEP RESISTIVITY (DIL)
~PARAMETER INFORMATION
#MNEM.UNIT           DATA             DESCRIPTION OF MNEMONIC
#---------         -----------     ------------------------------
GL  .M        600.151              : gl           - GROUND LEVEL ELEVATION
EREF.M        603.099              : kb           - ELEVATION OF DEPTH REFERENCE
DATM.M        603.099              : datum        - DATUM ELEVATION
TDD .M        509.016              : tdd          - TOTAL DEPTH DRILLER
RUN .         ONE                  : Run          - RUN NUMBER
ENG .         VERRAIRES            : Engineer     - RECORDING ENGINEER
WIT .         BRINKMAN             : Witness      - WITNESSED BY
BASE.         EDM                  : Branch       - HOME BASE OF LOGGING UNIT
MUD .         GEL CHEM             : Mud_type     - MUD TYPE
MATR.         SANDSTONE            : Logunit      - NEUTRON MATRIX
TMAX.F        73                   : BHT          - MAXIMUM RECORDED TEMPERATURE
BHTD.F        1669                 : BHTDEP       - MAXIMUM RECORDED TEMPERATURE
RMT .F        73                   : MDTP         - TEMPERATURE OF MUD
MUDD.LB/G     9.2                  : MWT          - MUD DENSITY
NEUT.         1                    : NEUTRON      - NEUTRON TYPE
RESI.         0                    : RESIST       - RESISTIVITY TYPE
RM  .OHMM     3.9                  : RM           - RESISTIVITY OF MUD
RMC .OHMM     0                    : RMC          - RESISTIVITY OF MUD CAKE
RMF .OHMM     4.56                 : RMF          - RESISTIVITY OF MUD FILTRATE
SUFT.F        5                    : SUFT         - SURFACE TEMPERATURE
~A  DEPTH      CAL       GR     DELT     RESD
# ...
  448.884    6.492   75.190  383.760    6.075
  449.134    6.474   76.646  375.743    5.916
  449.384    6.436   78.968  367.406    5.871
  449.634    6.437   80.420  353.307    5.881
  449.884    6.438   82.165  357.133    6.051
  450.134    6.439   83.909  371.523    6.225
  450.384    6.440   83.634  377.270    6.225
  450.634    6.421   81.913  368.612    6.301
  450.884    6.422   79.043  363.796    6.479
  451.134    6.404   79.920  365.380    6.607
  451.384    6.405   79.645  364.408    6.737
  451.634    6.406   77.349  358.949    6.806
  451.884    6.426   76.783  356.373    6.943
  452.134    6.465   78.238  361.482    7.013
  452.384    6.524   80.849  376.833    7.026
  452.634    6.486   83.459  396.984    6.972
  452.884    6.429   85.778  408.812    6.739
  453.134    6.391   89.829  414.880    6.396
  453.384    6.373   93.883  410.063    5.911
  453.634    6.374   95.916  397.886    5.463
  453.884    6.413   96.507  396.908    5.094
  454.134    6.510   95.074  399.137    4.793
  454.384    6.627   91.335  392.399    4.591
  454.634    6.531   87.019  365.176    4.516
  454.884    6.570   85.593  346.916    4.563
  455.134    6.840   85.894  346.262    4.694
  455.384    6.784   87.636  354.570    4.961
  455.634    6.727   92.841  379.842    5.288
  455.884    6.901   96.892  392.631    5.792
  456.134    6.863   98.063  403.500    6.287
  456.384    6.825   96.919  407.006    6.525
  456.634    6.749   90.873  393.548    6.594
  456.884    6.673   85.402  376.248    6.489
  457.134    6.616   73.584  333.341    6.497
  457.384    6.560   63.789  295.873    6.625
  457.634    6.541   66.973  319.868    6.936
  457.884    6.523   66.986  342.899    7.664
  458.134    6.504   64.691  355.688    8.394
  458.384    6.505   75.378  361.114    9.111
  458.634    6.487   79.431  360.460    9.541
  458.884    6.488   71.656  347.003    9.995
  459.134    6.469   62.432  347.947   10.370
  459.384    6.470   42.536  351.134   11.158
  459.634    6.432   47.742  357.841   12.438
  459.884    6.414   58.432  370.630   15.571
  460.134    6.415   65.657  380.859   19.323
  460.384    6.416   77.212  379.561   22.124
  460.634    6.436   81.840  370.585   24.892
  460.884    6.456   86.179  356.808   20.299
  461.134    6.476   92.830  343.348   15.975
  461.384    6.496   97.459  343.975   14.119
  461.634    6.497   92.854  346.520   12.704
  461.884    6.498   83.923  342.665   11.742
  462.134    6.518   78.166  326.325   11.146
  462.384    6.519   72.694  323.749   10.678
  462.634    6.520   66.360  327.896   10.691
  462.884    6.501   60.889  321.795   10.691
  463.134    6.483   65.809  319.544   10.725
  463.384    6.445   68.416  316.968   11.030
  463.634    6.427   77.951  314.392   11.347
  463.884    6.389   83.159  307.976   11.467
  464.134    6.370   79.707  280.753   11.589
  464.384    6.352   67.312  271.455   11.501
  464.634    6.353   47.994  324.578   11.216
  464.884    6.335   38.485  360.093   10.839
  465.134    6.335   42.249  356.557   10.568
  465.384    6.336   46.589  349.821   10.308
  465.634    6.337   50.930  336.682   10.233
  465.884    6.357   53.827  327.702   10.233
  466.134    6.358   48.647  340.174   10.259
  466.384    6.359   48.083  347.522   10.095
  466.634    6.360   48.383  347.186    9.668
  466.884    6.361   43.202  354.214    9.096
  467.134    6.361   39.464  368.604    8.483
  467.384    6.382   40.630  376.911    7.910
  467.634    6.382   45.837  376.897    7.312
  467.884    6.402   52.196  369.520    7.000
  468.134    6.442   64.904  360.543    6.529
  468.384    6.539   88.577  340.042    6.255
  468.634    6.559   91.764  325.303    6.209
  468.884    6.541   83.699  327.529    6.272
  469.134    6.464   70.148  323.673    6.396
  469.384    6.446   70.450  323.017    6.698
  469.634    6.447   77.100  324.604    6.951
  469.884    6.448   84.326  322.988    7.612
  470.134    6.448   86.646  327.775    8.638
  470.384    6.469   90.409  330.962    9.547
  470.634    6.489   91.576  324.225    9.996
  470.884    6.490   78.027  323.251   10.193
  471.134    6.471   62.747  340.520   10.301
  471.384    6.433   55.548  352.029   10.225
  471.634    6.434   57.578  360.017   10.061
  471.884    6.454   64.516  351.360    9.997
  472.134    6.474   77.516  330.538    9.824
  472.384    6.475   80.411  309.077    9.327
  472.634    6.495   85.617  309.703    9.011
  472.884    6.515   96.883  313.849    8.786
  473.134    6.535  109.590  312.233    8.644
  473.384    6.536  110.181  307.418    8.656
  473.634    6.556   87.976  299.722    8.827
  473.884    6.577   77.024  292.343    9.080
  474.134    6.577   69.247  294.249    9.597
  474.384    6.578   68.393  299.037   10.229
  474.634    6.579   66.386  303.824   10.712
  474.884    6.580   65.244  309.890   11.222
  475.134    6.581   66.701  313.717   11.441
  475.384    6.581   69.020  315.304   11.664
  475.634    6.582   75.381  315.289   11.790
  475.884    6.583   78.858  315.275   11.803
  476.134    6.546   80.888  314.619   11.834
  476.384    6.508   83.787  314.922   11.841
  476.634    6.470   81.779  314.590   11.648
  476.884    6.452   71.405  313.615   11.359
  477.134    6.453   66.223  313.600   10.979
  477.384    6.492   73.163  317.747   10.606
  477.634    6.550   78.078  327.334   10.075
  477.884    6.628   82.421  330.521    9.908
  478.134    6.706   81.278  328.265    9.747
  478.384    6.765   80.425  328.250    9.674
  478.634    6.804   83.323  333.357    9.352
  478.884    6.843   87.663  343.586    9.115
  479.134    6.883   95.467  354.775    8.809
  479.384    6.903  101.539  363.404    8.438
  479.634    6.923  100.975  370.108    8.010
  479.884    6.923   96.946  373.297    7.539
  480.134    6.924   94.653  377.443    7.029
  480.384    6.925   93.799  380.948    6.673
  480.634    6.926   92.945  383.495    6.504
  480.884    6.927   91.804  383.479    6.504
  481.134    6.928   91.240  382.503    6.355
  481.384    6.928   90.962  381.211    6.248
  481.634    6.929   90.979  378.313    6.147
  481.884    6.950   91.567  375.420    6.104
  482.134    6.950   92.445  374.444    6.058
  482.384    6.990   93.899  380.512    6.067
  482.634    6.990   97.086  394.262    6.076
  482.884    6.991   99.982  409.930    6.086
  483.134    6.934  105.479  418.239    6.094
  483.384    6.858  102.895  413.424    6.103
  483.634    6.840  101.755  383.960    6.058
  483.884    6.822  102.632  390.026    6.068
  484.134    6.803   99.468  404.096    6.078
  484.384    6.804   91.978  404.081    6.034
  484.634    6.843   86.510  362.454    6.042
  484.884    6.902   82.194  342.913    6.052
  485.134    6.980   80.764  347.381    6.114
  485.384    7.019   85.104  398.901    6.124
  485.634    6.847   94.639  412.330    5.815
  485.884    6.828  110.523  444.005    5.520
  486.134    6.791  113.707  448.793    5.383
  486.384    6.753  111.700  428.932    5.488
  486.634    6.792   81.417  455.485    5.798
  486.884    6.812   58.635  313.988    6.293
  487.134    6.832   49.991  334.459    7.807
  487.384    6.776   39.040  288.992    8.552
  487.634    6.757   35.014  266.250    9.703
  487.884    6.758   31.275  231.665   11.211
  488.134    6.701   28.401  208.923   12.723
  488.384    6.702   33.897  217.230   14.312
  488.634    6.684   39.969  245.384   14.085
  488.884    6.704   47.771  268.416   14.103
  489.134    6.743   54.132  276.084   14.768
  489.384    6.763   46.354  240.219   15.888
  489.634    6.783   34.824  204.354   17.710
  489.884    6.765   31.090  192.814   23.605
  490.134    6.746   31.964  213.607   28.020
  490.384    6.747   35.441  237.600   28.061
  490.634    6.748   39.204  247.507   25.019
