~VERSION INFORMATION
 VERS.                 2.0:   CWLS LOG ASCII STANDARD -VERSION 2.0
 WRAP.                  NO:   ONE LINE PER DEPTH STEP
~WELL INFORMATION BLOCK
#MNEM.UNIT           DATA                    DESCRIPTION OF MNEMONIC
#---------    -------------------            -------------------------------
# Generated from Intellog Unique Number	CW_76_78/WELL/554
WELL.         AMOCO ROCK 07-06               : Well_name    - WELL
LOC .         00/07-06-077-23W4/0            : Location     - LOCATION
UWI .         00/07-06-077-23W4/0            : Uwi          - UNIQUE WELL ID
ENTR.         jj                             : Entered      - ENTERED BY
SRVC.         WESTERN ATLAS                  : Scn          - SERVICE COMPANY
DATE.         12 MAR 78                      : Date         - LOG DATE
STRT.M        524.256                        : top_depth    - START DEPTH
STOP.M        765.006                        : bot_depth    - STOP DEPTH
STEP.M        0.25                           : increment    - STEP LENGTH
 NULL. -999.2500:NULL Value
~CURVE INFORMATION BLOCK
#MNEM UNIT       ERCB CURVE CODE    CURVE DESCRIPTION
#-----------   ------------------   ----------------------------------
DEPT.M        00 001 00 00         : DEPTH        - DEPTH
ILD .OHMM     00 120 00 00         : RESD         - DEEP RESISTIVITY (DIL)
DPHI.V/V      00 890 00 00         : PHID         - DENSITY POROSITY (SANDSTONE)
NPHI.V/V      00 330 00 00         : PHIN         - NEUTRON POROSITY (SANDSTONE)
GR  .API      00 310 00 00         : GR           - GAMMA RAY
CALI.MM       00 280 01 00         : CAL          - CALIPER
~PARAMETER INFORMATION
#MNEM.UNIT           DATA             DESCRIPTION OF MNEMONIC
#---------         -----------     ------------------------------
GL  .M        828.294              : gl           - GROUND LEVEL ELEVATION
EREF.M        832.104              : kb           - ELEVATION OF DEPTH REFERENCE
DATM.M        828.294              : datum        - DATUM ELEVATION
TDD .M        789.432              : tdd          - TOTAL DEPTH DRILLER
RUN .         ONE                  : Run          - RUN NUMBER
ENG .         BURLET               : Engineer     - RECORDING ENGINEER
WIT .         MCDONALD             : Witness      - WITNESSED BY
BASE.         EDMONTON             : Branch       - HOME BASE OF LOGGING UNIT
MUD .         GEL BENDEX           : Mud_type     - MUD TYPE
MATR.         SANDSTONE            : Logunit      - NEUTRON MATRIX
TMAX.C        32.7778              : BHT          - MAXIMUM RECORDED TEMPERATURE
BHTD.M        788.213              : BHTDEP       - MAXIMUM RECORDED TEMPERATURE
RMT .C        20.5556              : MDTP         - TEMPERATURE OF MUD
MUDD.KG/M     1080                 : MWT          - MUD DENSITY
NEUT.         1                    : NEUTRON      - NEUTRON TYPE
RESI.         0                    : RESIST       - RESISTIVITY TYPE
RM  .OHMM     2.43                 : RM           - RESISTIVITY OF MUD
RMC .OHMM     3.7                  : RMC          - RESISTIVITY OF MUD CAKE
RMF .OHMM     2.9                  : RMF          - RESISTIVITY OF MUD FILTRATE
SUFT.C        4.5                  : SUFT         - SURFACE TEMPERATURE
~A  DEPTH     RESD     PHID     PHIN       GR      CAL
# ...
  597.256    6.194    0.302    0.446   52.002  235.574
  597.506    6.193    0.301    0.449   53.559  235.771
  597.756    6.121    0.295    0.457   55.806  236.177
  598.006    5.959    0.288    0.462   58.806  236.480
  598.256    5.672    0.282    0.465   65.189  236.571
  598.506    5.318    0.269    0.463   74.644  236.446
  598.756    4.996    0.253    0.460   79.334  235.263
  599.006    4.418    0.235    0.451   79.012  232.806
  599.256    3.672    0.254    0.447   74.740  230.349
  599.506    2.972    0.299    0.439   67.960  227.891
  599.756    2.531    0.320    0.419   64.691  224.157
  600.006    2.268    0.287    0.412   65.622  222.550
  600.256    2.267    0.271    0.408   68.245  222.107
  600.506    2.625    0.249    0.407   70.429  221.669
  600.756    2.978    0.237    0.408   69.041  221.330
  601.006    3.390    0.242    0.409   66.461  221.209
  601.256    3.963    0.277    0.405   67.014  220.982
  601.506    4.428    0.271    0.400   69.448  220.859
  601.756    4.782    0.259    0.395   70.882  220.841
  602.006    4.973    0.251    0.391   71.248  220.827
  602.256    5.000    0.248    0.389   71.051  220.917
  602.506    4.932    0.255    0.388   70.413  221.006
  602.756    4.894    0.280    0.378   68.837  221.096
  603.006    4.810    0.278    0.368   66.759  221.080
  603.256    4.781    0.256    0.365   67.062  221.911
  603.506    4.761    0.240    0.363   69.247  224.762
  603.756    4.759    0.239    0.357   68.735  231.008
  604.006    4.776    0.246    0.331   63.461  238.845
  604.256    4.856    0.233    0.231   56.181  242.331
  604.506    4.974   -0.014    0.196   47.019  243.162
  604.756    5.087    0.006    0.198   44.690  243.356
  605.006    5.330    0.039    0.206   47.062  243.021
  605.256    6.012    0.154    0.388   52.255  242.584
  605.506    8.406    0.200    0.396   61.521  242.142
  605.756   11.490    0.205    0.400   67.467  241.912
  606.006   13.181    0.212    0.403   77.173  241.684
  606.256   13.478    0.217    0.405   77.037  241.243
  606.506   11.875    0.220    0.406   76.276  240.695
  606.756    7.738    0.215    0.407   77.645  240.253
  607.006    5.356    0.200    0.407   80.957  239.920
  607.256    4.781    0.185    0.404   82.639  239.903
  607.506    4.577    0.184    0.402   85.200  240.419
  607.756    4.481    0.190    0.400   85.377  241.038
  608.006    4.371    0.189    0.399   82.611  241.763
  608.256    4.337    0.180    0.399   79.528  241.961
  608.506    4.144    0.170    0.392   76.511  241.942
  608.756    3.951    0.152    0.373   66.911  242.244
  609.006    3.906    0.016    0.299   64.331  242.336
  609.256    3.926    0.033    0.262   66.766  242.426
  609.506    4.084    0.055    0.248   81.988  242.621
  609.756    4.255    0.097    0.329   84.673  242.922
  610.006    4.326    0.171    0.417   83.535  243.014
  610.256    4.316    0.172    0.420   81.583  242.997
  610.506    4.291    0.174    0.428   79.944  242.662
  610.756    4.185    0.176    0.429   79.933  242.324
  611.006    4.006    0.191    0.428   79.423  241.780
  611.256    3.879    0.214    0.424   73.395  241.443
  611.506    3.783    0.212    0.425   70.126  241.215
  611.756    3.670    0.207    0.435   69.740  240.667
  612.006    3.506    0.205    0.443   73.805  240.440
  612.256    3.337    0.211    0.442   78.746  240.315
  612.506    3.177    0.189    0.437   80.367  241.363
  612.756    2.917    0.195    0.435   82.175  242.408
  613.006    2.599    0.202    0.440   84.735  243.027
  613.256    1.958    0.209    0.442   88.423  243.541
  613.506    1.445    0.218    0.437   88.163  244.159
  613.756    1.105    0.239    0.430   85.145  244.356
  614.006    1.029    0.220    0.422   81.750  244.444
  614.256    1.028    0.177    0.414   80.674  244.536
  614.506    1.096    0.168    0.408   81.041  243.989
  614.756    1.218    0.174    0.403   81.595  243.122
  615.006    1.355    0.170    0.398   79.329  241.939
  615.256    1.563    0.171    0.391   77.627  240.544
  615.506    1.862    0.244    0.378   76.238  239.255
  615.756    2.223    0.241    0.347   71.089  238.176
  616.006    2.623    0.217    0.287   65.940  237.734
  616.256    2.998    0.187    0.284   63.423  237.401
  616.506    3.141    0.138    0.310   62.097  237.702
  616.756    3.367    0.118    0.349   62.087  238.109
  617.006    3.575    0.116    0.386   63.519  238.518
  617.256    4.364    0.139    0.408   67.708  238.714
  617.506    5.734    0.157    0.419   73.277  238.804
  617.756    8.468    0.176    0.422   75.523  238.680
  618.006    8.060    0.212    0.422   74.449  238.133
  618.256    7.155    0.237    0.415   70.551  237.163
  618.506    5.780    0.257    0.408   69.978  236.827
  618.756    4.463    0.258    0.407   68.528  236.705
  619.006    4.052    0.259    0.408   66.010  235.837
  619.256    3.975    0.259    0.406   65.813  234.655
  619.506    3.989    0.260    0.405   67.056  234.212
  619.756    4.149    0.263    0.407   69.052  234.410
  620.006    4.430    0.268    0.415   71.236  234.499
  620.256    4.704    0.261    0.424   72.166  233.633
  620.506    4.711    0.253    0.427   71.530  232.450
  620.756    4.701    0.239    0.425   69.013  231.900
  621.006    4.708    0.258    0.421   68.251  231.673
  621.256    4.715    0.274    0.419   68.305  231.233
  621.506    4.687    0.286    0.412   68.106  230.896
  621.756    4.677    0.287    0.405   65.339  230.242
  622.006    4.675    0.277    0.407   67.148  230.015
  622.256    4.682    0.271    0.416   69.395  229.786
  622.506    4.689    0.280    0.418   63.994  229.983
  622.756    4.679    0.292    0.418   60.412  229.966
  623.006    4.668    0.304    0.416   58.772  229.738
  623.256    4.641    0.303    0.414   59.702  231.207
  623.506    4.639    0.294    0.412   62.012  232.994
  623.756    4.690    0.229    0.406   63.506  234.358
  624.006    4.778    0.189    0.398   62.181  235.297
  624.256    4.978    0.137    0.392   57.783  235.705
  624.506    5.187    0.254    0.408   56.831  236.219
  624.756    5.364    0.264    0.417   58.515  236.416
  625.006    5.292    0.247    0.417   61.828  236.396
  625.256    5.182    0.227    0.414   68.024  235.958
  625.506    5.007    0.236    0.413   72.714  235.834
  625.756    4.712    0.232    0.422   75.526  235.500
  626.006    4.402    0.244    0.428   76.519  235.484
  626.256    4.158    0.256    0.418   75.381  235.466
  626.506    4.033    0.260    0.406   72.925  235.769
  626.756    3.919    0.204    0.394   72.416  236.282
  627.006    3.845    0.164    0.382   71.215  236.692
  627.256    3.843    0.134    0.373   64.875  237.312
  627.506    4.020    0.136    0.363   62.232  238.038
  627.756    4.252    0.179    0.365   65.106  238.443
  628.006    4.481    0.154    0.376   72.617  238.747
  628.256    4.599    0.130    0.380   71.980  238.943
  628.506    4.694    0.141    0.382   68.461  239.140
  628.756    4.684    0.181    0.387   69.830  239.124
  629.006    4.638    0.196    0.404   71.638  239.213
  629.256    4.593    0.227    0.419   72.004  239.407
  629.506    4.540    0.232    0.429   73.123  239.179
  629.756    4.496    0.213    0.436   75.683  239.270
  630.006    4.385    0.213    0.437   78.056  239.466
  630.256    4.238    0.213    0.435   78.610  239.767
  630.506    4.011    0.215    0.430   79.290  240.174
  630.756    3.796    0.217    0.426   80.972  240.475
  631.006    3.641    0.202    0.423   82.217  240.673
  631.256    3.511    0.195    0.422   82.770  240.869
  631.506    3.432    0.193    0.419   82.258  240.853
  631.756    3.398    0.200    0.415   79.366  240.837
  632.006    3.390    0.234    0.408   77.038  240.606
  632.256    3.409    0.213    0.407   79.221  240.803
  632.506    3.452    0.203    0.407   81.343  240.787
  632.756    3.491    0.198    0.408   81.082  241.086
  633.006    3.523    0.196    0.410   80.633  241.176
  633.256    3.535    0.193    0.409   81.627  241.373
  633.506    3.540    0.179    0.407   82.620  241.782
