~VERSION INFORMATION
 VERS.                 2.0:   CWLS LOG ASCII STANDARD -VERSION 2.0
 WRAP.                  NO:   ONE LINE PER DEPTH STEP
~WELL INFORMATION BLOCK
#MNEM.UNIT           DATA                    DESCRIPTION OF MNEMONIC
#---------    -------------------            -------------------------------
# Generated from Intellog Unique Number	CS_73_76/WELL/2175
WELL.         BOW VALLEY INDUSTRIES LTD.     : Well_name    - WELL
LOC .         00/07-20-074-13W4/0            : Location     - LOCATION
UWI .         00/07-20-074-13W4/0            : Uwi          - UNIQUE WELL ID
ENTR.         SP                             : Entered      - ENTERED BY
SRVC.         SCHLUMBERGER                   : Scn          - SERVICE COMPANY
STRT.M        370                            : top_depth    - START DEPTH
STOP.M        605                            : bot_depth    - STOP DEPTH
STEP.M        0.25                           : increment    - STEP LENGTH
 NULL. -999.2500:NULL Value
~CURVE INFORMATION BLOCK
#MNEM UNIT       ERCB CURVE CODE    CURVE DESCRIPTION
#-----------   ------------------   ----------------------------------
DEPT.M        00 001 00 00         : DEPTH        - DEPTH
ILD .OHMM     00 120 00 00         : RESD         - DEEP RESISTIVITY (DIL)
DPHI.V/V      00 890 00 00         : PHID         - DENSITY POROSITY (LIMESTONE)
NPHI.V/V      00 330 00 00         : PHIN         - NEUTRON POROSITY (LIMESTONE)
GR  .API      00 310 00 00         : GR           - GAMMA RAY
~PARAMETER INFORMATION
#MNEM.UNIT           DATA             DESCRIPTION OF MNEMONIC
#---------         -----------     ------------------------------
GL  .M        728.69               : gl           - GROUND LEVEL ELEVATION
EREF.M        732.14               : kb           - ELEVATION OF DEPTH REFERENCE
DATM.M        728.69               : datum        - DATUM ELEVATION
TDD .M        610                  : tdd          - TOTAL DEPTH DRILLER
RUN .         ONE                  : Run          - RUN NUMBER
ENG .         BILL                 : Engineer     - RECORDING ENGINEER
WIT .         JIM                  : Witness      - WITNESSED BY
MUD .         GEL                  : Mud_type     - MUD TYPE
MATR.         LIMESTONE            : Logunit      - NEUTRON MATRIX
TMAX.C        24                   : BHT          - MAXIMUM RECORDED TEMPERATURE
BHTD.M        610                  : BHTDEP       - MAXIMUM RECORDED TEMPERATURE
MATR.         1                    : LOGUNIT      - NEUTRON MATRIX
RMT .C        25                   : MDTP         - TEMPERATURE OF MUD
NEUT.         1                    : NEUTRON      - NEUTRON TYPE
RESI.         0                    : RESIST       - RESISTIVITY TYPE
RMC .OHMM     0.25                 : RMC          - RESISTIVITY OF MUD CAKE
RMF .OHMM     0.25                 : RMF          - RESISTIVITY OF MUD FILTRATE
SUFT.C        15                   : SUFT         - SURFACE TEMPERATURE
~A  DEPTH     RESD     PHID     PHIN       GR
  370.000    2.890    0.206    1.015   97.774
  370.250    2.891    0.207    0.523   98.382
  370.500    2.838    0.214    0.537  100.205
  370.750    2.786    0.218    0.538  100.813
  371.000    2.786    0.197    0.503  100.814
  371.250    2.892    0.189    0.496   99.600
  371.500    3.116    0.198    0.508   97.171
  371.750    3.358    0.201    0.468   92.921
  372.000    3.618    0.209    0.461   92.921
  372.250    3.618    0.194    0.480   97.781
  372.500    3.359    0.200    0.502   98.996
  372.750    3.297    0.197    0.512   98.997
  373.000    3.177    0.208    0.506   98.997
  373.250    3.005    0.203    0.506   98.998
  373.500    2.739    0.201    0.506  100.821
  373.750    2.688    0.192    0.498  102.036
  374.000    2.543    0.203    0.496  101.430
  374.250    2.543    0.209    0.504   99.608
  374.500    2.897    0.224    0.524   96.573
  374.750    3.008    0.223    0.525   99.610
  375.000    3.241    0.226    0.523  103.254
  375.250    3.302    0.224    0.509  104.470
  375.500    3.302    0.221    0.512  103.863
  375.750    3.182    0.213    0.535  105.686
  376.000    3.124    0.221    0.534  103.257
  376.250    2.955    0.204    0.531  102.044
  376.500    2.900    0.215    0.532  100.830
  376.750    2.901    0.209    0.526  100.223
  377.000    2.956    0.226    0.520  102.046
  377.250    3.068    0.232    0.513  104.476
  377.500    3.185    0.218    0.503  104.476
  377.750    3.246    0.209    0.491  101.441
  378.000    3.186    0.209    0.461   99.620
  378.250    3.128    0.226    0.466   97.799
  378.500    3.128    0.226    0.490   92.941
  378.750    3.434    0.242    0.531   87.476
  379.000    4.061    0.283    0.548   77.760
  379.250    4.802    0.336    0.567   72.295
  379.500    6.005    0.398    0.558   66.223
  379.750    6.716    0.336    0.469   61.973
  380.000    7.237    0.316    0.451   58.330
  380.250    7.513    0.309    0.432   55.294
  380.500    7.513    0.317    0.428   54.687
  380.750    7.514    0.319    0.433   58.332
  381.000    7.515    0.315    0.444   61.369
  381.250    7.378    0.323    0.443   62.584
  381.500    7.379    0.329    0.442   61.978
  381.750    7.379    0.336    0.433   61.371
  382.000    7.381    0.338    0.431   61.372
  382.250    7.382    0.329    0.421   61.980
  382.500    7.382    0.305    0.415   63.803
  382.750    7.522    0.290    0.426   67.447
  383.000    7.665    0.289    0.421   71.092
  383.250    7.810    0.272    0.431   74.737
  383.500    7.958    0.283    0.442   76.559
  383.750    7.959    0.295    0.427   79.596
  384.000    7.527    0.282    0.425   83.241
  384.250    6.988    0.276    0.403   85.063
  384.500    6.609    0.254    0.409   92.959
  384.750    6.369    0.221    0.411  101.462
  385.000    6.023    0.215    0.423  103.284
  385.250    5.592    0.203    0.432  106.321
  385.500    5.289    0.206    0.438  106.322
  385.750    4.910    0.195    0.450  104.501
  386.000    5.193    0.183    0.463  102.680
  386.250    5.595    0.186    0.440   99.037
  386.500    6.028    0.198    0.454   94.786
  386.750    6.376    0.211    0.466   79.605
  387.000    6.618    0.257    0.474   74.747
  387.250    7.131    0.324    0.434   71.104
  387.500    7.403    0.304    0.417   72.927
  387.750    7.543    0.299    0.416   77.179
  388.000    7.686    0.304    0.431   79.609
  388.250    7.687    0.277    0.438   82.038
  388.500    7.832    0.266    0.417   84.468
  388.750    8.130    0.242    0.431   86.898
  389.000    8.284    0.264    0.438   94.794
  389.250    8.285    0.278    0.436  101.475
  389.500    7.550    0.269    0.431  106.334
  389.750    7.275    0.261    0.433  105.727
  390.000    6.507    0.255    0.427  100.869
  390.250    6.041    0.272    0.425   93.583
  390.500    5.608    0.290    0.451   88.118
  390.750    5.304    0.306    0.517   97.835
  391.000    5.305    0.292    0.532  102.694
  391.250    5.507    0.205    0.507  100.266
  391.500    6.045    0.168    0.465   89.335
  391.750    6.887    0.174    0.436   73.546
  392.000    7.561    0.189    0.415   62.009
  392.250    7.848    0.275    0.421   54.115
  392.500    7.997    0.310    0.420   45.614
  392.750    7.998    0.323    0.394   43.185
  393.000    7.153    0.321    0.399   46.830
  393.250    6.050    0.310    0.388   54.725
  393.500    5.214    0.144    0.382   63.835
  393.750    4.840    0.121    0.450   84.484
  394.000    4.494    0.122    0.485   97.238
  394.250    4.330    0.137    0.497  114.242
  394.500    4.251    0.147    0.484  114.243
  394.750    4.021    0.127    0.486  121.532
  395.000    3.874    0.125    0.505  124.569
  395.250    3.465    0.136    0.512  128.213
  395.500    3.339    0.116    0.515  128.214
  395.750    3.042    0.143    0.528  124.571
  396.000    2.931    0.121    0.532  124.572
  396.250    2.773    0.161    0.543  122.750
  396.500    2.932    0.214    0.558  120.929
  396.750    3.341    0.219    0.572  117.286
  397.000    4.256    0.217    0.553  112.429
  397.250    5.128    0.229    0.534  109.393
  397.500    6.178    0.241    0.508  103.928
  397.750    7.444    0.249    0.466  100.893
  398.000    8.021    0.260    0.449  100.286
  398.250    8.172    0.270    0.438  100.287
  398.500    8.327    0.259    0.454   97.858
  398.750    8.807    0.251    0.465   94.215
  399.000    8.973    0.254    0.478   88.143
  399.250    9.491    0.272    0.483   83.285
  399.500    9.492    0.277    0.461   78.428
  399.750    9.318    0.281    0.444   74.785
  400.000    7.881    0.287    0.444   73.571
  400.250    7.316    0.286    0.433   82.074
  400.500    6.075    0.270    0.438  100.901
  400.750    5.639    0.090    0.442  105.760
  401.000    5.044    0.052    0.468  104.546
  401.250    4.683    0.000    0.502   96.044
  401.500    5.045    0.000    0.448   96.045
  401.750    5.538    0.000    0.434  111.228
  402.000    6.310    0.003    0.459  112.443
  402.250    7.462    0.202    0.438  108.801
  402.500    8.040    0.230    0.434  104.550
  402.750    9.162    0.239    0.403  103.336
  403.000    9.510    0.237    0.385  102.730
  403.250    9.690    0.245    0.404  102.123
  403.500    9.692    0.260    0.428  101.517
  403.750    9.514    0.269    0.433  100.303
  404.000    8.998    0.251    0.431   97.874
  404.250    7.900    0.241    0.430   94.231
  404.500    7.471    0.243    0.426   91.803
  404.750    6.808    0.229    0.430   99.698
  405.000    6.809    0.230    0.443  105.165
  405.250    7.615    0.223    0.461  108.202
  405.500    8.054    0.239    0.453  110.025
  405.750    8.206    0.223    0.437  111.847
  406.000    6.687    0.214    0.443  108.812
  406.250    7.072    0.209    0.457   99.096
  406.500    7.909    0.241    0.470   84.521
  406.750    8.365    0.281    0.467   69.947
  407.000    8.846    0.286    0.448   67.519
  407.250    9.184    0.297    0.439   72.985
  407.500    9.184    0.304    0.422   77.237
  407.750    9.016    0.263    0.412   82.096
  408.000    8.688    0.247    0.412   83.919
  408.250    8.529    0.253    0.402   86.348
  408.500    8.067    0.239    0.410   89.993
  408.750    7.919    0.235    0.407   94.245
  409.000    7.083    0.224    0.402   96.067
  409.250    5.880    0.225    0.399   98.497
  409.500    4.882    0.218    0.395   99.713
  409.750    4.617    0.212    0.412  104.572
  410.000    4.286    0.219    0.425  108.823
  410.250    4.287    0.213    0.449  111.253
  410.500    4.288    0.203    0.465  111.861
  410.750    4.451    0.212    0.497  113.077
  411.000    4.620    0.225    0.501  111.255
  411.250    4.978    0.222    0.491  107.005
  411.500    5.168    0.225    0.485  107.006
  411.750    5.466    0.234    0.503  107.614
  412.000    5.466    0.243    0.506  108.222
  412.250    5.467    0.246    0.468  108.830
  412.500    6.002    0.248    0.442  112.475
  412.750    6.347    0.257    0.444  107.617
  413.000    6.712    0.262    0.467  102.152
  413.250    7.099    0.270    0.443   99.116
