~VERSION INFORMATION
 VERS.                 2.0:   CWLS LOG ASCII STANDARD -VERSION 2.0
 WRAP.                  NO:   ONE LINE PER DEPTH STEP
~WELL INFORMATION BLOCK
#MNEM.UNIT           DATA                    DESCRIPTION OF MNEMONIC
#---------    -------------------            -------------------------------
# Generated from Intellog Unique Number	CS_77_79/WELL/871
WELL.         HOME LEISMER                   : Well_name    - WELL
LOC .         00/06-11-078-07W4/0            : Location     - LOCATION
UWI .         00/06-11-078-07W4/0            : Uwi          - UNIQUE WELL ID
ENTR.         JHS                            : Entered      - ENTERED BY
SRVC.         SCHLUMBERGER                   : Scn          - SERVICE COMPANY
STRT.M        106.680                        : top_depth    - START DEPTH
STOP.M        344.180                        : bot_depth    - STOP DEPTH
STEP.M        0.25                           : increment    - STEP LENGTH
 NULL. -999.2500:NULL Value
~CURVE INFORMATION BLOCK
#MNEM UNIT       ERCB CURVE CODE    CURVE DESCRIPTION
#-----------   ------------------   ----------------------------------
DEPT.M        00 001 00 00         : DEPTH        - DEPTH
RHOB.KG/M3    00 350 00 00         : DENS         - BULK DENSITY
GR  .API      00 310 00 00         : GR           - GAMMA RAY
DPHI.V/V      00 890 00 00         : PHID         - DENSITY POROSITY (SANDSTONE)
NPHI.V/V      00 330 00 00         : PHIN         - NEUTRON POROSITY (SANDSTONE)
ILD .OHMM     00 120 00 00         : RESD         - DEEP RESISTIVITY (DIL)
~PARAMETER INFORMATION
#MNEM.UNIT           DATA             DESCRIPTION OF MNEMONIC
#---------         -----------     ------------------------------
GL  .M        533.461              : gl           - GROUND LEVEL ELEVATION
EREF.M        536.814              : kb           - ELEVATION OF DEPTH REFERENCE
DATM.M        536.814              : datum        - DATUM ELEVATION
TDD .M        347.472              : tdd          - TOTAL DEPTH DRILLER
RUN .         ONE                  : Run          - RUN NUMBER
ENG .         BILL                 : Engineer     - RECORDING ENGINEER
WIT .         JIM                  : Witness      - WITNESSED BY
MUD .         GEL                  : Mud_type     - MUD TYPE
MATR.         SANDSTONE            : Logunit      - NEUTRON MATRIX
TMAX.C        21.6667              : BHT          - MAXIMUM RECORDED TEMPERATURE
BHTD.M        347.472              : BHTDEP       - MAXIMUM RECORDED TEMPERATURE
MATR.         1                    : LOGUNIT      - NEUTRON MATRIX
RMT .C        25                   : MDTP         - TEMPERATURE OF MUD
NEUT.         1                    : NEUTRON      - NEUTRON TYPE
RESI.         0                    : RESIST       - RESISTIVITY TYPE
RMC .OHMM     0.25                 : RMC          - RESISTIVITY OF MUD CAKE
RMF .OHMM     0.25                 : RMF          - RESISTIVITY OF MUD FILTRATE
SUFT.C        15                   : SUFT         - SURFACE TEMPERATURE
~A  DEPTH     DENS       GR     PHID     PHIN     RESD
# ...
  179.680    0.000   62.581    0.333    0.475   26.443
  179.930    0.000   62.227    0.336    0.470   26.442
  180.180    0.000   61.202    0.348    0.469   26.441
  180.430   -0.000   60.768    0.359    0.477   26.439
  180.680   -0.000   62.057    0.355    0.466   26.438
  180.930   -0.000   63.188    0.357    0.465   26.435
  181.180    0.000   61.102    0.357    0.480   26.446
  181.430    0.000   59.510    0.361    0.461   26.666
  181.680    0.000   59.563    0.354    0.451   26.915
  181.930   -0.000   60.997    0.339    0.455   26.927
  182.180   -0.000   62.297    0.334    0.472   26.962
  182.430   -0.000   61.989    0.344    0.486   26.417
  182.680    0.000   60.548    0.357    0.486   26.488
  182.930    0.000   60.334    0.354    0.484   25.898
  183.180   -0.000   62.001    0.352    0.486   25.943
  183.430   -0.000   60.688    0.335    0.472   25.657
  183.680   -0.000   59.695    0.345    0.473   25.508
  183.930    0.000   60.345    0.346    0.481   25.038
  184.180    0.000   57.985    0.331    0.482   24.777
  184.430    0.000   57.076    0.338    0.484   24.554
  184.680   -0.000   57.903    0.350    0.481   24.583
  184.930   -0.000   62.334    0.358    0.478   24.052
  185.180   -0.000   65.174    0.358    0.455   24.096
  185.430    0.000   66.790    0.346    0.448   24.109
  185.680    0.000   65.944    0.353    0.461   24.246
  185.930    0.000   62.641    0.348    0.457   24.540
  186.180   -0.000   61.667    0.360    0.444   24.593
  186.430   -0.000   61.602    0.350    0.452   24.069
  186.680    0.000   60.179    0.337    0.461   23.691
  186.930    0.000   64.454    0.354    0.471   22.996
  187.180    0.000   65.884    0.349    0.475   22.373
  187.430   -0.000   66.246    0.342    0.486   22.017
  187.680   -0.000   65.591    0.350    0.497   21.790
  187.930   -0.000   66.433    0.359    0.509   21.578
  188.180    0.000   66.481    0.355    0.511   21.577
  188.430    0.000   64.479    0.347    0.502   21.698
  188.680    0.000   63.860    0.338    0.490   22.393
  188.930   -0.000   63.998    0.345    0.483   23.120
  189.180   -0.000   66.118    0.334    0.481   23.246
  189.430    0.000   70.418    0.342    0.476   22.406
  189.680    0.000   73.011    0.343    0.479   19.933
  189.930    0.000   78.071    0.322    0.481   15.760
  190.180   -0.000   84.549    0.308    0.464   11.381
  190.430   -0.000   89.930    0.275    0.455    9.292
  190.680   -0.000   97.513    0.255    0.459    8.123
  190.930    0.000   99.849    0.258    0.477    7.175
  191.180    0.000  101.310    0.235    0.489    6.666
  191.430    0.000  105.166    0.221    0.491    6.041
  191.680   -0.000  101.035    0.204    0.478    5.882
  191.930   -0.000  102.805    0.208    0.472    5.693
  192.180   -0.000  104.707    0.220    0.469    5.636
  192.430    0.000  104.000    0.223    0.473    5.427
  192.680    0.000  105.809    0.217    0.473    5.304
  192.930   -0.000  108.845    0.211    0.491    5.145
  193.180   -0.000  107.959    0.219    0.495    5.098
  193.430   -0.000  104.775    0.235    0.498    4.946
  193.680    0.000  102.883    0.228    0.508    4.634
  193.930    0.000  103.161    0.222    0.504    4.412
  194.180    0.000  104.178    0.240    0.512    4.109
  194.430   -0.000  103.741    0.239    0.521    3.749
  194.680   -0.000  101.954    0.240    0.542    3.492
  194.930   -0.000  102.392    0.234    0.553    3.182
  195.180    0.000  103.071    0.242    0.560    3.046
  195.430    0.000  101.304    0.249    0.571    3.016
  195.680   -0.000   99.958    0.251    0.571    3.072
  195.930   -0.000   99.632    0.252    0.546    3.266
  196.180   -0.000   98.608    0.245    0.527    3.582
  196.430    0.000   97.633    0.251    0.538    4.022
  196.680    0.000   97.147    0.268    0.529    4.211
  196.930    0.000   98.962    0.269    0.477    4.180
  197.180   -0.000  104.143    0.231    0.484    3.702
  197.430   -0.000  104.529    0.244    0.510    3.211
  197.680   -0.000   99.072    0.233    0.531    3.003
  197.930    0.000   98.388    0.223    0.556    2.912
  198.180    0.000  102.206    0.254    0.576    2.788
  198.430    0.000  106.018    0.259    0.582    2.855
  198.680   -0.000  108.249    0.261    0.565    3.002
  198.930   -0.000  106.279    0.246    0.548    3.104
  199.180    0.000  103.178    0.241    0.560    3.241
  199.430    0.000  101.505    0.257    0.554    3.314
  199.680    0.000  102.268    0.258    0.565    3.231
  199.930   -0.000   98.047    0.268    0.577    3.131
  200.180   -0.000   96.707    0.251    0.581    3.095
  200.430   -0.000   97.121    0.278    0.587    3.140
  200.680    0.000   98.351    0.275    0.593    3.433
  200.930    0.000   98.067    0.261    0.604    3.886
  201.180    0.000   98.107    0.267    0.596    4.296
  201.430   -0.000   92.950    0.275    0.527    4.812
  201.680   -0.000   87.657    0.255    0.496    5.212
  201.930    0.000   89.784    0.236    0.482    5.522
  202.180    0.000   93.366    0.237    0.477    5.812
  202.430    0.000   92.965    0.250    0.482    5.818
  202.680   -0.000   89.330    0.226    0.488    5.629
  202.930   -0.000   88.270    0.225    0.484    5.513
  203.180   -0.000   88.042    0.240    0.484    5.414
  203.430    0.000   88.071    0.233    0.496    5.313
  203.680    0.000   87.087    0.223    0.512    5.452
  203.930    0.000   86.811    0.231    0.505    5.865
  204.180   -0.000   85.788    0.244    0.490    6.299
  204.430   -0.000   84.806    0.244    0.476    6.844
  204.680   -0.000   83.826    0.238    0.464    6.753
  204.930    0.000   83.630    0.235    0.469    6.214
  205.180    0.000   85.050    0.240    0.487    5.497
  205.430   -0.000   89.156    0.251    0.503    4.872
  205.680   -0.000   91.249    0.267    0.516    4.318
  205.930   -0.000   90.486    0.258    0.532    3.822
  206.180    0.000   92.128    0.267    0.548    3.504
  206.430    0.000   92.676    0.283    0.552    3.382
  206.680    0.000   90.818    0.289    0.546    3.514
  206.930   -0.000   87.868    0.283    0.536    3.737
  207.180   -0.000   83.814    0.290    0.545    4.301
  207.430   -0.000   78.871    0.309    0.556    5.383
  207.680    0.000   73.354    0.332    0.490    7.164
  207.930    0.000   64.799    0.349    0.456    8.167
  208.180   -0.000   63.492    0.351    0.466    9.227
  208.430   -0.000   63.552    0.342    0.485    9.554
  208.680   -0.000   62.712    0.342    0.468    9.971
  208.930    0.000   62.223    0.335    0.477    9.932
  209.180    0.000   65.105    0.327    0.483    9.952
  209.430    0.000   67.855    0.333    0.496    9.741
  209.680   -0.000   66.782    0.338    0.491    9.612
  209.930   -0.000   64.415    0.344    0.476    9.386
  210.180   -0.000   62.111    0.344    0.483    9.398
  210.430    0.000   60.631    0.357    0.494    9.402
  210.680    0.000   59.461    0.349    0.490    9.464
  210.930    0.000   58.120    0.337    0.478    9.569
  211.180   -0.000   59.538    0.341    0.477    9.683
  211.430   -0.000   61.708    0.355    0.480    9.997
  211.680    0.000   64.056    0.343    0.473   10.113
  211.930    0.000   67.407    0.333    0.466   10.114
  212.180    0.000   68.447    0.327    0.470   10.121
  212.430   -0.000   66.782    0.335    0.467    9.941
  212.680   -0.000   63.991    0.345    0.461    9.854
  212.930   -0.000   63.637    0.350    0.466    9.558
  213.180    0.000   64.150    0.344    0.461    9.569
  213.430    0.000   63.874    0.350    0.468    9.567
  213.680    0.000   63.519    0.353    0.467    9.566
  213.930   -0.000   62.927    0.346    0.458    9.566
  214.180   -0.000   63.123    0.344    0.468    9.566
  214.430   -0.000   64.161    0.335    0.468    9.565
  214.680    0.000   66.573    0.338    0.456    9.565
  214.930    0.000   67.695    0.346    0.446    9.563
  215.180   -0.000   66.040    0.330    0.453    9.566
  215.430   -0.000   65.277    0.339    0.475    9.666
  215.680   -0.000   66.040    0.336    0.486    9.736
  215.930    0.000   65.853    0.339    0.491    9.740
