~VERSION INFORMATION
 VERS.                 2.0:   CWLS LOG ASCII STANDARD -VERSION 2.0
 WRAP.                  NO:   ONE LINE PER DEPTH STEP
~WELL INFORMATION BLOCK
#MNEM.UNIT           DATA                    DESCRIPTION OF MNEMONIC
#---------    -------------------            -------------------------------
# Generated from Intellog Unique Number	CN_91_93/WELL/2991
WELL.         GULF OIL CANADA LTD.           : Well_name    - WELL
LOC .         00/05-12-093-20W4/0            : Location     - LOCATION
UWI .         00/05-12-093-20W4/0            : Uwi          - UNIQUE WELL ID
ENTR.         JOETTE                         : Entered      - ENTERED BY
SRVC.         SCHLUMBERGER                   : Scn          - SERVICE COMPANY
DATE.         04/07/92                       : Date         - LOG DATE
STRT.F        350                            : top_depth    - START DEPTH
STOP.F        810.138                        : bot_depth    - STOP DEPTH
STEP.F        0.82                           : increment    - STEP LENGTH
 NULL. -999.2500:NULL Value
~CURVE INFORMATION BLOCK
#MNEM UNIT       ERCB CURVE CODE    CURVE DESCRIPTION
#-----------   ------------------   ----------------------------------
DEPT.F        00 001 00 00         : DEPTH        - DEPTH
CALI.IN       00 280 01 00         : CAL          - CALIPER
GR  .API      00 310 00 00         : GR           - GAMMA RAY
NPHI.V/V      00 330 00 00         : PHIN         - NEUTRON POROSITY (SANDSTONE)
DPHI.V/V      00 890 00 00         : PHID         - DENSITY POROSITY (SANDSTONE)
ILD .OHMM     00 120 00 00         : RESD         - DEEP RESISTIVITY (DIL)
~PARAMETER INFORMATION
#MNEM.UNIT           DATA             DESCRIPTION OF MNEMONIC
#---------         -----------     ------------------------------
GL  .F        1762                 : gl           - GROUND LEVEL ELEVATION
EREF.F        1767                 : kb           - ELEVATION OF DEPTH REFERENCE
DATM.F        1767                 : datum        - DATUM ELEVATION
TDD .F        840                  : tdd          - TOTAL DEPTH DRILLER
RUN .         ONE                  : Run          - RUN NUMBER
ENG .         BILL                 : Engineer     - RECORDING ENGINEER
WIT .         JIM                  : Witness      - WITNESSED BY
MUD .         GEL                  : Mud_type     - MUD TYPE
MATR.         SANDSTONE            : Logunit      - NEUTRON MATRIX
TMAX.F        85                   : BHT          - MAXIMUM RECORDED TEMPERATURE
BHTD.F        840                  : BHTDEP       - MAXIMUM RECORDED TEMPERATURE
RMT .F        54                   : MDTP         - TEMPERATURE OF MUD
MUDD.LB/G     9.5                  : MWT          - MUD DENSITY
NEUT.         1                    : NEUTRON      - NEUTRON TYPE
RESI.         0                    : RESIST       - RESISTIVITY TYPE
RM  .OHMM     2.01                 : RM           - RESISTIVITY OF MUD
RMC .OHMM     2.01                 : RMC          - RESISTIVITY OF MUD CAKE
RMF .OHMM     2.01                 : RMF          - RESISTIVITY OF MUD FILTRATE
SUFT.F        -4                   : SUFT         - SURFACE TEMPERATURE
~A  DEPTH      CAL       GR     PHIN     PHID     RESD
# ...
  589.501    6.585   66.555    0.414    0.274   12.234
  590.322    6.724   69.204    0.428    0.245   10.303
  591.142    6.862   69.540    0.454    0.214    8.999
  591.962    6.884   70.730    0.489    0.202    8.527
  592.782    6.789   76.297    0.517    0.215    9.426
  593.602    6.714   79.537    0.504    0.268   13.925
  594.423    6.775   74.913    0.478    0.277   16.549
  595.243    6.642   69.718    0.464    0.265   20.031
  596.063    6.624   67.135    0.384    0.234   24.242
  596.883    6.762   65.139    0.357    0.164   26.316
  597.703    6.862   62.552    0.358    0.141   25.858
  598.524    6.748   57.061    0.322    0.150   24.062
  599.344    6.828   54.479    0.290    0.089   20.637
  600.164    6.850   57.132    0.334    0.048   16.612
  600.984    6.853   66.481    0.383    0.039   14.908
  601.804    6.874   80.192    0.407    0.047   13.380
  602.625    6.954   82.559    0.431    0.193   11.168
  603.445    6.859   82.881    0.439    0.208   10.582
  604.265    6.688   82.049    0.446    0.219   10.028
  605.085    6.593   82.089    0.436    0.207    9.943
  605.906    6.848   80.666    0.433    0.233    9.952
  606.726    6.753   78.379    0.393    0.239   10.137
  607.546    6.658   78.419    0.387    0.243   10.137
  608.366    6.700   79.322    0.421    0.257   10.332
  609.186    6.761   77.903    0.434    0.230   10.332
  610.007    6.879   73.576    0.455    0.214   10.728
  610.827    6.881   72.157    0.445    0.194   10.636
  611.647    6.768   73.065    0.415    0.176   10.448
  612.467    6.751   76.882    0.409    0.201   10.174
  613.287    6.753   84.195    0.446    0.222    9.817
  614.108    6.775   90.339    0.448    0.218    9.053
  614.928    6.835   90.965    0.450    0.213    8.051
  615.748    6.896   89.255    0.467    0.208    9.229
  616.568    6.879   83.469    0.435    0.198   11.170
  617.388    6.843   73.914    0.371    0.161   12.918
  618.209    7.001   76.854    0.340    0.130   14.153
  619.029    6.848   83.580    0.344    0.115   15.502
  619.849    6.696   91.765    0.372    0.138   15.095
  620.669    6.620   93.255    0.392    0.174   14.434
  621.490    6.583   92.127    0.401    0.205   13.802
  622.310    6.586   84.890    0.375    0.224   14.319
  623.130    6.588   83.767    0.364    0.227   15.543
  623.950    6.688   84.675    0.383    0.222   17.028
  624.770    7.040   82.379    0.386    0.222   17.665
  625.591    6.809   77.470    0.413    0.224   16.740
  626.411    6.695   74.305    0.362    0.142   15.159
  627.231    6.930   74.923    0.400    0.093   13.605
  628.051    6.991   84.271    0.464    0.143   13.490
  628.871    7.110   88.675    0.471    0.200   14.250
  629.692    7.016   91.037    0.444    0.208   15.056
  630.512    6.902   89.623    0.443    0.202   15.063
  631.332    6.865   87.327    0.442    0.212   13.520
  632.152    6.867   87.953    0.434    0.189   11.914
  632.972    6.947   88.562    0.445    0.169   10.597
  633.793    7.105   89.183    0.482    0.196   10.411
  634.613    7.146   87.474    0.480    0.218   10.802
  635.433    7.129   78.783    0.476    0.220   11.619
  636.253    7.132   74.455    0.435    0.221   14.063
  637.073    7.018   71.295    0.408    0.188   15.266
  637.894    6.613   72.785    0.353    0.193   16.423
  638.714    6.538   73.112    0.356    0.202   17.193
  639.534    6.657   70.234    0.336    0.163   17.517
  640.354    6.639   66.202    0.313    0.107   16.902
  641.175    6.564   65.078    0.299    0.075   15.586
  641.995    6.450   72.677    0.348    0.167   14.374
  642.815    6.686   81.439    0.379    0.205   13.498
  643.635    6.591   86.711    0.392    0.230   12.790
  644.455    6.555   86.751    0.399    0.236   12.231
  645.276    6.674   91.445    0.382    0.242   11.801
  646.096    6.773   92.349    0.381    0.218   11.801
  646.916    6.815   89.771    0.392    0.225   11.707
  647.736    6.701   90.679    0.405    0.219   11.820
  648.556    6.664   91.883    0.389    0.217   12.042
  649.377    6.666   90.468    0.379    0.197   12.271
  650.197    6.689   88.168    0.373    0.188   12.277
  651.017    6.749   85.308    0.378    0.198   11.953
  651.837    6.713   85.916    0.385    0.206   11.327
  652.657    6.676   88.575    0.404    0.210   11.130
  653.478    6.931   90.933    0.426    0.201   10.936
  654.298    7.108   90.677    0.460    0.172   11.552
  655.118    6.955   88.100    0.454    0.180   13.609
  655.938    6.705   85.517    0.385    0.149   13.990
  656.759    6.766   81.189    0.331    0.107   13.499
  657.579    6.943   83.552    0.336    0.090   12.675
  658.399    6.926   90.864    0.371    0.143   10.873
  659.219    6.870   89.445    0.401    0.194   10.302
  660.039    6.679   84.831    0.394    0.233    8.599
  660.860    6.662   85.444    0.393    0.242    6.922
  661.680    6.820   88.684    0.409    0.216    5.778
  662.500    6.880   93.087    0.443    0.221    5.426
  663.320    6.883   95.737    0.516    0.236    6.276
  664.140    6.788   93.736    0.553    0.237    8.545
  664.961    6.790   79.809    0.544    0.219    9.110
  665.781    6.812   71.404    0.364    0.157   11.641
  666.601    6.873   65.913    0.323    0.075   12.985
  667.421    6.953   72.071    0.352    0.108   11.444
  668.241    7.014   79.079    0.431    0.164   11.148
  669.062    7.035   82.028    0.482    0.204   10.949
  669.882    7.058   78.286    0.510    0.204   10.376
  670.702    7.060   81.231    0.496    0.200    9.921
  671.522    7.062   82.434    0.484    0.181    9.660
  672.343    7.045   85.088    0.484    0.146    9.578
  673.163    7.009   93.854    0.500    0.151    9.587
  673.983    7.011   96.799    0.505    0.195    9.589
  674.803    7.014   91.594    0.502    0.211    9.948
  675.623    7.036   87.266    0.437    0.207   10.604
  676.444    7.038   85.266    0.400    0.190   12.951
  677.264    7.040   86.187    0.370    0.184   15.673
  678.084    6.868   86.805    0.373    0.202   16.409
  678.904    6.812   87.418    0.381    0.232   16.726
  679.724    6.893   88.031    0.384    0.226   17.344
  680.545    6.895   88.652    0.390    0.229   16.889
  681.365    6.878   88.688    0.392    0.216   15.859
  682.185    6.823   89.305    0.401    0.210   15.165
  683.005    6.806   89.632    0.388    0.203   14.634
  683.825    6.789   89.958    0.384    0.206   14.508
  684.646    6.771   89.412    0.385    0.206   14.256
  685.466    6.793   87.711    0.386    0.205   14.265
  686.286    6.777   85.997    0.381    0.196   14.265
  687.106    6.798   83.424    0.370    0.175   14.278
  687.927    6.800   85.777    0.373    0.166   14.547
  688.747    6.822   85.817    0.376    0.159   15.231
  689.567    7.000   82.949    0.375    0.163   16.090
  690.387    6.983   80.071    0.348    0.180   17.309
  691.207    6.946   75.748    0.320    0.153   18.120
  692.028    6.852   74.034    0.306    0.099   19.493
  692.848    6.640   77.851    0.302    0.174   20.224
  693.668    6.546   77.013    0.345    0.230   20.052
  694.488    6.491   75.304    0.347    0.221   19.354
  695.308    6.512   76.803    0.346    0.208   19.185
  696.129    6.534   77.425    0.331    0.180   19.022
  696.949    6.556   79.783    0.364    0.228   19.205
  697.769    6.578   77.487    0.372    0.231   20.291
  698.589    6.580   72.000    0.328    0.235   21.631
  699.409    6.582   69.122    0.303    0.216   21.631
  700.230    6.488   64.213    0.307    0.231   22.249
  701.050    6.471   60.181    0.309    0.257   28.176
  701.870    6.532   63.125    0.312    0.231   28.709
  702.690    6.592   64.910    0.298    0.205   27.449
  703.510    6.614   65.819    0.296    0.180   27.449
  704.331    6.617   67.309    0.340    0.202   21.718
  705.151    6.580   68.512    0.377    0.210   17.476
  705.971    6.583   68.257    0.341    0.175   16.711
  706.791    6.876   70.906    0.377    0.148   12.975
  707.612    6.898   76.182    0.455    0.184   10.444
  708.432    6.920   75.054    0.425    0.159    9.986
