~VERSION INFORMATION
 VERS.                 2.0:   CWLS LOG ASCII STANDARD -VERSION 2.0
 WRAP.                  NO:   ONE LINE PER DEPTH STEP
~WELL INFORMATION BLOCK
#MNEM.UNIT           DATA                    DESCRIPTION OF MNEMONIC
#---------    -------------------            -------------------------------
# Generated from Intellog Unique Number	CS_77_79/WELL/926
WELL.         NOVALTA PORTAGE                : Well_name    - WELL
LOC .         00/09-25-078-16W4/0            : Location     - LOCATION
UWI .         00/09-25-078-16W4/0            : Uwi          - UNIQUE WELL ID
ENTR.         JHS                            : Entered      - ENTERED BY
SRVC.         SCHLUMBERGER                   : Scn          - SERVICE COMPANY
STRT.M        220                            : top_depth    - START DEPTH
STOP.M        435                            : bot_depth    - STOP DEPTH
STEP.M        0.25                           : increment    - STEP LENGTH
 NULL. -999.2500:NULL Value
~CURVE INFORMATION BLOCK
#MNEM UNIT       ERCB CURVE CODE    CURVE DESCRIPTION
#-----------   ------------------   ----------------------------------
DEPT.M        00 001 00 00         : DEPTH        - DEPTH
DPHI.V/V      00 890 00 00         : PHID         - DENSITY POROSITY (LIMESTONE)
NPHI.V/V      00 330 00 00         : PHIN         - NEUTRON POROSITY (LIMESTONE)
GR  .API      00 310 00 00         : GR           - GAMMA RAY
ILD .OHMM     00 120 00 00         : RESD         - DEEP RESISTIVITY (DIL)
~PARAMETER INFORMATION
#MNEM.UNIT           DATA             DESCRIPTION OF MNEMONIC
#---------         -----------     ------------------------------
GL  .M        624.14               : gl           - GROUND LEVEL ELEVATION
EREF.M        627.6                : kb           - ELEVATION OF DEPTH REFERENCE
DATM.M        627.6                : datum        - DATUM ELEVATION
TDD .M        442                  : tdd          - TOTAL DEPTH DRILLER
RUN .         ONE                  : Run          - RUN NUMBER
ENG .         BILL                 : Engineer     - RECORDING ENGINEER
WIT .         JIM                  : Witness      - WITNESSED BY
MUD .         GEL                  : Mud_type     - MUD TYPE
MATR.         LIMESTONE            : Logunit      - NEUTRON MATRIX
TMAX.C        26                   : BHT          - MAXIMUM RECORDED TEMPERATURE
BHTD.M        442                  : BHTDEP       - MAXIMUM RECORDED TEMPERATURE
MATR.         1                    : LOGUNIT      - NEUTRON MATRIX
RMT .C        25                   : MDTP         - TEMPERATURE OF MUD
NEUT.         1                    : NEUTRON      - NEUTRON TYPE
RESI.         0                    : RESIST       - RESISTIVITY TYPE
RMC .OHMM     0.25                 : RMC          - RESISTIVITY OF MUD CAKE
RMF .OHMM     0.25                 : RMF          - RESISTIVITY OF MUD FILTRATE
SUFT.C        15                   : SUFT         - SURFACE TEMPERATURE
~A  DEPTH     PHID     PHIN       GR     RESD
# ...
  263.500    0.301    0.359   89.030    8.288
  263.750    0.304    0.340   82.221    8.935
  264.000    0.303    0.340   77.890    9.454
  264.250    0.303    0.344   72.322    9.449
  264.500    0.296    0.333   76.669    8.924
  264.750    0.289    0.344   82.257    8.268
  265.000    0.281    0.380   84.130    7.959
  265.250    0.281    0.390   85.377    7.955
  265.500    0.285    0.385   89.105    7.950
  265.750    0.286    0.388   87.876    7.948
  266.000    0.291    0.375   84.784    8.096
  266.250    0.296    0.364   80.455    8.405
  266.500    0.297    0.359   77.986    9.409
  266.750    0.296    0.346   76.136    9.769
  267.000    0.293    0.335   75.524   10.141
  267.250    0.297    0.365   74.912   10.527
  267.500    0.314    0.388   74.302   11.136
  267.750    0.323    0.397   74.311   11.560
  268.000    0.325    0.392   71.843   12.232
  268.250    0.322    0.391   68.131   13.696
  268.500    0.323    0.393   61.942   16.541
  268.750    0.325    0.386   57.614   19.977
  269.000    0.328    0.373   56.381   22.370
  269.250    0.327    0.367   58.251   23.660
  269.500    0.324    0.389   60.740   23.210
  269.750    0.318    0.409   66.951   21.510
  270.000    0.308    0.411   70.058   17.458
  270.250    0.310    0.425   70.687   15.286
  270.500    0.313    0.415   70.076   12.886
  270.750    0.312    0.400   70.085   11.716
  271.000    0.303    0.402   72.574   10.858
  271.250    0.298    0.432   75.063   10.450
  271.500    0.300    0.418   76.931   10.057
  271.750    0.297    0.393   78.182    9.319
  272.000    0.289    0.361   77.572    8.635
  272.250    0.277    0.362   77.579    8.470
  272.500    0.267    0.404   76.970    8.307
  272.750    0.265    0.414   78.837    8.148
  273.000    0.260    0.394   84.427    7.842
  273.250    0.251    0.367   88.774    7.548
  273.500    0.245    0.355   91.885    7.127
  273.750    0.245    0.374   93.134    6.732
  274.000    0.252    0.411   92.525    6.121
  274.250    0.257    0.432   93.153    5.672
  274.500    0.258    0.423   95.020    5.157
  274.750    0.255    0.421   98.128    4.870
  275.000    0.255    0.421  100.617    4.688
  275.250    0.262    0.412  101.867    5.249
  275.500    0.277    0.400   99.398    6.220
  275.750    0.293    0.390   95.066    7.513
  276.000    0.312    0.388   83.918    8.904
  276.250    0.336    0.390   67.190   10.960
  276.500    0.353    0.401   61.622   13.236
  276.750    0.353    0.410   60.391   15.985
  277.000    0.349    0.396   56.062   17.900
  277.250    0.351    0.378   57.930   20.814
  277.500    0.353    0.367   59.180   23.752
  277.750    0.357    0.368   58.569   27.623
  278.000    0.359    0.386   61.059   32.123
  278.250    0.362    0.403   64.166   36.654
  278.500    0.362    0.401   66.036   38.053
  278.750    0.357    0.380   64.807   38.762
  279.000    0.347    0.365   61.097   38.742
  279.250    0.337    0.384   61.104   40.212
  279.500    0.332    0.429   61.737   40.202
  279.750    0.331    0.438   61.123   43.341
  280.000    0.331    0.434   57.413   46.730
  280.250    0.334    0.409   55.563   50.378
  280.500    0.329    0.407   57.435   51.317
  280.750    0.321    0.405   59.920   50.334
  281.000    0.324    0.397   59.929   48.435
  281.250    0.335    0.390   57.462   47.510
  281.500    0.355    0.374   56.230   47.491
  281.750    0.371    0.365   54.379   48.376
  282.000    0.381    0.409   55.630   47.442
  282.250    0.371    0.439   57.497   47.425
  282.500    0.371    0.429   58.746   46.510
  282.750    0.372    0.427   59.379   46.494
  283.000    0.375    0.428   59.386   46.465
  283.250    0.374    0.422   58.156   47.331
  283.500    0.374    0.419   56.925   47.309
  283.750    0.372    0.407   55.074   48.191
  284.000    0.369    0.397   54.463   49.092
  284.250    0.365    0.387   55.713   50.006
  284.500    0.361    0.394   55.724   49.984
  284.750    0.359    0.402   56.352   49.020
  285.000    0.359    0.396   57.600   49.005
  285.250    0.360    0.393   56.373   48.054
  285.500    0.361    0.391   54.521   46.250
  285.750    0.360    0.386   52.669   44.511
  286.000    0.357    0.386   53.299   42.032
  286.250    0.355    0.392   54.548   41.236
  286.500    0.352    0.414   57.658   38.940
  286.750    0.350    0.426   58.905   36.773
  287.000    0.349    0.431   57.056   34.726
  287.250    0.347    0.435   57.065   33.422
  287.500    0.347    0.435   58.935   30.972
  287.750    0.347    0.437   57.084   30.380
  288.000    0.344    0.425   53.994   28.688
  288.250    0.345    0.420   55.244   28.140
  288.500    0.341    0.417   57.731   27.595
  288.750    0.339    0.420   58.980   26.063
  289.000    0.341    0.447   57.751   23.253
  289.250    0.344    0.440   60.238   21.550
  289.500    0.346    0.417   62.108   18.166
  289.750    0.346    0.401   59.020   14.199
  290.000    0.347    0.406   57.168   11.970
  290.250    0.346    0.426   55.941   10.284
  290.500    0.341    0.414   56.568    9.711
  290.750    0.334    0.407   57.196    9.171
  291.000    0.329    0.412   57.824    8.994
  291.250    0.321    0.425   59.693    8.990
  291.500    0.319    0.410   62.182    8.987
  291.750    0.315    0.396   61.573    9.154
  292.000    0.301    0.389   62.820    9.150
  292.250    0.284    0.378   66.551    9.145
  292.500    0.258    0.293   67.801    9.495
  292.750    0.177    0.218   67.188   11.467
  293.000    0.028    0.173   63.479   14.113
  293.250    0.000    0.155   54.189   16.726
  293.500    0.000    0.146   45.523   20.980
  293.750    0.000    0.144   46.151   25.825
  294.000    0.008    0.146   46.782   30.605
  294.250    0.022    0.155   46.170   32.997
  294.500    0.049    0.162   48.039   33.612
  294.750    0.070    0.169   50.528   29.986
  295.000    0.095    0.189   53.014   27.270
  295.250    0.118    0.220   57.986   20.521
  295.500    0.258    0.283   61.092   16.038
  295.750    0.297    0.344   64.202   13.520
  296.000    0.321    0.373   66.072   11.398
  296.250    0.322    0.397   65.460    9.792
  296.500    0.316    0.423   62.990    9.248
  296.750    0.313    0.429   61.761    9.070
  297.000    0.315    0.429   63.630    8.897
  297.250    0.320    0.422   64.880    9.062
  297.500    0.323    0.416   64.886    9.058
  297.750    0.329    0.416   63.658    9.403
  298.000    0.329    0.419   60.568    9.579
  298.250    0.321    0.409   61.197    9.757
  298.500    0.313    0.402   61.206    9.752
  298.750    0.306    0.399   59.355    9.564
  299.000    0.298    0.395   56.885    9.560
  299.250    0.296    0.390   59.992    9.556
  299.500    0.298    0.382   65.580    9.371
  299.750    0.306    0.376   69.929    9.366
  300.000    0.307    0.375   68.701    9.364
  300.250    0.308    0.382   65.612    9.184
  300.500    0.312    0.410   63.760    9.179
  300.750    0.314    0.419   63.771    9.002
  301.000    0.316    0.412   67.498    8.998
  301.250    0.308    0.399   68.747    8.996
  301.500    0.304    0.402   66.895    8.822
  301.750    0.307    0.409   67.524    8.652
  302.000    0.308    0.413   71.875    8.650
  302.250    0.308    0.446   72.502    8.645
  302.500    0.313    0.439   68.173    8.641
  302.750    0.322    0.421   68.182    8.475
  303.000    0.323    0.420   70.052    8.156
  303.250    0.315    0.419   72.541    8.000
  303.500    0.309    0.414   74.409    7.847
  303.750    0.304    0.424   77.518    7.696
  304.000    0.299    0.416   78.146    7.548
  304.250    0.296    0.400   79.398    7.545
  304.500    0.298    0.400   81.264    7.400
  304.750    0.302    0.394   80.035    7.257
  305.000    0.297    0.385   79.424    6.985
  305.250    0.291    0.389   81.293    6.722
  305.500    0.288    0.413   83.784    6.470
  305.750    0.303    0.424   84.410    6.110
  306.000    0.327    0.437   83.801    5.556
  306.250    0.327    0.431   75.752    5.052
  306.500    0.319    0.411   65.842    4.508
  306.750    0.313    0.401   57.174    4.953
