~VERSION INFORMATION
 VERS.                 2.0:   CWLS LOG ASCII STANDARD -VERSION 2.0
 WRAP.                  NO:   ONE LINE PER DEPTH STEP
~WELL INFORMATION BLOCK
#MNEM.UNIT           DATA                    DESCRIPTION OF MNEMONIC
#---------    -------------------            -------------------------------
# Generated from Intellog Unique Number	CW_76_78/WELL/529
WELL.         CHIEFCO RR ET AL PELICAN 06-21 : Well_name    - WELL
LOC .         00/06-21-077-22W4/0            : Location     - LOCATION
UWI .         00/06-21-077-22W4/0            : Uwi          - UNIQUE WELL ID
ENTR.         jj                             : Entered      - ENTERED BY
SRVC.         SCHLUMBERGER                   : Scn          - SERVICE COMPANY
DATE.         24 FEB 1973                    : Date         - LOG DATE
STRT.M        377.952                        : top_depth    - START DEPTH
STOP.M        600.452                        : bot_depth    - STOP DEPTH
STEP.M        0.25                           : increment    - STEP LENGTH
 NULL. -999.2500:NULL Value
~CURVE INFORMATION BLOCK
#MNEM UNIT       ERCB CURVE CODE    CURVE DESCRIPTION
#-----------   ------------------   ----------------------------------
DEPT.M        00 001 00 00         : DEPTH        - DEPTH
ILD .OHMM     00 120 00 00         : RESD         - DEEP RESISTIVITY (DIL)
NPHI.V/V      00 330 00 00         : PHIN         - NEUTRON POROSITY (SANDSTONE)
DPHI.V/V      00 890 00 00         : PHID         - DENSITY POROSITY (SANDSTONE)
GR  .API      00 310 00 00         : GR           - GAMMA RAY
CALI.MM       00 280 01 00         : CAL          - CALIPER
~PARAMETER INFORMATION
#MNEM.UNIT           DATA             DESCRIPTION OF MNEMONIC
#---------         -----------     ------------------------------
GL  .M        701.954              : gl           - GROUND LEVEL ELEVATION
EREF.M        704.088              : kb           - ELEVATION OF DEPTH REFERENCE
DATM.M        701.954              : datum        - DATUM ELEVATION
TDD .M        601.066              : tdd          - TOTAL DEPTH DRILLER
RUN .         ONE                  : Run          - RUN NUMBER
ENG .         XXXXX                : Engineer     - RECORDING ENGINEER
WIT .         XXXXX                : Witness      - WITNESSED BY
BASE.         EDMONTON             : Branch       - HOME BASE OF LOGGING UNIT
MUD .         GEL CHEM             : Mud_type     - MUD TYPE
MATR.         SANDSTONE            : Logunit      - NEUTRON MATRIX
TMAX.C        20                   : BHT          - MAXIMUM RECORDED TEMPERATURE
BHTD.M        598.932              : BHTDEP       - MAXIMUM RECORDED TEMPERATURE
RMT .C        15.5556              : MDTP         - TEMPERATURE OF MUD
MUDD.KG/M     1080                 : MWT          - MUD DENSITY
NEUT.         1                    : NEUTRON      - NEUTRON TYPE
RESI.         0                    : RESIST       - RESISTIVITY TYPE
RM  .OHMM     3.57                 : RM           - RESISTIVITY OF MUD
RMC .OHMM     2.5                  : RMC          - RESISTIVITY OF MUD CAKE
RMF .OHMM     3.51                 : RMF          - RESISTIVITY OF MUD FILTRATE
SUFT.C        4.5                  : SUFT         - SURFACE TEMPERATURE
~A  DEPTH     RESD     PHIN     PHID       GR      CAL
# ...
  487.452    4.573    0.491    0.195  102.212  164.267
  487.702    4.545    0.509    0.199  103.134  163.548
  487.952    4.502    0.537    0.212  104.914  162.416
  488.202    4.618    0.539    0.205  104.551  161.594
  488.452    5.106    0.512    0.215  104.126  160.978
  488.702    5.335    0.516    0.218   99.906  160.364
  488.952    5.584    0.510    0.185   93.543  160.268
  489.202    5.896    0.465    0.160   94.037  160.898
  489.452    5.955    0.464    0.179   94.470  161.114
  489.702    6.011    0.483    0.203   89.760  161.117
  489.952    5.952    0.484    0.199   86.458  160.191
  490.202    5.908    0.499    0.198   89.034  159.681
  490.452    5.983    0.492    0.221   91.059  159.480
  490.702    6.081    0.473    0.220   92.471  156.273
  490.952    6.236    0.447    0.205   91.006  157.318
  491.202    6.291    0.427    0.194   91.500  159.813
  491.452    6.186    0.457    0.173   92.484  161.895
  491.702    5.947    0.489    0.175   91.141  162.316
  491.952    5.739    0.478    0.166   89.247  162.533
  492.202    5.719    0.418    0.136   86.803  162.537
  492.452    5.777    0.403    0.107   86.501  162.752
  492.702    5.951    0.445    0.138   92.505  163.381
  492.952    6.127    0.438    0.161   95.754  163.389
  493.202    6.215    0.448    0.171   93.983  162.359
  493.452    6.078    0.469    0.199   96.803  161.123
  493.702    5.984    0.497    0.192   99.563  161.440
  493.952    6.029    0.496    0.188  101.832  163.210
  494.202    6.045    0.468    0.179   98.776  163.320
  494.452    5.867    0.470    0.164   95.352  162.085
  494.702    5.589    0.492    0.163   96.090  160.846
  494.952    5.413    0.516    0.183   98.421  159.716
  495.202    5.245    0.533    0.191  101.915  160.136
  495.452    5.116    0.533    0.163  102.164  160.145
  495.702    4.937    0.505    0.149   99.107  160.464
  495.952    4.835    0.499    0.185   97.642  160.158
  496.202    4.799    0.518    0.204  100.646  159.959
  496.452    4.870    0.541    0.196   99.059  159.344
  496.702    4.919    0.533    0.192   95.818  158.831
  496.952    5.059    0.514    0.182   93.863  158.633
  497.202    5.129    0.511    0.194   94.786  159.053
  497.452    5.198    0.500    0.202   98.280  159.474
  497.702    5.202    0.492    0.197   98.897  159.691
  497.952    5.155    0.491    0.192  100.615  159.904
  498.202    5.030    0.493    0.204  101.293  160.742
  498.452    4.944    0.498    0.196   99.828  161.266
  498.702    4.789    0.511    0.194  101.791  161.998
  498.952    4.663    0.516    0.202  101.979  163.561
  499.202    4.485    0.528    0.216   97.452  163.672
  499.452    4.375    0.519    0.202   99.968  162.644
  499.702    4.245    0.500    0.205  103.522  161.302
  499.952    4.000    0.487    0.194  107.812  164.006
  500.202    3.823    0.532    0.170  112.103  166.397
  500.452    3.581    0.581    0.189  111.800  168.166
  500.702    3.386    0.569    0.189  113.397  168.382
  500.952    3.455    0.542    0.189  113.769  165.382
  501.202    3.603    0.512    0.190  112.731  160.206
  501.452    4.187    0.480    0.196  108.633  158.451
  501.702    5.201    0.493    0.202  100.678  158.975
  501.952    6.532    0.490    0.181   89.601  160.227
  502.202    7.588    0.398    0.158   85.748  161.377
  502.452    8.767    0.335    0.122   80.059  161.901
  502.702    9.266    0.367    0.051   88.390  162.945
  502.952    8.991    0.418    0.085   97.210  163.780
  503.202    8.313    0.445    0.184   99.419  165.240
  503.452    7.729    0.430    0.186  100.525  164.209
  503.702    6.967    0.395    0.176  102.978  162.558
  503.952    6.562    0.370    0.173  105.492  161.735
  504.202    6.306    0.380    0.192  105.314  162.054
  504.452    5.999    0.406    0.188  104.277  161.440
  504.702    5.843    0.447    0.177  104.281  161.031
  504.952    5.783    0.457    0.181  102.938  161.767
  505.202    5.678    0.480    0.190  101.106  162.603
  505.452    5.663    0.507    0.187  103.191  163.645
  505.702    5.622    0.485    0.174  101.849  164.795
  505.952    5.616    0.422    0.168  101.854  164.802
  506.202    5.593    0.437    0.170  102.225  162.837
  506.452    5.634    0.489    0.170  100.392  160.668
  506.702    5.675    0.490    0.181   98.927  159.743
  506.952    5.734    0.484    0.192   99.360  159.025
  507.202    5.817    0.472    0.210   97.099  158.926
  507.452    5.980    0.472    0.203   95.144  158.624
  507.702    6.134    0.477    0.206   91.413  158.422
  507.952    6.376    0.462    0.210   83.336  158.223
  508.202    6.676    0.434    0.176   75.687  158.956
  508.452    7.163    0.358    0.077   83.589  159.689
  508.702    7.655    0.384    0.103   92.716  160.214
  508.952    7.925    0.423    0.175   98.782  160.430
  509.202    7.579    0.456    0.205  101.173  160.540
  509.452    6.929    0.472    0.220  101.607  160.859
  509.702    6.480    0.483    0.202  100.202  161.073
  509.952    6.219    0.492    0.206   99.778  161.185
  510.202    6.203    0.485    0.191   98.803  161.089
  510.452    6.215    0.475    0.204   96.114  160.886
  510.702    6.268    0.478    0.186   91.587  160.273
  510.952    6.277    0.483    0.182   96.550  160.071
  511.202    6.299    0.498    0.188  100.167  160.080
  511.452    6.307    0.509    0.196  102.253  160.397
  511.702    6.282    0.508    0.193  104.339  161.338
  511.952    6.223    0.504    0.186  105.323  161.656
  512.202    6.198    0.504    0.194  106.674  161.974
  512.452    6.159    0.500    0.182  106.372  161.981
  512.702    6.101    0.487    0.174  106.254  162.404
  512.952    6.055    0.475    0.206  105.278  162.513
  513.202    6.007    0.479    0.189  101.426  162.937
  513.452    5.997    0.466    0.175  102.470  163.358
  513.702    5.979    0.463    0.187  103.087  163.780
  513.952    5.987    0.470    0.186  104.132  164.099
  514.202    6.029    0.484    0.188  104.381  164.313
  514.452    6.120    0.490    0.180  102.305  164.423
  514.702    6.221    0.490    0.162  102.859  163.601
  514.952    6.262    0.484    0.184  104.272  162.053
  515.202    6.343    0.465    0.169  106.235  161.126
  515.452    6.352    0.444    0.160  106.300  160.719
  515.702    6.359    0.420    0.176  103.550  160.208
  515.952    6.334    0.382    0.175  103.800  159.594
  516.202    6.272    0.393    0.174  103.130  159.602
  516.452    6.155    0.421    0.173  103.623  159.918
  516.702    5.841    0.395    0.194  102.771  160.237
  516.952    5.492    0.379    0.188  105.346  160.555
  517.202    5.261    0.384    0.190  111.473  161.807
  517.452    5.067    0.424    0.166  117.844  164.509
  517.702    4.944    0.405    0.170  118.278  166.694
  517.952    4.916    0.385    0.164  113.996  165.457
  518.202    5.002    0.435    0.181  104.991  168.381
  518.452    5.354    0.441    0.173  100.853  166.186
  518.702    5.699    0.421    0.165   97.805  163.170
  518.952    5.730    0.403    0.174  103.201  161.780
  519.202    6.010    0.413    0.182  109.690  160.715
  519.452    6.154    0.412    0.176  108.753  160.466
  519.702    5.844    0.418    0.192  107.754  160.618
  519.952    5.407    0.426    0.177  107.538  160.954
  520.202    5.466    0.442    0.179  109.558  162.436
  520.452    5.797    0.471    0.169  112.119  163.197
  520.702    5.785    0.441    0.171  102.916  162.936
  520.952    5.957    0.431    0.163   83.035  161.252
  521.202    6.318    0.495    0.211   80.527  160.369
  521.452    6.482    0.490    0.225   80.199  159.717
  521.702    6.385    0.498    0.239   80.402  155.570
  521.952    6.108    0.507    0.262   80.550  153.368
  522.202    5.810    0.483    0.247   79.553  156.586
  522.452    5.756    0.480    0.256   76.323  158.158
  522.702    5.992    0.446    0.220   74.963  158.818
  522.952    5.980    0.478    0.207   77.042  159.906
  523.202    5.946    0.526    0.235   81.354  160.452
  523.452    5.945    0.528    0.229   83.079  160.295
  523.702    5.867    0.534    0.236   83.466  160.239
