~VERSION INFORMATION
 VERS.                 2.0:   CWLS LOG ASCII STANDARD -VERSION 2.0
 WRAP.                  NO:   ONE LINE PER DEPTH STEP
~WELL INFORMATION BLOCK
#MNEM.UNIT           DATA                    DESCRIPTION OF MNEMONIC
#---------    -------------------            -------------------------------
# Generated from Intellog Unique Number	CS_71_72/WELL/689
WELL.         AEC IPIATIK                    : Well_name    - WELL
LOC .         00/05-21-071-04W4/0            : Location     - LOCATION
UWI .         00/05-21-071-04W4/0            : Uwi          - UNIQUE WELL ID
ENTR.         SP                             : Entered      - ENTERED BY
SRVC.         SCHLUMBERGER                   : Scn          - SERVICE COMPANY
STRT.M        290                            : top_depth    - START DEPTH
STOP.M        505                            : bot_depth    - STOP DEPTH
STEP.M        0.25                           : increment    - STEP LENGTH
 NULL. -999.2500:NULL Value
~CURVE INFORMATION BLOCK
#MNEM UNIT       ERCB CURVE CODE    CURVE DESCRIPTION
#-----------   ------------------   ----------------------------------
DEPT.M        00 001 00 00         : DEPTH        - DEPTH
ILD .OHMM     00 120 00 00         : RESD         - DEEP RESISTIVITY (DIL)
DPHI.V/V      00 890 00 00         : PHID         - DENSITY POROSITY (LIMESTONE)
NPHI.V/V      00 330 00 00         : PHIN         - NEUTRON POROSITY (LIMESTONE)
GR  .API      00 310 00 00         : GR           - GAMMA RAY
~PARAMETER INFORMATION
#MNEM.UNIT           DATA             DESCRIPTION OF MNEMONIC
#---------         -----------     ------------------------------
GL  .M        673.76               : gl           - GROUND LEVEL ELEVATION
EREF.M        677.96               : kb           - ELEVATION OF DEPTH REFERENCE
DATM.M        673.76               : datum        - DATUM ELEVATION
TDD .M        594                  : tdd          - TOTAL DEPTH DRILLER
RUN .         ONE                  : Run          - RUN NUMBER
ENG .         BILL                 : Engineer     - RECORDING ENGINEER
WIT .         JIM                  : Witness      - WITNESSED BY
MUD .         GEL                  : Mud_type     - MUD TYPE
MATR.         LIMESTONE            : Logunit      - NEUTRON MATRIX
TMAX.C        21                   : BHT          - MAXIMUM RECORDED TEMPERATURE
BHTD.M        594                  : BHTDEP       - MAXIMUM RECORDED TEMPERATURE
MATR.         1                    : LOGUNIT      - NEUTRON MATRIX
RMT .C        25                   : MDTP         - TEMPERATURE OF MUD
NEUT.         1                    : NEUTRON      - NEUTRON TYPE
RESI.         0                    : RESIST       - RESISTIVITY TYPE
RMC .OHMM     0.25                 : RMC          - RESISTIVITY OF MUD CAKE
RMF .OHMM     0.25                 : RMF          - RESISTIVITY OF MUD FILTRATE
SUFT.C        15                   : SUFT         - SURFACE TEMPERATURE
~A  DEPTH     RESD     PHID     PHIN       GR
# ...
  420.500    1.872    0.299    0.579   94.789
  420.750    1.948    0.292    0.575   94.626
  421.000    2.085    0.291    0.584   94.948
  421.250    2.223    0.285    0.557   96.121
  421.500    2.300    0.278    0.538   96.924
  421.750    2.319    0.288    0.544   97.246
  422.000    2.333    0.282    0.545   95.692
  422.250    2.423    0.274    0.551   92.566
  422.500    2.676    0.274    0.563   87.565
  422.750    3.203    0.280    0.562   84.379
  423.000    3.583    0.280    0.535   81.798
  423.250    4.038    0.279    0.489   79.400
  423.500    4.760    0.273    0.492   76.875
  423.750    5.801    0.098    0.498   72.723
  424.000    7.019    0.072    0.349   70.624
  424.250    8.334    0.068    0.345   69.859
  424.500    8.576    0.101    0.374   71.511
  424.750    7.821    0.163    0.421   73.829
  425.000    6.559    0.200    0.431   75.663
  425.250    5.679    0.270    0.433   76.530
  425.500    5.296    0.280    0.431   74.613
  425.750    5.096    0.281    0.432   71.910
  426.000    4.887    0.278    0.440   70.782
  426.250    4.853    0.279    0.446   70.558
  426.500    4.814    0.285    0.452   70.940
  426.750    4.835    0.292    0.462   71.686
  427.000    4.838    0.299    0.478   72.371
  427.250    4.870    0.302    0.494   73.660
  427.500    4.919    0.303    0.477   76.645
  427.750    4.950    0.299    0.460   78.481
  428.000    4.962    0.294    0.453   78.317
  428.250    4.948    0.287    0.449   80.213
  428.500    4.960    0.285    0.445   81.622
  428.750    4.910    0.287    0.447   83.034
  429.000    4.884    0.271    0.448   81.722
  429.250    4.834    0.262    0.449   79.204
  429.500    4.864    0.259    0.459   80.796
  429.750    4.842    0.267    0.475   82.570
  430.000    4.764    0.260    0.493   83.978
  430.250    4.671    0.251    0.505   85.583
  430.500    4.606    0.244    0.497   85.410
  430.750    4.653    0.256    0.495   83.253
  431.000    4.869    0.259    0.505   78.067
  431.250    5.047    0.219    0.502   72.220
  431.500    5.596    0.190    0.479   70.545
  431.750    6.145    0.193    0.466   71.170
  432.000    7.030    0.235    0.457   71.976
  432.250    7.141    0.275    0.454   74.298
  432.500    6.696    0.288    0.450   75.766
  432.750    5.960    0.288    0.453   76.511
  433.000    5.365    0.292    0.453   74.292
  433.250    5.031    0.299    0.440   73.103
  433.500    4.815    0.269    0.434   71.370
  433.750    4.828    0.235    0.436   69.632
  434.000    4.858    0.234    0.445   67.171
  434.250    4.889    0.274    0.455   75.661
  434.500    4.957    0.305    0.443   80.398
  434.750    5.025    0.296    0.431   87.861
  435.000    5.192    0.255    0.427   91.750
  435.250    5.322    0.232    0.429   93.524
  435.500    5.425    0.242    0.433   93.664
  435.750    5.261    0.242    0.434   89.449
  436.000    4.761    0.251    0.434   82.695
  436.250    4.489    0.250    0.434   81.503
  436.500    4.493    0.245    0.443   78.504
  436.750    4.539    0.261    0.445   75.435
  437.000    4.575    0.250    0.453   71.764
  437.250    4.710    0.261    0.475   69.181
  437.500    4.774    0.250    0.465   70.170
  437.750    4.904    0.205    0.429   75.211
  438.000    4.799    0.194    0.419   77.590
  438.250    4.627    0.261    0.430   77.729
  438.500    4.420    0.284    0.444   77.748
  438.750    4.334    0.279    0.449   78.615
  439.000    4.203    0.279    0.448   79.601
  439.250    3.783    0.276    0.453   81.073
  439.500    3.232    0.265    0.471   82.485
  439.750    2.696    0.268    0.491   82.020
  440.000    2.408    0.277    0.513   84.398
  440.250    2.196    0.288    0.527   86.294
  440.500    2.182    0.291    0.537   87.162
  440.750    2.313    0.291    0.543   85.969
  441.000    2.568    0.291    0.533   80.424
  441.250    2.938    0.298    0.542   77.177
  441.500    3.400    0.301    0.530   78.708
  441.750    3.775    0.289    0.443   79.700
  442.000    4.010    0.274    0.442   79.595
  442.250    4.081    0.254    0.462   79.311
  442.500    4.092    0.238    0.481   81.993
  442.750    4.079    0.235    0.492   83.103
  443.000    4.214    0.231    0.470   84.270
  443.250    4.304    0.224    0.461   85.742
  443.500    4.244    0.238    0.482   87.094
  443.750    3.869    0.247    0.497   87.233
  444.000    3.489    0.232    0.487   77.997
  444.250    3.762    0.236    0.482   70.638
  444.500    4.594    0.238    0.487   65.939
  444.750    5.092    0.230    0.477   62.328
  445.000    5.783    0.213    0.460   65.070
  445.250    6.880    0.200    0.447   69.023
  445.500    7.640    0.278    0.462   70.737
  445.750    8.009    0.300    0.440   69.911
  446.000    8.273    0.308    0.404   64.364
  446.250    8.561    0.296    0.396   61.601
  446.500    8.793    0.197    0.399   61.802
  446.750    8.622    0.173    0.371   65.209
  447.000    7.423    0.159    0.344   70.129
  447.250    6.618    0.244    0.369   73.291
  447.500    5.318    0.279    0.416   75.790
  447.750    4.149    0.280    0.394   78.956
  448.000    3.638    0.276    0.399   83.455
  448.250    3.185    0.268    0.412   85.891
  448.500    2.915    0.256    0.427   88.392
  448.750    2.790    0.205    0.442   89.440
  449.000    2.792    0.230    0.461   90.730
  449.250    2.852    0.252    0.480   92.201
  449.500    2.924    0.247    0.496   91.859
  449.750    2.981    0.248    0.502   91.031
  450.000    3.022    0.252    0.503   90.325
  450.250    2.925    0.247    0.509   87.803
  450.500    2.889    0.265    0.488   83.049
  450.750    2.978    0.273    0.470   79.010
  451.000    3.320    0.255    0.473   73.886
  451.250    3.899    0.233    0.478   69.490
  451.500    4.411    0.214    0.408   67.999
  451.750    5.151    0.198    0.384   69.832
  452.000    5.872    0.184    0.374   71.606
  452.250    6.534    0.236    0.384   72.170
  452.500    6.649    0.263    0.402   72.613
  452.750    5.053    0.266    0.416   75.901
  453.000    4.325    0.276    0.418   77.492
  453.250    3.930    0.267    0.448   76.059
  453.500    4.754    0.253    0.472   70.816
  453.750    5.991    0.250    0.482   66.904
  454.000    7.793    0.243    0.419   65.655
  454.250    9.134    0.236    0.392   66.763
  454.500    9.630    0.229    0.382   67.448
  454.750    9.549    0.219    0.383   67.891
  455.000    9.121    0.239    0.394   68.333
  455.250    8.474    0.248    0.409   68.836
  455.500    8.021    0.251    0.423   68.493
  455.750    7.849    0.260    0.413   67.182
  456.000    7.725    0.259    0.392   66.838
  456.250    7.576    0.251    0.381   67.341
  456.500    7.510    0.249    0.387   69.116
  456.750    7.501    0.249    0.412   70.831
  457.000    7.551    0.236    0.415   71.818
  457.250    7.672    0.243    0.412   70.868
  457.500    7.760    0.242    0.406   70.646
  457.750    8.079    0.236    0.399   71.876
  458.000    8.360    0.239    0.393   72.439
  458.250    8.666    0.230    0.390   71.551
  458.500    9.065    0.230    0.390   62.497
  458.750   11.923    0.267    0.392   57.556
  459.000   17.180    0.303    0.405   55.458
  459.250   19.509    0.323    0.416   55.054
  459.500   21.547    0.329    0.416   55.438
  459.750   21.885    0.320    0.419   57.938
  460.000   19.885    0.314    0.428   60.860
  460.250   17.666    0.308    0.418   63.541
  460.500   14.518    0.307    0.404   66.894
  460.750   12.220    0.312    0.410   68.726
  461.000   10.306    0.324    0.429   70.255
  461.250    9.276    0.321    0.434   71.606
  461.500    8.812    0.313    0.427   72.835
  461.750    9.430    0.289    0.419   59.727
  462.000   12.039    0.277    0.449   47.225
  462.250   19.179    0.276    0.445   33.453
  462.500   33.035    0.287    0.430   26.091
  462.750   42.178    0.298    0.322   24.417
  463.000   46.066    0.313    0.317   27.219
  463.250   42.322    0.321    0.338   30.626
  463.500   34.072    0.318    0.360   34.880
  463.750   35.920    0.323    0.382   39.380
