~VERSION INFORMATION
 VERS.                 2.0:   CWLS LOG ASCII STANDARD -VERSION 2.0
 WRAP.                  NO:   ONE LINE PER DEPTH STEP
~WELL INFORMATION BLOCK
#MNEM.UNIT           DATA                    DESCRIPTION OF MNEMONIC
#---------    -------------------            -------------------------------
# Generated from Intellog Unique Number	CW_73_75/WELL/2724
WELL.         GASCAN MITSUE 04-24            : Well_name    - WELL
LOC .         00/04-24-073-04W5/0            : Location     - LOCATION
UWI .         00/04-24-073-04W5/0            : Uwi          - UNIQUE WELL ID
ENTR.         JAYE                           : Entered      - ENTERED BY
SRVC.         SCHLUMBERGER                   : Scn          - SERVICE COMPANY
DATE.         1 FEB 82                       : Date         - LOG DATE
STRT.M        360                            : top_depth    - START DEPTH
STOP.M        570                            : bot_depth    - STOP DEPTH
STEP.M        0.25                           : increment    - STEP LENGTH
 NULL. -999.2500:NULL Value
~CURVE INFORMATION BLOCK
#MNEM UNIT       ERCB CURVE CODE    CURVE DESCRIPTION
#-----------   ------------------   ----------------------------------
DEPT.M        00 001 00 00         : DEPTH        - DEPTH
DPHI.V/V      00 890 00 00         : PHID         - DENSITY POROSITY (SANDSTONE)
NPHI.V/V      00 330 00 00         : PHIN         - NEUTRON POROSITY (SANDSTONE)
GR  .API      00 310 00 00         : GR           - GAMMA RAY
CALI.MM       00 280 01 00         : CAL          - CALIPER
ILD .OHMM     00 120 00 00         : RESD         - DEEP RESISTIVITY (DLL)
~PARAMETER INFORMATION
#MNEM.UNIT           DATA             DESCRIPTION OF MNEMONIC
#---------         -----------     ------------------------------
GL  .M        587                  : gl           - GROUND LEVEL ELEVATION
EREF.M        591.3                : kb           - ELEVATION OF DEPTH REFERENCE
DATM.M        587                  : datum        - DATUM ELEVATION
TDD .M        1624                 : tdd          - TOTAL DEPTH DRILLER
RUN .         ONE                  : Run          - RUN NUMBER
ENG .         WALTERHOUSE          : Engineer     - RECORDING ENGINEER
WIT .         IRELAND              : Witness      - WITNESSED BY
BASE.         EDM                  : Branch       - HOME BASE OF LOGGING UNIT
MUD .         GEL CHEM             : Mud_type     - MUD TYPE
MATR.         SANDSTONE            : Logunit      - NEUTRON MATRIX
TMAX.C        51.6                 : BHT          - MAXIMUM RECORDED TEMPERATURE
BHTD.M        1624                 : BHTDEP       - MAXIMUM RECORDED TEMPERATURE
RMT .C        51.6                 : MDTP         - TEMPERATURE OF MUD
MUDD.KG/M     1110                 : MWT          - MUD DENSITY
NEUT.         0                    : NEUTRON      - NEUTRON TYPE
RESI.         1                    : RESIST       - RESISTIVITY TYPE
RM  .OHMM     0                    : RM           - RESISTIVITY OF MUD
RMC .OHMM     0                    : RMC          - RESISTIVITY OF MUD CAKE
RMF .OHMM     0                    : RMF          - RESISTIVITY OF MUD FILTRATE
SUFT.C        0                    : SUFT         - SURFACE TEMPERATURE
~A  DEPTH     PHID     PHIN       GR      CAL     RESD
# ...
  396.500    0.468    0.455   71.826  274.803    3.120
  396.750    0.422    0.406   65.463  257.324    3.442
  397.000    0.371    0.379   60.536  246.199    3.855
  397.250    0.359    0.381   63.294  245.278    4.458
  397.500    0.353    0.407   61.428  245.604    5.041
  397.750    0.349    0.401   62.063  246.869    5.306
  398.000    0.337    0.391   68.006  250.735    4.664
  398.250    0.321    0.393   72.138  256.164    3.964
  398.500    0.343    0.389   72.335  258.887    3.763
  398.750    0.404    0.406   70.782  260.464    3.648
  399.000    0.467    0.418   72.727  263.393    3.562
  399.250    0.633    0.416   65.864  276.006    3.504
  399.500    0.655    0.499   59.562  350.991    3.461
  399.750    0.510    0.470   58.074  325.287    3.470
  400.000    0.444    0.419   60.831  297.293    3.472
  400.250    0.412    0.389   64.775  276.482    3.474
  400.500    0.365    0.409   69.594  278.684    3.477
  400.750    0.345    0.433   71.977  266.411    3.421
  401.000    0.369    0.432   65.988  258.929    3.366
  401.250    0.401    0.431   63.248  253.841    3.374
  401.500    0.419    0.429   64.757  257.813    3.506
  401.750    0.405    0.409   64.453  255.120    3.832
  402.000    0.381    0.402   64.400  249.202    4.133
  402.250    0.369    0.395   66.970  246.508    4.467
  402.500    0.364    0.384   69.540  243.607    4.765
  402.750    0.366    0.370   69.737  238.832    4.951
  403.000    0.374    0.368   69.683  241.554    5.010
  403.250    0.380    0.383   74.627  247.503    4.995
  403.500    0.371    0.387   79.821  241.793    4.934
  403.750    0.363    0.383   74.832  241.702    4.891
  404.000    0.356    0.389   73.279  241.613    4.812
  404.250    0.352    0.398   72.663  242.461    4.690
  404.500    0.356    0.406   71.173  243.100    4.606
  404.750    0.362    0.422   69.682  243.948    4.514
  405.000    0.367    0.406   63.131  245.837    4.433
  405.250    0.329    0.374   62.702  250.329    4.395
  405.500    0.287    0.382   78.517  263.047    4.332
  405.750    0.395    0.393   81.150  268.789    4.191
  406.000    0.514    0.437   77.098  278.383    3.854
  406.250    0.567    0.484   74.046  295.786    3.381
  406.500    0.575    0.478   74.179  371.084    3.352
  406.750    0.427    0.459   77.000  349.232    3.482
  407.000    0.391    0.428   82.444  313.636    3.707
  407.250    0.439    0.382   85.764  292.097    4.099
  407.500    0.484    0.426   86.085  274.932    4.363
  407.750    0.497    0.461   82.096  260.889    4.645
  408.000    0.442    0.430   78.481  246.013    5.021
  408.250    0.395    0.408   78.052  239.261    5.366
  408.500    0.368    0.419   74.813  236.984    5.616
  408.750    0.366    0.411   70.449  236.584    5.858
  409.000    0.365    0.393   66.459  235.871    5.961
  409.250    0.363    0.396   58.596  235.467    5.745
  409.500    0.370    0.386   51.482  236.732    5.506
  409.750    0.365    0.378   50.804  238.309    5.397
  410.000    0.357    0.384   53.749  239.782    5.340
  410.250    0.359    0.379   56.195  240.940    5.304
  410.500    0.371    0.372   57.265  242.204    5.298
  410.750    0.370    0.374   53.588  243.573    5.321
  411.000    0.362    0.376   51.536  245.566    5.355
  411.250    0.355    0.371   51.981  249.226    5.348
  411.500    0.359    0.375   55.427  251.636    5.361
  411.750    0.363    0.387   54.561  253.004    5.356
  412.000    0.359    0.367   48.260  253.434    5.338
  412.250    0.356    0.348   47.832  255.741    5.322
  412.500    0.374    0.374   50.589  256.484    5.305
  412.750    0.388    0.383   57.282  252.021    5.299
  413.000    0.382    0.375   58.229  242.352    5.253
  413.250    0.374    0.394   56.364  240.077    5.198
  413.500    0.388    0.408   53.936  239.675    5.230
  413.750    0.400    0.404   53.694  239.378    5.548
  414.000    0.411    0.379   55.077  237.205    5.625
  414.250    0.405    0.369   54.525  233.784    5.421
  414.500    0.390    0.390   54.596  232.340    5.304
  414.750    0.386    0.397   57.854  231.419    5.337
  415.000    0.381    0.391   57.237  231.017    5.474
  415.250    0.365    0.378   57.059  231.239    5.549
  415.500    0.349    0.371   60.004  230.525    5.595
  415.750    0.368    0.385   63.511  229.604    5.454
  416.000    0.369    0.390   60.896  229.410    5.467
  416.250    0.358    0.389   63.529  229.738    5.430
  416.500    0.360    0.407   63.913  229.858    5.464
  416.750    0.364    0.402   58.923  229.872    5.499
  417.000    0.368    0.396   57.621  230.201    5.513
  417.250    0.363    0.392   55.942  230.315    5.497
  417.500    0.365    0.388   54.202  231.478    5.469
  417.750    0.378    0.393   55.898  232.013    5.451
  418.000    0.366    0.374   60.342  232.339    5.466
  418.250    0.361    0.354   57.602  232.457    5.510
  418.500    0.366    0.369   55.112  232.786    5.566
  418.750    0.368    0.367   58.869  232.904    5.528
  419.000    0.369    0.338   59.441  233.335    5.563
  419.250    0.370    0.340   59.450  234.183    5.567
  419.500    0.367    0.351   58.583  234.926    5.498
  419.750    0.362    0.361   55.781  235.982    5.298
  420.000    0.363    0.373   56.477  237.039    5.069
  420.250    0.372    0.385   61.296  237.886    4.885
  420.500    0.361    0.388   66.615  239.359    4.726
  420.750    0.362    0.373   67.062  240.726    4.528
  421.000    0.388    0.392   67.946  241.887    4.430
  421.250    0.372    0.421   69.766  244.713    4.434
  421.500    0.370    0.421   71.149  254.203    4.470
  421.750    0.379    0.405   75.156  265.567    4.601
  422.000    0.357    0.401   83.537  266.832    4.916
  422.250    0.335    0.405   86.233  254.456    5.435
  422.500    0.333    0.394   83.555  250.202    5.510
  422.750    0.337    0.380   82.689  250.320    5.463
  423.000    0.335    0.373   83.385  251.377    5.235
  423.250    0.337    0.375   84.643  253.057    4.961
  423.500    0.331    0.383   87.214  255.883    4.826
  423.750    0.313    0.401   88.472  261.104    4.695
  424.000    0.292    0.417   83.670  266.742    4.602
  424.250    0.262    0.441   77.931  272.691    4.494
  424.500    0.286    0.469   74.691  282.807    4.414
  424.750    0.303    0.496   78.449  290.630    4.384
  425.000    0.316    0.527   86.329  288.355    4.387
  425.250    0.283    0.559   94.522  282.746    4.448
  425.500    0.353    0.577   86.473  285.468    4.586
  425.750    0.418    0.583   84.295  309.327    4.765
  426.000    0.442    0.572   77.306  322.046    4.914
  426.250    0.477    0.552   67.694  281.243    5.192
  426.500    0.632    0.524   57.894  275.322    5.517
  426.750    0.630    0.495   63.276  283.980    5.533
  427.000    0.578    0.396   79.216  292.950    5.135
  427.250    0.546    0.373   85.722  295.047    5.216
  427.500    0.424    0.370   85.231  276.839    5.470
  427.750    0.378    0.364   80.492  261.756    5.546
  428.000    0.334    0.351   76.127  258.439    5.488
  428.250    0.342    0.361   76.950  258.037    5.399
  428.500    0.351    0.387   81.643  258.468    5.204
  428.750    0.348    0.411   84.088  259.525    5.044
  429.000    0.356    0.405   75.601  260.270    4.953
  429.250    0.367    0.391   77.046  261.117    4.856
  429.500    0.381    0.394   77.742  261.339    4.786
  429.750    0.395    0.391   72.816  261.146    4.718
  430.000    0.361    0.383   72.450  260.951    4.650
  430.250    0.326    0.409   75.207  261.176    4.593
  430.500    0.314    0.429   81.901  261.189    4.553
  430.750    0.324    0.413   81.723  261.309    4.573
  431.000    0.334    0.396   79.170  261.219    4.645
  431.250    0.346    0.382   76.367  260.921    4.872
  431.500    0.357    0.370   73.003  260.832    5.062
  431.750    0.366    0.390   67.638  260.536    5.132
  432.000    0.372    0.421   61.275  260.030    5.126
  432.250    0.382    0.418   60.722  259.315    5.110
  432.500    0.376    0.395   64.104  259.017    5.114
  432.750    0.370    0.391   64.175  259.240    5.136
