~VERSION INFORMATION
 VERS.                 2.0:   CWLS LOG ASCII STANDARD -VERSION 2.0
 WRAP.                  NO:   ONE LINE PER DEPTH STEP
~WELL INFORMATION BLOCK
#MNEM.UNIT           DATA                    DESCRIPTION OF MNEMONIC
#---------    -------------------            -------------------------------
# Generated from Intellog Unique Number	CS_69_70/WELL/714
NULL.         -999.25                        : NULL_VALUE
WELL.         ET AL TWEEDIE                  : Well_name    - WELL              
LOC .         00/06-05-070-13W4/0            : Location     - LOCATION          
UWI .         00/06-05-070-13W4/0            : Uwi          - UNIQUE WELL ID    
ENTR.         SP                             : Entered      - ENTERED BY        
SRVC.         SCHLUMBERGER                   : Scn          - SERVICE COMPANY   
STRT.M        275                            : top_depth    - START DEPTH       
STOP.M        520                            : bot_depth    - STOP DEPTH        
STEP.M        0.25                           : increment    - STEP LENGTH       
~CURVE INFORMATION BLOCK
#MNEM UNIT       ERCB CURVE CODE    CURVE DESCRIPTION
#-----------   ------------------   ----------------------------------
DEPT.M        00 001 00 00         : DEPTH        - DEPTH                       
ILD .OHMM     00 120 00 00         : RESD         - DEEP RESISTIVITY (DIL)      
DPHI.V/V      00 890 00 00         : PHID         - DENSITY POROSITY (LIMESTONE)
NPHI.V/V      00 330 00 00         : PHIN         - NEUTRON POROSITY (LIMESTONE)
GR  .API      00 310 00 00         : GR           - GAMMA RAY                   
~PARAMETER INFORMATION       
#MNEM.UNIT           DATA             DESCRIPTION OF MNEMONIC
#---------         -----------     ------------------------------
GL  .M        577.2                : gl           - GROUND LEVEL ELEVATION      
EREF.M        581.1                : kb           - ELEVATION OF DEPTH REFERENCE
DATM.M        577.2                : datum        - DATUM ELEVATION             
TDD .M        528                  : tdd          - TOTAL DEPTH DRILLER         
RUN .         ONE                  : Run          - RUN NUMBER                  
ENG .         BILL                 : Engineer     - RECORDING ENGINEER          
WIT .         JIM                  : Witness      - WITNESSED BY                
MUD .         GEL                  : Mud_type     - MUD TYPE                    
MATR.         LIMESTONE            : Logunit      - NEUTRON MATRIX              
TMAX.C        23                   : BHT          - MAXIMUM RECORDED TEMPERATURE
BHTD.M        528                  : BHTDEP       - MAXIMUM RECORDED TEMPERATURE
MATR.         1                    : LOGUNIT      - NEUTRON MATRIX              
RMT .C        25                   : MDTP         - TEMPERATURE OF MUD          
NEUT.         1                    : NEUTRON      - NEUTRON TYPE                
RESI.         0                    : RESIST       - RESISTIVITY TYPE            
RMC .OHMM     0.25                 : RMC          - RESISTIVITY OF MUD CAKE     
RMF .OHMM     0.25                 : RMF          - RESISTIVITY OF MUD FILTRATE 
SUFT.C        15                   : SUFT         - SURFACE TEMPERATURE         
~A  DEPTH     RESD     PHID     PHIN       GR
# ...
  449.000    6.421    0.250    0.331   70.541
  449.250    6.606    0.258    0.329   75.347
  449.500    6.684    0.234    0.326   77.570
  449.750    6.503    0.215    0.322   82.496
  450.000    5.918    0.205    0.318   87.360
  450.250    5.693    0.198    0.314   89.584
  450.500    5.417    0.197    0.310   90.131
  450.750    5.389    0.201    0.307   79.647
  451.000    5.575    0.199    0.306   73.839
  451.250    5.599    0.202    0.308   75.346
  451.500    5.622    0.202    0.314   78.711
  451.750    5.636    0.197    0.318   82.617
  452.000    5.713    0.192    0.321   83.342
  452.250    5.823    0.188    0.322   80.352
  452.500    5.980    0.184    0.318   77.782
  452.750    6.209    0.183    0.312   74.193
  453.000    6.376    0.186    0.308   70.843
  453.250    6.451    0.183    0.307   71.630
  453.500    6.371    0.186    0.307   78.412
  453.750    6.152    0.186    0.316   85.494
  454.000    5.800    0.170    0.324   79.927
  454.250    5.477    0.201    0.331   74.958
  454.500    5.250    0.264    0.336   71.009
  454.750    5.117    0.287    0.341   68.618
  455.000    5.226    0.292    0.345   68.987
  455.250    5.297    0.288    0.346   68.693
  455.500    5.300    0.250    0.342   71.280
  455.750    5.137    0.226    0.336   76.862
  456.000    4.861    0.215    0.328   82.145
  456.250    4.800    0.206    0.326   87.250
  456.500    4.920    0.247    0.322   90.374
  456.750    5.043    0.250    0.319   89.003
  457.000    5.093    0.213    0.322   85.054
  457.250    4.946    0.188    0.335   88.239
  457.500    4.697    0.155    0.342   97.780
  457.750    4.346    0.061    0.356  102.403
  458.000    4.066    0.126    0.367  107.568
  458.250    3.876    0.144    0.384  111.172
  458.500    3.785    0.153    0.402  115.557
  458.750    3.829    0.163    0.374  115.144
  459.000    3.977    0.161    0.354   96.506
  459.250    4.129    0.176    0.337  102.149
  459.500    4.344    0.188    0.330   98.020
  459.750    4.571    0.196    0.329   83.399
  460.000    4.650    0.211    0.328   74.114
  460.250    4.714    0.239    0.327   77.779
  460.500    4.716    0.221    0.330   81.084
  460.750    4.430    0.207    0.331   82.890
  461.000    4.229    0.220    0.330   78.402
  461.250    3.899    0.224    0.328   75.231
  461.500    3.654    0.232    0.326   74.939
  461.750    3.497    0.247    0.325   75.847
  462.000    3.421    0.232    0.323   77.113
  462.250    3.487    0.207    0.321   80.238
  462.500    3.696    0.197    0.322   87.440
  462.750    3.991    0.182    0.326   96.320
  463.000    4.384    0.170    0.329  101.905
  463.250    4.603    0.161    0.331  106.887
  463.500    4.683    0.179    0.336  112.531
  463.750    4.616    0.200    0.337  110.859
  464.000    4.466    0.215    0.334   70.219
  464.250    4.297    0.233    0.331   57.697
  464.500    4.119    0.251    0.331   51.110
  464.750    4.067    0.259    0.332   46.980
  465.000    4.115    0.249    0.334   57.420
  465.250    4.226    0.236    0.332   67.080
  465.500    4.372    0.260    0.329   71.165
  465.750    4.506    0.246    0.326   83.583
  466.000    4.680    0.192    0.331   92.583
  466.250    4.779    0.164    0.327   98.167
  466.500    4.871    0.144    0.322   95.357
  466.750    4.975    0.148    0.320   86.431
  467.000    5.166    0.161    0.319   77.265
  467.250    5.315    0.095    0.330   76.614
  467.500    5.328    0.141    0.325   79.620
  467.750    5.088    0.183    0.324   81.605
  468.000    4.418    0.169    0.323   80.473
  468.250    3.562    0.201    0.328   48.047
  468.500    2.824    0.235    0.335   34.624
  468.750    2.398    0.274    0.340   31.756
  469.000    2.110    0.313    0.346   34.340
  469.250    1.970    0.359    0.344   38.246
  469.500    1.847    0.341    0.343   43.649
  469.750    1.738    0.323    0.342   49.172
  470.000    1.681    0.315    0.339   49.659
  470.250    1.654    0.308    0.338   49.187
  470.500    1.646    0.310    0.336   53.332
  470.750    1.668    0.315    0.333   57.896
  471.000    1.707    0.293    0.332   63.359
  471.250    1.789    0.280    0.334   69.841
  471.500    2.016    0.260    0.336   79.321
  471.750    2.476    0.215    0.328   90.660
  472.000    3.080    0.195    0.318   95.645
  472.250    3.570    0.183    0.306   98.769
  472.500    3.972    0.167    0.298   65.263
  472.750    4.313    0.188    0.287   54.659
  473.000    4.546    0.173    0.278   51.249
  473.250    4.083    0.214    0.273   55.513
  473.500    2.944    0.256    0.297   47.187
  473.750    2.351    0.296    0.311   44.377
  474.000    2.084    0.307    0.325   58.654
  474.250    1.946    0.324    0.336   72.211
  474.500    1.814    0.341    0.342   83.431
  474.750    1.768    0.346    0.347   90.452
  475.000    1.823    0.268    0.342   83.472
  475.250    1.936    0.237    0.334   81.521
  475.500    2.170    0.219    0.334   87.151
  475.750    2.330    0.263    0.336   90.581
  476.000    2.384    0.299    0.339   73.587
  476.250    2.307    0.324    0.343   62.035
  476.500    2.167    0.346    0.346   55.680
  476.750    2.051    0.325    0.349   52.384
  477.000    1.974    0.306    0.347   64.252
  477.250    1.886    0.294    0.346   72.391
  477.500    1.849    0.319    0.342   70.194
  477.750    1.867    0.332    0.338   54.484
  478.000    1.886    0.317    0.340   51.248
  478.250    1.853    0.300    0.329   73.635
  478.500    2.080    0.231    0.308   85.626
  478.750    2.597    0.053    0.291  126.847
  479.000    3.409    0.030    0.250  151.925
  479.250    4.100    0.077    0.206  146.366
  479.500    4.428    0.141    0.217  133.162
  479.750    3.591    0.184    0.255  110.236
  480.000    3.074    0.256    0.299   93.241
  480.250    3.099    0.238    0.326  105.110
  480.500    3.481    0.199    0.332  110.986
  480.750    3.662    0.172    0.336  119.064
  481.000    3.564    0.172    0.339  125.000
  481.250    3.051    0.182    0.339  108.250
  481.500    2.766    0.242    0.336   96.698
  481.750    2.580    0.297    0.332   84.351
  482.000    2.586    0.224    0.330   79.036
  482.250    2.666    0.199    0.334  101.300
  482.500    2.927    0.172    0.330  108.583
  482.750    3.368    0.158    0.333  109.262
  483.000    3.712    0.169    0.334  108.288
  483.250    3.964    0.180    0.327  112.696
  483.500    4.265    0.166    0.322  102.795
  483.750    4.259    0.184    0.327   82.866
  484.000    3.957    0.187    0.326   77.122
  484.250    3.458    0.225    0.324   77.495
  484.500    3.158    0.259    0.333   78.724
  484.750    2.827    0.290    0.339   80.441
  485.000    2.711    0.306    0.343   81.852
  485.250    2.718    0.271    0.330   82.225
  485.500    2.855    0.244    0.323   81.863
  485.750    2.920    0.228    0.326   87.678
  486.000    3.143    0.212    0.327   94.411
  486.250    3.332    0.189    0.323   98.146
  486.500    3.453    0.174    0.321  100.536
  486.750    3.674    0.191    0.326   91.124
  487.000    3.731    0.222    0.330   82.201
  487.250    2.987    0.247    0.329   76.092
  487.500    2.567    0.271    0.341   70.410
  487.750    2.526    0.243    0.335   86.314
  488.000    2.794    0.196    0.326  102.708
  488.250    3.257    0.199    0.318  118.552
  488.500    3.569    0.184    0.324  122.226
  488.750    3.770    0.173    0.334  105.170
  489.000    3.682    0.176    0.332   88.543
  489.250    3.583    0.193    0.325   81.516
  489.500    3.494    0.206    0.324   78.769
  489.750    3.483    0.214    0.330   95.286
  490.000    3.499    0.117    0.340  106.543
  490.250    3.533    0.103    0.346  113.458
  490.500    3.617    0.113    0.351  118.111
  490.750    3.645    0.112    0.353  122.030
  491.000    3.710    0.100    0.351  122.647
  491.250    3.761    0.090    0.347  115.253
  491.500    3.798    0.055    0.347  109.511
  491.750    3.836    0.053    0.352  107.376
  492.000    3.824    0.082    0.358  111.539
  492.250    3.827    0.102    0.360  115.948
