~VERSION INFORMATION
 VERS.                 2.0:   CWLS LOG ASCII STANDARD -VERSION 2.0
 WRAP.                  NO:   ONE LINE PER DEPTH STEP
~WELL INFORMATION BLOCK
#MNEM.UNIT           DATA                    DESCRIPTION OF MNEMONIC
#---------    -------------------            -------------------------------
# Generated from Intellog Unique Number	CS_77_79/WELL/850
WELL.         CANADIAN WORLDWIDE ENERGY      : Well_name    - WELL
LOC .         00/04-13-077-05W4/0            : Location     - LOCATION
UWI .         00/04-13-077-05W4/0            : Uwi          - UNIQUE WELL ID
ENTR.         SP                             : Entered      - ENTERED BY
SRVC.         SCHLUMBERGER                   : Scn          - SERVICE COMPANY
STRT.M        165                            : top_depth    - START DEPTH
STOP.M        410                            : bot_depth    - STOP DEPTH
STEP.M        0.25                           : increment    - STEP LENGTH
 NULL. -999.2500:NULL Value
~CURVE INFORMATION BLOCK
#MNEM UNIT       ERCB CURVE CODE    CURVE DESCRIPTION
#-----------   ------------------   ----------------------------------
DEPT.M        00 001 00 00         : DEPTH        - DEPTH
ILD .OHMM     00 120 00 00         : RESD         - DEEP RESISTIVITY (DIL)
DPHI.V/V      00 890 00 00         : PHID         - DENSITY POROSITY (LIMESTONE)
NPHI.V/V      00 330 00 00         : PHIN         - NEUTRON POROSITY (LIMESTONE)
GR  .API      00 310 00 00         : GR           - GAMMA RAY
~PARAMETER INFORMATION
#MNEM.UNIT           DATA             DESCRIPTION OF MNEMONIC
#---------         -----------     ------------------------------
GL  .M        570.3                : gl           - GROUND LEVEL ELEVATION
EREF.M        573.3                : kb           - ELEVATION OF DEPTH REFERENCE
DATM.M        570.3                : datum        - DATUM ELEVATION
TDD .M        411.6                : tdd          - TOTAL DEPTH DRILLER
RUN .         ONE                  : Run          - RUN NUMBER
ENG .         BILL                 : Engineer     - RECORDING ENGINEER
WIT .         JIM                  : Witness      - WITNESSED BY
MUD .         GEL                  : Mud_type     - MUD TYPE
MATR.         LIMESTONE            : Logunit      - NEUTRON MATRIX
TMAX.C        20                   : BHT          - MAXIMUM RECORDED TEMPERATURE
BHTD.M        415                  : BHTDEP       - MAXIMUM RECORDED TEMPERATURE
MATR.         1                    : LOGUNIT      - NEUTRON MATRIX
RMT .C        25                   : MDTP         - TEMPERATURE OF MUD
NEUT.         1                    : NEUTRON      - NEUTRON TYPE
RESI.         0                    : RESIST       - RESISTIVITY TYPE
RMC .OHMM     0.25                 : RMC          - RESISTIVITY OF MUD CAKE
RMF .OHMM     0.25                 : RMF          - RESISTIVITY OF MUD FILTRATE
SUFT.C        15                   : SUFT         - SURFACE TEMPERATURE
~A  DEPTH     RESD     PHID     PHIN       GR
# ...
  208.500   24.460    0.280    0.424   87.160
  208.750   24.480    0.293    0.430   93.250
  209.000   24.513    0.299    0.435   93.866
  209.250   24.077    0.297    0.436   95.700
  209.500   23.659    0.287    0.427   98.141
  209.750   23.239    0.282    0.404  103.010
  210.000   22.824    0.270    0.393   88.449
  210.250   22.017    0.258    0.388   79.961
  210.500   22.029    0.250    0.380   76.938
  210.750   21.641    0.251    0.369   75.734
  211.000   21.662    0.253    0.367   76.356
  211.250   21.680    0.242    0.377   76.969
  211.500   21.718    0.235    0.382   85.489
  211.750   21.738    0.245    0.377   89.142
  212.000   22.169    0.260    0.372   80.047
  212.250   23.031    0.278    0.358   73.381
  212.500   24.394    0.305    0.354   69.139
  212.750   25.346    0.315    0.360   60.647
  213.000   26.346    0.306    0.370   53.371
  213.250   26.879    0.290    0.374   61.889
  213.500   26.905    0.278    0.375   71.007
  213.750   26.926    0.280    0.375   69.810
  214.000   26.948    0.270    0.373   69.211
  214.250   25.986    0.256    0.369   77.117
  214.500   24.586    0.245    0.375   79.562
  214.750   23.709    0.256    0.387   83.217
  215.000   23.295    0.260    0.397   89.908
  215.250   22.875    0.265    0.384   86.887
  215.500   22.910    0.279    0.374   82.039
  215.750   22.927    0.290    0.370   79.623
  216.000   22.945    0.276    0.369   81.454
  216.250   23.402    0.268    0.375   85.112
  216.500   23.002    0.270    0.396   87.554
  216.750   22.589    0.266    0.406   85.742
  217.000   22.189    0.255    0.390   87.577
  217.250   21.395    0.243    0.387   86.984
  217.500   20.638    0.236    0.393   85.782
  217.750   20.652    0.254    0.393   88.221
  218.000   20.665    0.277    0.390   83.988
  218.250   20.308    0.289    0.390   85.211
  218.500   19.582    0.274    0.402   88.869
  218.750   19.237    0.261    0.412   94.348
  219.000   18.202    0.253    0.417   99.217
  219.250   17.221    0.245    0.405  104.086
  219.500   16.293    0.227    0.394  110.779
  219.750   14.572    0.216    0.401  118.685
  220.000   13.032    0.217    0.413  121.736
  220.250   11.877    0.214    0.441  122.353
  220.500   11.030    0.212    0.441  121.761
  220.750   10.436    0.211    0.441  121.162
  221.000   10.062    0.213    0.442  119.965
  221.250    9.886    0.214    0.437  118.152
  221.500    9.709    0.213    0.443  116.341
  221.750    9.907    0.214    0.451  113.318
  222.000   10.103    0.228    0.447  107.865
  222.250   10.501    0.250    0.442  101.200
  222.500   11.329    0.270    0.427   96.351
  222.750   12.454    0.277    0.431   87.251
  223.000   14.222    0.270    0.434   84.834
  223.250   14.776    0.257    0.433   95.779
  223.500   15.648    0.266    0.430   98.222
  223.750   16.267    0.281    0.424   98.237
  224.000   16.911    0.284    0.422   98.245
  224.250   17.242    0.273    0.398   92.793
  224.500   17.924    0.256    0.389   84.303
  224.750   18.628    0.263    0.391   70.953
  225.000   19.354    0.283    0.399   58.212
  225.250   20.494    0.331    0.406   52.150
  225.500   22.115    0.335    0.410   53.985
  225.750   22.988    0.320    0.416   58.855
  226.000   22.157    0.300    0.405   69.191
  226.250   20.576    0.277    0.401   80.743
  226.500   18.756    0.271    0.416   77.719
  226.750   17.419    0.298    0.427   74.090
  227.000   16.481    0.304    0.432   75.315
  227.250   15.889    0.290    0.432   80.795
  227.500   15.319    0.269    0.417   88.704
  227.750   15.051    0.241    0.416   96.001
  228.000   13.713    0.235    0.456  114.230
  228.250   11.378    0.248    0.475  113.030
  228.500    9.620    0.280    0.476  108.183
  228.750    9.449    0.305    0.467   99.085
  229.000   10.197    0.311    0.442   89.381
  229.250   11.426    0.305    0.426   84.533
  229.500   13.043    0.289    0.413   88.196
  229.750   14.336    0.272    0.407   93.064
  230.000   16.677    0.259    0.407   94.897
  230.250   16.697    0.252    0.402   89.441
  230.500   16.406    0.247    0.407   86.416
  230.750   15.817    0.243    0.424   87.644
  231.000   14.685    0.242    0.432   84.014
  231.250   13.892    0.243    0.425   77.951
  231.500   13.906    0.245    0.414   72.497
  231.750   14.456    0.258    0.399   76.158
  232.000   14.202    0.269    0.385   76.167
  232.250   13.949    0.277    0.367   68.288
  232.500   14.233    0.301    0.390   61.617
  232.750   14.791    0.322    0.407   57.988
  233.000   15.366    0.335    0.412   58.603
  233.250   15.972    0.345    0.420   61.054
  233.500   17.563    0.354    0.431   61.671
  233.750   19.309    0.355    0.437   61.678
  234.000   20.444    0.356    0.434   61.084
  234.250   22.070    0.355    0.431   60.492
  234.500   22.505    0.352    0.430   60.501
  234.750   22.963    0.351    0.430   58.697
  235.000   22.986    0.349    0.430   58.095
  235.250   23.005    0.347    0.436   59.321
  235.500   23.021    0.346    0.439   62.374
  235.750   23.046    0.346    0.434   64.814
  236.000   23.073    0.346    0.421   61.184
  236.250   22.253    0.345    0.413   59.979
  236.500   21.868    0.341    0.416   61.816
  236.750   22.293    0.341    0.431   62.431
  237.000   22.309    0.342    0.435   62.445
  237.250   22.335    0.346    0.437   58.206
  237.500   21.943    0.347    0.432   58.217
  237.750   21.966    0.347    0.431   58.846
  238.000   21.572    0.345    0.433   59.461
  238.250   21.605    0.346    0.438   61.293
  238.500   21.619    0.348    0.441   60.698
  238.750   22.047    0.348    0.444   58.886
  239.000   22.068    0.346    0.446   58.294
  239.250   22.097    0.345    0.448   58.911
  239.500   22.119    0.348    0.437   60.755
  239.750   22.135    0.353    0.430   61.371
  240.000   21.758    0.356    0.423   60.770
  240.250   22.183    0.362    0.438   58.960
  240.500   22.210    0.367    0.459   58.368
  240.750   22.234    0.373    0.491   58.379
  241.000   22.249    0.385    0.496   59.610
  241.250   22.280    0.370    0.475   59.618
  241.500   22.296    0.357    0.447   59.631
  241.750   23.175    0.348    0.436   56.603
  242.000   23.200    0.348    0.424   57.831
  242.250   23.221    0.347    0.426   57.239
  242.500   23.695    0.349    0.424   57.858
  242.750   23.717    0.347    0.402   53.010
  243.000   24.191    0.334    0.395   48.770
  243.250   25.136    0.338    0.387   51.212
  243.500   25.630    0.338    0.379   54.261
  243.750   27.659    0.323    0.345   53.666
  244.000   29.285    0.158    0.262   53.072
  244.250   34.722    0.039    0.180   54.906
  244.500   36.754    0.023    0.153   56.132
  244.750   43.575    0.014    0.145   53.108
  245.000   48.803    0.009    0.136   48.262
  245.250   65.967    0.000    0.128   46.451
  245.500   75.304    0.014    0.133   47.073
  245.750   75.398    0.074    0.165   50.730
  246.000   66.184    0.142    0.253   53.168
  246.250   59.181    0.224    0.302   53.184
  246.500   50.032    0.277    0.318   51.978
  246.750   43.914    0.222    0.321   52.602
  247.000   38.550    0.296    0.334   55.043
  247.250   33.839    0.338    0.409   58.700
  247.500   30.267    0.348    0.430   60.529
  247.750   27.578    0.348    0.429   59.329
  248.000   23.768    0.349    0.451   58.740
  248.250   22.488    0.352    0.463   58.751
  248.500   21.683    0.360    0.458   59.365
  248.750   21.696    0.363    0.453   58.771
  249.000   21.723    0.370    0.446   59.390
  249.250   21.744    0.376    0.444   59.401
  249.500   21.763    0.376    0.451   56.383
  249.750   21.380    0.383    0.448   56.391
  250.000   21.013    0.386    0.441   57.616
  250.250   20.642    0.373    0.434   60.061
  250.500   20.273    0.360    0.431   61.288
  250.750   19.540    0.366    0.447   61.903
  251.000   18.842    0.376    0.464   62.523
  251.250   18.510    0.366    0.464   61.929
  251.500   17.515    0.355    0.453   61.338
  251.750   16.889    0.351    0.448   62.561
