~VERSION INFORMATION
 VERS.                 2.0:   CWLS LOG ASCII STANDARD -VERSION 2.0
 WRAP.                  NO:   ONE LINE PER DEPTH STEP
~WELL INFORMATION BLOCK
#MNEM.UNIT           DATA                    DESCRIPTION OF MNEMONIC
#---------    -------------------            -------------------------------
# Generated from Intellog Unique Number	CW_79_81/WELL/2446
WELL.         AMOCO PELICAN                  : Well_name    - WELL
LOC .         00/05-01-081-23W4/0            : Location     - LOCATION
UWI .         00/05-01-081-23W4/0            : Uwi          - UNIQUE WELL ID
ENTR.         MAX                            : Entered      - ENTERED BY
SRVC.         COMPUTALOG                     : Scn          - SERVICE COMPANY
STRT.M        200                            : top_depth    - START DEPTH
STOP.M        459.75                         : bot_depth    - STOP DEPTH
STEP.M        0.25                           : increment    - STEP LENGTH
 NULL. -999.2500:NULL Value
~CURVE INFORMATION BLOCK
#MNEM UNIT       ERCB CURVE CODE    CURVE DESCRIPTION
#-----------   ------------------   ----------------------------------
DEPT.M        00 001 00 00         : DEPTH        - DEPTH
ILD .OHMM     00 120 00 00         : RESD         - DEEP RESISTIVITY (DIL)
NPHI.V/V      00 330 00 00         : PHIN         - NEUTRON POROSITY (SANDSTONE)
DPHI.V/V      00 890 00 00         : PHID         - DENSITY POROSITY (SANDSTONE)
GR  .API      00 310 00 00         : GR           - GAMMA RAY
CALI.MM       00 280 01 00         : CAL          - CALIPER
~PARAMETER INFORMATION
#MNEM.UNIT           DATA             DESCRIPTION OF MNEMONIC
#---------         -----------     ------------------------------
GL  .M        593.34               : gl           - GROUND LEVEL ELEVATION
EREF.M        597.04               : kb           - ELEVATION OF DEPTH REFERENCE
DATM.M        593.34               : datum        - DATUM ELEVATION
TDD .M        456                  : tdd          - TOTAL DEPTH DRILLER
RUN .         ONE                  : Run          - RUN NUMBER
ENG .         BILL                 : Engineer     - RECORDING ENGINEER
WIT .         JIM                  : Witness      - WITNESSED BY
MUD .         GEL                  : Mud_type     - MUD TYPE
MATR.         SANDSTONE            : Logunit      - NEUTRON MATRIX
TMAX.C        31                   : BHT          - MAXIMUM RECORDED TEMPERATURE
BHTD.M        456                  : BHTDEP       - MAXIMUM RECORDED TEMPERATURE
MATR.         1                    : LOGUNIT      - NEUTRON MATRIX
RMT .C        21                   : MDTP         - TEMPERATURE OF MUD
NEUT.         1                    : NEUTRON      - NEUTRON TYPE
RESI.         0                    : RESIST       - RESISTIVITY TYPE
RMC .OHMM     4.9                  : RMC          - RESISTIVITY OF MUD CAKE
RMF .OHMM     5.6                  : RMF          - RESISTIVITY OF MUD FILTRATE
SUFT.C        -10                  : SUFT         - SURFACE TEMPERATURE
~A  DEPTH     RESD     PHIN     PHID       GR      CAL
  200.000    4.642    0.449    0.260  104.024  226.896
  200.250    4.430    0.453    0.276  107.836  225.642
  200.500    4.292    0.459    0.288  110.064  222.362
  200.750    4.229    0.470    0.291  109.950  220.754
  201.000    4.252    0.484    0.286  108.499  222.592
  201.250    4.407    0.485    0.281  109.139  227.813
  201.500    4.727    0.449    0.281  108.639  229.519
  201.750    5.239    0.427    0.285   94.291  227.913
  202.000    5.995    0.386    0.293   73.373  225.086
  202.250    7.722    0.354    0.302   55.496  220.637
  202.500   11.088    0.332    0.306   45.164  215.278
  202.750   11.647    0.297    0.280   43.036  209.822
  203.000    9.147    0.283    0.190   49.380  204.766
  203.250    7.621    0.394    0.219   59.852  203.969
  203.500    4.620    0.461    0.262   76.345  204.996
  203.750    3.243    0.501    0.313   89.737  210.485
  204.000    2.738    0.525    0.356   95.768  218.104
  204.250    2.817    0.530    0.359   92.564  219.964
  204.500    3.022    0.506    0.345   80.153  217.019
  204.750    3.205    0.422    0.323   69.699  213.792
  205.000    3.456    0.393    0.309   67.273  212.993
  205.250    3.672    0.405    0.299   70.567  213.210
  205.500    3.755    0.441    0.298   77.936  213.529
  205.750    3.620    0.486    0.311   88.967  213.461
  206.000    3.377    0.494    0.318   91.763  213.053
  206.250    3.327    0.483    0.303   91.772  212.257
  206.500    3.370    0.473    0.292   91.781  211.764
  206.750    3.521    0.470    0.282   91.791  211.373
  207.000    3.889    0.467    0.271   91.311  211.082
  207.250    4.939    0.441    0.255   85.926  211.181
  207.500    5.425    0.418    0.240   68.700  211.619
  207.750    6.056    0.418    0.275   59.949  212.444
  208.000    6.623    0.430    0.289   58.498  213.269
  208.250    7.163    0.431    0.291   60.331  214.298
  208.500    7.705    0.420    0.289   62.651  215.226
  208.750    8.426    0.412    0.283   63.523  215.156
  209.000    9.477    0.416    0.288   61.759  214.747
  209.250   10.966    0.409    0.309   55.682  212.734
  209.500   12.381    0.391    0.322   48.877  209.505
  209.750   13.122    0.379    0.327   45.236  207.087
  210.000   12.870    0.379    0.323   46.522  205.987
  210.250   11.683    0.383    0.310   52.727  205.105
  210.500   10.493    0.368    0.307   54.511  204.697
  210.750    9.733    0.364    0.303   55.492  204.305
  211.000    9.400    0.368    0.294   59.211  203.610
  211.250    9.261    0.385    0.287   62.627  202.813
  211.500    9.294    0.407    0.284   64.095  202.117
  211.750    9.677    0.409    0.286   62.613  201.561
  212.000    9.827    0.379    0.288   58.821  200.731
  212.250    9.754    0.364    0.289   57.857  199.933
  212.500    9.681    0.358    0.288   59.446  199.439
  212.750    9.680    0.356    0.284   61.035  199.656
  213.000    9.892    0.355    0.277   61.226  200.785
  213.250   10.726    0.359    0.271   60.030  203.422
  213.500   11.506    0.368    0.275   61.307  206.394
  213.750   11.852    0.388    0.286   59.855  208.030
  214.000   12.074    0.384    0.297   56.944  209.059
  214.250   12.434    0.374    0.303   55.127  209.479
  214.500   13.026    0.371    0.304   54.711  209.493
  214.750   13.747    0.375    0.300   53.292  209.510
  215.000   13.853    0.342    0.288   51.017  209.522
  215.250   13.545    0.304    0.165   46.889  209.132
  215.500   13.021    0.313    0.187   46.047  208.741
  215.750   12.355    0.351    0.246   49.707  208.551
  216.000   11.309    0.391    0.280   56.224  208.564
  216.250    9.350    0.401    0.274   61.960  208.667
  216.500    8.148    0.398    0.267   66.278  209.105
  216.750    7.557    0.402    0.279   68.963  209.118
  217.000    7.094    0.406    0.290   69.277  209.741
  217.250    6.735    0.412    0.303   70.624  210.972
  217.500    6.441    0.420    0.315   73.490  212.708
  217.750    6.072    0.426    0.326   75.347  215.345
  218.000    5.666    0.421    0.323   74.847  218.316
  218.250    4.944    0.422    0.316   77.289  220.765
  218.500    4.579    0.426    0.311   77.906  221.082
  218.750    4.546    0.427    0.306   79.132  220.082
  219.000    4.796    0.425    0.303   80.600  218.679
  219.250    5.256    0.419    0.310   77.679  218.051
  219.500    5.507    0.400    0.325   70.338  218.909
  219.750    5.507    0.401    0.330   70.104  218.520
  220.000    5.323    0.420    0.331   72.423  218.738
  220.250    5.031    0.441    0.335   75.230  220.172
  220.500    4.697    0.453    0.342   77.064  222.821
  220.750    4.300    0.448    0.349   78.138  226.335
  221.000    4.012    0.440    0.339   83.470  227.619
  221.250    3.835    0.439    0.325   85.911  227.630
  221.500    3.605    0.447    0.343   86.528  227.036
  221.750    3.436    0.448    0.358   88.483  225.834
  222.000    3.355    0.439    0.354   90.985  223.718
  222.250    3.314    0.433    0.332   88.785  218.310
  222.500    3.237    0.453    0.321   86.260  209.454
  222.750    3.166    0.449    0.304   89.431  202.169
  223.000    3.130    0.459    0.293   94.610  198.837
  223.250    3.095    0.475    0.282   97.417  198.041
  223.500    3.049    0.488    0.272   96.209  198.562
  223.750    2.990    0.493    0.267   91.930  199.643
  224.000    2.921    0.498    0.275   91.178  200.928
  224.250    2.793    0.497    0.282   93.133  202.560
  224.500    2.655    0.493    0.285   95.271  203.589
  224.750    2.549    0.486    0.288   95.523  203.807
  225.000    2.493    0.478    0.291   94.011  203.516
  225.250    2.501    0.472    0.297   93.047  203.617
  225.500    2.540    0.487    0.301   93.056  204.053
  225.750    2.577    0.493    0.304   91.848  206.909
  226.000    2.558    0.492    0.311   90.093  210.979
  226.250    2.511    0.492    0.316   89.129  214.034
  226.500    2.455    0.495    0.318   89.867  215.262
  226.750    2.386    0.509    0.318   93.506  215.110
  227.000    2.313    0.536    0.316   97.065  214.283
  227.250    2.262    0.553    0.313   96.586  213.486
  227.500    2.249    0.529    0.311   96.107  213.296
  227.750    2.282    0.496    0.309   96.480  213.308
  228.000    2.334    0.472    0.305   97.462  213.423
  228.250    2.337    0.467    0.294   97.513  214.015
  228.500    2.355    0.473    0.301   96.508  214.874
  228.750    2.408    0.471    0.325   94.569  215.701
  229.000    2.462    0.484    0.348   91.901  215.918
  229.250    2.508    0.511    0.360   90.206  215.729
  229.500    2.546    0.538    0.353   90.458  215.236
  229.750    2.596    0.542    0.314   92.901  214.441
  230.000    2.657    0.537    0.267   92.912  214.456
  230.250    2.696    0.514    0.226   89.756  214.469
  230.500    2.722    0.505    0.225   89.337  213.876
  230.750    2.752    0.506    0.250   91.293  212.876
  231.000    2.813    0.514    0.280   94.162  211.673
  231.250    2.960    0.525    0.283   95.489  210.220
  231.500    3.053    0.535    0.277   96.004  208.970
  231.750    3.053    0.501    0.267   94.796  207.764
  232.000    3.036    0.484    0.268   96.508  205.650
  232.250    3.002    0.477    0.276   99.923  203.637
  232.500    2.963    0.477    0.285  102.851  202.231
  232.750    2.932    0.483    0.288  101.929  201.353
  233.000    2.886    0.494    0.284  100.923  200.945
  233.250    2.886    0.494    0.282   99.715  200.960
  233.500    2.967    0.494    0.284   98.872  200.974
  233.750    3.123    0.487    0.289   97.421  200.987
  234.000    3.450    0.468    0.301   94.692  200.999
  234.250    4.442    0.438    0.322   88.243  201.186
  234.500    5.282    0.435    0.337   77.860  202.045
  234.750    6.839    0.411    0.296   63.998  204.086
  235.000    9.846    0.403    0.271   53.787  206.432
  235.250   15.079    0.421    0.273   48.929  210.503
  235.500   22.762    0.449    0.295   48.572  215.081
  235.750   34.017    0.439    0.322   49.566  216.315
  236.000   40.130    0.425    0.333   50.843  216.326
  236.250   40.127    0.411    0.343   50.851  215.531
