~VERSION INFORMATION
 VERS.                 2.0:   CWLS LOG ASCII STANDARD -VERSION 2.0
 WRAP.                  NO:   ONE LINE PER DEPTH STEP
~WELL INFORMATION BLOCK
#MNEM.UNIT           DATA                    DESCRIPTION OF MNEMONIC
#---------    -------------------            -------------------------------
# Generated from Intellog Unique Number	CX_WELLS/WELL/2780
WELL.         NEWBY                          : Well_name    - WELL
LOC .         00/09-36-081-06W4/0            : Location     - LOCATION
UWI .         00/09-36-081-06W4/0            : Uwi          - UNIQUE WELL ID
ENTR.         T                              : Entered      - ENTERED BY
SRVC.         SCHLUMBERGER                   : Scn          - SERVICE COMPANY
STRT.M        150                            : top_depth    - START DEPTH
STOP.M        263                            : bot_depth    - STOP DEPTH
STEP.M        0.25                           : increment    - STEP LENGTH
 NULL. -999.2500:NULL Value
~CURVE INFORMATION BLOCK
#MNEM UNIT       ERCB CURVE CODE    CURVE DESCRIPTION
#-----------   ------------------   ----------------------------------
DEPT.M        00 001 00 00         : DEPTH        - DEPTH
GR  .API      00 310 00 00         : GR           - GAMMA RAY
NPHI.V/V      00 330 00 00         : PHIN         - NEUTRON POROSITY (SANDSTONE)
DPHI.V/V      00 890 00 00         : PHID         - DENSITY POROSITY (SANDSTONE)
ILD .OHMM     00 120 00 00         : RESD         - DEEP RESISTIVITY (DLL)
~PARAMETER INFORMATION
#MNEM.UNIT           DATA             DESCRIPTION OF MNEMONIC
#---------         -----------     ------------------------------
GL  .M        478.6                : gl           - GROUND LEVEL ELEVATION
EREF.M        481.7                : kb           - ELEVATION OF DEPTH REFERENCE
DATM.M        481.7                : datum        - DATUM ELEVATION
TDD .M        263.5                : tdd          - TOTAL DEPTH DRILLER
RUN .         ONE                  : Run          - RUN NUMBER
ENG .         BILL                 : Engineer     - RECORDING ENGINEER
WIT .         JIM                  : Witness      - WITNESSED BY
MUD .         GEL                  : Mud_type     - MUD TYPE
MATR.         SANDSTONE            : Logunit      - NEUTRON MATRIX
TMAX.C        22                   : BHT          - MAXIMUM RECORDED TEMPERATURE
BHTD.M        264                  : BHTDEP       - MAXIMUM RECORDED TEMPERATURE
MATR.         1                    : LOGUNIT      - NEUTRON MATRIX
RMT .C        16                   : MDTP         - TEMPERATURE OF MUD
NEUT.         1                    : NEUTRON      - NEUTRON TYPE
RESI.         3.5                  : RESIST       - RESISTIVITY TYPE
RMC .OHMM     4                    : RMC          - RESISTIVITY OF MUD CAKE
RMF .OHMM     4.4                  : RMF          - RESISTIVITY OF MUD FILTRATE
SUFT.C        4                    : SUFT         - SURFACE TEMPERATURE
~A  DEPTH       GR     PHIN     PHID     RESD
# ...
  193.500   85.998    0.442    0.245    4.409
  193.750   85.978    0.425    0.249    4.558
  194.000   85.959    0.410    0.245    4.634
  194.250   84.178    0.407    0.237    4.554
  194.500   83.574    0.411    0.229    4.477
  194.750   87.649    0.416    0.227    4.254
  195.000   92.895    0.423    0.232    4.112
  195.250   99.311    0.435    0.239    4.110
  195.500  105.137    0.454    0.245    4.040
  195.750  103.952    0.468    0.245    3.775
  196.000   97.496    0.498    0.244    3.410
  196.250   96.306    0.490    0.245    3.296
  196.500   96.871    0.481    0.247    3.239
  196.750   96.261    0.470    0.250    3.238
  197.000   95.661    0.470    0.255    3.236
  197.250   94.471    0.475    0.258    3.291
  197.500   94.451    0.482    0.255    3.289
  197.750   95.016    0.489    0.254    3.344
  198.000   96.166    0.487    0.253    3.457
  198.250   97.897    0.487    0.253    3.574
  198.500   99.632    0.488    0.253    3.696
  198.750  100.192    0.492    0.253    3.757
  199.000  100.172    0.493    0.254    4.018
  199.250   99.567    0.492    0.258    4.154
  199.500   97.797    0.484    0.260    4.294
  199.750   94.262    0.460    0.259    4.293
  200.000   91.907    0.437    0.256    4.364
  200.250   91.887    0.425    0.257    4.512
  200.500   93.032    0.418    0.258    4.744
  200.750   92.427    0.420    0.259    4.906
  201.000   89.482    0.423    0.256    5.072
  201.250   88.297    0.424    0.250    5.332
  201.500   85.932    0.411    0.234    5.514
  201.750   82.987    0.395    0.197    5.896
  202.000   77.701    0.383    0.150    6.096
  202.250   74.171    0.372    0.179    6.410
  202.500   70.640    0.356    0.206    6.408
  202.750   67.105    0.343    0.256    6.406
  203.000   65.335    0.343    0.295    5.984
  203.250   63.560    0.346    0.310    5.784
  203.500   64.125    0.351    0.309    5.496
  203.750   67.615    0.357    0.304    5.311
  204.000   71.686    0.364    0.297    5.134
  204.250   72.251    0.371    0.288    4.878
  204.500   72.231    0.381    0.283    4.715
  204.750   76.302    0.391    0.278    4.557
  205.000   78.622    0.403    0.278    4.116
  205.250   75.097    0.410    0.286    3.979
  205.500   68.056    0.419    0.288    3.656
  205.750   72.717    0.431    0.288    3.358
  206.000   80.883    0.474    0.290    3.191
  206.250   84.379    0.493    0.291    3.190
  206.500   88.454    0.505    0.293    3.243
  206.750   90.189    0.507    0.296    3.353
  207.000   92.510    0.505    0.297    3.467
  207.250   91.900    0.498    0.300    4.034
  207.500   90.130    0.491    0.302    4.773
  207.750   86.594    0.467    0.306    5.648
  208.000   83.654    0.409    0.308    6.461
  208.250   79.539    0.384    0.314    7.268
  208.500   72.493    0.363    0.316    8.315
  208.750   67.793    0.331    0.316   10.350
  209.000   60.752    0.284    0.319   18.052
  209.250   54.881    0.205    0.342   25.715
  209.500   49.011    0.143    0.367   27.497
  209.750   44.310    0.101    0.388   27.957
  210.000   44.870    0.083    0.393   28.902
  210.250   48.366    0.092    0.385   30.391
  210.500   53.026    0.101    0.366   33.618
  210.750   55.932    0.100    0.359   38.460
  211.000   54.152    0.081    0.371   46.283
  211.250   48.866    0.060    0.382   57.609
  211.500   42.996    0.048    0.388   70.506
  211.750   38.290    0.047    0.382   77.986
  212.000   38.855    0.047    0.373   47.797
  212.250   41.181    0.049    0.364   32.409
  212.500   47.012    0.060    0.352   28.310
  212.750   55.183    0.075    0.349   22.727
  213.000   60.428    0.108    0.344   17.939
  213.250   67.429    0.222    0.322   14.161
  213.500   76.771    0.251    0.286   12.162
  213.750   87.282    0.282    0.255   10.985
  214.000   95.453    0.307    0.237   10.797
  214.250   94.263    0.327    0.235   11.162
  214.500   91.318    0.341    0.257   11.541
  214.750   83.107    0.264    0.276   12.136
  215.000   70.216    0.243    0.291   12.336
  215.250   66.095    0.241    0.304   12.334
  215.500   80.117    0.248    0.309   12.751
  215.750   84.197    0.256    0.318   13.182
  216.000   84.173    0.272    0.329   13.404
  216.250   73.036    0.307    0.329   13.173
  216.500   69.506    0.347    0.328   12.518
  216.750   58.370    0.311    0.325   11.895
  217.000   53.084    0.308    0.321   11.694
  217.250   48.969    0.319    0.319   10.563
  217.500   53.035    0.334    0.315    9.543
  217.750   54.780    0.348    0.305    8.767
  218.000   60.026    0.356    0.289    8.332
  218.250   68.197    0.361    0.274    7.918
  218.500   79.878    0.366    0.243    7.651
  218.750   96.240    0.378    0.240    7.649
  219.000   85.104    0.386    0.255    7.646
  219.250   63.431    0.376    0.273    8.040
  219.500   57.561    0.360    0.292    8.597
  219.750   45.840    0.341    0.309    8.741
  220.000   38.799    0.327    0.306    8.885
  220.250   45.215    0.332    0.295    8.881
  220.500   51.630    0.341    0.285    9.182
  220.750   56.876    0.348    0.281    9.179
  221.000   58.026    0.360    0.287    9.651
  221.250   56.836    0.364    0.316    9.812
  221.500   53.881    0.364    0.343   10.317
  221.750   51.516    0.375    0.359   10.488
  222.000   50.336    0.385    0.362   10.663
  222.250   46.806    0.386    0.362   10.659
  222.500   44.446    0.386    0.357   10.653
  222.750   42.670    0.382    0.347   10.832
  223.000   40.890    0.375    0.342   11.780
  223.250   40.285    0.369    0.339   13.031
  223.500   40.265    0.368    0.339   15.948
  223.750   40.251    0.369    0.347   18.872
  224.000   39.641    0.372    0.350   21.957
  224.250   39.626    0.378    0.349   27.795
  224.500   39.021    0.380    0.346   39.594
  224.750   38.991    0.385    0.341   57.363
  225.000   39.561    0.380    0.335   70.199
  225.250   39.541    0.376    0.330   72.586
  225.500   40.106    0.372    0.326   76.317
  225.750   40.671    0.371    0.322   78.906
  226.000   41.236    0.357    0.321   82.969
  226.250   42.382    0.348    0.321   87.251
  226.500   42.357    0.348    0.323   94.883
  226.750   42.347    0.354    0.331  106.723
  227.000   42.327    0.360    0.329  116.070
  227.250   41.722    0.361    0.327  122.060
  227.500   40.532    0.359    0.326  132.724
  227.750   39.922    0.343    0.326  134.930
  228.000   39.312    0.343    0.324  139.519
  228.250   38.712    0.350    0.321  139.479
  228.500   38.682    0.353    0.321  141.797
  228.750   38.672    0.355    0.321  141.729
  229.000   39.237    0.355    0.320  141.675
  229.250   39.213    0.357    0.318  139.265
  229.500   39.198    0.357    0.318  139.211
  229.750   38.588    0.358    0.318  136.830
  230.000   37.398    0.359    0.318  136.764
  230.250   36.208    0.358    0.317  136.712
  230.500   36.183    0.357    0.319  136.659
  230.750   36.758    0.362    0.324  136.580
  231.000   37.903    0.367    0.329  136.541
  231.250   38.463    0.367    0.333  136.489
  231.500   38.453    0.362    0.333  138.770
  231.750   37.254    0.358    0.333  138.717
  232.000   36.063    0.358    0.334  138.650
  232.250   35.459    0.353    0.336  136.279
  232.500   35.444    0.351    0.336  133.948
  232.750   36.589    0.352    0.335  131.669
  233.000   37.154    0.352    0.335  129.417
  233.250   37.714    0.354    0.339  127.204
  233.500   38.289    0.357    0.345  127.155
  233.750   38.849    0.361    0.345  129.243
  234.000   40.580    0.364    0.346  129.194
  234.250   41.735    0.368    0.346  129.156
  234.500   42.890    0.371    0.347  122.701
  234.750   44.621    0.375    0.348  118.608
  235.000   45.191    0.377    0.349  112.712
  235.250   45.756    0.380    0.349  112.668
  235.500   46.316    0.381    0.348  118.459
  235.750   46.301    0.381    0.347  122.500
  236.000   46.271    0.381    0.344  126.655
  236.250   46.251    0.381    0.342  128.760
  236.500   45.061    0.381    0.340  128.710
  236.750   43.291    0.381    0.336  126.497
