~VERSION INFORMATION
 VERS.                 2.0:   CWLS LOG ASCII STANDARD -VERSION 2.0
 WRAP.                  NO:   ONE LINE PER DEPTH STEP
~WELL INFORMATION BLOCK
#MNEM.UNIT           DATA                    DESCRIPTION OF MNEMONIC
#---------    -------------------            -------------------------------
# Generated from Intellog Unique Number	CW_70_72/WELL/3005
NULL.         -999.25                        : NULL_VALUE
WELL.         GULF POC CALLS 06-03           : Well_name    - WELL              
LOC .         06-03-070-23W4                 : Location     - LOCATION          
UWI .         00/06-03-070-23W4/0            : Uwi          - UNIQUE WELL ID    
ENTR.         J                              : Entered      - ENTERED BY        
SRVC.         SCHLUMBERGER                   : Scn          - SERVICE COMPANY   
DATE.         9 JAN 75                       : Date         - LOG DATE          
STRT.M        396.24                         : top_depth    - START DEPTH       
STOP.M        579.24                         : bot_depth    - STOP DEPTH        
STEP.M        0.25                           : increment    - STEP LENGTH       
~CURVE INFORMATION BLOCK
#MNEM UNIT       ERCB CURVE CODE    CURVE DESCRIPTION
#-----------   ------------------   ----------------------------------
DEPT.M        00 001 00 00         : DEPTH        - DEPTH                       
ILD .OHMM     00 120 00 00         : RESD         - DEEP RESISTIVITY (DIL)      
CALI.MM       00 280 01 00         : CAL          - CALIPER                     
GR  .API      00 310 00 00         : GR           - GAMMA RAY                   
NPHI.V/V      00 330 00 00         : PHIN         - NEUTRON POROSITY (SANDSTONE)
DPHI.V/V      00 890 00 00         : PHID         - DENSITY POROSITY (SANDSTONE)
~PARAMETER INFORMATION       
#MNEM.UNIT           DATA             DESCRIPTION OF MNEMONIC
#---------         -----------     ------------------------------
GL  .M        626.577              : gl           - GROUND LEVEL ELEVATION      
EREF.M        629.839              : kb           - ELEVATION OF DEPTH REFERENCE
DATM.M        626.577              : datum        - DATUM ELEVATION             
TDD .M        606.552              : tdd          - TOTAL DEPTH DRILLER         
RUN .         ONE                  : Run          - RUN NUMBER                  
ENG .         STRUKY               : Engineer     - RECORDING ENGINEER          
WIT .         CURBA                : Witness      - WITNESSED BY                
BASE.         EDMONTON             : Branch       - HOME BASE OF LOGGING UNIT   
MUD .         RCL & DX 301         : Mud_type     - MUD TYPE                    
MATR.         SANDSTONE            : Logunit      - NEUTRON MATRIX              
TMAX.C        26.1111              : BHT          - MAXIMUM RECORDED TEMPERATURE
BHTD.M        595.579              : BHTDEP       - MAXIMUM RECORDED TEMPERATURE
RMT .C        21.1111              : MDTP         - TEMPERATURE OF MUD          
MUDD.KG/M     1020                 : MWT          - MUD DENSITY                 
NEUT.         1                    : NEUTRON      - NEUTRON TYPE                
RESI.         0                    : RESIST       - RESISTIVITY TYPE            
RM  .OHMM     2.5                  : RM           - RESISTIVITY OF MUD          
RMC .OHMM     2.5                  : RMC          - RESISTIVITY OF MUD CAKE     
RMF .OHMM     1.7                  : RMF          - RESISTIVITY OF MUD FILTRATE 
SUFT.C        -17.7778             : SUFT         - SURFACE TEMPERATURE         
~A  DEPTH     RESD      CAL       GR     PHIN     PHID
# ...
  469.240    2.635  149.230   69.427    0.442    0.382
  469.490    2.616  150.043   68.478    0.451    0.386
  469.740    2.612  156.828   70.752    0.463    0.372
  469.990    2.662  165.085   72.592    0.475    0.388
  470.240    2.793  156.033   72.017    0.480    0.373
  470.490    2.947  165.339   70.883    0.469    0.356
  470.740    3.104  174.632   70.558    0.457    0.351
  470.990    3.239  175.863   70.908    0.452    0.345
  471.240    3.343  176.460   71.449    0.464    0.333
  471.490    3.350  177.167   70.380    0.484    0.326
  471.740    3.309  177.560   62.063    0.498    0.331
  471.990    3.232  177.214   57.772    0.472    0.340
  472.240    3.054  175.713   58.619    0.453    0.348
  472.490    2.833  173.267   61.265    0.465    0.359
  472.740    2.628  170.412   64.096    0.484    0.363
  472.990    2.479  161.148   64.759    0.486    0.375
  473.240    2.386  153.044   64.367    0.501    0.381
  473.490    2.326  151.863   68.314    0.513    0.388
  473.740    2.302  156.866   72.014    0.491    0.400
  473.990    2.281  153.583   74.348    0.484    0.413
  474.240    2.269  148.938   74.761    0.485    0.403
  474.490    2.287  145.657   74.433    0.484    0.381
  474.740    2.343  145.416   72.994    0.482    0.384
  474.990    2.450  146.331   69.881    0.473    0.368
  475.240    2.628  150.491   70.416    0.473    0.378
  475.490    2.952  151.931   70.522    0.476    0.371
  475.740    3.575  145.610   68.895    0.486    0.328
  475.990    4.418  139.287   66.957    0.485    0.281
  476.240    5.877  138.832   63.841    0.327    0.242
  476.490    6.937  140.693   60.791    0.248    0.172
  476.740    5.838  148.525   58.914    0.253    0.134
  476.990    3.904  153.741   59.578    0.292    0.134
  477.240    3.347  156.963   61.543    0.333    0.183
  477.490    2.864  152.214   68.028    0.382    0.278
  477.740    2.459  145.366   73.273    0.444    0.347
  477.990    2.265  143.550   72.699    0.481    0.366
  478.240    2.172  143.836   72.122    0.477    0.370
  478.490    2.133  145.793   73.653    0.483    0.365
  478.740    2.110  146.815   72.272    0.489    0.370
  478.990    2.095  147.825   68.477    0.483    0.379
  479.240    2.085  148.850   64.618    0.472    0.386
  479.490    2.097  151.752   68.255    0.486    0.383
  479.740    2.137  153.826   74.861    0.472    0.367
  479.990    2.242  155.579   76.206    0.467    0.375
  480.240    2.327  156.907   76.684    0.502    0.364
  480.490    2.482  157.082   80.383    0.488    0.356
  480.740    2.707  156.322   81.976    0.465    0.341
  480.990    2.915  157.238   77.374    0.439    0.318
  481.240    3.053  161.819   69.862    0.320    0.258
  481.490    3.026  166.408   68.915    0.288    0.204
  481.740    2.945  164.488   72.487    0.359    0.264
  481.990    2.809  153.132   77.427    0.448    0.332
  482.240    2.654  152.364   80.752    0.473    0.383
  482.490    2.607  153.072   81.972    0.481    0.374
  482.740    2.685  155.031   85.176    0.472    0.342
  482.990    2.854  158.880   90.296    0.458    0.295
  483.240    3.142  163.676   93.439    0.469    0.259
  483.490    3.427  166.580   95.959    0.481    0.238
  483.740    3.556  166.762   97.243    0.472    0.260
  483.990    3.657  166.311   99.388    0.461    0.261
  484.240    3.665  165.756  100.736    0.456    0.262
  484.490    3.659  165.197  100.533    0.454    0.261
  484.740    3.634  164.330  100.638    0.459    0.262
  484.990    3.609  163.042   99.691    0.476    0.264
  485.240    3.603  157.665   97.691    0.482    0.265
  485.490    3.644  156.268   99.651    0.468    0.265
  485.740    3.720  161.275  102.114    0.456    0.263
  485.990    4.013  160.924   96.708    0.449    0.265
  486.240    4.297  159.324   84.118    0.463    0.278
  486.490    4.773  160.655   75.368    0.459    0.313
  486.740    5.036  163.772   70.706    0.452    0.342
  486.990    4.974  169.404   71.489    0.458    0.373
  487.240    4.769  173.464   73.701    0.452    0.368
  487.490    4.482  172.073   76.163    0.452    0.353
  487.740    4.135  167.214   79.859    0.455    0.334
  487.990    3.936  164.457   82.568    0.464    0.319
  488.240    3.686  165.581   83.541    0.472    0.299
  488.490    3.489  171.111   83.086    0.479    0.299
  488.740    3.370  178.316   84.496    0.469    0.313
  488.990    3.304  182.052   85.779    0.468    0.323
  489.240    3.324  183.708   80.428    0.478    0.334
  489.490    3.430  184.935   78.249    0.461    0.347
  489.740    3.721  185.536   75.010    0.455    0.332
  489.990    4.021  185.504   71.895    0.480    0.337
  490.240    4.466  184.416   68.595    0.479    0.338
  490.490    4.889  183.449   65.294    0.450    0.333
  490.740    5.431  181.742   64.781    0.430    0.302
  490.990    6.248  175.838   67.238    0.428    0.291
  491.240    7.321  167.104   66.663    0.459    0.318
  491.490    8.769  160.256   62.868    0.326    0.340
  491.740   10.543  158.440   59.629    0.251    0.289
  491.990   12.676  157.995   57.878    0.206    0.183
  492.240   14.107  157.013   56.992    0.189    0.134
  492.490   13.829  155.311   54.993    0.177    0.117
  492.740   12.097  153.284   55.842    0.164    0.099
  492.990    9.940  152.205   56.876    0.151    0.084
  493.240    8.258  151.436   56.859    0.145    0.078
  493.490    7.066  151.199   56.532    0.142    0.073
  493.740    5.991  150.749   56.884    0.148    0.073
  493.990    5.221  151.137   59.281    0.181    0.079
  494.240    4.737  152.054   63.288    0.231    0.097
  494.490    4.610  152.963   65.068    0.242    0.118
  494.740    4.689  154.199   60.714    0.237    0.143
  494.990    4.682  156.787   61.249    0.235    0.144
  495.240    4.352  157.702   62.411    0.237    0.133
  495.490    4.029  157.042   64.492    0.254    0.149
  495.740    3.544  153.339   66.647    0.283    0.167
  495.990    3.222  150.166   70.222    0.389    0.193
  496.240    3.118  147.300   77.079    0.420    0.290
  496.490    3.079  149.156   88.830    0.446    0.319
  496.740    3.121  151.958   93.330    0.436    0.286
  496.990    3.335  154.966   95.605    0.440    0.265
  497.240    3.584  156.935   99.922    0.442    0.264
  497.490    3.775  159.210  106.161    0.435    0.259
  497.740    3.854  160.543  110.106    0.449    0.223
  497.990    3.764  159.040  100.860    0.467    0.250
  498.240    3.570  154.503   91.425    0.470    0.278
  498.490    3.411  147.133   87.014    0.469    0.319
  498.740    3.331  143.951   83.896    0.461    0.335
  498.990    3.290  146.855   84.810    0.468    0.329
  499.240    3.291  148.504   87.268    0.479    0.332
  499.490    3.391  149.103   88.238    0.489    0.320
  499.740    3.467  149.593   89.459    0.492    0.307
  499.990    3.599  150.195   91.857    0.488    0.300
  500.240    3.804  151.947   94.195    0.472    0.301
  500.490    3.970  154.018   98.264    0.461    0.310
  500.740    4.165  155.969  105.926    0.468    0.304
  500.990    4.355  156.466  106.092    0.491    0.302
  501.240    4.437  156.756  102.546    0.485    0.299
  501.490    4.366  156.520  100.670    0.469    0.291
  501.740    4.148  156.795  100.342    0.459    0.335
  501.990    3.758  156.344  102.055    0.462    0.323
  502.240    3.317  156.421  105.694    0.481    0.319
  502.490    2.961  156.603  108.401    0.501    0.316
  502.740    2.902  161.401  108.694    0.574    0.309
  502.990    3.068  167.978  109.228    0.555    0.307
  503.240    3.352  161.026  109.026    0.515    0.327
  503.490    3.609  158.784  107.957    0.497    0.287
  503.740    3.922  158.125  106.515    0.477    0.280
  503.990    4.239  158.198  105.628    0.452    0.269
  504.240    4.383  158.165  103.752    0.456    0.249
  504.490    4.515  158.659  103.364    0.456    0.247
  504.740    4.626  158.632  105.451    0.450    0.257
  504.990    4.714  158.707  107.293    0.442    0.255
  505.240    4.794  158.890   99.593    0.485    0.248
  505.490    4.994  157.700   90.718    0.501    0.254
