~VERSION INFORMATION
 VERS.                 2.0:   CWLS LOG ASCII STANDARD -VERSION 2.0
 WRAP.                  NO:   ONE LINE PER DEPTH STEP
~WELL INFORMATION BLOCK
#MNEM.UNIT           DATA                    DESCRIPTION OF MNEMONIC
#---------    -------------------            -------------------------------
# Generated from Intellog Unique Number	CS_71_72/WELL/772
WELL.         KIRBY                          : Well_name    - WELL
LOC .         00/06-20-071-05W4/0            : Location     - LOCATION
UWI .         00/06-20-071-05W4/0            : Uwi          - UNIQUE WELL ID
ENTR.         SP                             : Entered      - ENTERED BY
SRVC.         SCHLUMBERGER                   : Scn          - SERVICE COMPANY
STRT.M        310                            : top_depth    - START DEPTH
STOP.M        555                            : bot_depth    - STOP DEPTH
STEP.M        0.25                           : increment    - STEP LENGTH
 NULL. -999.2500:NULL Value
~CURVE INFORMATION BLOCK
#MNEM UNIT       ERCB CURVE CODE    CURVE DESCRIPTION
#-----------   ------------------   ----------------------------------
DEPT.M        00 001 00 00         : DEPTH        - DEPTH
ILD .OHMM     00 120 00 00         : RESD         - DEEP RESISTIVITY (DIL)
DPHI.V/V      00 890 00 00         : PHID         - DENSITY POROSITY (LIMESTONE)
NPHI.V/V      00 330 00 00         : PHIN         - NEUTRON POROSITY (LIMESTONE)
GR  .API      00 310 00 00         : GR           - GAMMA RAY
~PARAMETER INFORMATION
#MNEM.UNIT           DATA             DESCRIPTION OF MNEMONIC
#---------         -----------     ------------------------------
GL  .M        678.2                : gl           - GROUND LEVEL ELEVATION
EREF.M        681.5                : kb           - ELEVATION OF DEPTH REFERENCE
DATM.M        678.2                : datum        - DATUM ELEVATION
TDD .M        555                  : tdd          - TOTAL DEPTH DRILLER
RUN .         ONE                  : Run          - RUN NUMBER
ENG .         BILL                 : Engineer     - RECORDING ENGINEER
WIT .         JIM                  : Witness      - WITNESSED BY
MUD .         GEL                  : Mud_type     - MUD TYPE
MATR.         LIMESTONE            : Logunit      - NEUTRON MATRIX
TMAX.C        20.5                 : BHT          - MAXIMUM RECORDED TEMPERATURE
BHTD.M        555                  : BHTDEP       - MAXIMUM RECORDED TEMPERATURE
MATR.         1                    : LOGUNIT      - NEUTRON MATRIX
RMT .C        25                   : MDTP         - TEMPERATURE OF MUD
NEUT.         1                    : NEUTRON      - NEUTRON TYPE
RESI.         0                    : RESIST       - RESISTIVITY TYPE
RMC .OHMM     0.25                 : RMC          - RESISTIVITY OF MUD CAKE
RMF .OHMM     0.25                 : RMF          - RESISTIVITY OF MUD FILTRATE
SUFT.C        15                   : SUFT         - SURFACE TEMPERATURE
~A  DEPTH     RESD     PHID     PHIN       GR
# ...
  397.000    3.906    0.248    0.421   74.442
  397.250    3.938    0.253    0.426   74.337
  397.500    3.913    0.244    0.437   74.658
  397.750    3.894    0.230    0.459   78.143
  398.000    3.854    0.223    0.466   79.437
  398.250    4.164    0.220    0.450   80.062
  398.500    4.121    0.228    0.454   79.470
  398.750    4.049    0.237    0.462   80.400
  399.000    3.970    0.240    0.467   83.763
  399.250    3.900    0.233    0.465   84.387
  399.500    3.831    0.230    0.479   81.119
  399.750    3.820    0.223    0.493   82.901
  400.000    3.830    0.235    0.501   83.647
  400.250    3.937    0.245    0.506   80.378
  400.500    3.991    0.242    0.494   79.665
  400.750    4.016    0.236    0.500   81.568
  401.000    3.997    0.234    0.517   83.351
  401.250    3.934    0.240    0.496   84.342
  401.500    3.828    0.244    0.476   85.817
  401.750    3.740    0.242    0.479   90.033
  402.000    3.701    0.238    0.495   91.812
  402.250    3.767    0.233    0.484   90.855
  402.500    3.885    0.229    0.479   86.127
  402.750    3.947    0.228    0.494   84.380
  403.000    3.995    0.227    0.497   87.253
  403.250    3.998    0.232    0.480   89.460
  403.500    3.979    0.236    0.471   87.410
  403.750    3.960    0.233    0.467   85.058
  404.000    3.979    0.231    0.464   84.281
  404.250    4.019    0.235    0.471   83.445
  404.500    4.076    0.232    0.501   82.306
  404.750    4.027    0.237    0.527   84.514
  405.000    4.000    0.240    0.499   86.537
  405.250    4.033    0.233    0.482   85.761
  405.500    4.144    0.230    0.482   84.441
  405.750    4.371    0.245    0.478   79.894
  406.000    4.584    0.255    0.466   74.011
  406.250    4.717    0.261    0.454   71.777
  406.500    4.855    0.265    0.447   71.918
  406.750    4.980    0.264    0.445   73.151
  407.000    5.040    0.261    0.458   73.591
  407.250    5.063    0.257    0.470   73.182
  407.500    5.020    0.263    0.479   71.192
  407.750    5.138    0.273    0.484   69.626
  408.000    5.181    0.276    0.476   70.616
  408.250    5.080    0.276    0.468   72.338
  408.500    4.718    0.274    0.463   74.420
  408.750    4.269    0.273    0.475   78.148
  409.000    3.813    0.273    0.487   83.216
  409.250    3.287    0.263    0.488   86.455
  409.500    3.116    0.255    0.493   91.586
  409.750    2.899    0.247    0.501   93.789
  410.000    2.744    0.242    0.517   95.754
  410.250    2.715    0.249    0.519   95.770
  410.500    2.758    0.253    0.546   95.360
  410.750    2.845    0.252    0.572   93.918
  411.000    2.901    0.257    0.555   91.989
  411.250    2.958    0.255    0.521   92.369
  411.500    3.022    0.243    0.517   95.004
  411.750    3.082    0.242    0.547   97.269
  412.000    3.079    0.252    0.568   96.981
  412.250    2.991    0.257    0.556   93.530
  412.500    2.938    0.247    0.566   93.303
  412.750    2.985    0.238    0.589   93.016
  413.000    3.207    0.233    0.603   90.538
  413.250    3.762    0.234    0.507   82.953
  413.500    4.840    0.244    0.465   80.595
  413.750    4.988    0.245    0.445   79.396
  414.000    5.409    0.236    0.430   78.256
  414.250    5.802    0.235    0.444   77.362
  414.500    6.005    0.249    0.468   77.135
  414.750    6.192    0.279    0.483   76.787
  415.000    6.482    0.271    0.461   75.101
  415.250    6.836    0.243    0.453   73.899
  415.500    7.036    0.247    0.469   74.586
  415.750    6.964    0.253    0.479   77.219
  416.000    6.528    0.255    0.463   79.606
  416.250    5.617    0.255    0.443   81.631
  416.500    4.492    0.254    0.436   80.796
  416.750    3.462    0.246    0.431   80.326
  417.000    3.086    0.231    0.441   81.380
  417.250    3.442    0.226    0.465   81.516
  417.500    3.933    0.232    0.468   78.612
  417.750    4.379    0.239    0.460   78.509
  418.000    4.777    0.235    0.469   79.558
  418.250    4.944    0.220    0.463   81.278
  418.500    5.014    0.212    0.477   82.392
  418.750    4.744    0.220    0.493   83.077
  419.000    4.189    0.226    0.495   83.336
  419.250    3.537    0.229    0.486   83.535
  419.500    3.107    0.241    0.479   84.893
  419.750    2.891    0.247    0.488   86.428
  420.000    2.840    0.236    0.480   88.210
  420.250    2.863    0.222    0.493   89.199
  420.500    2.942    0.216    0.506   88.792
  420.750    3.058    0.217    0.502   88.321
  421.000    3.111    0.222    0.497   88.032
  421.250    3.221    0.219    0.507   87.805
  421.500    3.309    0.215    0.524   87.824
  421.750    3.406    0.220    0.540   88.204
  422.000    3.466    0.227    0.536   89.621
  422.250    3.476    0.233    0.523   91.767
  422.500    3.408    0.235    0.523   93.365
  422.750    3.280    0.236    0.543   93.686
  423.000    3.209    0.240    0.562   94.252
  423.250    3.172    0.250    0.578   95.423
  423.500    3.197    0.261    0.577   96.534
  423.750    3.454    0.268    0.529   93.996
  424.000    3.911    0.256    0.499   86.895
  424.250    4.331    0.253    0.478   80.889
  424.500    4.618    0.251    0.464   78.046
  424.750    4.834    0.237    0.482   76.907
  425.000    5.014    0.232    0.498   76.560
  425.250    5.036    0.245    0.496   78.035
  425.500    5.021    0.248    0.468   80.732
  425.750    4.979    0.245    0.459   82.084
  426.000    4.819    0.258    0.485   78.938
  426.250    4.629    0.275    0.505   79.258
  426.500    4.323    0.283    0.511   80.856
  426.750    4.255    0.287    0.507   81.300
  427.000    4.539    0.297    0.515   78.335
  427.250    4.751    0.306    0.496   74.215
  427.500    5.056    0.315    0.470   72.650
  427.750    5.714    0.304    0.469   70.545
  428.000    6.506    0.127    0.491   69.522
  428.250    7.338    0.099    0.454   67.293
  428.500    8.035    0.093    0.364   65.481
  428.750    8.456    0.107    0.364   62.879
  429.000    8.704    0.129    0.360   60.949
  429.250    7.587    0.157    0.374   60.297
  429.500    5.560    0.257    0.398   60.556
  429.750    5.162    0.292    0.429   63.858
  430.000    4.924    0.311    0.458   66.429
  430.250    4.890    0.323    0.471   67.541
  430.500    4.894    0.330    0.481   64.882
  430.750    5.028    0.325    0.484   64.778
  431.000    5.224    0.318    0.468   63.941
  431.250    5.387    0.317    0.451   59.151
  431.500    5.535    0.318    0.438   57.953
  431.750    5.581    0.319    0.424   61.622
  432.000    5.586    0.317    0.420   64.864
  432.250    5.570    0.313    0.447   66.948
  432.500    5.565    0.304    0.456   68.788
  432.750    5.601    0.299    0.465   70.203
  433.000    5.647    0.289    0.480   70.827
  433.250    5.662    0.282    0.487   67.926
  433.500    5.646    0.282    0.482   68.063
  433.750    5.536    0.284    0.473   71.366
  434.000    5.388    0.271    0.462   75.459
  434.250    5.263    0.258    0.454   78.820
  434.500    5.238    0.248    0.466   81.089
  434.750    5.514    0.239    0.443   78.186
  435.000    5.793    0.230    0.423   78.386
  435.250    6.019    0.239    0.423   80.106
  435.500    6.092    0.253    0.436   81.033
  435.750    6.063    0.262    0.443   81.596
  436.000    5.846    0.266    0.452   79.241
  436.250    5.319    0.261    0.460   79.805
  436.500    4.551    0.254    0.459   82.742
  436.750    3.757    0.248    0.463   84.523
  437.000    3.155    0.245    0.479   80.038
  437.250    2.781    0.247    0.477   80.968
  437.500    2.497    0.251    0.474   84.331
  437.750    2.324    0.264    0.511   88.304
  438.000    2.232    0.272    0.536   90.446
  438.250    2.180    0.262    0.541   89.491
  438.500    2.158    0.258    0.553   84.823
  438.750    2.156    0.258    0.563   81.372
  439.000    2.170    0.270    0.549   81.937
  439.250    2.242    0.275    0.553   83.170
  439.500    2.312    0.269    0.549   84.403
  439.750    2.407    0.260    0.535   87.523
  440.000    2.477    0.253    0.520   89.851
  440.250    2.569    0.250    0.520   90.113
