~VERSION INFORMATION
 VERS.                 2.0:   CWLS LOG ASCII STANDARD -VERSION 2.0
 WRAP.                  NO:   ONE LINE PER DEPTH STEP
~WELL INFORMATION BLOCK
#MNEM.UNIT           DATA                    DESCRIPTION OF MNEMONIC
#---------    -------------------            -------------------------------
# Generated from Intellog Unique Number	CX_WELLS/WELL/2499
WELL.         04-02-084-15W4                 : Well_name    - WELL
LOC .         00/04-02-084-15W4/0            : Location     - LOCATION
UWI .         00/04-02-084-15W400            : Uwi          - UNIQUE WELL ID
ENTR.         JHS                            : Entered      - ENTERED BY
SRVC.         SCHLUMBERGER                   : Scn          - SERVICE COMPANY
STRT.M        76                             : top_depth    - START DEPTH
STOP.M        280.75                         : bot_depth    - STOP DEPTH
STEP.M        0.25                           : increment    - STEP LENGTH
 NULL. -999.2500:NULL Value
~CURVE INFORMATION BLOCK
#MNEM UNIT       ERCB CURVE CODE    CURVE DESCRIPTION
#-----------   ------------------   ----------------------------------
DEPT.M        00 001 00 00         : DEPTH        - DEPTH
GR  .API      00 310 00 00         : GR           - GAMMA RAY
DPHI.V/V      00 890 00 00         : PHID         - DENSITY POROSITY (SANDSTONE)
NPHI.V/V      00 330 00 00         : PHIN         - NEUTRON POROSITY (SANDSTONE)
ILD .OHMM     00 120 00 00         : RESD         - DEEP RESISTIVITY (DIL)
~PARAMETER INFORMATION
#MNEM.UNIT           DATA             DESCRIPTION OF MNEMONIC
#---------         -----------     ------------------------------
GL  .M        552.1                : gl           - GROUND LEVEL ELEVATION
EREF.M        555.8                : kb           - ELEVATION OF DEPTH REFERENCE
DATM.M        555.8                : datum        - DATUM ELEVATION
TDD .M        281                  : tdd          - TOTAL DEPTH DRILLER
RUN .         ONE                  : Run          - RUN NUMBER
ENG .         BILL                 : Engineer     - RECORDING ENGINEER
WIT .         JIM                  : Witness      - WITNESSED BY
MUD .         GEL                  : Mud_type     - MUD TYPE
MATR.         SANDSTONE            : Logunit      - NEUTRON MATRIX
TMAX.C        20                   : BHT          - MAXIMUM RECORDED TEMPERATURE
BHTD.M        281                  : BHTDEP       - MAXIMUM RECORDED TEMPERATURE
MATR.         1                    : LOGUNIT      - NEUTRON MATRIX
RMT .C        25                   : MDTP         - TEMPERATURE OF MUD
NEUT.         1                    : NEUTRON      - NEUTRON TYPE
RESI.         0                    : RESIST       - RESISTIVITY TYPE
RMC .OHMM     0.25                 : RMC          - RESISTIVITY OF MUD CAKE
RMF .OHMM     0.25                 : RMF          - RESISTIVITY OF MUD FILTRATE
SUFT.C        15                   : SUFT         - SURFACE TEMPERATURE
~A  DEPTH       GR     PHID     PHIN     RESD
# ...
  163.000   80.020    0.266    0.319    8.213
  163.250   80.448    0.259    0.345    8.896
  163.500   79.966    0.263    0.363    9.381
  163.750   76.283    0.275    0.359    9.788
  164.000   74.603    0.283    0.351   10.299
  164.250   75.701    0.279    0.352   10.717
  164.500   73.305    0.275    0.342   10.868
  164.750   69.688    0.272    0.318   11.212
  165.000   67.296    0.272    0.321   11.455
  165.250   68.251    0.285    0.337   11.536
  165.500   71.668    0.298    0.340   11.431
  165.750   74.088    0.294    0.328   11.293
  166.000   73.856    0.284    0.320   11.301
  166.250   73.689    0.276    0.339   10.977
  166.500   75.049    0.269    0.369   10.610
  166.750   76.041    0.278    0.397   10.389
  167.000   74.971    0.292    0.409   10.269
  167.250   73.826    0.283    0.388   10.073
  167.500   75.618    0.263    0.349    9.765
  167.750   77.950    0.264    0.355    9.611
  168.000   76.723    0.284    0.361    9.479
  168.250   74.313    0.294    0.329    9.342
  168.500   73.992    0.282    0.305    9.615
  168.750   76.168    0.267    0.328   10.243
  169.000   78.620    0.276    0.360   10.342
  169.250   77.831    0.292    0.375   10.031
  169.500   75.827    0.294    0.352    9.822
  169.750   76.190    0.292    0.323    9.774
  170.000   76.461    0.300    0.321    9.825
  170.250   74.641    0.308    0.337   10.044
  170.500   74.324    0.296    0.339   10.361
  170.750   75.471    0.286    0.310   10.361
  171.000   74.567    0.265    0.286   10.495
  171.250   72.528    0.256    0.268   10.582
  171.500   71.868    0.279    0.328   10.577
  171.750   71.649    0.311    0.418   10.545
  172.000   70.037    0.318    0.382   10.382
  172.250   71.364    0.313    0.349   10.393
  172.500   78.674    0.291    0.395   10.259
  172.750   80.840    0.297    0.447   10.180
  173.000   75.464    0.311    0.426   10.211
  173.250   71.555    0.309    0.365   10.206
  173.500   73.016    0.316    0.343   10.212
  173.750   74.321    0.308    0.349   10.226
  174.000   72.518    0.300    0.357   10.167
  174.250   69.190    0.308    0.356   10.472
  174.500   66.820    0.321    0.349   10.973
  174.750   66.355    0.330    0.347   11.283
  175.000   67.507    0.333    0.348   11.645
  175.250   69.942    0.317    0.326   11.875
  175.500   72.814    0.318    0.324   11.634
  175.750   73.694    0.335    0.360   11.168
  176.000   70.605    0.343    0.391   11.066
  176.250   65.302    0.338    0.383   11.257
  176.500   62.012    0.334    0.360   11.245
  176.750   61.755    0.331    0.355   11.429
  177.000   63.486    0.330    0.346   11.473
  177.250   66.423    0.328    0.336   11.461
  177.500   79.534    0.309    0.335   10.919
  177.750   95.952    0.274    0.333    9.613
  178.000   96.580    0.252    0.334    8.079
  178.250   97.128    0.257    0.383    6.734
  178.500   93.917    0.272    0.398    6.442
  178.750   73.401    0.269    0.387    6.506
  179.000   57.108    0.249    0.343    7.447
  179.250   67.110    0.242    0.297    9.783
  179.500   87.947    0.250    0.335   10.677
  179.750  104.247    0.238    0.381   10.806
  180.000  109.232    0.236    0.385    9.713
  180.250  106.658    0.235    0.377    8.714
  180.500  104.923    0.224    0.385    8.262
  180.750  105.540    0.216    0.391    8.087
  181.000  103.182    0.220    0.378    8.105
  181.250   98.756    0.243    0.362    8.117
  181.500   93.797    0.260    0.324    8.023
  181.750   93.512    0.252    0.280    7.855
  182.000   97.633    0.232    0.271    7.502
  182.250  100.199    0.223    0.301    7.055
  182.500   97.675    0.230    0.327    6.748
  182.750   93.211    0.232    0.331    6.516
  183.000   93.837    0.210    0.323    6.629
  183.250   97.024    0.213    0.349    6.951
  183.500   97.049    0.239    0.371    7.246
  183.750   96.953    0.250    0.368    7.446
  184.000  101.248    0.257    0.392    7.417
  184.250   99.697    0.276    0.400    6.963
  184.500   95.273    0.269    0.366    6.817
  184.750   92.860    0.263    0.355    7.112
  185.000   88.281    0.264    0.350    7.650
  185.250   83.467    0.247    0.342    8.279
  185.500   87.226    0.238    0.382    8.940
  185.750   89.327    0.287    0.400    9.399
  186.000   86.538    0.283    0.360    9.593
  186.250   87.618    0.269    0.328    9.716
  186.500   88.133    0.258    0.337    9.902
  186.750   82.465    0.244    0.357   10.006
  187.000   80.510    0.264    0.371    9.830
  187.250   86.461    0.275    0.390    9.131
  187.500   90.781    0.291    0.381    7.229
  187.750   89.368    0.299    0.390    6.287
  188.000   87.552    0.294    0.411    6.188
  188.250   87.614    0.284    0.405    6.381
  188.500   86.548    0.271    0.385    6.925
  188.750   87.416    0.275    0.372    7.586
  189.000   83.756    0.274    0.395    8.458
  189.250   82.345    0.275    0.395    9.236
  189.500   85.382    0.282    0.368    9.602
  189.750   87.223    0.288    0.351    9.687
  190.000   86.508    0.289    0.346    9.510
  190.250   85.958    0.280    0.368    8.936
  190.500   85.718    0.278    0.394    8.638
  190.750   86.606    0.277    0.384    8.870
  191.000   88.448    0.248    0.361    8.927
  191.250   90.564    0.212    0.347    8.419
  191.500   93.129    0.223    0.333    7.919
  191.750   95.377    0.232    0.374    7.346
  192.000   95.030    0.230    0.422    6.710
  192.250   93.361    0.224    0.380    6.138
  192.500   93.668    0.221    0.318    5.792
  192.750   96.893    0.209    0.328    5.665
  193.000   99.772    0.194    0.360    5.580
  193.250   98.873    0.222    0.377    5.480
  193.500   98.112    0.251    0.405    5.557
  193.750   99.458    0.266    0.389    5.555
  194.000   92.734    0.286    0.338    5.722
  194.250   81.704    0.306    0.316    6.401
  194.500   82.717    0.300    0.320    7.375
  194.750   82.731    0.297    0.306    8.948
  195.000   88.704    0.303    0.306   11.565
  195.250   89.398    0.297    0.327   13.438
  195.500   83.576    0.304    0.330   13.085
  195.750   79.577    0.317    0.315   12.277
  196.000   76.618    0.296    0.321   11.750
  196.250   74.898    0.313    0.316   11.383
  196.500   75.052    0.307    0.327   11.162
  196.750   75.749    0.290    0.362   11.113
  197.000   76.055    0.300    0.413   11.129
  197.250   75.878    0.318    0.444   11.137
  197.500   74.749    0.310    0.425   11.135
  197.750   72.286    0.299    0.408   10.974
  198.000   69.692    0.296    0.371   10.799
  198.250   69.823    0.300    0.351   10.648
  198.500   73.377    0.306    0.360   10.467
  198.750   75.993    0.307    0.364   10.353
  199.000   74.101    0.301    0.354   10.360
  199.250   72.931    0.300    0.355   10.199
  199.500   72.690    0.306    0.348   10.161
  199.750   70.915    0.274    0.337   10.190
  200.000   69.819    0.249    0.338   10.172
  200.250   71.368    0.275    0.344   10.207
  200.500   73.429    0.298    0.344   10.379
  200.750   76.145    0.295    0.371   10.538
  201.000   76.365    0.296    0.373   10.806
  201.250   74.711    0.225    0.326   11.359
  201.500   67.867    0.093    0.219   12.788
  201.750   60.878    0.008    0.114   15.267
  202.000   63.068    0.001    0.097   17.781
  202.250   60.325    0.000    0.092   21.941
  202.500   56.686   -0.001    0.086   28.196
  202.750   54.973    0.003    0.084   34.999
  203.000   55.989   -0.007    0.087   41.078
  203.250   61.522    0.019    0.105   36.122
  203.500   70.885    0.146    0.168   23.139
  203.750   78.073    0.251    0.302   17.369
  204.000   79.376    0.291    0.401   13.965
  204.250   80.431    0.297    0.415   12.062
  204.500   82.395    0.292    0.394   11.171
  204.750   83.212    0.282    0.384   10.778
  205.000   84.836    0.275    0.386   10.636
  205.250   86.063    0.270    0.415   10.629
  205.500   79.889    0.276    0.420   10.681
  205.750   77.352    0.296    0.409   10.452
  206.000   80.681    0.311    0.406    9.741
  206.250   84.512    0.301    0.400    9.120
