~VERSION INFORMATION
 VERS.                 2.0:   CWLS LOG ASCII STANDARD -VERSION 2.0
 WRAP.                  NO:   ONE LINE PER DEPTH STEP
~WELL INFORMATION BLOCK
#MNEM.UNIT           DATA                    DESCRIPTION OF MNEMONIC
#---------    -------------------            -------------------------------
# Generated from Intellog Unique Number	CS_71_72/WELL/701
WELL.         SULPETRO ET AL IPIATIK         : Well_name    - WELL
LOC .         00/06-01-072-11W4/0            : Location     - LOCATION
UWI .         00/06-01-072-11W4/0            : Uwi          - UNIQUE WELL ID
ENTR.         SP                             : Entered      - ENTERED BY
SRVC.         SCHLUMBERGER                   : Scn          - SERVICE COMPANY
STRT.M        295                            : top_depth    - START DEPTH
STOP.M        525                            : bot_depth    - STOP DEPTH
STEP.M        0.25                           : increment    - STEP LENGTH
 NULL. -999.2500:NULL Value
~CURVE INFORMATION BLOCK
#MNEM UNIT       ERCB CURVE CODE    CURVE DESCRIPTION
#-----------   ------------------   ----------------------------------
DEPT.M        00 001 00 00         : DEPTH        - DEPTH
ILD .OHMM     00 120 00 00         : RESD         - DEEP RESISTIVITY (DIL)
DPHI.V/V      00 890 00 00         : PHID         - DENSITY POROSITY (LIMESTONE)
NPHI.V/V      00 330 00 00         : PHIN         - NEUTRON POROSITY (LIMESTONE)
GR  .API      00 310 00 00         : GR           - GAMMA RAY
~PARAMETER INFORMATION
#MNEM.UNIT           DATA             DESCRIPTION OF MNEMONIC
#---------         -----------     ------------------------------
GL  .M        644.9                : gl           - GROUND LEVEL ELEVATION
EREF.M        648.4                : kb           - ELEVATION OF DEPTH REFERENCE
DATM.M        644.9                : datum        - DATUM ELEVATION
TDD .M        529                  : tdd          - TOTAL DEPTH DRILLER
RUN .         ONE                  : Run          - RUN NUMBER
ENG .         BILL                 : Engineer     - RECORDING ENGINEER
WIT .         JIM                  : Witness      - WITNESSED BY
MUD .         GEL                  : Mud_type     - MUD TYPE
MATR.         LIMESTONE            : Logunit      - NEUTRON MATRIX
TMAX.C        20                   : BHT          - MAXIMUM RECORDED TEMPERATURE
BHTD.M        529                  : BHTDEP       - MAXIMUM RECORDED TEMPERATURE
MATR.         1                    : LOGUNIT      - NEUTRON MATRIX
RMT .C        25                   : MDTP         - TEMPERATURE OF MUD
NEUT.         1                    : NEUTRON      - NEUTRON TYPE
RESI.         0                    : RESIST       - RESISTIVITY TYPE
RMC .OHMM     0.25                 : RMC          - RESISTIVITY OF MUD CAKE
RMF .OHMM     0.25                 : RMF          - RESISTIVITY OF MUD FILTRATE
SUFT.C        15                   : SUFT         - SURFACE TEMPERATURE
~A  DEPTH     RESD     PHID     PHIN       GR
# ...
  469.000    3.179    0.223    0.461   95.291
  469.250    3.427    0.213    0.441   91.643
  469.500    3.982    0.208    0.427   94.067
  469.750    4.212    0.200    0.400   96.493
  470.000    4.540    0.197    0.403   91.630
  470.250    5.081    0.196    0.407   80.695
  470.500    5.376    0.200    0.383   70.974
  470.750    5.582    0.212    0.380   64.288
  471.000    6.131    0.223    0.381   60.033
  471.250    6.365    0.225    0.383   58.814
  471.500    7.123    0.189    0.350   59.416
  471.750    8.592    0.126    0.327   58.198
  472.000    9.615    0.092    0.314   54.550
  472.250    9.983    0.092    0.311   61.832
  472.500    8.759    0.115    0.322   71.543
  472.750    7.542    0.137    0.335   77.006
  473.000    6.999    0.170    0.349   84.897
  473.250    6.618    0.189    0.356   94.001
  473.500    6.496    0.190    0.367  100.070
  473.750    6.873    0.212    0.377   95.207
  474.000    7.004    0.246    0.384   80.020
  474.250    7.272    0.267    0.388   65.441
  474.500    7.551    0.285    0.380   64.829
  474.750    7.275    0.281    0.373   71.504
  475.000    6.503    0.276    0.373   74.537
  475.250    6.035    0.271    0.372   78.173
  475.500    5.395    0.265    0.369   78.171
  475.750    5.101    0.269    0.377   76.346
  476.000    4.824    0.256    0.382   76.340
  476.250    4.825    0.245    0.383   78.765
  476.500    4.825    0.235    0.371   79.976
  476.750    4.918    0.217    0.365   81.186
  477.000    5.301    0.205    0.360   83.611
  477.250    5.608    0.181    0.359   89.071
  477.500    5.933    0.195    0.367   93.319
  477.750    6.161    0.221    0.374   91.492
  478.000    6.641    0.229    0.380   89.059
  478.250    7.026    0.235    0.379   87.839
  478.500    7.295    0.233    0.374   93.300
  478.750    7.434    0.232    0.376  104.834
  479.000    7.720    0.222    0.383  110.903
  479.250    8.015    0.213    0.386  109.077
  479.500    8.168    0.211    0.390   73.242
  479.750    8.641    0.226    0.391   66.558
  480.000    9.143    0.262    0.391   56.837
  480.250    9.145    0.272    0.379   51.975
  480.500    9.319    0.278    0.372   58.041
  480.750    8.978    0.275    0.370   64.110
  481.000    8.489    0.261    0.366   70.785
  481.250    8.027    0.252    0.361   73.819
  481.500    7.590    0.235    0.359   79.280
  481.750    7.591    0.221    0.356   81.705
  482.000    7.737    0.210    0.350   81.701
  482.250    7.884    0.197    0.348   84.124
  482.500    8.187    0.188    0.344   81.083
  482.750    8.342    0.194    0.342   73.185
  483.000    8.502    0.197    0.342   77.430
  483.250    8.664    0.186    0.345   80.462
  483.500    8.830    0.191    0.354   81.674
  483.750    8.668    0.226    0.359   74.381
  484.000    8.669    0.238    0.368   79.841
  484.250    8.509    0.221    0.376   84.088
  484.500    8.198    0.192    0.365   89.550
  484.750    7.467    0.180    0.361   95.010
  485.000    7.060    0.176    0.362   87.720
  485.250    6.431    0.196    0.360   68.282
  485.500    5.968    0.212    0.356   57.347
  485.750    5.139    0.228    0.355   54.911
  486.000    4.951    0.249    0.356   53.087
  486.250    4.594    0.277    0.359   48.224
  486.500    4.344    0.289    0.362   43.969
  486.750    4.186    0.288    0.373   51.858
  487.000    4.186    0.279    0.387   61.570
  487.250    4.187    0.243    0.396   70.068
  487.500    4.188    0.106    0.421   87.068
  487.750    4.268    0.078    0.446  107.712
  488.000    4.349    0.063    0.467  104.062
  488.250    4.432    0.057    0.487  101.629
  488.500    4.689    0.092    0.508   99.804
  488.750    4.869    0.127    0.388   85.831
  489.000    4.870    0.170    0.380   77.324
  489.250    4.871    0.209    0.376   73.677
  489.500    4.781    0.216    0.371   76.706
  489.750    4.693    0.200    0.369   76.703
  490.000    4.521    0.203    0.369   76.092
  490.250    4.196    0.216    0.366   76.087
  490.500    3.894    0.236    0.364   76.083
  490.750    3.614    0.261    0.363   74.257
  491.000    3.482    0.272    0.361   68.180
  491.250    3.355    0.285    0.365   63.922
  491.500    3.293    0.262    0.369   62.098
  491.750    3.172    0.266    0.366   62.093
  492.000    3.056    0.262    0.366   63.305
  492.250    2.890    0.279    0.370   62.085
  492.500    2.891    0.290    0.371   57.830
  492.750    2.891    0.302    0.372   59.040
  493.000    2.946    0.316    0.374   63.892
  493.250    3.002    0.302    0.370   64.497
  493.500    3.060    0.273    0.366   58.420
  493.750    3.177    0.265    0.370   62.059
  494.000    3.489    0.283    0.366   68.734
  494.250    3.979    0.270    0.363   76.017
  494.500    4.370    0.254    0.359   81.478
  494.750    4.983    0.235    0.364   83.903
  495.000    5.473    0.205    0.360   91.183
  495.250    5.789    0.183    0.359   94.218
  495.500    6.241    0.168    0.360  100.893
  495.750    6.480    0.162    0.362  100.888
  496.000    6.604    0.160    0.362   98.456
  496.250    6.605    0.162    0.358   99.059
  496.500    6.485    0.158    0.360  103.911
  496.750    6.485    0.158    0.363  105.730
  497.000    6.366    0.196    0.369   92.972
  497.250    6.367    0.202    0.371   82.645
  497.500    6.611    0.223    0.375   69.887
  497.750    6.737    0.241    0.379   69.273
  498.000    6.996    0.238    0.364   74.736
  498.250    6.740    0.215    0.351   80.804
  498.500    6.741    0.190    0.345   68.046
  498.750    6.256    0.207    0.354   61.363
  499.000    5.489    0.233    0.359   52.856
  499.250    5.093    0.253    0.363   46.171
  499.500    4.639    0.256    0.362   42.521
  499.750    4.386    0.269    0.359   40.696
  500.000    3.182    0.287    0.360   35.531
  500.250    3.009    0.288    0.360   34.316
  500.500    2.954    0.295    0.360   32.491
  500.750    2.955    0.294    0.361   34.876
  501.000    2.955    0.298    0.359   44.501
  501.250    3.069    0.281    0.351   60.747
  501.500    3.127    0.245    0.348   74.582
  501.750    3.433    0.193    0.340   80.588
  502.000    3.913    0.165    0.339   82.980
  502.250    4.545    0.155    0.338   80.551
  502.500    4.990    0.162    0.338   77.523
  502.750    5.181    0.187    0.337   77.502
  503.000    5.280    0.195    0.340   79.288
  503.250    5.281    0.209    0.348   80.478
  503.500    5.282    0.203    0.353   81.662
  503.750    5.185    0.194    0.353   81.652
  504.000    5.186    0.190    0.353   82.237
  504.250    5.091    0.186    0.355   78.601
  504.500    4.998    0.187    0.359   71.960
  504.750    4.906    0.188    0.356   65.920
  505.000    4.728    0.194    0.361   67.102
  505.250    4.641    0.206    0.365   69.497
  505.500    4.641    0.206    0.366   67.071
  505.750    4.643    0.202    0.362   65.847
  506.000    4.731    0.200    0.358   68.841
  506.250    4.732    0.202    0.354   73.644
  506.500    4.732    0.208    0.353   77.241
  506.750    4.733    0.203    0.350   83.844
  507.000    4.735    0.205    0.355   84.434
  507.250    4.648    0.191    0.367   80.199
  507.500    4.648    0.197    0.361   68.734
  507.750    4.479    0.210    0.355   63.900
  508.000    4.316    0.213    0.360   60.267
  508.250    4.158    0.205    0.364   59.047
  508.500    3.932    0.192    0.363   63.236
  508.750    3.789    0.186    0.359   67.433
  509.000    3.719    0.194    0.360   68.628
  509.250    3.720    0.205    0.364   72.830
  509.500    3.721    0.221    0.364   66.180
  509.750    3.721    0.213    0.360   61.343
  510.000    3.653    0.224    0.359   58.319
  510.250    3.520    0.231    0.363   55.888
  510.500    3.456    0.237    0.369   58.883
  510.750    3.456    0.231    0.366   61.875
  511.000    3.457    0.220    0.365   62.466
  511.250    3.394    0.233    0.366   59.430
  511.500    3.331    0.242    0.365   57.608
  511.750    3.210    0.252    0.364   55.786
  512.000    2.979    0.257    0.362   57.569
  512.250    2.818    0.246    0.362   55.748
