~VERSION INFORMATION
 VERS.                 2.0:   CWLS LOG ASCII STANDARD -VERSION 2.0
 WRAP.                  NO:   ONE LINE PER DEPTH STEP
~WELL INFORMATION BLOCK
#MNEM.UNIT           DATA                    DESCRIPTION OF MNEMONIC
#---------    -------------------            -------------------------------
# Generated from Intellog Unique Number	CS_71_72/WELL/637
WELL.         AMOCO AEC IPIATIK              : Well_name    - WELL
LOC .         00/03-18-072-06W4/0            : Location     - LOCATION
UWI .         00/03-18-072-06W4/0            : Uwi          - UNIQUE WELL ID
ENTR.         SP                             : Entered      - ENTERED BY
SRVC.         SCHLUMBERGER                   : Scn          - SERVICE COMPANY
STRT.M        310                            : top_depth    - START DEPTH
STOP.M        535                            : bot_depth    - STOP DEPTH
STEP.M        0.25                           : increment    - STEP LENGTH
 NULL. -999.2500:NULL Value
~CURVE INFORMATION BLOCK
#MNEM UNIT       ERCB CURVE CODE    CURVE DESCRIPTION
#-----------   ------------------   ----------------------------------
DEPT.M        00 001 00 00         : DEPTH        - DEPTH
ILD .OHMM     00 120 00 00         : RESD         - DEEP RESISTIVITY (DIL)
DPHI.V/V      00 890 00 00         : PHID         - DENSITY POROSITY (LIMESTONE)
NPHI.V/V      00 330 00 00         : PHIN         - NEUTRON POROSITY (LIMESTONE)
GR  .API      00 310 00 00         : GR           - GAMMA RAY
~PARAMETER INFORMATION
#MNEM.UNIT           DATA             DESCRIPTION OF MNEMONIC
#---------         -----------     ------------------------------
GL  .M        684.4                : gl           - GROUND LEVEL ELEVATION
EREF.M        688.5                : kb           - ELEVATION OF DEPTH REFERENCE
DATM.M        684.4                : datum        - DATUM ELEVATION
TDD .M        550                  : tdd          - TOTAL DEPTH DRILLER
RUN .         ONE                  : Run          - RUN NUMBER
ENG .         BILL                 : Engineer     - RECORDING ENGINEER
WIT .         JIM                  : Witness      - WITNESSED BY
MUD .         GEL                  : Mud_type     - MUD TYPE
MATR.         LIMESTONE            : Logunit      - NEUTRON MATRIX
TMAX.C        19                   : BHT          - MAXIMUM RECORDED TEMPERATURE
BHTD.M        550                  : BHTDEP       - MAXIMUM RECORDED TEMPERATURE
MATR.         1                    : LOGUNIT      - NEUTRON MATRIX
RMT .C        25                   : MDTP         - TEMPERATURE OF MUD
NEUT.         1                    : NEUTRON      - NEUTRON TYPE
RESI.         0                    : RESIST       - RESISTIVITY TYPE
RMC .OHMM     0.25                 : RMC          - RESISTIVITY OF MUD CAKE
RMF .OHMM     0.25                 : RMF          - RESISTIVITY OF MUD FILTRATE
SUFT.C        15                   : SUFT         - SURFACE TEMPERATURE
~A  DEPTH     RESD     PHID     PHIN       GR
  310.000    3.365    0.242    0.576  103.246
  310.250    3.365    0.242    0.582  102.054
  310.500    3.303    0.248    0.568  103.295
  310.750    3.303    0.237    0.516  103.314
  311.000    3.242    0.222    0.516  100.907
  311.250    3.182    0.233    0.516  100.315
  311.500    3.182    0.233    0.515  101.562
  311.750    3.183    0.229    0.523  101.581
  312.000    3.183    0.233    0.529  102.207
  312.250    3.183    0.233    0.518  104.054
  312.500    3.304    0.219    0.512  105.906
  312.750    3.366    0.213    0.523  106.524
  313.000    3.494    0.214    0.539  106.551
  313.250    3.560    0.220    0.544  106.575
  313.500    3.627    0.194    0.545  107.200
  313.750    3.696    0.202    0.546  106.611
  314.000    3.696    0.207    0.547  105.423
  314.250    3.837    0.209    0.534  104.228
  314.500    3.909    0.202    0.509  102.430
  314.750    4.058    0.173    0.485  100.021
  315.000    4.134    0.145    0.490   97.617
  315.250    4.058    0.185    0.495  100.070
  315.500    3.909    0.195    0.492  101.301
  315.750    3.837    0.196    0.504  103.152
  316.000    3.696    0.205    0.514  103.774
  316.250    3.628    0.218    0.521  105.013
  316.500    3.628    0.210    0.530  105.644
  316.750    3.697    0.215    0.521  105.061
  317.000    3.766    0.209    0.498  104.471
  317.250    3.767    0.212    0.498  106.320
  317.500    3.767    0.216    0.500  106.345
  317.750    3.767    0.218    0.499  105.754
  318.000    3.838    0.217    0.498  106.381
  318.250    4.059    0.204    0.506  105.191
  318.500    4.135    0.199    0.490  102.782
  318.750    4.213    0.209    0.475   98.558
  319.000    4.136    0.189    0.479   94.938
  319.250    3.984    0.196    0.501   94.348
  319.500    3.838    0.201    0.511   96.198
  319.750    3.698    0.202    0.521   95.003
  320.000    4.136    0.191    0.487   90.778
  320.250    4.893    0.178    0.435   88.368
  320.500    5.897    0.183    0.401   85.355
  320.750    6.976    0.219    0.388   82.343
  321.000    7.804    0.225    0.396   82.361
  321.250    8.893    0.236    0.417   82.989
  321.500    9.232    0.257    0.440   82.406
  321.750    9.406    0.310    0.453   79.389
  322.000    9.948    0.396    0.466   72.123
  322.250   10.720    0.436    0.482   64.865
  322.500   12.216    0.368    0.509   62.453
  322.750   13.922    0.294    0.403   58.222
  323.000   15.573    0.311    0.322   49.136
  323.250   18.422    0.326    0.344   45.516
  323.500   20.995    0.311    0.367   46.148
  323.750   23.484    0.299    0.351   44.345
  324.000   24.837    0.315    0.355   42.543
  324.250   24.838    0.312    0.370   46.820
  324.500   23.486    0.297    0.387   52.311
  324.750   22.625    0.285    0.403   57.194
  325.000   20.609    0.288    0.421   63.894
  325.250   19.854    0.283    0.427   69.379
  325.500   18.426    0.272    0.426   74.258
  325.750   17.423    0.271    0.445   77.931
  326.000   16.169    0.253    0.439   79.768
  326.250   15.577    0.234    0.431   84.041
  326.500   14.456    0.217    0.421   88.920
  326.750   13.416    0.210    0.417   93.197
  327.000   12.686    0.202    0.431   94.429
  327.250   11.773    0.184    0.427   95.066
  327.500   11.556    0.206    0.421   96.902
  327.750   11.996    0.235    0.411   93.896
  328.000   13.170    0.253    0.420   90.277
  328.250   13.929    0.258    0.426   89.079
  328.500   14.459    0.265    0.413   87.882
  328.750   15.009    0.263    0.411   87.296
  329.000   15.292    0.255    0.406   88.551
  329.250   15.874    0.257    0.394   88.564
  329.500   15.875    0.263    0.391   89.191
  329.750   15.581    0.252    0.410   87.995
  330.000   14.733    0.225    0.397   87.411
  330.250   14.461    0.208    0.385   90.474
  330.500   15.294    0.237    0.383   91.703
  330.750   16.791    0.256    0.391   89.908
  331.000   17.430    0.277    0.394   86.292
  331.250   18.782    0.288    0.400   83.275
  331.500   19.497    0.255    0.398   80.864
  331.750   18.436    0.226    0.398   81.495
  332.000   16.482    0.201    0.414   88.813
  332.250   13.422    0.190    0.425   91.257
  332.500   11.778    0.178    0.398   90.060
  332.750   10.336    0.207    0.384   79.163
  333.000   11.347    0.210    0.391   75.533
  333.250   13.424    0.213    0.396   69.480
  333.500   15.586    0.236    0.398   68.286
  333.750   16.795    0.241    0.411   67.111
  334.000   17.434    0.261    0.428   66.517
  334.250   16.180    0.258    0.412   68.354
  334.500   14.198    0.239    0.418   79.313
  334.750   12.229    0.237    0.427   90.266
  335.000   10.731    0.200    0.437   98.794
  335.250    9.242    0.162    0.463  101.842
  335.500    8.263    0.134    0.496  105.511
  335.750    7.251    0.128    0.515  107.963
  336.000    6.729    0.152    0.529  112.247
  336.250    6.130    0.165    0.510  114.084
  336.500    5.480    0.176    0.504  115.927
  336.750    4.720    0.191    0.513  117.159
  337.000    4.380    0.198    0.520  118.401
  337.250    4.220    0.209    0.532  119.636
  337.500    3.773    0.211    0.542  119.050
  337.750    3.635    0.188    0.550  116.042
  338.000    3.373    0.176    0.559  114.239
  338.250    3.131    0.197    0.539  111.228
  338.500    3.016    0.205    0.494  106.996
  338.750    3.131    0.218    0.460   99.126
  339.000    3.502    0.232    0.435   92.469
  339.250    4.143    0.218    0.410   85.809
  339.500    6.018    0.195    0.392   84.613
  339.750    7.671    0.181    0.402   84.634
  340.000    8.907    0.178    0.386   81.028
  340.250   10.151    0.190    0.381   79.224
  340.500   10.736    0.199    0.374   77.420
  340.750   11.145    0.204    0.381   75.618
  341.000   11.145    0.206    0.387   75.032
  341.250   11.145    0.224    0.400   75.058
  341.500   10.939    0.217    0.405   76.286
  341.750   10.538    0.202    0.405   78.136
  342.000   10.152    0.205    0.398   78.157
  342.250    9.780    0.205    0.407   75.148
  342.500    9.600    0.218    0.413   72.731
  342.750    9.422    0.235    0.422   69.716
  343.000    9.248    0.248    0.430   69.746
  343.250    9.077    0.257    0.450   77.060
  343.500    8.910    0.238    0.456   78.895
  343.750    8.425    0.229    0.459   80.742
  344.000    8.269    0.233    0.448   80.768
  344.250    7.966    0.235    0.441   81.394
  344.500    7.674    0.244    0.435   84.456
  344.750    7.393    0.259    0.440   85.688
  345.000    7.256    0.254    0.446   88.757
  345.250    7.122    0.266    0.431   89.379
  345.500    7.123    0.260    0.418   89.395
  345.750    7.123    0.254    0.412   82.749
  346.000    7.394    0.240    0.415   80.941
  346.250    8.117    0.252    0.410   81.572
  346.500    9.251    0.271    0.439   83.421
  346.750   10.156    0.283    0.452   84.042
  347.000   11.150    0.291    0.475   82.249
  347.250   12.015    0.301    0.481   80.443
  347.500   12.947    0.311    0.483   75.004
  347.750   13.440    0.310    0.489   70.776
  348.000   13.440    0.296    0.479   67.757
  348.250   13.952    0.291    0.461   65.956
  348.500   13.952    0.290    0.439   66.590
  348.750   14.483    0.299    0.424   68.439
  349.000   14.483    0.298    0.424   69.059
  349.250   14.484    0.296    0.429   69.693
  349.500   14.484    0.288    0.441   70.937
  349.750   14.216    0.285    0.450   72.776
  350.000   14.217    0.278    0.451   74.008
  350.250   13.954    0.272    0.449   75.861
  350.500   13.954    0.266    0.445   76.482
  350.750   13.696    0.257    0.439   76.502
  351.000   13.443    0.242    0.457   82.002
  351.250   13.195    0.224    0.430   82.619
  351.500   12.951    0.207    0.417   85.079
  351.750   12.246    0.194    0.418   86.915
  352.000   11.579    0.203    0.419   89.984
  352.250   11.155    0.219    0.425   90.603
  352.500   10.548    0.222    0.432   91.238
  352.750   10.161    0.227    0.450   91.256
  353.000    9.430    0.221    0.457   89.459
  353.250    8.917    0.215    0.464   87.055
