~VERSION INFORMATION
 VERS.                 2.0:   CWLS LOG ASCII STANDARD -VERSION 2.0
 WRAP.                  NO:   ONE LINE PER DEPTH STEP
~WELL INFORMATION BLOCK
#MNEM.UNIT           DATA                    DESCRIPTION OF MNEMONIC
#---------    -------------------            -------------------------------
# Generated from Intellog Unique Number	CS_77_79/WELL/5037
WELL.         MESA HB LEISMER                : Well_name    - WELL
LOC .         00/07-35-078-10W4/0            : Location     - LOCATION
UWI .         00/07-35-078-10W4/0            : Uwi          - UNIQUE WELL ID
ENTR.         JOE                            : Entered      - ENTERED BY
SRVC.         SCHLUMBERGER                   : Scn          - SERVICE COMPANY
STRT.M        231.648                        : top_depth    - START DEPTH
STOP.M        463.148                        : bot_depth    - STOP DEPTH
STEP.M        0.25                           : increment    - STEP LENGTH
 NULL. -999.2500:NULL Value
~CURVE INFORMATION BLOCK
#MNEM UNIT       ERCB CURVE CODE    CURVE DESCRIPTION
#-----------   ------------------   ----------------------------------
DEPT.M        00 001 00 00         : DEPTH        - DEPTH
RHOB.KG/M3    00 350 00 00         : DENS         - BULK DENSITY
GR  .API      00 310 00 00         : GR           - GAMMA RAY
DPHI.V/V      00 890 00 00         : PHID         - DENSITY POROSITY (SANDSTONE)
NPHI.V/V      00 330 00 00         : PHIN         - NEUTRON POROSITY (SANDSTONE)
ILD .OHMM     00 120 00 00         : RESD         - DEEP RESISTIVITY (DIL)
~PARAMETER INFORMATION
#MNEM.UNIT           DATA             DESCRIPTION OF MNEMONIC
#---------         -----------     ------------------------------
GL  .M        657.454              : gl           - GROUND LEVEL ELEVATION
EREF.M        661.416              : kb           - ELEVATION OF DEPTH REFERENCE
DATM.M        661.416              : datum        - DATUM ELEVATION
TDD .M        475.488              : tdd          - TOTAL DEPTH DRILLER
RUN .         ONE                  : Run          - RUN NUMBER
ENG .         BILL                 : Engineer     - RECORDING ENGINEER
WIT .         JIM                  : Witness      - WITNESSED BY
MUD .         GEL                  : Mud_type     - MUD TYPE
MATR.         SANDSTONE            : Logunit      - NEUTRON MATRIX
TMAX.C        23                   : BHT          - MAXIMUM RECORDED TEMPERATURE
BHTD.M        405                  : BHTDEP       - MAXIMUM RECORDED TEMPERATURE
MATR.         1                    : LOGUNIT      - NEUTRON MATRIX
RMT .C        25                   : MDTP         - TEMPERATURE OF MUD
NEUT.         1                    : NEUTRON      - NEUTRON TYPE
RESI.         0                    : RESIST       - RESISTIVITY TYPE
RMC .OHMM     0.25                 : RMC          - RESISTIVITY OF MUD CAKE
RMF .OHMM     0.25                 : RMF          - RESISTIVITY OF MUD FILTRATE
SUFT.C        15                   : SUFT         - SURFACE TEMPERATURE
~A  DEPTH     DENS       GR     PHID     PHIN     RESD
# ...
  268.148    0.000   48.742    0.301    0.380   20.647
  268.398    0.000   54.766    0.306    0.407   20.447
  268.648    0.000   61.386    0.314    0.426   20.105
  268.898    0.000   68.973    0.311    0.436   20.143
  269.148    0.000   73.802    0.296    0.425   20.171
  269.398    0.000   76.320    0.286    0.421   19.937
  269.648    0.000   78.078    0.287    0.426   20.001
  269.898    0.000   76.760    0.275    0.416   19.864
  270.148    0.000   77.003    0.283    0.436   20.333
  270.398    0.000   80.480    0.272    0.444   19.871
  270.648    0.000   78.225    0.293    0.431   19.927
  270.898    0.000   73.277    0.300    0.415   19.951
  271.148    0.000   69.990    0.302    0.442   19.973
  271.398    0.000   68.088    0.317    0.450   19.982
  271.648    0.000   66.499    0.321    0.441   19.845
  271.898    0.000   63.516    0.333    0.428   19.671
  272.148    0.000   60.759    0.340    0.424   19.688
  272.398    0.000   57.720    0.350    0.425   19.706
  272.648    0.000   54.110    0.338    0.425   19.733
  272.898    0.000   53.846    0.329    0.435   19.754
  273.148    0.000   56.904    0.324    0.442   19.796
  273.398    0.000   64.059    0.331    0.442   19.444
  273.648    0.000   72.944    0.341    0.429   19.263
  273.898    0.000   81.541    0.339    0.412   18.623
  274.148    0.000   90.698    0.321    0.420   17.839
  274.398    0.000  100.428    0.316    0.438   16.317
  274.648    0.000  106.221    0.310    0.433   15.225
  274.898    0.000  101.803    0.291    0.420   13.739
  275.148    0.000   93.887    0.260    0.420   11.366
  275.398    0.000   92.916    0.277    0.433    8.389
  275.648    0.000  101.926    0.246    0.461    6.155
  275.898    0.000  111.228    0.213    0.497    5.448
  276.148    0.000  118.556    0.205    0.508    4.923
  276.398    0.000  122.660    0.212    0.491    4.876
  276.648    0.000  125.279    0.213    0.472    5.164
  276.898    0.000  124.768    0.211    0.464    5.590
  277.148    0.000  123.932    0.205    0.463    6.581
  277.398    0.000  126.014    0.220    0.465    7.903
  277.648    0.000  124.868    0.211    0.448    9.692
  277.898    0.000  122.870    0.227    0.432   11.155
  278.148    0.000  118.396    0.228    0.415   12.571
  278.398    0.000  113.693    0.232    0.424   13.441
  278.648    0.000  110.385    0.228    0.444   13.398
  278.898    0.000  107.360    0.250    0.430   12.991
  279.148    0.000  105.767    0.285    0.417   11.821
  279.398    0.000  108.457    0.272    0.411   11.328
  279.648    0.000  110.449    0.249    0.418   11.052
  279.898    0.000  111.317    0.228    0.441   11.201
  280.148    0.000  110.315    0.270    0.451   11.056
  280.398    0.000  102.850    0.268    0.449   11.458
  280.648    0.000   95.888    0.252    0.433   11.976
  280.898    0.000   84.668    0.268    0.438   14.132
  281.148    0.000   79.766    0.300    0.439   16.039
  281.398    0.000   78.990    0.297    0.414   15.925
  281.648    0.000   80.049    0.280    0.398   14.664
  281.898    0.000   79.942    0.287    0.411   13.306
  282.148    0.000   83.167    0.274    0.418   11.694
  282.398    0.000   90.850    0.246    0.404    9.653
  282.648    0.000  100.180    0.228    0.400    8.398
  282.898    0.000  108.409    0.194    0.422    7.446
  283.148    0.000  113.486    0.193    0.458    6.708
  283.398    0.000  118.264    0.211    0.448    6.489
  283.648    0.000  119.182    0.224    0.445    6.610
  283.898    0.000  117.143    0.221    0.451    7.477
  284.148    0.000  114.865    0.213    0.457    8.778
  284.398    0.000  114.986    0.213    0.459   10.027
  284.648    0.000  113.676    0.214    0.454   12.429
  284.898    0.000  110.176    0.217    0.437   14.483
  285.148    0.000  105.306    0.219    0.446   15.209
  285.398    0.000   98.233    0.234    0.455   14.841
  285.648    0.000   92.829    0.273    0.469   14.263
  285.898    0.000   89.452    0.274    0.479   13.662
  286.148    0.000   91.840    0.262    0.463   13.261
  286.398    0.000   97.726    0.246    0.448   13.283
  286.648    0.000   98.576    0.255    0.445   13.925
  286.898    0.000   95.510    0.229    0.444   15.029
  287.148    0.000   90.987    0.223    0.442   17.036
  287.398    0.000   90.324    0.236    0.452   20.227
  287.648    0.000   88.176    0.208    0.455   22.943
  287.898    0.000   82.375    0.097    0.323   25.356
  288.148    0.000   71.225    0.056    0.236   24.035
  288.398    0.000   68.346    0.021    0.225   20.366
  288.648    0.000   77.013    0.044    0.272   17.555
  288.898    0.000   86.737    0.109    0.316   16.168
  289.148    0.000   88.583    0.162    0.406   15.104
  289.398    0.000   86.766    0.214    0.438   14.664
  289.648    0.000   86.101    0.217    0.447   14.097
  289.898    0.000   85.820    0.235    0.454   13.595
  290.148    0.000   83.802    0.264    0.429   13.014
  290.398    0.000   85.823    0.263    0.429   11.588
  290.648   -0.000   88.912    0.256    0.437   10.060
  290.898    0.000   94.139    0.249    0.445    8.596
  291.148    0.000   98.471    0.248    0.444    8.471
  291.398    0.000  100.623    0.235    0.433    8.821
  291.648   -0.000  100.755    0.239    0.416    9.398
  291.898   -0.000  100.294    0.234    0.409   10.840
  292.148    0.000   95.891    0.272    0.413   11.859
  292.398    0.000   94.176    0.268    0.415   12.114
  292.648    0.000   92.797    0.259    0.412   12.125
  292.898   -0.000   94.002    0.280    0.421   12.136
  293.148   -0.000   96.269    0.279    0.422   12.242
  293.398   -0.000   97.331    0.258    0.420   12.619
  293.648    0.000   89.712    0.261    0.439   13.022
  293.898    0.000   79.156    0.290    0.432   13.554
  294.148    0.000   71.952    0.284    0.440   14.434
  294.398   -0.000   72.798    0.278    0.464   15.095
  294.648   -0.000   75.905    0.290    0.455   15.542
  294.898   -0.000   78.635    0.276    0.444   15.854
  295.148    0.000   76.579    0.271    0.447   16.180
  295.398    0.000   75.384    0.278    0.437   16.208
  295.648   -0.000   73.370    0.293    0.433   15.653
  295.898   -0.000   73.069    0.315    0.429   13.876
  296.148   -0.000   73.488    0.293    0.416   12.016
  296.398    0.000   78.339    0.282    0.419    8.009
  296.648    0.000   82.408    0.267    0.443    5.217
  296.898    0.000   88.633    0.253    0.470    4.798
  297.148   -0.000   94.042    0.238    0.482    4.711
  297.398   -0.000   97.713    0.237    0.493    4.941
  297.648   -0.000   99.687    0.264    0.477    5.419
  297.898    0.000   92.133    0.249    0.457    5.866
  298.148    0.000   83.509    0.227    0.444    6.299
  298.398   -0.000   77.140    0.236    0.454    6.998
  298.648   -0.000   71.828    0.273    0.470    7.876
  298.898   -0.000   63.613    0.300    0.500    9.335
  299.148    0.000   59.941    0.345    0.543   11.002
  299.398    0.000   57.514    0.360    0.560   14.406
  299.648    0.000   57.395    0.343    0.500   16.687
  299.898   -0.000   57.856    0.338    0.474   18.560
  300.148   -0.000   59.706    0.326    0.445   20.675
  300.398   -0.000   58.510    0.284    0.430   21.439
  300.648    0.000   54.986    0.282    0.430   22.156
  300.898    0.000   55.316    0.305    0.428   22.247
  301.148    0.000   58.753    0.306    0.425   22.278
  301.398   -0.000   61.049    0.316    0.427   22.346
  301.648   -0.000   61.035    0.336    0.437   21.908
  301.898    0.000   59.989    0.333    0.446   21.561
  302.148    0.000   61.218    0.316    0.453   21.329
  302.398    0.000   63.921    0.328    0.441   21.129
  302.648   -0.000   65.961    0.314    0.426   20.806
  302.898   -0.000   65.140    0.312    0.428   20.652
  303.148   -0.000   63.399    0.331    0.433   20.495
  303.398    0.000   61.732    0.326    0.419   20.518
  303.648    0.000   63.476    0.309    0.425   20.570
  303.898    0.000   63.727    0.321    0.451   20.167
  304.148   -0.000   63.849    0.332    0.464   20.251
  304.398   -0.000   62.144    0.304    0.430   19.834
