~VERSION INFORMATION
 VERS.                 2.0:   CWLS LOG ASCII STANDARD -VERSION 2.0
 WRAP.                  NO:   ONE LINE PER DEPTH STEP
~WELL INFORMATION BLOCK
#MNEM.UNIT           DATA                    DESCRIPTION OF MNEMONIC
#---------    -------------------            -------------------------------
# Generated from Intellog Unique Number	CW_79_81/WELL/549
WELL.         07-16-079-24W4                 : Well_name    - WELL
LOC .         00/07-16-079-24W4/0            : Location     - LOCATION
UWI .         00/07-16-079-24W4/0            : Uwi          - UNIQUE WELL ID
ENTR.         MAX                            : Entered      - ENTERED BY
SRVC.         SCHLUMBERGER                   : Scn          - SERVICE COMPANY
STRT.M        198.12                         : top_depth    - START DEPTH
STOP.M        457.12                         : bot_depth    - STOP DEPTH
STEP.M        0.25                           : increment    - STEP LENGTH
 NULL. -999.2500:NULL Value
~CURVE INFORMATION BLOCK
#MNEM UNIT       ERCB CURVE CODE    CURVE DESCRIPTION
#-----------   ------------------   ----------------------------------
DEPT.M        00 001 00 00         : DEPTH        - DEPTH
ILD .OHMM     00 120 00 00         : RESD         - DEEP RESISTIVITY (DIL)
NPHI.V/V      00 330 00 00         : PHIN         - NEUTRON POROSITY (SANDSTONE)
DPHI.V/V      00 890 00 00         : PHID         - DENSITY POROSITY (SANDSTONE)
CALI.MM       00 280 01 00         : CAL          - CALIPER
GR  .API      00 310 00 00         : GR           - GAMMA RAY
~PARAMETER INFORMATION
#MNEM.UNIT           DATA             DESCRIPTION OF MNEMONIC
#---------         -----------     ------------------------------
GL  .M        557.479              : gl           - GROUND LEVEL ELEVATION
EREF.M        561.137              : kb           - ELEVATION OF DEPTH REFERENCE
DATM.M        557.479              : datum        - DATUM ELEVATION
TDD .M        353.568              : tdd          - TOTAL DEPTH DRILLER
RUN .         ONE                  : Run          - RUN NUMBER
ENG .         BILL                 : Engineer     - RECORDING ENGINEER
WIT .         JIM                  : Witness      - WITNESSED BY
MUD .         GEL                  : Mud_type     - MUD TYPE
MATR.         SANDSTONE            : Logunit      - NEUTRON MATRIX
TMAX.C        20                   : BHT          - MAXIMUM RECORDED TEMPERATURE
BHTD.M        445.008              : BHTDEP       - MAXIMUM RECORDED TEMPERATURE
RMT .C        17.7778              : MDTP         - TEMPERATURE OF MUD
MUDD.KG/M     10400                : MWT          - MUD DENSITY
NEUT.         1                    : NEUTRON      - NEUTRON TYPE
RESI.         0                    : RESIST       - RESISTIVITY TYPE
RM  .OHMM     10.7                 : RM           - RESISTIVITY OF MUD
RMC .OHMM     0.25                 : RMC          - RESISTIVITY OF MUD CAKE
RMF .OHMM     0.25                 : RMF          - RESISTIVITY OF MUD FILTRATE
SUFT.C        -23.3333             : SUFT         - SURFACE TEMPERATURE
~A  DEPTH     RESD     PHIN     PHID      CAL       GR
# ...
  380.620   20.666    0.474    0.208  229.415   74.579
  380.870   20.543    0.475    0.201  231.010   74.951
  381.120   20.590    0.441    0.192  232.151   76.782
  381.370   21.200    0.425    0.143  233.263   80.678
  381.620   21.816    0.412    0.118  234.375   84.281
  381.870   22.656    0.412    0.095  236.511   87.883
  382.120   23.753    0.428    0.086  237.140   90.596
  382.370   24.457    0.444    0.121  237.228   90.674
  382.620   25.167    0.441    0.152  237.360   87.806
  382.870   25.167    0.437    0.155  236.980   84.644
  383.120   26.461    0.444    0.163  234.626   84.722
  383.370   28.958    0.442    0.150  233.748   83.617
  383.620   32.583    0.424    0.125  233.383   79.565
  383.870   35.384    0.416    0.134  233.500   78.486
  384.120   35.466    0.401    0.121  233.632   75.894
  384.370   33.121    0.374    0.098  233.749   70.980
  384.620   28.288    0.339    0.076  233.881   68.397
  384.870   23.749    0.313    0.047  234.481   69.062
  385.120   22.178    0.283    0.020  234.598   71.187
  385.370   21.442    0.281    0.029  234.233   73.312
  385.620   20.209    0.328    0.085  233.370   76.336
  385.870   19.194    0.387    0.190  231.981   78.168
  386.120   16.990    0.421    0.200  231.104   77.079
  386.370   14.387    0.418    0.174  230.270   75.663
  386.620   12.630    0.397    0.144  230.358   75.145
  386.870   11.999    0.376    0.111  230.490   81.097
  387.120   11.608    0.349    0.071  231.602   92.638
  387.370   11.129    0.353    0.108  233.241  101.241
  387.620   11.129    0.392    0.158  235.333  100.430
  387.870   11.197    0.403    0.158  237.439   98.452
  388.120   11.306    0.399    0.144  237.601   96.750
  388.370   12.282    0.390    0.149  237.806   93.001
  388.620   13.099    0.384    0.131  237.835   88.078
  388.870   13.491    0.379    0.112  237.953   89.037
  389.120   13.403    0.378    0.120  238.055   89.987
  389.370   13.457    0.391    0.112  238.187   90.056
  389.620   13.232    0.407    0.126  238.802   91.318
  389.870   13.021    0.391    0.103  238.802   92.562
  390.120   13.059    0.384    0.095  239.051   93.814
  390.370   13.446    0.389    0.087  239.680   93.590
  390.620   13.473    0.405    0.127  239.812   93.962
  390.870   13.508    0.413    0.122  239.915   94.325
  391.120   13.539    0.411    0.126  240.032   94.100
  391.370   13.570    0.395    0.135  240.032   94.178
  391.620   13.481    0.387    0.138  240.296   93.954
  391.870   13.401    0.385    0.145  240.428   93.142
  392.120   13.401    0.394    0.117  240.560   93.807
  392.370   13.466    0.395    0.116  240.648   94.162
  392.620   13.493    0.413    0.125  240.283   91.881
  392.870   13.405    0.416    0.131  239.917   90.499
  393.120   13.317    0.414    0.130  239.537   92.616
  393.370   13.120    0.412    0.129  239.157   92.098
  393.620   12.923    0.414    0.125  238.777   91.588
  393.870   12.838    0.417    0.102  238.426   94.301
  394.120   12.864    0.414    0.084  238.544   95.260
  394.370   13.005    0.412    0.124  238.164   92.988
  394.620   13.155    0.417    0.137  237.784   90.699
  394.870   13.425    0.425    0.132  237.433   89.594
  395.120   13.425    0.425    0.113  237.053   89.974
  395.370   13.733    0.419    0.081  236.687   90.915
  395.620   14.517    0.415    0.066  236.775   90.993
  395.870   15.076    0.414    0.118  236.922   89.300
  396.120   15.942    0.415    0.133  237.054   85.863
  396.370   16.853    0.392    0.141  236.645   86.502
  396.620   17.974    0.373    0.148  235.285   88.351
  396.870   20.046    0.365    0.156  232.432   87.539
  397.120   22.959    0.364    0.164  231.043   84.369
  397.370   24.933    0.362    0.177  230.663   80.326
  397.620   24.784    0.359    0.158  230.327   73.934
  397.870   23.546    0.352    0.085  231.410   70.479
  398.120   21.782    0.336    0.068  233.531   69.391
  398.370   20.156    0.312    0.035  235.170   70.065
  398.620   16.922    0.297    0.026  234.775   70.695
  398.870   15.940    0.312    0.033  233.897   75.766
  399.120   14.615    0.346    0.062  233.517   81.424
  399.370   12.941    0.364    0.100  233.679   89.441
  399.620   11.870    0.382    0.144  233.796   90.400
  399.870   11.485    0.391    0.157  233.884   91.057
  400.120   11.306    0.400    0.139  234.045   93.778
  400.370   11.850    0.411    0.126  234.631   96.482
  400.620   12.638    0.421    0.131  234.763   97.743
  400.870   13.966    0.416    0.128  234.894   97.216
  401.120   15.576    0.420    0.128  234.514   95.532
  401.370   16.765    0.404    0.105  232.672   82.376
  401.620   17.411    0.382    0.062  229.776   76.269
  401.870   17.456    0.354    0.045  226.909   79.284
  402.120   16.886    0.325    0.077  227.026   87.292
  402.370   15.492    0.351    0.107  228.665   94.730
  402.620   14.205    0.362    0.116  229.280   95.965
  402.870   13.624    0.368    0.099  229.397   99.274
  403.120   13.531    0.363    0.111  230.011  101.693
  403.370   13.813    0.364    0.125  233.127  102.367
  403.620   14.345    0.379    0.123  234.751  101.555
  403.870   15.164    0.385    0.106  234.854   98.972
  404.120   15.753    0.392    0.095  234.489   92.874
  404.370   16.072    0.384    0.093  233.129   84.417
  404.620   16.285    0.362    0.076  230.774   78.906
  404.870   16.151    0.330    0.057  229.399   80.167
  405.120   15.074    0.344    0.073  229.019   84.340
  405.370   13.834    0.354    0.130  229.136   89.117
  405.620   13.622    0.359    0.136  229.268   90.085
  405.870   13.771    0.365    0.126  228.888   89.869
  406.120   14.301    0.375    0.119  228.026   87.580
  406.370   14.595    0.381    0.113  228.143   85.014
  406.620   14.371    0.386    0.105  227.777   82.440
  406.870   13.779    0.394    0.113  227.880   77.499
  407.120   12.864    0.398    0.114  227.529   72.282
  407.370   12.229    0.405    0.196  226.637   59.126
  407.620   11.725    0.388    0.242  225.277   46.264
  407.870   11.652    0.398    0.251  222.908   35.172
  408.120   11.994    0.385    0.247  220.539   29.661
  408.370   12.792    0.376    0.244  219.164   28.262
  408.620   15.180    0.367    0.253  218.798   26.872
  408.870   18.666    0.361    0.250  218.901   26.362
  409.120   24.214    0.361    0.250  219.018   26.431
  409.370   26.759    0.366    0.263  218.170   26.794
  409.620   38.282    0.378    0.271  217.776   27.736
  409.870   47.478    0.382    0.278  216.898   28.704
  410.120   59.443    0.384    0.272  216.548   28.782
  410.370   65.109    0.378    0.269  216.153   28.851
  410.620   71.335    0.370    0.276  216.270   28.324
  410.870   76.082    0.363    0.281  215.905   27.823
  411.120   76.082    0.361    0.265  215.057   27.599
  411.370   79.286    0.367    0.252  215.174   27.668
  411.620   82.269    0.369    0.268  214.794   28.031
  411.870   83.218    0.368    0.265  214.414   28.990
  412.120   81.942    0.367    0.257  214.531   29.051
  412.370   79.996    0.370    0.252  214.663   29.431
  412.620   76.723    0.374    0.272  215.263   29.785
  412.870   74.175    0.377    0.277  215.892   30.753
  413.120   74.175    0.378    0.265  216.010   32.593
  413.370   71.960    0.377    0.255  216.639   34.416
  413.620   65.981    0.378    0.254  216.756   34.485
  413.870   62.150    0.377    0.260  216.376   35.453
  414.120   57.020    0.368    0.264  215.016   36.109
  414.370   52.764    0.369    0.261  213.641   37.069
  414.620   48.812    0.374    0.258  213.759   39.202
  414.870   44.374    0.392    0.255  215.383   40.438
  415.120   41.428    0.396    0.253  215.500   42.857
  415.370   38.336    0.393    0.252  215.647   46.165
  415.620   35.171    0.397    0.252  215.764   50.364
  415.870   33.129    0.404    0.232  215.881   54.251
  416.120   31.224    0.398    0.216  215.999   59.313
  416.370   30.736    0.377    0.216  216.116   60.272
  416.620   29.989    0.382    0.208  216.277   61.810
  416.870   29.018    0.391    0.207  216.365   63.659
