~VERSION INFORMATION
 VERS.                 2.0:   CWLS LOG ASCII STANDARD -VERSION 2.0
 WRAP.                  NO:   ONE LINE PER DEPTH STEP
~WELL INFORMATION BLOCK
#MNEM.UNIT           DATA                    DESCRIPTION OF MNEMONIC
#---------    -------------------            -------------------------------
# Generated from Intellog Unique Number	CS_67_68/WELL/2401
WELL.         BVI ET AL TOUCHWOOD            : Well_name    - WELL
LOC .         00/09-31-067-10W4/0            : Location     - LOCATION
UWI .         00/09-31-067-10W4/0            : Uwi          - UNIQUE WELL ID
ENTR.         C                              : Entered      - ENTERED BY
SRVC.         SCHLUMBERGER                   : Scn          - SERVICE COMPANY
STRT.M        350                            : top_depth    - START DEPTH
STOP.M        575                            : bot_depth    - STOP DEPTH
STEP.M        0.25                           : increment    - STEP LENGTH
 NULL. -999.2500:NULL Value
~CURVE INFORMATION BLOCK
#MNEM UNIT       ERCB CURVE CODE    CURVE DESCRIPTION
#-----------   ------------------   ----------------------------------
DEPT.M        00 001 00 00         : DEPTH        - DEPTH
ILD .OHMM     00 120 00 00         : RESD         - DEEP RESISTIVITY (DIL)
DPHI.V/V      00 890 00 00         : PHID         - DENSITY POROSITY (SANDSTONE)
NPHI.V/V      00 330 00 00         : PHIN         - NEUTRON POROSITY (SANDSTONE)
CALI.MM       00 280 01 00         : CAL          - CALIPER
GR  .API      00 310 00 00         : GR           - GAMMA RAY
~PARAMETER INFORMATION
#MNEM.UNIT           DATA             DESCRIPTION OF MNEMONIC
#---------         -----------     ------------------------------
GL  .M        653                  : gl           - GROUND LEVEL ELEVATION
EREF.M        657.15               : kb           - ELEVATION OF DEPTH REFERENCE
DATM.M        657.15               : datum        - DATUM ELEVATION
TDD .M        686                  : tdd          - TOTAL DEPTH DRILLER
RUN .         ONE                  : Run          - RUN NUMBER
ENG .         BILL                 : Engineer     - RECORDING ENGINEER
WIT .         JIM                  : Witness      - WITNESSED BY
MUD .         GEL                  : Mud_type     - MUD TYPE
MATR.         SANDSTONE            : Logunit      - NEUTRON MATRIX
TMAX.C        28                   : BHT          - MAXIMUM RECORDED TEMPERATURE
BHTD.M        586                  : BHTDEP       - MAXIMUM RECORDED TEMPERATURE
RMT .C        22                   : MDTP         - TEMPERATURE OF MUD
MUDD.KG/M     1130                 : MWT          - MUD DENSITY
NEUT.         1                    : NEUTRON      - NEUTRON TYPE
RESI.         0                    : RESIST       - RESISTIVITY TYPE
RM  .OHMM     4.3                  : RM           - RESISTIVITY OF MUD
RMC .OHMM     2.7                  : RMC          - RESISTIVITY OF MUD CAKE
RMF .OHMM     3.7                  : RMF          - RESISTIVITY OF MUD FILTRATE
SUFT.C        4                    : SUFT         - SURFACE TEMPERATURE
~A  DEPTH     RESD     PHID     PHIN      CAL       GR
  350.000    2.484    0.232    0.411  151.663   85.115
  350.250    2.484    0.220    0.419  152.654   88.142
  350.500    2.484    0.218    0.426  154.659   88.125
  350.750    2.484    0.225    0.426  156.650   81.420
  351.000    2.392    0.226    0.430  157.642   83.835
  351.250    2.347    0.225    0.467  159.632   89.285
  351.500    2.303    0.225    0.504  160.617   89.880
  351.750    2.303    0.230    0.535  161.609   97.766
  352.000    2.260    0.235    0.536  163.592  101.397
  352.250    2.260    0.235    0.500  163.571   94.084
  352.500    2.177    0.227    0.480  163.542   87.983
  352.750    2.136    0.222    0.481  161.487   92.225
  353.000    2.096    0.213    0.464  158.411   92.208
  353.250    2.057    0.212    0.499  156.370   89.759
  353.500    2.019    0.175    0.492  153.294   79.406
  353.750    2.019    0.064    0.390  151.246   67.230
  354.000    1.981    0.076    0.384  152.223   56.269
  354.250    1.981    0.168    0.395  157.275   90.906
  354.500    1.981    0.201    0.421  163.326   95.752
  354.750    1.981    0.195    0.429  164.304   99.987
  355.000    2.018    0.186    0.437  163.269   98.150
  355.250    2.018    0.185    0.459  160.193   92.661
  355.500    2.056    0.186    0.449  158.138   96.900
  355.750    2.056    0.193    0.443  155.069   98.094
  356.000    2.095    0.195    0.437  152.008   92.609
  356.250    2.095    0.192    0.435  148.939   84.081
  356.500    2.175    0.189    0.430  148.896   90.751
  356.750    2.216    0.197    0.420  149.888   97.426
  357.000    2.258    0.204    0.410  152.899  104.704
  357.250    2.301    0.203    0.409  156.916   96.175
  357.500    2.301    0.198    0.424  157.915   91.290
  357.750    2.345    0.199    0.415  161.932   93.709
  358.000    2.389    0.213    0.400  162.924   98.555
  358.250    2.434    0.223    0.409  164.908   90.630
  358.500    2.480    0.219    0.413  165.899   91.829
  358.750    2.575    0.215    0.412  166.884   93.640
  359.000    2.624    0.215    0.417  166.862   96.055
  359.250    2.624    0.219    0.423  166.826  101.505
  359.500    2.674    0.220    0.398  165.792  103.919
  359.750    2.673    0.218    0.397  165.763  103.290
  360.000    2.673    0.214    0.402  162.673  100.237
  360.250    2.673    0.212    0.408  161.645   92.928
  360.500    2.673    0.208    0.409  160.610   90.479
  360.750    2.673    0.205    0.395  158.541   93.502
  361.000    2.724    0.199    0.381  157.506   85.581
  361.250    2.723    0.191    0.354  157.492   78.268
  361.500    2.723    0.183    0.337  156.450   72.775
  361.750    2.775    0.178    0.331  155.386   76.406
  362.000    2.775    0.168    0.333  155.372   78.825
  362.250    2.775    0.160    0.338  155.350   92.183
  362.500    2.775    0.164    0.347  155.307   95.205
  362.750    2.774    0.164    0.354  155.293   83.024
  363.000    2.774    0.158    0.359  155.257   86.659
  363.250    2.723    0.146    0.351  155.235   90.290
  363.500    2.722    0.146    0.343  154.186   93.312
  363.750    2.722    0.180    0.341  154.164   90.863
  364.000    2.722    0.193    0.333  153.115   68.351
  364.250    2.722    0.182    0.319  153.094   63.470
  364.500    2.773    0.170    0.303  153.065   71.357
  364.750    2.773    0.156    0.311  153.022   82.895
  365.000    2.773    0.156    0.335  153.008   90.173
  365.250    2.773    0.157    0.337  152.964   84.684
  365.500    2.773    0.160    0.331  152.950   76.156
  365.750    2.826    0.160    0.326  152.914   70.667
  366.000    3.346    0.156    0.320  152.885   68.218
  366.250    3.963    0.145    0.318  152.850   63.945
  366.500    4.966    0.148    0.318  152.835   64.535
  366.750    5.455    0.154    0.327  155.846   76.070
  367.000    6.106    0.153    0.324  158.857   86.388
  367.250    6.460    0.150    0.319  160.841   91.842
  367.500    6.583    0.144    0.317  161.840   90.605
  367.750    6.707    0.136    0.318  161.811   91.808
  368.000    6.707    0.117    0.322  161.789   86.319
  368.250    6.834    0.118    0.319  160.740   79.006
  368.500    6.834    0.137    0.313  159.698   75.341
  368.750    6.833    0.153    0.320  158.663   78.359
  369.000    6.833    0.154    0.325  158.635   80.778
  369.250    6.833    0.146    0.327  158.606   83.801
  369.500    6.832    0.159    0.325  160.589   84.391
  369.750    6.832    0.164    0.327  160.575   80.118
  370.000    6.961    0.157    0.335  161.560   84.357
  370.250    6.961    0.153    0.343  161.531   84.948
  370.500    7.093    0.146    0.348  161.502   81.891
  370.750    7.093    0.140    0.348  160.460   89.169
  371.000    7.227    0.139    0.346  159.418   94.628
  371.250    7.227    0.158    0.341  158.376   90.355
  371.500    7.363    0.166    0.334  156.307   75.742
  371.750    7.363    0.172    0.329  156.285   68.429
  372.000    7.363    0.171    0.330  156.263   73.276
  372.250    7.225    0.163    0.334  156.228   77.514
  372.500    7.225    0.159    0.335  157.219   75.673
  372.750    7.090    0.151    0.336  158.197   77.475
  373.000    6.958    0.150    0.336  158.168   78.678
  373.250    6.958    0.157    0.336  159.160   81.705
  373.500    7.089    0.162    0.336  159.131   89.592
  373.750    7.223    0.165    0.338  159.102   93.830
  374.000    7.223    0.165    0.339  158.046   91.377
  374.250    7.223    0.165    0.341  158.031   88.324
  374.500    7.223    0.164    0.349  156.982   82.227
  374.750    7.088    0.163    0.349  155.947   78.558
  375.000    7.087    0.161    0.339  154.891   85.841
  375.250    7.087    0.160    0.328  154.877   92.507
  375.500    7.087    0.155    0.339  157.888   95.529
  375.750    7.086    0.152    0.345  162.933   94.904
  376.000    7.086    0.154    0.337  168.969   89.419
  376.250    7.086    0.173    0.332  170.981   73.595
  376.500    7.086    0.204    0.328  168.919   55.947
  376.750    7.085    0.232    0.318  163.824   38.299
  377.000    7.085    0.257    0.310  159.749   42.537
  377.250    7.085    0.278    0.307  150.601   29.753
  377.500    7.084    0.294    0.304  135.373   21.832
  377.750    7.084    0.284    0.300  136.358   21.202
  378.000    6.952    0.271    0.300  140.382   23.621
  378.250    6.951    0.259    0.300  142.373   30.292
  378.500    6.951    0.246    0.305  144.363   37.566
  378.750    7.083    0.219    0.310  145.355   38.769
  379.000    7.217    0.212    0.314  146.340   41.179
  379.250    7.216    0.203    0.320  146.318   45.422
  379.500    7.216    0.187    0.334  147.303   53.308
  379.750    7.081    0.168    0.336  148.287   66.062
  380.000    6.820    0.150    0.335  149.272   87.324
  380.250    6.568    0.138    0.335  149.229   97.642
  380.500    6.207    0.143    0.335  150.220   99.445
  380.750    6.091    0.149    0.334  151.212   94.568
  381.000    5.978    0.154    0.338  152.189   86.039
  381.250    5.757    0.161    0.345  153.181   79.334
  381.500    5.649    0.159    0.358  155.165   79.925
  381.750    5.544    0.155    0.372  156.164   89.027
  382.000    5.440    0.155    0.375  157.148   93.874
  382.250    5.339    0.155    0.365  158.140   91.425
  382.500    5.239    0.157    0.344  158.104   82.896
  382.750    5.239    0.165    0.350  158.075   83.482
  383.000    5.141    0.176    0.358  158.054   89.549
  383.250    5.045    0.189    0.368  158.025   88.919
  383.500    5.045    0.195    0.363  157.989   90.726
  383.750    5.045    0.184    0.358  158.974   91.929
  384.000    5.045    0.157    0.357  158.952   93.736
  384.250    5.140    0.152    0.358  158.923   95.547
  384.500    5.140    0.162    0.363  158.880   96.133
  384.750    5.140    0.162    0.368  158.866   96.116
  385.000    5.139    0.153    0.374  158.837   96.711
  385.250    5.139    0.148    0.375  158.808   98.513
  385.500    5.139    0.152    0.375  158.780   99.108
  385.750    5.139    0.161    0.374  158.751  100.303
  386.000    5.138    0.165    0.369  158.722  100.893
  386.250    5.043    0.160    0.361  157.680  101.489
