~VERSION INFORMATION
 VERS.                 2.0:   CWLS LOG ASCII STANDARD -VERSION 2.0
 WRAP.                  NO:   ONE LINE PER DEPTH STEP
~WELL INFORMATION BLOCK
#MNEM.UNIT           DATA                    DESCRIPTION OF MNEMONIC
#---------    -------------------            -------------------------------
# Generated from Intellog Unique Number	CS_71_72/WELL/799
WELL.         PEX PHILLIPS AEC GRIST         : Well_name    - WELL
LOC .         00/06-36-071-09W4/0            : Location     - LOCATION
UWI .         00/06-36-071-09W4/0            : Uwi          - UNIQUE WELL ID
ENTR.         SP                             : Entered      - ENTERED BY
SRVC.         SCHLUMBERGER                   : Scn          - SERVICE COMPANY
STRT.M        315                            : top_depth    - START DEPTH
STOP.M        540                            : bot_depth    - STOP DEPTH
STEP.M        0.25                           : increment    - STEP LENGTH
 NULL. -999.2500:NULL Value
~CURVE INFORMATION BLOCK
#MNEM UNIT       ERCB CURVE CODE    CURVE DESCRIPTION
#-----------   ------------------   ----------------------------------
DEPT.M        00 001 00 00         : DEPTH        - DEPTH
ILD .OHMM     00 120 00 00         : RESD         - DEEP RESISTIVITY (DIL)
DPHI.V/V      00 890 00 00         : PHID         - DENSITY POROSITY (LIMESTONE)
NPHI.V/V      00 330 00 00         : PHIN         - NEUTRON POROSITY (LIMESTONE)
GR  .API      00 310 00 00         : GR           - GAMMA RAY
~PARAMETER INFORMATION
#MNEM.UNIT           DATA             DESCRIPTION OF MNEMONIC
#---------         -----------     ------------------------------
GL  .M        679.91               : gl           - GROUND LEVEL ELEVATION
EREF.M        683.7                : kb           - ELEVATION OF DEPTH REFERENCE
DATM.M        679.91               : datum        - DATUM ELEVATION
TDD .M        544                  : tdd          - TOTAL DEPTH DRILLER
RUN .         ONE                  : Run          - RUN NUMBER
ENG .         BILL                 : Engineer     - RECORDING ENGINEER
WIT .         JIM                  : Witness      - WITNESSED BY
MUD .         GEL                  : Mud_type     - MUD TYPE
MATR.         LIMESTONE            : Logunit      - NEUTRON MATRIX
TMAX.C        24                   : BHT          - MAXIMUM RECORDED TEMPERATURE
BHTD.M        544                  : BHTDEP       - MAXIMUM RECORDED TEMPERATURE
MATR.         1                    : LOGUNIT      - NEUTRON MATRIX
RMT .C        25                   : MDTP         - TEMPERATURE OF MUD
NEUT.         1                    : NEUTRON      - NEUTRON TYPE
RESI.         0                    : RESIST       - RESISTIVITY TYPE
RMC .OHMM     0.25                 : RMC          - RESISTIVITY OF MUD CAKE
RMF .OHMM     0.25                 : RMF          - RESISTIVITY OF MUD FILTRATE
SUFT.C        15                   : SUFT         - SURFACE TEMPERATURE
~A  DEPTH     RESD     PHID     PHIN       GR
# ...
  402.000   14.804    0.337    0.444   53.410
  402.250   14.835    0.333    0.443   55.317
  402.500   14.894    0.329    0.454   52.767
  402.750   14.896    0.337    0.459   49.543
  403.000   14.900    0.349    0.461   46.809
  403.250   14.902    0.346    0.462   45.234
  403.500   14.850    0.340    0.457   46.044
  403.750   14.825    0.339    0.441   47.521
  404.000   14.801    0.342    0.433   49.981
  404.250   14.748    0.346    0.440   52.130
  404.500   14.697    0.354    0.447   53.606
  404.750   14.618    0.351    0.437   53.802
  405.000   14.539    0.345    0.427   51.862
  405.250   14.434    0.341    0.420   54.073
  405.500   14.356    0.336    0.422   57.142
  405.750   14.279    0.334    0.440   58.497
  406.000   14.202    0.336    0.454   57.472
  406.250   14.178    0.339    0.436   57.669
  406.500   14.102    0.336    0.415   56.645
  406.750   14.105    0.326    0.423   54.403
  407.000   14.187    0.313    0.436   53.497
  407.250   14.296    0.316    0.440   54.609
  407.500   14.380    0.332    0.436   56.760
  407.750   14.383    0.332    0.424   58.971
  408.000   14.466    0.327    0.418   60.511
  408.250   14.388    0.325    0.414   60.220
  408.500   13.812    0.322    0.422   58.708
  408.750   13.309    0.306    0.436   58.047
  409.000   13.948    0.289    0.457   60.567
  409.250   16.227    0.292    0.486   61.921
  409.500   18.086    0.084    0.460   61.935
  409.750   18.742    0.078    0.269   58.407
  410.000   18.228    0.125    0.269   51.461
  410.250   17.047    0.181    0.384   47.810
  410.500   14.991    0.240    0.425   54.419
  410.750   13.133    0.290    0.440   58.891
  411.000   12.467    0.296    0.445   60.920
  411.250   12.896    0.267    0.448   60.930
  411.500   13.142    0.180    0.488   57.037
  411.750   13.120    0.187    0.343   53.569
  412.000   12.618    0.252    0.370   58.958
  412.250   10.911    0.299    0.414   62.695
  412.500    9.400    0.327    0.464   64.294
  412.750    8.677    0.316    0.484   65.164
  413.000    8.252    0.299    0.493   66.886
  413.250    8.254    0.288    0.504   69.712
  413.500    8.333    0.312    0.491   71.554
  413.750    8.382    0.325    0.473   73.277
  414.000    8.399    0.324    0.462   73.902
  414.250    8.385    0.311    0.466   72.449
  414.500    8.340    0.301    0.492   70.692
  414.750    8.234    0.295    0.482   70.340
  415.000    8.113    0.288    0.460   72.003
  415.250    7.965    0.281    0.460   73.177
  415.500    7.761    0.283    0.487   74.473
  415.750    7.619    0.288    0.503   76.012
  416.000    7.452    0.290    0.478   77.244
  416.250    7.261    0.288    0.460   78.603
  416.500    7.010    0.264    0.467   79.104
  416.750    6.519    0.255    0.461   78.750
  417.000    6.063    0.264    0.466   76.323
  417.250    5.755    0.269    0.479   75.846
  417.500    5.566    0.255    0.489   78.730
  417.750    5.444    0.231    0.474   80.759
  418.000    5.395    0.218    0.467   81.811
  418.250    5.426    0.237    0.498   82.010
  418.500    5.529    0.253    0.516   82.080
  418.750    5.838    0.273    0.522   82.278
  419.000    6.315    0.260    0.505   81.985
  419.250    6.908    0.242    0.469   80.290
  419.500    7.657    0.236    0.450   77.493
  419.750    8.039    0.233    0.442   75.553
  420.000    8.362    0.225    0.430   77.460
  420.250    8.650    0.222    0.423   79.673
  420.500    8.716    0.233    0.428   81.396
  420.750    8.669    0.243    0.427   82.446
  421.000    8.416    0.239    0.420   83.804
  421.250    8.049    0.233    0.419   84.550
  421.500    7.828    0.230    0.425   84.807
  421.750    7.390    0.227    0.437   84.149
  422.000    7.094    0.220    0.468   82.025
  422.250    6.861    0.216    0.477   81.061
  422.500    6.761    0.225    0.459   83.150
  422.750    6.762    0.227    0.460   81.577
  423.000    6.777    0.221    0.466   80.981
  423.250    6.777    0.221    0.464   81.608
  423.500    6.742    0.223    0.453   82.351
  423.750    6.730    0.207    0.443   82.974
  424.000    6.719    0.194    0.450   83.174
  424.250    6.708    0.187    0.465   82.328
  424.500    6.747    0.197    0.465   77.093
  424.750    6.952    0.177    0.483   70.450
  425.000    7.549    0.102    0.507   61.305
  425.250    7.823    0.078    0.481   66.447
  425.500    7.839    0.175    0.329   76.718
  425.750    7.525    0.210    0.397   82.104
  426.000    7.131    0.219    0.449   84.865
  426.250    6.632    0.215    0.471   85.550
  426.500    6.366    0.219    0.486   84.892
  426.750    6.191    0.225    0.478   83.807
  427.000    6.112    0.217    0.476   82.723
  427.250    6.091    0.202    0.474   82.492
  427.500    6.047    0.191    0.469   83.118
  427.750    5.936    0.202    0.467   84.108
  428.000    5.667    0.213    0.461   84.487
  428.250    5.106    0.225    0.473   83.401
  428.500    4.423    0.238    0.493   81.460
  428.750    3.825    0.254    0.497   81.717
  429.000    3.192    0.276    0.507   84.356
  429.250    2.679    0.314    0.534   86.079
  429.500    2.391    0.307    0.569   85.115
  429.750    2.253    0.297    0.586   83.053
  430.000    2.241    0.293    0.601   82.092
  430.250    2.375    0.286    0.576   82.470
  430.500    2.541    0.279    0.561   83.826
  430.750    2.687    0.268    0.570   84.941
  431.000    2.853    0.265    0.568   85.135
  431.250    3.092    0.281    0.543   81.974
  431.500    3.486    0.342    0.555   79.362
  431.750    3.770    0.377    0.570   80.352
  432.000    4.140    0.282    0.569   81.648
  432.250    4.437    0.227    0.496   82.334
  432.500    4.711    0.230    0.447   82.043
  432.750    4.955    0.243    0.467   80.345
  433.000    5.059    0.249    0.484   75.901
  433.250    5.098    0.252    0.485   74.448
  433.500    5.109    0.261    0.465   74.523
  433.750    5.024    0.297    0.454   73.380
  434.000    4.905    0.314    0.475   71.499
  434.250    4.980    0.304    0.492   68.947
  434.500    5.132    0.297    0.487   65.662
  434.750    5.490    0.288    0.494   63.723
  435.000    5.905    0.227    0.507   64.896
  435.250    6.317    0.110    0.509   65.276
  435.500    6.570    0.113    0.300   60.223
  435.750    7.228    0.197    0.326   55.900
  436.000    7.546    0.279    0.402   60.920
  436.250    7.204    0.302    0.446   66.614
  436.500    6.467    0.301    0.475   69.251
  436.750    6.070    0.291    0.501   67.984
  437.000    5.666    0.287    0.488   65.250
  437.250    5.460    0.293    0.473   63.799
  437.500    5.461    0.320    0.478   62.530
  437.750    5.534    0.321    0.487   62.479
  438.000    5.577    0.305    0.500   63.897
  438.250    5.609    0.286    0.488   68.246
  438.500    5.674    0.276    0.480   74.609
  438.750    5.685    0.265    0.469   78.652
  439.000    5.697    0.256    0.467   78.423
  439.250    5.698    0.254    0.459   77.824
  439.500    5.689    0.245    0.422   79.183
  439.750    5.711    0.242    0.419   80.050
  440.000    5.744    0.241    0.432   80.674
  440.250    5.810    0.239    0.443   79.714
  440.500    5.932    0.247    0.453   77.955
  440.750    6.033    0.259    0.462   75.097
  441.000    6.114    0.268    0.448   72.546
  441.250    6.150    0.273    0.453   74.513
  441.500    6.128    0.267    0.461   78.007
  441.750    6.017    0.248    0.452   82.845
  442.000    5.973    0.235    0.456   82.920
  442.250    5.896    0.232    0.471   81.894
  442.500    5.714    0.233    0.487   80.564
  442.750    5.599    0.242    0.486   74.961
  443.000    5.486    0.261    0.455   71.005
  443.250    5.276    0.265    0.441   72.915
  443.500    4.980    0.248    0.450   74.147
  443.750    4.649    0.231    0.462   75.443
  444.000    4.252    0.251    0.473   75.763
  444.250    3.961    0.301    0.487   75.651
  444.500    3.810    0.321    0.492   75.850
  444.750    3.912    0.302    0.481   74.703
  445.000    3.986    0.271    0.469   71.664
  445.250    4.032    0.243    0.461   73.508
