~VERSION INFORMATION
 VERS.                 2.0:   CWLS LOG ASCII STANDARD -VERSION 2.0
 WRAP.                  NO:   ONE LINE PER DEPTH STEP
~WELL INFORMATION BLOCK
#MNEM.UNIT           DATA                    DESCRIPTION OF MNEMONIC
#---------    -------------------            -------------------------------
# Generated from Intellog Unique Number	CX_WELLS/WELL/4078
WELL.         BANKENO                        : Well_name    - WELL
LOC .         00/05-33-081-12W4/0            : Location     - LOCATION
UWI .         00/05-33-081-12W400            : Uwi          - UNIQUE WELL ID
ENTR.         T                              : Entered      - ENTERED BY
SRVC.         SCHLUMBERGER                   : Scn          - SERVICE COMPANY
STRT.M        300                            : top_depth    - START DEPTH
STOP.M        535                            : bot_depth    - STOP DEPTH
STEP.M        0.25                           : increment    - STEP LENGTH
 NULL. -999.2500:NULL Value
~CURVE INFORMATION BLOCK
#MNEM UNIT       ERCB CURVE CODE    CURVE DESCRIPTION
#-----------   ------------------   ----------------------------------
DEPT.M        00 001 00 00         : DEPTH        - DEPTH
GR  .API      00 310 00 00         : GR           - GAMMA RAY
NPHI.V/V      00 330 00 00         : PHIN         - NEUTRON POROSITY (SANDSTONE)
DPHI.V/V      00 890 00 00         : PHID         - DENSITY POROSITY (SANDSTONE)
ILD .OHMM     00 120 00 00         : RESD         - DEEP RESISTIVITY (DIL)
~PARAMETER INFORMATION
#MNEM.UNIT           DATA             DESCRIPTION OF MNEMONIC
#---------         -----------     ------------------------------
GL  .M        744                  : gl           - GROUND LEVEL ELEVATION
EREF.M        748                  : kb           - ELEVATION OF DEPTH REFERENCE
DATM.M        748                  : datum        - DATUM ELEVATION
TDD .M        548                  : tdd          - TOTAL DEPTH DRILLER
RUN .         ONE                  : Run          - RUN NUMBER
ENG .         BILL                 : Engineer     - RECORDING ENGINEER
WIT .         JIM                  : Witness      - WITNESSED BY
MUD .         GEL                  : Mud_type     - MUD TYPE
MATR.         SANDSTONE            : Logunit      - NEUTRON MATRIX
TMAX.C        15                   : BHT          - MAXIMUM RECORDED TEMPERATURE
BHTD.M        548                  : BHTDEP       - MAXIMUM RECORDED TEMPERATURE
MATR.         1                    : LOGUNIT      - NEUTRON MATRIX
RMT .C        25                   : MDTP         - TEMPERATURE OF MUD
NEUT.         1                    : NEUTRON      - NEUTRON TYPE
RESI.         0                    : RESIST       - RESISTIVITY TYPE
RMC .OHMM     0.25                 : RMC          - RESISTIVITY OF MUD CAKE
RMF .OHMM     0.25                 : RMF          - RESISTIVITY OF MUD FILTRATE
SUFT.C        4                    : SUFT         - SURFACE TEMPERATURE
~A  DEPTH       GR     PHIN     PHID     RESD
  300.000   89.172    0.528    0.299    3.030
  300.250   91.091    0.539    0.300    2.983
  300.500   93.035    0.548    0.301    2.983
  300.750   94.319    0.555    0.301    2.887
  301.000   96.251    0.554    0.301    2.792
  301.250   96.899    0.542    0.300    2.796
  301.500   98.219    0.533    0.300    2.752
  301.750   97.646    0.539    0.301    2.707
  302.000   94.555    0.551    0.301    2.573
  302.250   89.618    0.563    0.301    2.532
  302.500   91.550    0.560    0.297    2.535
  302.750   92.834    0.551    0.292    2.583
  303.000   94.154    0.541    0.291    2.681
  303.250   94.179    0.537    0.288    2.732
  303.500   94.254    0.544    0.286    2.834
  303.750   94.291    0.559    0.278    2.940
  304.000   94.328    0.551    0.275    3.161
  304.250   94.403    0.531    0.267    3.221
  304.500   94.427    0.512    0.254    3.281
  304.750   94.477    0.515    0.225    3.405
  305.000   94.526    0.533    0.254    3.471
  305.250   94.576    0.535    0.257    3.476
  305.500   94.626    0.506    0.263    3.480
  305.750   95.311    0.495    0.263    3.486
  306.000   95.385    0.477    0.261    3.491
  306.250   95.422    0.472    0.259    3.558
  306.500   96.108    0.478    0.259    3.564
  306.750   96.132    0.503    0.262    3.633
  307.000   96.195    0.524    0.265    3.703
  307.250   96.244    0.543    0.267    3.773
  307.500   95.683    0.530    0.264    3.846
  307.750   95.109    0.504    0.260    3.920
  308.000   94.523    0.511    0.260    3.927
  308.250   93.326    0.523    0.261    3.931
  308.500   92.753    0.517    0.262    3.940
  308.750   92.167    0.511    0.269    3.876
  309.000   91.605    0.504    0.273    3.880
  309.250   91.643    0.499    0.271    3.753
  309.500   91.081    0.475    0.263    3.758
  309.750   90.520    0.458    0.247    3.764
  310.000   87.441    0.520    0.189    3.835
  310.250   83.739    0.383    0.163    4.048
  310.500   76.310    0.353    0.211    5.009
  310.750   70.139    0.382    0.265    5.673
  311.000   73.293    0.395    0.268    6.542
  311.250   77.717    0.395    0.279    7.279
  311.500   80.260    0.391    0.299    8.106
  311.750   80.933    0.385    0.305    8.406
  312.000   75.361    0.375    0.311    8.874
  312.250   70.437    0.368    0.318    9.704
  312.500   65.488    0.346    0.334   10.800
  312.750   59.929    0.331    0.399   12.020
  313.000   56.850    0.313    0.399   14.107
  313.250   53.172    0.319    0.359   15.978
  313.500   56.338    0.349    0.352   16.869
  313.750   60.127    0.380    0.341   15.746
  314.000   62.047    0.394    0.329   14.698
  314.250   65.237    0.416    0.316   13.250
  314.500   66.521    0.449    0.313   12.364
  314.750   67.804    0.443    0.317   11.348
  315.000   70.970    0.428    0.325   10.777
  315.250   72.889    0.424    0.342   10.601
  315.500   66.084    0.422    0.345   10.249
  315.750   63.665    0.417    0.350   10.264
  316.000   66.183    0.413    0.354    9.928
  316.250   76.216    0.414    0.317    9.765
  316.500   83.745    0.418    0.303    9.277
  316.750   91.273    0.426    0.290    8.973
  317.000   95.062    0.424    0.278    8.676
  317.250   95.735    0.416    0.280    8.540
  317.500   90.799    0.416    0.303    8.546
  317.750   82.135    0.447    0.331    8.410
  318.000   85.924    0.499    0.420    8.422
  318.250   97.840    0.487    0.450    8.434
  318.500   99.112    0.464    0.427    8.303
  318.750  102.277    0.442    0.417    8.170
  319.000  106.091    0.408    0.390    8.182
  319.250  106.116    0.396    0.361    8.194
  319.500  100.556    0.399    0.352    8.203
  319.750   83.779    0.394    0.337    8.512
  320.000   76.960    0.382    0.312    8.987
  320.250   71.401    0.383    0.296    9.325
  320.500   66.465    0.389    0.301    9.845
  320.750   62.152    0.392    0.313   10.398
  321.000   57.839    0.396    0.323   10.590
  321.250   52.902    0.394    0.332   10.801
  321.500   49.212    0.386    0.333   11.009
  321.750   43.653    0.389    0.325   11.021
  322.000   41.210    0.383    0.318   11.238
  322.250   43.765    0.373    0.314   11.250
  322.500   46.307    0.365    0.313   11.267
  322.750   46.992    0.373    0.308   10.893
  323.000   46.394    0.395    0.303   10.345
  323.250   47.067    0.404    0.300   10.002
  323.500   62.074    0.409    0.295    9.343
  323.750   75.847    0.411    0.273    9.343
  324.000   83.388    0.410    0.261    8.737
  324.250   84.048    0.407    0.262    8.150
  324.500   84.734    0.406    0.263    8.165
  324.750   85.394    0.410    0.262    8.171
  325.000   86.079    0.414    0.258    8.334
  325.250   85.505    0.422    0.242    8.349
  325.500   84.309    0.426    0.229    8.355
  325.750   82.489    0.426    0.214    8.667
  326.000   81.279    0.412    0.191    9.154
  326.250   77.614    0.398    0.164    9.326
  326.500   76.393    0.369    0.137    9.674
  326.750   75.196    0.393    0.151   10.039
  327.000   72.777    0.409    0.216   10.228
  327.250   72.191    0.423    0.328   10.614
  327.500   71.630    0.423    0.334   10.634
  327.750   72.290    0.419    0.329   10.649
  328.000   72.963    0.417    0.334   10.657
  328.250   74.284    0.411    0.341   10.681
  328.500   74.945    0.411    0.342   10.696
  328.750   75.605    0.408    0.335   10.712
  329.000   78.796    0.402    0.329   10.724
  329.250   80.067    0.405    0.324   10.747
  329.500   83.257    0.408    0.316   10.576
  329.750   85.164    0.409    0.313   10.583
  330.000   85.825    0.408    0.311   10.599
  330.250   87.756    0.407    0.312   10.430
  330.500   88.429    0.409    0.315   10.445
  330.750   85.998    0.410    0.318   10.464
  331.000   85.400    0.412    0.324   10.483
  331.250   84.203    0.418    0.329   10.491
  331.500   83.018    0.424    0.338   10.506
  331.750   85.561    0.433    0.343   10.522
  332.000   88.116    0.448    0.351   10.541
  332.250   90.035    0.449    0.341   10.553
  332.500   90.708    0.443    0.313   10.572
  332.750   92.016    0.438    0.299   10.780
  333.000   93.300    0.434    0.289   10.791
  333.250   93.961    0.426    0.280   10.807
  333.500   95.905    0.413    0.274   10.823
  333.750   96.553    0.383    0.267   10.658
  334.000   96.602    0.378    0.259   10.297
  334.250   92.302    0.407    0.252    9.448
  334.500   92.962    0.442    0.241    8.073
  334.750   95.505    0.459    0.247    7.146
  335.000   98.059    0.469    0.273    6.109
  335.250   99.991    0.480    0.310    5.605
  335.500  101.923    0.520    0.345    5.515
  335.750  102.583    0.515    0.360    5.522
  336.000  103.892    0.510    0.366    5.339
  336.250  103.929    0.505    0.383    5.073
  336.500  103.343    0.510    0.364    4.991
  336.750  100.924    0.525    0.332    4.741
  337.000   99.715    0.519    0.321    4.667
  337.250   99.141    0.494    0.308    4.675
  337.500  100.425    0.490    0.305    4.601
  337.750  102.344    0.490    0.300    4.448
  338.000  104.887    0.501    0.291    4.151
  338.250  107.442    0.510    0.295    3.677
  338.500  109.984    0.506    0.318    3.371
  338.750  112.527    0.508    0.321    3.090
  339.000  113.823    0.516    0.328    3.041
  339.250  113.249    0.525    0.337    3.327
  339.500  109.572    0.524    0.328    4.043
  339.750  107.740    0.494    0.298    5.271
  340.000  106.543    0.466    0.299    6.296
  340.250  102.217    0.440    0.312    7.131
  340.500   96.658    0.432    0.317    7.665
  340.750   93.591    0.426    0.308    8.095
  341.000   91.771    0.421    0.295    8.248
  341.250   89.963    0.424    0.301    8.406
  341.500   88.131    0.433    0.309    8.422
  341.750   85.700    0.431    0.305    8.431
  342.000   85.126    0.426    0.303    8.012
  342.250   86.410    0.423    0.312    7.741
  342.500   91.458    0.454    0.324    6.855
  342.750   96.493    0.466    0.344    6.179
  343.000  101.529    0.469    0.322    6.526
  343.250  104.694    0.441    0.265    6.887
