~VERSION INFORMATION
 VERS.                 2.0:   CWLS LOG ASCII STANDARD -VERSION 2.0
 WRAP.                  NO:   ONE LINE PER DEPTH STEP
~WELL INFORMATION BLOCK
#MNEM.UNIT           DATA                    DESCRIPTION OF MNEMONIC
#---------    -------------------            -------------------------------
# Generated from Intellog Unique Number	CW_76_78/WELL/2563
WELL.         SCURRY ET AL DOUCETTE          : Well_name    - WELL
LOC .         00/02-08-078-02W5/0            : Location     - LOCATION
UWI .         00/02-08-078-02W5/0            : Uwi          - UNIQUE WELL ID
ENTR.         MAX                            : Entered      - ENTERED BY
SRVC.         WESTERN ATLAS                  : Scn          - SERVICE COMPANY
STRT.M        355                            : top_depth    - START DEPTH
STOP.M        605                            : bot_depth    - STOP DEPTH
STEP.M        0.25                           : increment    - STEP LENGTH
 NULL. -999.2500:NULL Value
~CURVE INFORMATION BLOCK
#MNEM UNIT       ERCB CURVE CODE    CURVE DESCRIPTION
#-----------   ------------------   ----------------------------------
DEPT.M        00 001 00 00         : DEPTH        - DEPTH
ILD .OHMM     00 120 00 00         : RESD         - DEEP RESISTIVITY (DIL)
NPHI.V/V      00 330 00 00         : PHIN         - NEUTRON POROSITY (SANDSTONE)
DPHI.V/V      00 890 00 00         : PHID         - DENSITY POROSITY (SANDSTONE)
CALI.MM       00 280 01 00         : CAL          - CALIPER
GR  .API      00 310 00 00         : GR           - GAMMA RAY
~PARAMETER INFORMATION
#MNEM.UNIT           DATA             DESCRIPTION OF MNEMONIC
#---------         -----------     ------------------------------
GL  .M        647.79               : gl           - GROUND LEVEL ELEVATION
EREF.M        652.05               : kb           - ELEVATION OF DEPTH REFERENCE
DATM.M        647.79               : datum        - DATUM ELEVATION
TDD .M        628                  : tdd          - TOTAL DEPTH DRILLER
RUN .         ONE                  : Run          - RUN NUMBER
ENG .         BILL                 : Engineer     - RECORDING ENGINEER
WIT .         JIM                  : Witness      - WITNESSED BY
MUD .         GEL                  : Mud_type     - MUD TYPE
MATR.         SANDSTONE            : Logunit      - NEUTRON MATRIX
TMAX.C        30                   : BHT          - MAXIMUM RECORDED TEMPERATURE
BHTD.M        627.3                : BHTDEP       - MAXIMUM RECORDED TEMPERATURE
RMT .C        13                   : MDTP         - TEMPERATURE OF MUD
MUDD.KG/M     1190                 : MWT          - MUD DENSITY
NEUT.         1                    : NEUTRON      - NEUTRON TYPE
RESI.         0                    : RESIST       - RESISTIVITY TYPE
RM  .OHMM     3.5                  : RM           - RESISTIVITY OF MUD
RMC .OHMM     2.2                  : RMC          - RESISTIVITY OF MUD CAKE
RMF .OHMM     3.9                  : RMF          - RESISTIVITY OF MUD FILTRATE
SUFT.C        -10                  : SUFT         - SURFACE TEMPERATURE
~A  DEPTH     RESD     PHIN     PHID      CAL       GR
# ...
  574.000    4.145    0.450    0.244  199.661  111.771
  574.250    3.925    0.425    0.207  200.606  113.208
  574.500    3.750    0.400    0.188  202.519  107.380
  574.750    3.750    0.375    0.171  202.979   99.517
  575.000    3.679    0.362    0.152  203.435   89.036
  575.250    3.612    0.350    0.119  203.898   82.917
  575.500    3.676    0.355    0.148  203.874   84.935
  575.750    4.021    0.372    0.194  201.421   92.189
  576.000    4.770    0.385    0.205  199.943  102.639
  576.250    5.458    0.387    0.197  199.434  104.947
  576.500    5.555    0.383    0.210  199.409   96.792
  576.750    5.552    0.345    0.219  200.835   93.582
  577.000    5.550    0.343    0.233  201.291   93.565
  577.250    5.751    0.351    0.224  201.273  101.104
  577.500    5.906    0.356    0.215  202.699  104.290
  577.750    6.065    0.359    0.206  204.609  109.217
  578.000    6.065    0.365    0.201  206.525  107.458
  578.250    6.058    0.367    0.223  206.979  104.537
  578.500    6.111    0.364    0.232  205.991   99.869
  578.750    6.333    0.372    0.236  204.029   95.785
  579.000    6.445    0.371    0.232  202.057   92.864
  579.250    6.558    0.370    0.243  201.554   89.359
  579.500    6.736    0.368    0.274  202.014   86.145
  579.750    7.171    0.363    0.283  202.955   84.677
  580.000    7.565    0.310    0.254  204.378   82.916
  580.250    7.983    0.289    0.161  204.841   80.287
  580.500    8.810    0.276    0.135  205.788   77.945
  580.750    9.466    0.292    0.123  206.248   80.258
  581.000   10.541    0.308    0.157  205.248   85.764
  581.250   11.122    0.332    0.173  204.739   90.400
  581.500   11.117    0.346    0.189  204.230   95.617
  581.750   10.719    0.352    0.219  203.721   98.218
  582.000    9.789    0.349    0.247  202.721   99.948
  582.250    9.354    0.336    0.248  202.703   98.478
  582.500    8.938    0.315    0.239  202.660   94.975
  582.750    8.617    0.311    0.223  202.654   90.891
  583.000    8.308    0.302    0.222  202.629   87.677
  583.250    8.082    0.296    0.217  201.626   84.174
  583.500    8.006    0.293    0.210  201.602   76.602
  583.750    8.223    0.308    0.206  201.580   78.622
  584.000    8.367    0.335    0.228  201.558   87.908
  584.250    8.214    0.341    0.250  201.528   87.312
  584.500    8.064    0.338    0.262  201.988   76.831
  584.750    7.988    0.335    0.272  202.935   71.873
  585.000    7.984    0.332    0.272  203.389   72.149
  585.250    8.053    0.330    0.269  202.883   73.297
  585.500    8.270    0.330    0.261  202.852   74.153
  585.750    8.647    0.333    0.257  202.346   72.684
  586.000    8.960    0.336    0.259  201.840   73.251
  586.250    8.956    0.335    0.269  201.812   74.980
  586.500    8.792    0.326    0.267  201.787   80.779
  586.750    8.477    0.312    0.258  201.763   88.029
  587.000    8.099    0.306    0.235  201.738   90.921
  587.250    7.809    0.299    0.221  201.714   93.524
  587.500    7.809    0.294    0.210  201.680   92.347
  587.750    7.661    0.294    0.213  201.658   90.293
  588.000    7.387    0.297    0.208  201.631   88.246
  588.250    7.384    0.297    0.198  202.072   84.451
  588.500    7.583    0.301    0.193  202.063   80.657
  588.750    7.788    0.304    0.188  202.044   81.220
  589.000    8.069    0.309    0.181  201.532   88.185
  589.250    7.920    0.325    0.160  201.992   96.600
  589.500    7.707    0.381    0.204  204.383  101.526
  589.750    7.497    0.403    0.306  205.334  108.487
  590.000    7.294    0.372    0.282  205.794  115.449
  590.250    7.357    0.347    0.239  207.213  124.154
  590.500    7.354    0.338    0.184  208.167  125.011
  590.750    7.416    0.336    0.184  208.139  109.880
  591.000    7.413    0.331    0.169  206.658  106.086
  591.250    7.409    0.316    0.153  206.633  100.838
  591.500    7.406    0.313    0.117  207.093   98.205
  591.750    7.674    0.315    0.088  209.003   98.483
  592.000    7.952    0.320    0.145  209.947   99.338
  592.250    7.877    0.330    0.177  209.920   99.612
  592.500    7.733    0.326    0.180  209.895   96.980
  592.750    7.660    0.314    0.176  210.358   94.934
  593.000    7.654    0.304    0.177  210.330   93.173
  593.250    7.722    0.309    0.182  210.790   93.153
  593.500    7.860    0.347    0.188  211.250   94.595
  593.750    8.071    0.378    0.191  211.710   98.068
  594.000    7.712    0.392    0.192  212.170  103.287
  594.250    7.107    0.402    0.142  211.661  104.145
  594.500    6.610    0.401    0.113  209.692  101.221
  594.750    5.930    0.400    0.159  209.186  102.079
  595.000    5.514    0.401    0.191  209.646  106.424
  595.250    5.128    0.404    0.194  211.075  108.153
  595.500    4.812    0.406    0.195  211.531  102.614
  595.750    4.640    0.409    0.197  211.025  102.308
  596.000    4.474    0.405    0.201  210.998  104.617
  596.250    4.198    0.392    0.099  211.451  102.858
  596.500    3.940    0.391    0.067  209.007  102.840
  596.750    3.288    0.390    0.068  207.533  104.863
  597.000    3.058    0.387    0.114  208.958  111.243
  597.250    3.029    0.375    0.129  210.387  111.519
  597.500    3.111    0.366    0.149  209.872  111.795
  597.750    3.282    0.347    0.162  209.369  107.707
  598.000    3.432    0.322    0.149  208.857  101.300
  598.250    3.051    0.251    0.080  207.863   79.483
  598.500    2.941    0.135    0.056  206.385   48.655
  598.750    3.075    0.114   -0.040  203.935   32.654
  599.000    3.304    0.123    0.014  201.973   25.659
  599.250    4.694    0.172    0.091  200.979   25.355
  599.500    6.913    0.210    0.155  200.955   26.792
  599.750   12.870    0.213    0.185  200.924   23.869
  600.000   15.685    0.200    0.113  200.415   23.273
  600.250   17.156    0.186    0.090  200.415   23.841
  600.500   17.618    0.177    0.088  200.353   24.697
  600.750   18.422    0.177    0.110  200.344   25.556
  601.000   19.613    0.183    0.132  200.313   25.245
  601.250   19.960    0.198    0.147  199.807   23.195
  601.500   20.314    0.215    0.153  199.780   23.180
  601.750   19.409    0.218    0.152  199.755   23.456
  602.000   18.713    0.217    0.150  199.733   23.155
  602.250   18.704    0.217    0.147  198.737   23.429
  602.500   18.866    0.220    0.146  198.712   23.703
  602.750   19.028    0.226    0.147  198.688   23.397
  603.000   19.019    0.227    0.143  198.660   23.092
  603.250   19.011    0.228    0.136  198.638   23.368
  603.500   19.011    0.229    0.128  198.638   22.768
  603.750   18.651    0.231    0.125  198.571   22.466
  604.000   18.146    0.233    0.132  199.040   21.870
  604.250   17.653    0.238    0.150  199.040   19.815
  604.500   17.330    0.239    0.152  198.981   18.932
  604.750   17.323    0.238    0.151  199.935   19.497
  605.000   17.314    0.236    0.148  200.398   20.354
