~VERSION INFORMATION
 VERS.                 2.0:   CWLS LOG ASCII STANDARD -VERSION 2.0
 WRAP.                  NO:   ONE LINE PER DEPTH STEP
~WELL INFORMATION BLOCK
#MNEM.UNIT           DATA                    DESCRIPTION OF MNEMONIC
#---------    -------------------            -------------------------------
# Generated from Intellog Unique Number	CW_76_78/WELL/2572
WELL.         BAYSEL WILLOW R                : Well_name    - WELL
LOC .         00/07-10-078-03W5/0            : Location     - LOCATION
UWI .         00/07-10-078-03W5/0            : Uwi          - UNIQUE WELL ID
ENTR.         MAX                            : Entered      - ENTERED BY
SRVC.         SCHLUMBERGER                   : Scn          - SERVICE COMPANY
STRT.M        365.76                         : top_depth    - START DEPTH
STOP.M        640.01                         : bot_depth    - STOP DEPTH
STEP.M        0.25                           : increment    - STEP LENGTH
 NULL. -999.2500:NULL Value
~CURVE INFORMATION BLOCK
#MNEM UNIT       ERCB CURVE CODE    CURVE DESCRIPTION
#-----------   ------------------   ----------------------------------
DEPT.M        00 001 00 00         : DEPTH        - DEPTH
ILD .OHMM     00 120 00 00         : RESD         - DEEP RESISTIVITY (DIL)
NPHI.V/V      00 330 00 00         : PHIN         - NEUTRON POROSITY (SANDSTONE)
DPHI.V/V      00 890 00 00         : PHID         - DENSITY POROSITY (SANDSTONE)
CALI.MM       00 280 01 00         : CAL          - CALIPER
GR  .API      00 310 00 00         : GR           - GAMMA RAY
~PARAMETER INFORMATION
#MNEM.UNIT           DATA             DESCRIPTION OF MNEMONIC
#---------         -----------     ------------------------------
GL  .M        660.197              : gl           - GROUND LEVEL ELEVATION
EREF.M        664.403              : kb           - ELEVATION OF DEPTH REFERENCE
DATM.M        660.197              : datum        - DATUM ELEVATION
TDD .M        658.063              : tdd          - TOTAL DEPTH DRILLER
RUN .         ONE                  : Run          - RUN NUMBER
ENG .         BILL                 : Engineer     - RECORDING ENGINEER
WIT .         JIM                  : Witness      - WITNESSED BY
MUD .         GEL                  : Mud_type     - MUD TYPE
MATR.         SANDSTONE            : Logunit      - NEUTRON MATRIX
TMAX.C        26.6667              : BHT          - MAXIMUM RECORDED TEMPERATURE
BHTD.M        658.063              : BHTDEP       - MAXIMUM RECORDED TEMPERATURE
RMT .C        15                   : MDTP         - TEMPERATURE OF MUD
MUDD.KG/M     9300                 : MWT          - MUD DENSITY
NEUT.         1                    : NEUTRON      - NEUTRON TYPE
RESI.         0                    : RESIST       - RESISTIVITY TYPE
RM  .OHMM     0.25                 : RM           - RESISTIVITY OF MUD
RMC .OHMM     0.25                 : RMC          - RESISTIVITY OF MUD CAKE
RMF .OHMM     3.74                 : RMF          - RESISTIVITY OF MUD FILTRATE
SUFT.C        -15                  : SUFT         - SURFACE TEMPERATURE
~A  DEPTH     RESD     PHIN     PHID      CAL       GR
# ...
  511.760   24.590    0.154   -0.021  172.450   81.021
  512.010   31.936    0.162   -0.020  171.860   82.228
  512.260   25.205    0.190   -0.012  172.842   82.196
  512.510   17.525    0.229    0.023  173.837   80.309
  512.760   15.278    0.352    0.101  173.261   77.506
  513.010   14.066    0.298    0.108  170.072   72.856
  513.260   13.306    0.264    0.066  167.932   67.587
  513.510   13.052    0.240    0.047  168.385   64.476
  513.760   13.157    0.244    0.033  169.902   63.517
  514.010   13.262    0.277    0.032  172.454   70.257
  514.260   12.774    0.323    0.090  173.442   77.917
  514.510   11.761    0.382    0.174  171.295   82.506
  514.760   10.162    0.440    0.217  167.592   87.704
  515.010    8.166    0.449    0.212  164.403   87.060
  515.260    7.384    0.442    0.222  164.355   88.555
  515.510    7.241    0.442    0.220  164.815   90.378
  515.760    7.241    0.436    0.205  164.761   91.577
  516.010    7.226    0.441    0.208  164.707   90.002
  516.260    7.551    0.432    0.204  164.117   86.267
  516.510    8.110    0.426    0.191  163.541   85.316
  516.760    8.869    0.414    0.178  164.008   84.976
  517.010    9.786    0.410    0.166  166.032   85.247
  517.260   10.319    0.377    0.155  170.141   86.758
  517.510   10.216    0.362    0.139  172.186   89.185
  517.760    9.405    0.450    0.157  171.603   96.233
  518.010    8.126    0.458    0.193  167.886  100.507
  518.260    7.618    0.461    0.199  168.353   97.396
  518.510    7.539    0.457    0.208  170.377   93.670
  518.760    7.539    0.425    0.195  168.237   91.167
  519.010    7.588    0.410    0.220  166.626   93.602
  519.260    7.790    0.411    0.204  166.564  100.342
  519.510    7.851    0.428    0.199  167.559  104.924
  519.760    7.703    0.427    0.174  171.661  106.435
  520.010    7.556    0.422    0.165  173.171  105.471
  520.260    7.412    0.420    0.165  173.645  102.672
  520.510    7.336    0.417    0.182  173.062   94.940
  520.760    7.393    0.410    0.189  172.479   89.982
  521.010    7.657    0.403    0.165  172.432   90.246
  521.260    8.224    0.386    0.127  173.413   87.759
  521.510    8.913    0.333    0.113  173.866   87.719
  521.760    9.486    0.410    0.137  173.826   89.846
  522.010    9.824    0.439    0.181  173.764   94.739
  522.260    9.725    0.460    0.187  173.703  101.479
  522.510    9.538    0.460    0.182  173.121   98.665
  522.760    9.187    0.456    0.180  173.066  100.488
  523.010    8.535    0.445    0.173  173.540  102.918
  523.260    8.075    0.442    0.188  174.521  102.270
  523.510    7.300    0.440    0.185  174.467  101.614
  523.760    6.905    0.440    0.192  172.835  102.506
  524.010    6.773    0.433    0.199  173.288  104.017
  524.260    6.760    0.428    0.181  173.775  106.743
  524.510    6.757    0.445    0.170  174.242  106.719
  524.760    6.874    0.451    0.183  173.131  102.681
  525.010    7.056    0.444    0.174  171.499   98.635
  525.260    7.372    0.440    0.182  171.980   98.611
  525.510    7.634    0.445    0.186  174.004  100.118
  525.760    7.767    0.444    0.198  174.477  101.313
  526.010    7.899    0.436    0.183  173.367  102.512
  526.260    7.961    0.438    0.182  172.798  104.943
  526.510    7.880    0.454    0.176  172.737  108.297
  526.760    7.730    0.461    0.181  172.682  109.184
  527.010    7.514    0.459    0.173  170.008  106.382
  527.260    7.372    0.459    0.182  168.383  106.653
  527.510    7.165    0.470    0.187  168.342  105.390
  527.760    7.087    0.474    0.203  170.887  104.126
  528.010    6.957    0.454    0.187  170.833  104.390
  528.260    6.824    0.440    0.177  168.686  106.213
  528.510    6.755    0.447    0.189  168.117  105.245
  528.760    6.626    0.454    0.194  168.056  103.994
  529.010    6.499    0.471    0.193  168.002  102.418
  529.260    6.432    0.479    0.188  168.462  103.002
  529.510    6.432    0.481    0.187  169.443  103.893
  529.760    6.359    0.466    0.181  170.438  103.857
  530.010    6.411    0.448    0.169  169.848  106.288
  530.260    6.521    0.448    0.156  170.302  106.867
  530.510    6.693    0.409    0.151  171.303  104.984
  530.760    6.868    0.404    0.131  171.242  105.264
  531.010    7.048    0.424    0.138  171.188  107.682
  531.260    7.035    0.431    0.178  171.140  108.885
  531.510    7.096    0.437    0.176  172.101  110.388
  531.760    7.088    0.441    0.159  172.067  111.288
  532.010    7.143    0.437    0.153  170.970  110.004
  532.260    7.137    0.414    0.163  170.381  109.061
  532.510    7.259    0.402    0.163  170.333  107.793
  532.760    7.517    0.385    0.166  171.321  106.226
  533.010    7.787    0.376    0.160  175.945  105.262
  533.260    8.359    0.393    0.147  175.890  108.308
  533.510    8.581    0.413    0.160  175.842  114.129
  533.760    8.268    0.427    0.156  176.817  114.709
  534.010    8.268    0.454    0.159  178.333  114.668
  534.260    7.809    0.463    0.156  179.843  115.568
  534.510    7.192    0.469    0.172  183.945  112.761
  534.760    6.562    0.476    0.186  186.504  110.258
  535.010    5.985    0.484    0.194  185.928  107.767
  535.260    5.872    0.486    0.177  180.654  103.733
  535.510    5.863    0.469    0.166  175.380   98.468
  535.760    6.073    0.452    0.133  174.269   90.735
  536.010    6.172    0.381    0.120  174.736   83.003
  536.260    6.341    0.352    0.063  175.210   78.965
  536.510    9.607    0.333    0.037  175.148   76.462
  536.760   14.691    0.320    0.068  175.094   76.126
  537.010   21.662    0.284    0.020  174.511   75.478
  537.260   29.975    0.272    0.033  174.985   72.975
  537.510   33.083    0.306    0.111  175.438   71.404
  537.760   36.841    0.341    0.150  175.391   72.291
  538.010   38.152    0.380    0.184  175.336   74.110
  538.260   37.767    0.422    0.192  174.754   76.545
  538.510   35.392    0.432    0.185  174.699   80.195
  538.760   33.191    0.449    0.212  174.645   79.855
  539.010   28.677    0.442    0.202  174.577   77.364
  539.260   26.165    0.416    0.180  174.008   76.100
  539.510   25.890    0.400    0.182  173.946   78.531
  539.760   26.341    0.408    0.194  173.885   80.038
  540.010   28.023    0.412    0.205  173.316   82.772
  540.260   28.767    0.408    0.211  173.255   87.666
  540.510   29.000    0.409    0.207  173.201   90.404
  540.760   28.960    0.394    0.146  173.133   89.752
  541.010   27.899    0.387    0.136  173.044   90.336
  541.260   26.156    0.394    0.160  173.024   94.614
  541.510   23.649    0.408    0.187  172.962  104.125
  541.760   20.067    0.417    0.187  172.908  102.549
  542.010   17.496    0.415    0.172  172.854  101.901
  542.260   15.819    0.412    0.167  172.806  103.092
  542.510   14.171    0.416    0.163  172.745  100.594
  542.760   13.287    0.440    0.174  173.211   97.491
  543.010   12.456    0.441    0.193  173.157   94.988
  543.260   11.782    0.450    0.203  173.096   94.960
  543.510   11.782    0.455    0.189  174.077   94.620
  543.760   11.336    0.452    0.182  174.023   97.046
  544.010   10.531    0.436    0.170  174.489   96.087
  544.260   10.330    0.429    0.164  174.435   98.517
  544.510   10.133    0.429    0.170  174.381  100.028
  544.760   10.030    0.435    0.169  174.834   97.529
  545.010    9.750    0.441    0.179  175.301   99.956
  545.260    9.750    0.449    0.185  175.761  100.848
  545.510    9.377    0.455    0.191  176.221   99.276
  545.760    8.872    0.462    0.187  175.652   99.860
  546.010    8.706    0.462    0.174  175.076  101.671
  546.260    8.612    0.446    0.184  174.494  101.023
  546.510    8.452    0.437    0.179  174.432   98.524
  546.760    8.289    0.442    0.170  174.378   97.872
  547.010    8.281    0.445    0.174  174.323   98.763
  547.260    8.192    0.430    0.178  174.276   99.963
  547.510    8.114    0.423    0.180  174.729  102.081
  547.760    8.029    0.422    0.169  175.717  101.745
  548.010    8.029    0.427    0.140  176.698  100.786
