~VERSION INFORMATION
 VERS.                 2.0:   CWLS LOG ASCII STANDARD -VERSION 2.0
 WRAP.                  NO:   ONE LINE PER DEPTH STEP
~WELL INFORMATION BLOCK
#MNEM.UNIT           DATA                    DESCRIPTION OF MNEMONIC
#---------    -------------------            -------------------------------
# Generated from Intellog Unique Number	CW_79_81/WELL/3692
WELL.         GULF CANADA RESOURCES LTD.     : Well_name    - WELL
LOC .         00/06-14-079-03W5/0            : Location     - LOCATION
UWI .         00/06-14-079-03W5/0            : Uwi          - UNIQUE WELL ID
ENTR.         JOETTE                         : Entered      - ENTERED BY
SRVC.         SCHLUMBERGER                   : Scn          - SERVICE COMPANY
DATE.         08-26-92                       : Date         - LOG DATE
STRT.M        345                            : top_depth    - START DEPTH
STOP.M        535                            : bot_depth    - STOP DEPTH
STEP.M        0.25                           : increment    - STEP LENGTH
 NULL. -999.2500:NULL Value
~CURVE INFORMATION BLOCK
#MNEM UNIT       ERCB CURVE CODE    CURVE DESCRIPTION
#-----------   ------------------   ----------------------------------
DEPT.M        00 001 00 00         : DEPTH        - DEPTH
ILD .OHMM     00 120 00 00         : RESD         - DEEP RESISTIVITY (DIL)
DPHI.V/V      00 890 00 00         : PHID         - DENSITY POROSITY (SANDSTONE)
NPHI.V/V      00 330 00 00         : PHIN         - NEUTRON POROSITY (SANDSTONE)
GR  .API      00 310 00 00         : GR           - GAMMA RAY
~PARAMETER INFORMATION
#MNEM.UNIT           DATA             DESCRIPTION OF MNEMONIC
#---------         -----------     ------------------------------
GL  .M        645.2                : gl           - GROUND LEVEL ELEVATION
EREF.M        648.9                : kb           - ELEVATION OF DEPTH REFERENCE
DATM.M        648.9                : datum        - DATUM ELEVATION
TDD .M        620                  : tdd          - TOTAL DEPTH DRILLER
RUN .         ONE                  : Run          - RUN NUMBER
ENG .         BILL                 : Engineer     - RECORDING ENGINEER
WIT .         JIM                  : Witness      - WITNESSED BY
MUD .         GEL                  : Mud_type     - MUD TYPE
MATR.         SANDSTONE            : Logunit      - NEUTRON MATRIX
TMAX.C        23                   : BHT          - MAXIMUM RECORDED TEMPERATURE
BHTD.M        620                  : BHTDEP       - MAXIMUM RECORDED TEMPERATURE
MATR.         1                    : LOGUNIT      - NEUTRON MATRIX
RMT .C        17                   : MDTP         - TEMPERATURE OF MUD
NEUT.         1                    : NEUTRON      - NEUTRON TYPE
RESI.         0                    : RESIST       - RESISTIVITY TYPE
RMC .OHMM     2.02                 : RMC          - RESISTIVITY OF MUD CAKE
RMF .OHMM     2.02                 : RMF          - RESISTIVITY OF MUD FILTRATE
SUFT.C        5                    : SUFT         - SURFACE TEMPERATURE
~A  DEPTH     RESD     PHID     PHIN       GR
# ...
  432.000    9.476    0.442    0.592   63.115
  432.250    8.328    0.453    0.588   66.710
  432.500    7.881    0.453    0.582   71.510
  432.750    7.888    0.451    0.574   74.509
  433.000    7.890    0.446    0.571   75.132
  433.250    8.041    0.445    0.577   73.968
  433.500    8.047    0.440    0.587   74.591
  433.750    8.049    0.443    0.586   76.405
  434.000    7.761    0.451    0.579   73.454
  434.250    7.211    0.458    0.583   75.282
  434.500    6.699    0.453    0.605   76.487
  434.750    6.340    0.450    0.602   78.301
  435.000    6.113    0.448    0.589   80.116
  435.250    6.005    0.441    0.577   86.703
  435.500    6.007    0.430    0.566   87.921
  435.750    6.123    0.399    0.572   83.183
  436.000    6.240    0.362    0.589   80.224
  436.250    6.479    0.372    0.597   79.663
  436.500    6.727    0.378    0.592   83.860
  436.750    6.855    0.376    0.590   83.291
  437.000    6.986    0.370    0.578   85.708
  437.250    7.121    0.365    0.562   87.516
  437.500    7.124    0.362    0.569   81.586
  437.750    6.997    0.356    0.558   78.032
  438.000    6.381    0.349    0.539   81.044
  438.250    5.306    0.343    0.539   85.249
  438.500    4.930    0.349    0.554   87.666
  438.750    4.753    0.355    0.554   90.665
  439.000    4.668    0.361    0.558   92.479
  439.250    4.670    0.363    0.567   91.322
  439.500    4.760    0.360    0.573   91.335
  439.750    4.852    0.356    0.558   91.362
  440.000    5.037    0.355    0.553   91.390
  440.250    5.428    0.355    0.589   92.608
  440.500    5.635    0.357    0.586   92.635
  440.750    5.849    0.354    0.577   92.067
  441.000    6.074    0.354    0.566   89.115
  441.250    6.190    0.368    0.562   87.356
  441.500    6.428    0.381    0.563   83.219
  441.750    6.429    0.378    0.569   85.034
  442.000    6.433    0.381    0.562   86.246
  442.250    6.203    0.379    0.547   81.514
  442.500    6.205    0.374    0.565   80.938
  442.750    6.208    0.372    0.558   82.753
  443.000    6.211    0.372    0.551   87.546
  443.250    6.330    0.375    0.553   87.580
  443.500    6.573    0.372    0.546   89.983
  443.750    6.698    0.365    0.545   93.585
  444.000    6.829    0.368    0.561   90.633
  444.250    6.959    0.367    0.594   87.689
  444.500    7.092    0.363    0.600   85.929
  444.750    7.096    0.358    0.596   86.558
  445.000    7.099    0.370    0.601   86.579
  445.250    7.103    0.377    0.606   87.202
  445.500    7.106    0.383    0.602   85.435
  445.750    7.245    0.392    0.593   80.696
  446.000    7.246    0.398    0.589   74.170
  446.250    7.523    0.393    0.585   67.049
  446.500    7.958    0.402    0.593   62.899
  446.750    8.113    0.419    0.600   62.330
  447.000    8.267    0.471    0.598   61.775
  447.250    8.118    0.431    0.552   61.193
  447.500    7.827    0.425    0.525   59.440
  447.750    7.831    0.407    0.510   64.226
  448.000    8.756    0.365    0.522   73.792
  448.250    9.432    0.356    0.542   72.032
  448.500    9.613    0.347    0.541   63.719
  448.750    9.442    0.314    0.377   58.980
  449.000    8.611    0.247    0.408   62.582
  449.250    7.710    0.227    0.489   69.162
  449.500    7.033    0.309    0.512   77.530
  449.750    6.535    0.356    0.549   80.536
  450.000    6.417    0.386    0.566   75.208
  450.250    6.187    0.392    0.591   73.448
  450.500    6.191    0.392    0.601   75.851
  450.750    6.193    0.393    0.572   80.644
  451.000    6.196    0.398    0.562   81.274
  451.250    6.196    0.396    0.554   78.918
  451.500    6.556    0.390    0.558   77.158
  451.750    6.207    0.383    0.564   77.788
  452.000    6.686    0.376    0.570   81.383
  452.250    6.690    0.367    0.579   84.984
  452.500    6.692    0.370    0.573   83.820
  452.750    6.697    0.370    0.568   82.649
  453.000    6.699    0.369    0.568   83.279
  453.250    6.702    0.379    0.570   86.874
  453.500    6.706    0.381    0.576   84.518
  453.750    6.710    0.377    0.589   80.984
  454.000    6.712    0.374    0.581   82.189
  454.250    6.715    0.374    0.570   84.606
  454.500    6.844    0.380    0.564   84.031
  454.750    6.976    0.397    0.570   80.484
  455.000    7.110    0.385    0.576   76.348
  455.250    7.113    0.368    0.564   79.942
  455.500    6.987    0.372    0.549   79.374
  455.750    6.862    0.384    0.547   80.593
  456.000    6.994    0.399    0.580   82.407
  456.250    7.264    0.405    0.580   78.860
  456.500    7.402    0.390    0.570   78.887
  456.750    7.684    0.382    0.551   84.276
  457.000    7.831    0.379    0.547   85.494
  457.250    8.284    0.385    0.539   76.585
  457.500    8.442    0.394    0.539   70.655
  457.750    8.446    0.401    0.591   67.704
  458.000    8.607    0.406    0.590   68.327
  458.250    8.612    0.415    0.576   68.957
  458.500    8.304    0.449    0.564   71.367
  458.750    8.006    0.452    0.559   71.983
  459.000    7.719    0.434    0.594   72.612
  459.250    7.722    0.434    0.567   72.044
  459.500    7.726    0.442    0.561   70.880
  459.750    7.875    0.456    0.573   69.715
  460.000    8.175    0.424    0.590   67.353
  460.250    8.489    0.417    0.591   67.380
  460.500    8.650    0.416    0.583   69.195
  460.750    8.817    0.428    0.574   66.250
  461.000    8.822    0.419    0.563   68.064
  461.250    8.665    0.412    0.540   65.708
  461.500    8.200    0.408    0.518   63.353
  461.750    8.053    0.402    0.531   65.763
  462.000    7.622    0.405    0.545   68.769
  462.250    7.348    0.410    0.568   70.583
  462.500    7.086    0.407    0.591   70.603
  462.750    6.960    0.403    0.598   73.609
  463.000    7.226    0.409    0.562   76.020
  463.250    7.096    0.417    0.557   80.813
  463.500    7.100    0.420    0.571   80.244
  463.750    7.103    0.421    0.577   76.697
  464.000    7.107    0.421    0.572   74.348
  464.250    7.111    0.421    0.575   74.971
  464.500    7.114    0.421    0.588   75.587
  464.750    7.118    0.423    0.600   80.387
  465.000    7.254    0.425    0.608   85.173
  465.250    7.393    0.428    0.613   88.775
  465.500    7.819    0.424    0.598   82.845
  465.750    8.269    0.422    0.572   74.531
  466.000    8.747    0.429    0.559   74.566
  466.250    9.081    0.437    0.598   72.805
  466.500    9.255    0.408    0.605   72.826
  466.750    8.600    0.402    0.574   72.853
  467.000    8.291    0.395    0.546   70.497
  467.250    7.703    0.276    0.495   63.971
  467.500    7.428    0.240    0.424   62.211
  467.750    7.431    0.293    0.491   69.388
  468.000    7.573    0.378    0.521   75.968
  468.250    7.862    0.391    0.552   73.016
  468.500    8.956    0.405    0.575   70.660
  468.750    9.129    0.417    0.593   67.709
  469.000    8.964    0.340    0.561   67.743
  469.250    8.642    0.278    0.537   64.189
  469.500    8.029    0.206    0.498   63.025
  469.750    7.460    0.266    0.409   67.222
  470.000    6.932    0.406    0.481   71.426
  470.250    6.322    0.422    0.567   73.836
  470.500    5.985    0.432    0.573   74.453
  470.750    5.768    0.438    0.574   74.480
  471.000    5.666    0.434    0.575   76.294
  471.250    5.564    0.405    0.578   82.874
  471.500    5.568    0.394    0.576   84.703
  471.750    5.571    0.400    0.569   82.942
  472.000    5.573    0.403    0.580   81.169
  472.250    5.576    0.410    0.591   78.217
  472.500    5.580    0.414    0.598   74.677
  472.750    5.581    0.407    0.565   75.889
  473.000    5.690    0.398    0.550   78.901
  473.250    5.691    0.399    0.556   82.510
  473.500    5.695    0.396    0.564   81.941
  473.750    5.698    0.393    0.558   78.983
  474.000    5.699    0.404    0.559   76.627
  474.250    5.702    0.399    0.577   77.846
  474.500    5.812    0.385    0.570   79.072
  474.750    5.924    0.369    0.561   78.489
  475.000    5.927    0.363    0.562   76.140
  475.250    5.930    0.354    0.578   76.763
