~VERSION INFORMATION
 VERS.                 2.0:   CWLS LOG ASCII STANDARD -VERSION 2.0
 WRAP.                  NO:   ONE LINE PER DEPTH STEP
~WELL INFORMATION BLOCK
#MNEM.UNIT           DATA                    DESCRIPTION OF MNEMONIC
#---------    -------------------            -------------------------------
# Generated from Intellog Unique Number	CS_69_70/WELL/641
NULL.         -999.25                        : NULL_VALUE
WELL.         CHIEFCO TWEEDIE                : Well_name    - WELL              
LOC .         00/05-22-070-13W4/0            : Location     - LOCATION          
UWI .         00/05-22-070-13W4/0            : Uwi          - UNIQUE WELL ID    
ENTR.         SP                             : Entered      - ENTERED BY        
SRVC.         SCHLUMBERGER                   : Scn          - SERVICE COMPANY   
STRT.M        260                            : top_depth    - START DEPTH       
STOP.M        492                            : bot_depth    - STOP DEPTH        
STEP.M        0.25                           : increment    - STEP LENGTH       
~CURVE INFORMATION BLOCK
#MNEM UNIT       ERCB CURVE CODE    CURVE DESCRIPTION
#-----------   ------------------   ----------------------------------
DEPT.M        00 001 00 00         : DEPTH        - DEPTH                       
ILD .OHMM     00 120 00 00         : RESD         - DEEP RESISTIVITY (DIL)      
DPHI.V/V      00 890 00 00         : PHID         - DENSITY POROSITY (LIMESTONE)
NPHI.V/V      00 330 00 00         : PHIN         - NEUTRON POROSITY (LIMESTONE)
GR  .API      00 310 00 00         : GR           - GAMMA RAY                   
~PARAMETER INFORMATION       
#MNEM.UNIT           DATA             DESCRIPTION OF MNEMONIC
#---------         -----------     ------------------------------
GL  .M        581.6                : gl           - GROUND LEVEL ELEVATION      
EREF.M        584.7                : kb           - ELEVATION OF DEPTH REFERENCE
DATM.M        581.6                : datum        - DATUM ELEVATION             
TDD .M        493                  : tdd          - TOTAL DEPTH DRILLER         
RUN .         ONE                  : Run          - RUN NUMBER                  
ENG .         BILL                 : Engineer     - RECORDING ENGINEER          
WIT .         JIM                  : Witness      - WITNESSED BY                
MUD .         GEL                  : Mud_type     - MUD TYPE                    
MATR.         LIMESTONE            : Logunit      - NEUTRON MATRIX              
TMAX.C        33                   : BHT          - MAXIMUM RECORDED TEMPERATURE
BHTD.M        493                  : BHTDEP       - MAXIMUM RECORDED TEMPERATURE
MATR.         1                    : LOGUNIT      - NEUTRON MATRIX              
RMT .C        25                   : MDTP         - TEMPERATURE OF MUD          
NEUT.         1                    : NEUTRON      - NEUTRON TYPE                
RESI.         0                    : RESIST       - RESISTIVITY TYPE            
RMC .OHMM     0.25                 : RMC          - RESISTIVITY OF MUD CAKE     
RMF .OHMM     0.25                 : RMF          - RESISTIVITY OF MUD FILTRATE 
SUFT.C        15                   : SUFT         - SURFACE TEMPERATURE         
~A  DEPTH     RESD     PHID     PHIN       GR
# ...
  347.000    5.805    0.310    0.427   57.372
  347.250    5.798    0.304    0.416   58.468
  347.500    5.769    0.300    0.423   61.518
  347.750    5.740    0.305    0.435   63.408
  348.000    5.733    0.314    0.429   64.260
  348.250    5.768    0.321    0.422   59.370
  348.500    5.893    0.328    0.430   55.213
  348.750    6.178    0.335    0.439   59.912
  349.000    6.403    0.326    0.433   64.490
  349.250    6.814    0.308    0.420   70.043
  349.500    7.024    0.301    0.424   72.055
  349.750    7.200    0.299    0.420   71.868
  350.000    7.218    0.294    0.446   70.400
  350.250    6.983    0.290    0.460   69.602
  350.500    6.284    0.292    0.450   72.163
  350.750    6.034    0.298    0.433   76.557
  351.000    5.688    0.299    0.422   80.401
  351.250    5.341    0.282    0.416   83.146
  351.500    4.952    0.276    0.414   83.753
  351.750    4.556    0.278    0.417   85.398
  352.000    4.318    0.283    0.413   87.655
  352.250    4.170    0.265    0.423   91.315
  352.500    4.228    0.254    0.432   92.656
  352.750    4.326    0.253    0.432   91.309
  353.000    4.595    0.269    0.409   88.923
  353.250    4.972    0.259    0.417   94.111
  353.500    5.400    0.261    0.463   94.413
  353.750    5.811    0.273    0.493   84.148
  354.000    6.149    0.298    0.512   75.167
  354.250    6.422    0.327    0.470   71.193
  354.500    6.474    0.328    0.446   73.755
  354.750    6.724    0.331    0.445   73.934
  355.000    7.372    0.336    0.446   68.800
  355.250    8.467    0.343    0.476   64.521
  355.500   11.807    0.224    0.507   65.006
  355.750   18.586    0.148    0.390   61.216
  356.000   27.561    0.058    0.278   51.623
  356.250   42.347    0.001    0.158   48.077
  356.500   76.380   -0.015    0.131   46.669
  356.750  107.505   -0.020    0.123   45.200
  357.000  129.380   -0.021    0.116   43.913
  357.250   50.203   -0.016    0.112   45.193
  357.500   25.105    0.018    0.113   53.190
  357.750   15.497    0.150    0.119   61.737
  358.000   10.098    0.228    0.398   71.688
  358.250    7.812    0.266    0.441   79.502
  358.500    6.873    0.311    0.459   82.797
  358.750    6.407    0.318    0.462   81.205
  359.000    6.164    0.320    0.450   77.536
  359.250    6.088    0.321    0.439   75.945
  359.500    6.125    0.317    0.437   74.476
  359.750    6.141    0.313    0.449   74.594
  360.000    6.168    0.311    0.443   75.201
  360.250    6.278    0.313    0.436   75.870
  360.500    6.279    0.319    0.454   75.987
  360.750    6.401    0.314    0.461   75.374
  361.000    6.489    0.306    0.472   74.393
  361.250    6.615    0.302    0.465   75.123
  361.500    6.759    0.302    0.464   76.829
  361.750    6.773    0.295    0.469   79.941
  362.000    6.789    0.285    0.450   82.135
  362.250    6.870    0.274    0.424   83.292
  362.500    6.951    0.271    0.427   82.066
  362.750    7.007    0.270    0.439   79.559
  363.000    7.104    0.267    0.422   80.716
  363.250    7.121    0.249    0.424   83.216
  363.500    7.192    0.240    0.434   85.350
  363.750    7.196    0.250    0.439   85.774
  364.000    7.160    0.251    0.426   84.183
  364.250    7.098    0.227    0.415   83.569
  364.500    6.998    0.217    0.424   85.519
  364.750    6.950    0.212    0.424   87.469
  365.000    6.953    0.215    0.436   88.322
  365.250    6.906    0.235    0.452   88.257
  365.500    6.871    0.254    0.456   83.368
  365.750    6.837    0.267    0.444   78.783
  366.000    6.816    0.275    0.428   77.986
  366.250    6.794    0.263    0.435   81.646
  366.500    6.773    0.247    0.454   85.246
  366.750    6.764    0.238    0.463   88.174
  367.000    6.718    0.232    0.449   89.697
  367.250    6.622    0.223    0.451   89.755
  367.500    6.504    0.213    0.444   88.346
  367.750    6.064    0.207    0.439   85.899
  368.000    5.748    0.204    0.448   85.285
  368.250    5.581    0.206    0.463   85.526
  368.500    5.512    0.240    0.462   85.644
  368.750    5.547    0.244    0.455   86.433
  369.000    5.602    0.238    0.468   87.103
  369.250    5.647    0.232    0.477   88.382
  369.500    5.703    0.231    0.473   89.112
  369.750    5.739    0.230    0.478   85.871
  370.000    5.742    0.232    0.478   84.341
  370.250    5.756    0.235    0.469   85.863
  370.500    5.759    0.231    0.459   87.020
  370.750    5.742    0.232    0.456   87.993
  371.000    5.757    0.227    0.452   88.600
  371.250    5.780    0.219    0.450   88.903
  371.500    5.903    0.230    0.452   88.900
  371.750    6.018    0.229    0.460   88.774
  372.000    6.123    0.231    0.465   87.853
  372.250    6.254    0.253    0.466   85.469
  372.500    6.305    0.267    0.463   82.472
  372.750    6.285    0.274    0.451   80.026
  373.000    6.242    0.257    0.441   82.648
  373.250    6.211    0.242    0.434   85.332
  373.500    6.523    0.232    0.432   87.404
  373.750    6.528    0.237    0.437   89.294
  374.000    6.339    0.237    0.444   90.573
  374.250    5.090    0.233    0.446   91.058
  374.500    4.011    0.225    0.450   90.871
  374.750    2.990    0.220    0.464   91.111
  375.000    2.487    0.214    0.456   91.841
  375.250    2.424    0.214    0.443   93.241
  375.500    2.907    0.217    0.444   94.216
  375.750    3.472    0.222    0.454   93.602
  376.000    4.004    0.232    0.448   90.728
  376.250    4.497    0.236    0.433   87.304
  376.500    3.550    0.244    0.441   94.568
  376.750    2.583    0.250    0.477  102.016
  377.000    2.117    0.254    0.522  108.486
  377.250    1.890    0.256    0.556  107.261
  377.500    1.769    0.259    0.562  104.325
  377.750    1.718    0.263    0.551  102.978
  378.000    1.831    0.265    0.554  101.997
  378.250    2.344    0.262    0.560  100.406
  378.500    2.842    0.256    0.522   98.631
  378.750    3.530    0.249    0.482   94.719
  379.000    3.913    0.247    0.463   91.234
  379.250    4.845    0.256    0.451   87.077
  379.500    5.096    0.266    0.439   86.585
  379.750    5.463    0.262    0.431   88.352
  380.000    5.559    0.249    0.440   89.082
  380.250    5.511    0.237    0.442   90.055
  380.500    5.303    0.233    0.438   91.395
  380.750    5.315    0.244    0.437   92.308
  381.000    5.462    0.259    0.442   89.250
  381.250    5.504    0.280    0.461   84.360
  381.500    5.611    0.286    0.463   77.944
  381.750    5.851    0.273    0.452   79.162
  382.000    5.963    0.262    0.453   80.990
  382.250    6.055    0.278    0.462   80.926
  382.500    6.231    0.298    0.470   77.258
  382.750    6.507    0.308    0.466   72.674
  383.000    6.860    0.309    0.457   67.784
  383.250    7.166    0.310    0.451   64.299
  383.500    7.143    0.322    0.454   64.479
  383.750    6.784    0.330    0.462   64.292
  384.000    6.600    0.332    0.471   62.577
  384.250    6.210    0.329    0.430   60.314
  384.500    5.832    0.325    0.400   59.455
  384.750    5.437    0.323    0.387   58.597
  385.000    5.153    0.329    0.396   55.540
  385.250    4.858    0.340    0.407   54.681
  385.500    4.639    0.346    0.409   57.364
  385.750    4.448    0.346    0.413   60.415
  386.000    4.384    0.346    0.435   63.037
  386.250    4.321    0.344    0.453   63.584
  386.500    4.316    0.336    0.455   67.062
  386.750    4.359    0.326    0.433   73.898
  387.000    4.419    0.292    0.420   78.353
  387.250    4.496    0.269    0.419   83.846
  387.500    4.532    0.257    0.426   86.469
  387.750    4.734    0.259    0.430   85.977
  388.000    5.154    0.263    0.425   82.859
  388.250    5.222    0.266    0.444   80.839
  388.500    6.860    0.263    0.462   79.981
  388.750    7.968    0.259    0.460   70.205
  389.000    9.991    0.136    0.250   56.948
  389.250   12.181   -0.010    0.181   46.317
  389.500   14.742   -0.006    0.179   52.176
  389.750   14.532    0.135    0.249   59.197
  390.000    8.188    0.152    0.324   66.644
  390.250    6.477    0.161    0.352   71.588
