~VERSION INFORMATION
 VERS.                 2.0:   CWLS LOG ASCII STANDARD -VERSION 2.0
 WRAP.                  NO:   ONE LINE PER DEPTH STEP
~WELL INFORMATION BLOCK
#MNEM.UNIT           DATA                    DESCRIPTION OF MNEMONIC
#---------    -------------------            -------------------------------
# Generated from Intellog Unique Number	CW_73_75/WELL/2729
WELL.         MANNVILLE ET AL MITSUE 07-20   : Well_name    - WELL
LOC .         00/07-20-073-02W5/0            : Location     - LOCATION
UWI .         00/07-20-073-02W5/0            : Uwi          - UNIQUE WELL ID
ENTR.         JAYE                           : Entered      - ENTERED BY
SRVC.         SCHLUMBERGER                   : Scn          - SERVICE COMPANY
DATE.         21 MAR 78                      : Date         - LOG DATE
STRT.M        393.192                        : top_depth    - START DEPTH
STOP.M        603.442                        : bot_depth    - STOP DEPTH
STEP.M        0.25                           : increment    - STEP LENGTH
 NULL. -999.2500:NULL Value
~CURVE INFORMATION BLOCK
#MNEM UNIT       ERCB CURVE CODE    CURVE DESCRIPTION
#-----------   ------------------   ----------------------------------
DEPT.M        00 001 00 00         : DEPTH        - DEPTH
DPHI.V/V      00 890 00 00         : PHID         - DENSITY POROSITY (SANDSTONE)
NPHI.V/V      00 330 00 00         : PHIN         - NEUTRON POROSITY (SANDSTONE)
GR  .API      00 310 00 00         : GR           - GAMMA RAY
CALI.MM       00 280 01 00         : CAL          - CALIPER
ILD .OHMM     00 120 00 00         : RESD         - DEEP RESISTIVITY (DIL)
~PARAMETER INFORMATION
#MNEM.UNIT           DATA             DESCRIPTION OF MNEMONIC
#---------         -----------     ------------------------------
GL  .M        627.583              : gl           - GROUND LEVEL ELEVATION
EREF.M        630.631              : kb           - ELEVATION OF DEPTH REFERENCE
DATM.M        627.583              : datum        - DATUM ELEVATION
TDD .M        606.552              : tdd          - TOTAL DEPTH DRILLER
RUN .         ONE                  : Run          - RUN NUMBER
ENG .         DEROCHIE             : Engineer     - RECORDING ENGINEER
WIT .         RILEY                : Witness      - WITNESSED BY
MUD .         GEL GELEX            : Mud_type     - MUD TYPE
MATR.         SANDSTONE            : Logunit      - NEUTRON MATRIX
TMAX.C        17.2222              : BHT          - MAXIMUM RECORDED TEMPERATURE
BHTD.M        607.466              : BHTDEP       - MAXIMUM RECORDED TEMPERATURE
RMT .C        16.1111              : MDTP         - TEMPERATURE OF MUD
MUDD.KG/M     1188                 : MWT          - MUD DENSITY
NEUT.         1                    : NEUTRON      - NEUTRON TYPE
RESI.         0                    : RESIST       - RESISTIVITY TYPE
RM  .OHMM     4.53                 : RM           - RESISTIVITY OF MUD
RMC .OHMM     0                    : RMC          - RESISTIVITY OF MUD CAKE
RMF .OHMM     0                    : RMF          - RESISTIVITY OF MUD FILTRATE
SUFT.C        -17.7778             : SUFT         - SURFACE TEMPERATURE
~A  DEPTH     PHID     PHIN       GR      CAL     RESD
# ...
  466.192    0.242    0.423   84.014  164.551    4.403
  466.442    0.254    0.432   77.886  164.904    4.405
  466.692    0.264    0.440   78.594  164.931    4.234
  466.942    0.265    0.457   80.431  164.751    4.024
  467.192    0.271    0.446   82.900  164.783    3.868
  467.442    0.261    0.430   84.544  164.916    3.848
  467.692    0.249    0.442   94.156  164.631    3.909
  467.942    0.228    0.445   93.171  164.664    3.994
  468.192    0.238    0.450   90.430  164.371    4.128
  468.442    0.234    0.460   91.199  163.022    4.233
  468.692    0.223    0.462   92.597  162.838    4.376
  468.942    0.208    0.440   94.309  162.763    4.505
  469.192    0.220    0.425   97.276  163.115    4.567
  469.442    0.209    0.422  100.994  163.145    4.657
  469.692    0.187    0.435  105.150  162.859    4.723
  469.942    0.162    0.450  106.798  162.883    4.743
  470.192    0.143    0.456  108.071  162.704    4.727
  470.442    0.163    0.444  110.472  161.991    4.756
  470.692    0.171    0.428  109.863  161.175    4.759
  470.942    0.162    0.424  112.953  160.880    4.789
  471.192    0.170    0.426  108.519  160.911    4.810
  471.442    0.173    0.436  104.711  162.642    4.867
  471.692    0.166    0.441  101.845  165.966    4.907
  471.942    0.161    0.434  101.235  168.546    4.966
  472.192    0.176    0.429  100.751  170.803    5.006
  472.442    0.181    0.434   99.201  170.622    4.990
  472.692    0.171    0.443   97.652  167.680    4.815
  472.942    0.179    0.456   96.354  164.310    4.498
  473.192    0.198    0.464   95.429  162.645    4.282
  473.442    0.212    0.467   93.882  162.037    4.132
  473.692    0.225    0.459   92.768  161.536    4.048
  473.942    0.243    0.452   91.910  161.143    3.981
  474.192    0.236    0.450   89.230  160.965    3.923
  474.442    0.237    0.453   84.669  160.673    3.903
  474.692    0.246    0.463   79.482  160.383    3.957
  474.942    0.270    0.463   72.726  159.880    4.028
  475.192    0.299    0.450   66.034  159.380    4.116
  475.442    0.291    0.441   65.489  158.775    4.221
  475.692    0.294    0.452   67.137  158.697    4.329
  475.942    0.281    0.458   71.857  158.521    4.448
  476.192    0.284    0.446   74.572  158.334    4.519
  476.442    0.283    0.446   74.716  158.050    4.286
  476.692    0.280    0.456   72.099  158.187    3.876
  476.942    0.276    0.462   68.606  158.537    3.635
  477.192    0.271    0.465   66.743  158.883    3.474
  477.442    0.277    0.466   67.325  159.441    3.339
  477.692    0.288    0.464   68.534  159.896    3.297
  477.942    0.299    0.462   68.803  160.250    3.267
  478.192    0.285    0.459   68.256  160.276    3.219
  478.442    0.292    0.452   69.153  160.306    3.202
  478.692    0.284    0.440   68.982  160.342    3.192
  478.942    0.277    0.426   68.625  160.582    3.199
  479.192    0.264    0.435   69.522  160.715    3.238
  479.442    0.253    0.455   70.291  160.430    3.302
  479.692    0.240    0.476   72.002  160.040    3.380
  479.942    0.257    0.478   74.904  159.745    3.447
  480.192    0.244    0.464   77.368  159.035    3.502
  480.442    0.224    0.436   79.707  158.426    3.557
  480.692    0.119    0.338   85.683  158.670    3.776
  480.942    0.082    0.302   93.539  161.037    4.069
  481.192    0.095    0.356  100.770  164.569    4.591
  481.442    0.172    0.407   95.520  163.650    5.062
  481.692    0.212    0.440   87.511  161.448    5.302
  481.942    0.261    0.459   78.434  160.733    5.010
  482.192    0.268    0.463   76.131  160.552    4.403
  482.442    0.262    0.438   76.463  160.372    3.892
  482.692    0.249    0.441   77.297  160.397    3.587
  482.942    0.232    0.468   78.006  160.327    3.396
  483.192    0.218    0.492   80.029  160.361    3.353
  483.442    0.256    0.478   84.750  160.598    3.354
  483.692    0.277    0.462   85.271  160.525    3.382
  483.942    0.285    0.449   81.341  160.551    3.409
  484.192    0.264    0.429   77.845  160.266    3.430
  484.442    0.266    0.436   73.409  159.978    3.458
  484.692    0.281    0.443   68.786  159.692    3.480
  484.942    0.291    0.440   66.612  159.085    3.495
  485.192    0.301    0.437   65.187  155.498    3.530
  485.442    0.280    0.434   64.449  153.085    3.593
  485.692    0.261    0.436   65.409  152.586    3.693
  485.942    0.253    0.443   68.061  153.043    3.787
  486.192    0.199    0.454   71.090  154.133    4.027
  486.442    0.163    0.435   75.309  155.758    4.415
  486.692    0.151    0.385   83.291  157.699    4.869
  486.942    0.174    0.418   92.403  158.899    5.298
  487.192    0.196    0.447   96.246  159.246    5.475
  487.442    0.214    0.462   99.840  155.667    5.446
  487.692    0.223    0.465   99.607  154.531    5.275
  487.942    0.234    0.458   99.688  155.197    4.890
  488.192    0.233    0.440  101.524  156.504    4.456
  488.442    0.202    0.435  104.866  157.275    4.211
  488.692    0.197    0.453  101.246  158.155    4.086
  488.942    0.193    0.468  102.144  158.931    4.120
  489.192    0.201    0.460  103.351  159.706    4.185
  489.442    0.194    0.459  105.190  160.268    4.284
  489.692    0.182    0.459  105.583  160.936    4.369
  489.942    0.178    0.457  104.910  161.706    4.421
  490.192    0.195    0.454  104.053  162.904    4.475
  490.442    0.212    0.447  103.630  163.998    4.502
  490.692    0.189    0.430  103.397  164.455    4.514
  490.942    0.174    0.448   99.840  165.015    4.533
  491.192    0.170    0.465   98.543  165.043    4.570
  491.442    0.176    0.468   99.124  165.182    4.607
  491.692    0.187    0.458  100.646  165.108    4.645
  491.942    0.183    0.448  104.554  164.922    4.701
  492.192    0.170    0.443  107.769  164.530    4.748
  492.442    0.178    0.441  104.902  163.602    4.796
  492.692    0.185    0.440  100.844  163.206    4.826
  492.942    0.183    0.442  100.234  163.773    4.810
  493.192    0.176    0.436  101.382  165.819    4.785
  493.442    0.171    0.441  102.466  167.335    4.778
  493.692    0.196    0.454  101.856  167.367    4.754
  493.942    0.206    0.448   95.727  166.445    4.720
  494.192    0.238    0.439   91.104  165.727    4.722
  494.442    0.259    0.423   91.374  164.800    4.689
  494.692    0.280    0.425   89.322  163.768    4.638
  494.942    0.271    0.440   83.194  162.949    4.518
  495.192    0.276    0.448   77.943  162.343    4.269
  495.442    0.288    0.443   73.258  161.843    4.049
  495.692    0.299    0.434   70.202  161.663    3.922
  495.942    0.287    0.441   70.911  161.269    3.961
  496.192    0.284    0.453   73.500  159.384    4.141
  496.442    0.302    0.459   76.216  153.362    4.480
  496.692    0.297    0.450   79.180  154.137    4.710
  496.942    0.289    0.432   81.706  156.824    4.980
  497.192    0.275    0.419   82.981  159.508    5.296
  497.442    0.245    0.409   85.317  161.875    5.558
  497.692    0.218    0.401   91.168  163.182    5.383
  497.942    0.194    0.404   95.702  163.104    5.164
  498.192    0.180    0.433   94.402  162.922    5.031
  498.442    0.181    0.445   91.661  162.849    4.976
  498.692    0.205    0.443   88.419  162.876    4.979
  498.942    0.232    0.452   89.565  163.117    4.953
  499.192    0.232    0.447   92.281  163.891    4.871
  499.442    0.208    0.439   95.558  164.240    4.773
  499.692    0.196    0.428   97.771  164.589    4.712
  499.942    0.202    0.428   96.032  164.727    4.687
  500.192    0.196    0.435   95.864  164.442    4.654
  500.442    0.205    0.450   94.501  163.834    4.656
  500.692    0.227    0.455   91.634  163.118    4.623
  500.942    0.253    0.454   86.509  162.301    4.547
  501.192    0.275    0.464   81.510  161.482    4.437
  501.442    0.295    0.462   76.511  160.770    4.225
  501.692    0.290    0.448   71.637  160.478    4.038
  501.942    0.296    0.441   67.203  159.660    3.934
  502.192    0.301    0.431   65.025  159.052    3.944
  502.442    0.289    0.419   64.103  158.665    4.114
