~VERSION INFORMATION
 VERS.                 2.0:   CWLS LOG ASCII STANDARD -VERSION 2.0
 WRAP.                  NO:   ONE LINE PER DEPTH STEP
~WELL INFORMATION BLOCK
#MNEM.UNIT           DATA                    DESCRIPTION OF MNEMONIC
#---------    -------------------            -------------------------------
# Generated from Intellog Unique Number	CS_73_76/WELL/2196
WELL.         PETROFINA CANADA LTD           : Well_name    - WELL
LOC .         00/07-17-076-11W4/0            : Location     - LOCATION
UWI .         00/07-17-076-11W4/0            : Uwi          - UNIQUE WELL ID
ENTR.         SP                             : Entered      - ENTERED BY
SRVC.         SCHLUMBERGER                   : Scn          - SERVICE COMPANY
STRT.M        274.32                         : top_depth    - START DEPTH
STOP.M        511.82                         : bot_depth    - STOP DEPTH
STEP.M        0.25                           : increment    - STEP LENGTH
 NULL. -999.2500:NULL Value
~CURVE INFORMATION BLOCK
#MNEM UNIT       ERCB CURVE CODE    CURVE DESCRIPTION
#-----------   ------------------   ----------------------------------
DEPT.M        00 001 00 00         : DEPTH        - DEPTH
GR  .API      00 310 00 00         : GR           - GAMMA RAY
DPHI.V/V      00 890 00 00         : PHID         - DENSITY POROSITY (SANDSTONE)
NPHI.V/V      00 330 00 00         : PHIN         - NEUTRON POROSITY (SANDSTONE)
ILD .OHMM     00 120 00 00         : RESD         - DEEP RESISTIVITY (DIL)
~PARAMETER INFORMATION
#MNEM.UNIT           DATA             DESCRIPTION OF MNEMONIC
#---------         -----------     ------------------------------
GL  .M        667.817              : gl           - GROUND LEVEL ELEVATION
EREF.M        671.17               : kb           - ELEVATION OF DEPTH REFERENCE
DATM.M        667.817              : datum        - DATUM ELEVATION
TDD .M        532.79               : tdd          - TOTAL DEPTH DRILLER
RUN .         ONE                  : Run          - RUN NUMBER
ENG .         BILL                 : Engineer     - RECORDING ENGINEER
WIT .         JIM                  : Witness      - WITNESSED BY
MUD .         GEL                  : Mud_type     - MUD TYPE
MATR.         SANDSTONE            : Logunit      - NEUTRON MATRIX
TMAX.C        8.88889              : BHT          - MAXIMUM RECORDED TEMPERATURE
BHTD.M        532.79               : BHTDEP       - MAXIMUM RECORDED TEMPERATURE
MATR.         1                    : LOGUNIT      - NEUTRON MATRIX
RMT .C        25                   : MDTP         - TEMPERATURE OF MUD
NEUT.         1                    : NEUTRON      - NEUTRON TYPE
RESI.         0                    : RESIST       - RESISTIVITY TYPE
RMC .OHMM     0.25                 : RMC          - RESISTIVITY OF MUD CAKE
RMF .OHMM     0.25                 : RMF          - RESISTIVITY OF MUD FILTRATE
SUFT.C        15                   : SUFT         - SURFACE TEMPERATURE
~A  DEPTH       GR     PHID     PHIN     RESD
# ...
  404.820   75.786    0.323    0.444    5.255
  405.070   75.704    0.326    0.434    5.315
  405.320   76.990    0.325    0.427    5.418
  405.570   78.034    0.337    0.431    5.529
  405.820   76.472    0.329    0.434    5.519
  406.070   74.498    0.312    0.430    5.517
  406.320   73.228    0.298    0.432    5.511
  406.570   71.630    0.296    0.434    5.413
  406.820   70.635    0.300    0.432    5.418
  407.070   70.324    0.298    0.430    5.418
  407.320   70.401    0.297    0.432    5.418
  407.570   69.753    0.293    0.438    5.418
  407.820   68.564    0.297    0.442    5.418
  408.070   68.533    0.304    0.445    5.419
  408.320   69.464    0.312    0.452    5.423
  408.570   70.402    0.321    0.465    5.328
  408.820   70.085    0.321    0.464    5.321
  409.070   69.807    0.317    0.451    5.319
  409.320   69.832    0.312    0.439    5.319
  409.570   70.280    0.313    0.432    5.316
  409.820   71.654    0.317    0.423    5.313
  410.070   72.564    0.314    0.434    5.215
  410.320   74.121    0.311    0.443    5.220
  410.570   75.960    0.307    0.450    5.221
  410.820   77.027    0.316    0.460    5.221
  411.070   77.180    0.324    0.452    5.220
  411.320   77.235    0.318    0.449    5.222
  411.570   76.323    0.323    0.445    5.277
  411.820   74.619    0.327    0.445    5.316
  412.070   73.661    0.334    0.447    5.321
  412.320   73.898    0.329    0.444    5.367
  412.570   74.190    0.323    0.445    5.417
  412.820   72.162    0.315    0.449    5.408
  413.070   70.776    0.303    0.429    5.522
  413.320   68.699    0.244    0.394    5.626
  413.570   67.140    0.182    0.356    5.624
  413.820   65.195    0.131    0.275    5.655
  414.070   62.112    0.113    0.253    5.730
  414.320   66.106    0.149    0.323    5.741
  414.570   68.601    0.217    0.381    5.612
  414.820   71.890    0.299    0.445    5.630
  415.070   70.287    0.316    0.468    5.521
  415.320   69.470    0.318    0.469    5.410
  415.570   70.645    0.331    0.478    5.420
  415.820   71.164    0.339    0.487    5.421
  416.070   72.556    0.342    0.486    5.425
  416.320   72.166    0.340    0.475    5.526
  416.570   70.197    0.342    0.469    5.521
  416.820   69.523    0.339    0.466    5.520
  417.070   71.252    0.333    0.460    5.509
  417.320   74.209    0.338    0.459    5.634
  417.570   75.672    0.329    0.464    5.623
  417.820   74.027    0.323    0.470    5.623
  418.070   73.158    0.327    0.474    5.623
  418.320   73.776    0.317    0.476    5.623
  418.570   73.583    0.319    0.470    5.623
  418.820   72.530    0.328    0.472    5.623
  419.070   70.454    0.318    0.472    5.623
  419.320   69.397    0.315    0.463    5.624
  419.570   68.403    0.320    0.454    5.624
  419.820   68.369    0.322    0.452    5.549
  420.070   69.083    0.311    0.456    5.523
  420.320   69.649    0.316    0.456    5.520
  420.570   70.631    0.320    0.459    5.532
  420.820   71.450    0.323    0.467    5.419
  421.070   70.401    0.332    0.479    5.237
  421.320   68.669    0.337    0.485    5.227
  421.570   68.540    0.339    0.495    5.225
  421.820   70.622    0.338    0.484    5.139
  422.070   72.642    0.338    0.477    5.128
  422.320   71.475    0.342    0.489    5.125
  422.570   70.874    0.346    0.515    5.125
  422.820   72.707    0.339    0.537    5.125
  423.070   74.691    0.328    0.489    5.125
  423.320   76.388    0.322    0.472    5.122
  423.570   76.533    0.329    0.467    5.099
  423.820   75.962    0.332    0.468    5.029
  424.070   75.327    0.328    0.470    5.030
  424.320   74.553    0.321    0.472    5.030
  424.570   74.062    0.322    0.474    5.030
  424.820   74.735    0.321    0.476    5.028
  425.070   75.394    0.324    0.477    5.020
  425.320   75.504    0.332    0.476    4.934
  425.570   72.956    0.342    0.478    4.937
  425.820   71.062    0.343    0.492    4.938
  426.070   70.120    0.347    0.502    4.937
  426.320   69.286    0.338    0.509    4.931
  426.570   69.317    0.332    0.515    5.030
  426.820   71.101    0.325    0.492    5.028
  427.070   70.395    0.318    0.457    5.025
  427.320   69.390    0.316    0.448    5.118
  427.570   69.313    0.318    0.452    5.122
  427.820   70.022    0.314    0.461    5.125
  428.070   70.482    0.319    0.467    5.125
  428.320   71.498    0.321    0.472    5.125
  428.570   72.485    0.316    0.458    5.125
  428.820   72.508    0.308    0.454    5.125
  429.070   71.587    0.308    0.450    5.127
  429.320   71.280    0.311    0.449    5.126
  429.570   70.806    0.312    0.445    5.228
  429.820   71.527    0.307    0.444    5.222
  430.070   72.469    0.302    0.445    5.221
  430.320   76.032    0.294    0.452    5.221
  430.570   81.854    0.284    0.456    5.221
  430.820   86.317    0.274    0.456    5.219
  431.070   87.885    0.273    0.459    5.170
  431.320   87.833    0.280    0.470    5.118
  431.570   87.778    0.280    0.473    5.365
  431.820   90.166    0.269    0.478    5.369
  432.070   92.886    0.262    0.494    5.321
  432.320   95.548    0.251    0.510    5.243
  432.570   98.757    0.243    0.506    5.193
  432.820   97.658    0.253    0.492    5.125
  433.070   94.321    0.257    0.480    5.065
  433.320   93.419    0.254    0.475    5.057
  433.570   95.662    0.250    0.468    5.123
  433.820   97.866    0.234    0.461    5.288
  434.070   96.961    0.226    0.459    5.330
  434.320   96.401    0.229    0.455    5.502
  434.570   98.364    0.225    0.448    5.622
  434.820   99.602    0.200    0.443    5.736
  435.070   98.746    0.191    0.434    5.728
  435.320   97.470    0.216    0.430    5.738
  435.570   99.004    0.235    0.426    5.622
  435.820  101.884    0.226    0.430    5.560
  436.070  103.947    0.210    0.432    5.380
  436.320  103.896    0.204    0.439    5.320
  436.570  104.566    0.205    0.447    5.202
  436.820  106.725    0.208    0.453    5.329
  437.070  106.583    0.211    0.448    5.312
  437.320  103.598    0.218    0.447    5.429
  437.570  101.562    0.224    0.451    5.422
  437.820  103.764    0.222    0.451    5.333
  438.070  104.604    0.211    0.453    5.285
  438.320  104.563    0.205    0.463    5.115
  438.570  103.549    0.214    0.467    4.735
  438.820  102.715    0.230    0.469    4.389
  439.070  102.790    0.236    0.473    4.026
  439.320  102.208    0.232    0.478    3.697
  439.570  101.528    0.233    0.481    3.332
  439.820  101.125    0.242    0.484    2.846
  440.070   97.808    0.253    0.499    2.631
  440.320   96.205    0.270    0.521    2.310
  440.570   98.439    0.280    0.547    2.018
  440.820   99.292    0.274    0.567    1.806
  441.070   98.519    0.263    0.561    1.743
  441.320   97.642    0.267    0.551    1.796
  441.570   94.950    0.270    0.550    1.858
  441.820   93.718    0.270    0.548    1.916
  442.070   91.940    0.264    0.558    1.941
  442.320   94.991    0.253    0.562    1.950
  442.570   99.225    0.246    0.569    1.952
  442.820  101.521    0.243    0.573    1.975
  443.070  103.199    0.239    0.579    1.992
  443.320  103.621    0.234    0.576    2.093
  443.570  102.890    0.234    0.565    2.223
  443.820  102.819    0.224    0.555    2.429
  444.070  101.779    0.200    0.543    2.781
  444.320  100.991    0.211    0.513    3.281
  444.570  103.249    0.219    0.460    3.691
  444.820  106.623    0.217    0.441    4.301
  445.070  105.072    0.185    0.453    4.766
  445.320  101.808    0.159    0.451    5.126
  445.570   98.816    0.136    0.439    5.282
  445.820   98.157    0.142    0.429    5.436
  446.070  101.179    0.207    0.431    5.236
  446.320  103.988    0.211    0.444    4.936
  446.570  104.453    0.224    0.456    4.545
  446.820  104.405    0.213    0.466    4.152
  447.070  105.530    0.210    0.470    3.731
  447.320  107.512    0.212    0.465    3.527
  447.570  108.987    0.201    0.480    3.536
  447.820  109.946    0.194    0.498    3.536
  448.070  109.233    0.203    0.501    3.536
