~VERSION INFORMATION
 VERS.                 2.0:   CWLS LOG ASCII STANDARD -VERSION 2.0
 WRAP.                  NO:   ONE LINE PER DEPTH STEP
~WELL INFORMATION BLOCK
#MNEM.UNIT           DATA                    DESCRIPTION OF MNEMONIC
#---------    -------------------            -------------------------------
# Generated from Intellog Unique Number	CS_73_76/WELL/2106
WELL.         ANDERSON EXPLORATION LTD.      : Well_name    - WELL
LOC .         00/07-10-075-11W4/0            : Location     - LOCATION
UWI .         00/07-10-075-11W4/0            : Uwi          - UNIQUE WELL ID
ENTR.         SP                             : Entered      - ENTERED BY
SRVC.         SCHLUMBERGER                   : Scn          - SERVICE COMPANY
STRT.M        270                            : top_depth    - START DEPTH
STOP.M        500                            : bot_depth    - STOP DEPTH
STEP.M        0.25                           : increment    - STEP LENGTH
 NULL. -999.2500:NULL Value
~CURVE INFORMATION BLOCK
#MNEM UNIT       ERCB CURVE CODE    CURVE DESCRIPTION
#-----------   ------------------   ----------------------------------
DEPT.M        00 001 00 00         : DEPTH        - DEPTH
ILD .OHMM     00 120 00 00         : RESD         - DEEP RESISTIVITY (DIL)
DPHI.V/V      00 890 00 00         : PHID         - DENSITY POROSITY (LIMESTONE)
GR  .API      00 310 00 00         : GR           - GAMMA RAY
NPHI.V/V      00 330 00 00         : PHIN         - NEUTRON POROSITY (LIMESTONE)
~PARAMETER INFORMATION
#MNEM.UNIT           DATA             DESCRIPTION OF MNEMONIC
#---------         -----------     ------------------------------
GL  .M        649                  : gl           - GROUND LEVEL ELEVATION
EREF.M        652.5                : kb           - ELEVATION OF DEPTH REFERENCE
DATM.M        649                  : datum        - DATUM ELEVATION
TDD .M        505                  : tdd          - TOTAL DEPTH DRILLER
RUN .         ONE                  : Run          - RUN NUMBER
ENG .         BILL                 : Engineer     - RECORDING ENGINEER
WIT .         JIM                  : Witness      - WITNESSED BY
MUD .         GEL                  : Mud_type     - MUD TYPE
MATR.         LIMESTONE            : Logunit      - NEUTRON MATRIX
TMAX.C        10                   : BHT          - MAXIMUM RECORDED TEMPERATURE
BHTD.M        505                  : BHTDEP       - MAXIMUM RECORDED TEMPERATURE
MATR.         1                    : LOGUNIT      - NEUTRON MATRIX
RMT .C        25                   : MDTP         - TEMPERATURE OF MUD
NEUT.         1                    : NEUTRON      - NEUTRON TYPE
RESI.         0                    : RESIST       - RESISTIVITY TYPE
RMC .OHMM     0.25                 : RMC          - RESISTIVITY OF MUD CAKE
RMF .OHMM     0.25                 : RMF          - RESISTIVITY OF MUD FILTRATE
SUFT.C        15                   : SUFT         - SURFACE TEMPERATURE
~A  DEPTH     RESD     PHID       GR     PHIN
# ...
  313.500    8.060    0.505   85.402    0.663
  313.750    8.213    0.430   90.276    0.624
  314.000    8.368    0.329   91.499    0.578
  314.250    7.772    0.278   87.869    0.530
  314.500    7.086    0.296   86.059    0.522
  314.750    6.581    0.335   90.326    0.531
  315.000    6.226    0.354   95.197    0.540
  315.250    6.001    0.378   98.247    0.551
  315.500    6.002    0.307  100.081    0.565
  315.750    6.116    0.284  101.912    0.534
  316.000    6.231    0.273  103.747    0.506
  316.250    6.711    0.279  104.369    0.487
  316.500    7.784    0.299  103.165    0.501
  316.750    9.198    0.300  100.147    0.524
  317.000    9.907    0.289   98.331    0.530
  317.250   11.073    0.300   92.271    0.495
  317.500   11.927    0.313   86.819    0.460
  317.750   12.611    0.317   83.794    0.445
  318.000   12.848    0.306   85.024    0.438
  318.250   13.091    0.291   87.468    0.437
  318.500   13.338    0.288   87.475    0.451
  318.750   13.590    0.291   78.380    0.462
  319.000   13.846    0.304   69.890    0.449
  319.250   13.849    0.296   64.436    0.440
  319.500   14.110    0.309   62.630    0.431
  319.750   14.114    0.318   60.823    0.427
  320.000   14.116    0.318   59.619    0.439
  320.250   14.383    0.314   59.628    0.464
  320.500   14.386    0.311   59.643    0.456
  320.750   14.125    0.311   59.046    0.448
  321.000   13.867    0.311   59.059    0.433
  321.250   14.128    0.317   59.681    0.423
  321.500   14.130    0.323   60.298    0.439
  321.750   14.397    0.327   62.748    0.451
  322.000   14.400    0.323   63.975    0.455
  322.250   14.672    0.328   64.593    0.462
  322.500   14.675    0.333   65.815    0.473
  322.750   14.677    0.330   65.828    0.488
  323.000   14.681    0.327   65.840    0.487
  323.250   14.682    0.329   66.459    0.480
  323.500   14.684    0.335   67.081    0.461
  323.750   14.687    0.329   67.702    0.452
  324.000   14.690    0.327   72.571    0.467
  324.250   14.422    0.330   82.909    0.468
  324.500   14.425    0.340   98.713    0.469
  324.750   14.164    0.333  114.514    0.473
  325.000   14.166    0.316  128.495    0.472
  325.250   14.434    0.309  127.296    0.487
  325.500   14.437    0.316  125.484    0.509
  325.750   14.708    0.321  134.606    0.504
  326.000   14.987    0.324  154.660    0.482
  326.250   14.989    0.311  174.716    0.489
  326.500   14.992    0.287  181.408    0.510
  326.750   14.994    0.290  129.191    0.528
  327.000   14.998    0.310  104.911    0.523
  327.250   15.000    0.331  100.675    0.510
  327.500   15.003    0.336   98.256    0.501
  327.750   15.005    0.344   93.409    0.512
  328.000   15.007    0.358   89.170    0.524
  328.250   15.012    0.355   91.612    0.505
  328.500   15.014    0.344   95.269    0.489
  328.750   15.016    0.337   94.066    0.493
  329.000   15.018    0.352   78.896    0.509
  329.250   15.022    0.364   65.549    0.514
  329.500   15.024    0.356   60.700    0.489
  329.750   15.026    0.363   55.857    0.471
  330.000   15.031    0.367   54.652    0.476
  330.250   15.033    0.363   54.058    0.467
  330.500   15.035    0.371   53.470    0.460
  330.750   15.038    0.368   53.480    0.449
  331.000   15.040    0.359   53.488    0.454
  331.250   15.042    0.350   54.114    0.464
  331.500   14.770    0.362   54.730    0.467
  331.750   14.771    0.344   56.572    0.473
  332.000   14.237    0.343   57.189    0.464
  332.250   13.223    0.346   58.410    0.455
  332.500   11.835    0.356   60.857    0.462
  332.750   10.992    0.373   62.690    0.464
  333.000   10.399    0.385   62.702    0.461
  333.250   11.624    0.392   60.286    0.471
  333.500   12.520    0.387   57.262    0.479
  333.750   13.238    0.392   54.235    0.477
  334.000   13.739    0.405   51.818    0.463
  334.250   13.998    0.388   56.083    0.461
  334.500   14.002    0.361   57.319    0.456
  334.750   14.004    0.355   57.933    0.459
  335.000   13.750    0.361   59.767    0.451
  335.250   13.500    0.369   62.816    0.451
  335.500   13.254    0.374   68.906    0.461
  335.750   13.256    0.358   70.738    0.471
  336.000   13.017    0.352   71.960    0.480
  336.250   12.779    0.358   71.974    0.491
  336.500   12.548    0.351   69.556    0.416
  336.750   12.549    0.357   66.537    0.368
  337.000   12.321    0.358   65.331    0.398
  337.250   12.323    0.360   64.132    0.456
  337.500   12.325    0.347   64.751    0.472
  337.750   12.328    0.333   67.195    0.472
  338.000   12.331    0.342   69.026    0.469
  338.250   12.106    0.351   70.258    0.472
  338.500   11.454    0.349   70.267    0.473
  338.750   11.246    0.358   70.280    0.482
  339.000   10.838    0.361   72.117    0.482
  339.250   10.840    0.364   73.342    0.473
  339.500   12.117    0.319   73.965    0.466
  339.750   13.295    0.270   73.364    0.469
  340.000   13.799    0.100   69.734    0.452
  340.250   13.300    0.076   65.495    0.298
  340.500   12.819    0.091   66.724    0.253
  340.750   12.128    0.139   74.024    0.290
  341.000   11.474    0.203   88.614    0.373
  341.250   10.270    0.266   98.953    0.469
  341.500    9.898    0.313  101.391    0.468
  341.750    9.365    0.301  103.836    0.438
  342.000    9.026    0.289  103.240    0.428
  342.250    8.861    0.281  102.643    0.441
  342.500    8.701    0.279  103.873    0.456
  342.750    8.702    0.274  102.672    0.465
  343.000    8.867    0.273   98.432    0.476
  343.250    9.034    0.270   91.768    0.480
  343.500    9.205    0.275   89.346    0.481
  343.750    9.206    0.286   85.110    0.478
  344.000    9.039    0.290   81.482    0.469
  344.250    8.712    0.282   79.668    0.453
  344.500    8.553    0.275   77.255    0.447
  344.750    8.243    0.305   76.654    0.445
  345.000    7.946    0.363   74.847    0.442
  345.250    7.801    0.452   73.645    0.464
  345.500    7.381    0.511   73.657    0.488
  345.750    7.247    0.552   74.276    0.517
  346.000    6.984    0.579   75.507    0.507
  346.250    6.731    0.557   77.950    0.513
  346.500    6.252    0.556   80.998    0.550
  346.750    5.807    0.575   83.436    0.586
  347.000    5.197    0.603   86.487    0.555
  347.250    4.738    0.530   89.535    0.531
  347.500    4.567    0.458   85.299    0.537
  347.750    4.919    0.475   79.846    0.558
  348.000    4.920    0.578   76.819    0.586
  348.250    4.921    0.618   82.904    0.631
  348.500    4.831    0.600   92.028    0.577
  348.750    4.571    0.441   98.115    0.551
  349.000    4.325    0.310   99.342    0.544
  349.250    4.246    0.275   95.109    0.548
  349.500    4.092    0.294   93.903    0.563
  349.750    3.944    0.310   93.304    0.579
  350.000    3.732    0.323   95.146    0.556
  350.250    3.466    0.290   95.768    0.538
  350.500    3.403    0.299   96.383    0.548
  350.750    3.734    0.308   98.220    0.547
  351.000    3.948    0.306   98.833    0.536
  351.250    4.174    0.299   99.455    0.543
  351.500    4.175    0.291   96.438    0.560
  351.750    4.099    0.318   95.232    0.572
  352.000    3.807    0.308   94.025    0.546
  352.250    3.407    0.317   94.042    0.536
  352.500    3.049    0.320   95.272    0.528
  352.750    2.885    0.300   96.496    0.533
  353.000    2.886    0.295   98.939    0.546
  353.250    3.051    0.290  101.379    0.556
  353.500    3.167    0.274  100.177    0.566
  353.750    3.540    0.283   97.762    0.569
  354.000    3.812    0.284   95.951    0.569
  354.250    3.884    0.296   95.355    0.570
  354.500    3.675    0.315   96.582    0.575
  354.750    3.413    0.301   98.420    0.587
  355.000    3.290    0.296   99.035    0.597
  355.250    3.677    0.291   97.232    0.587
  355.500    4.110    0.290   96.023    0.576
  355.750    4.680    0.325   88.750    0.588
  356.000    5.738    0.343   79.655    0.573
  356.250    6.414    0.350   75.413    0.481
  356.500    7.037    0.349   73.606    0.464
  356.750    7.580    0.347   71.799    0.450
