~VERSION INFORMATION
 VERS.                 2.0:   CWLS LOG ASCII STANDARD -VERSION 2.0
 WRAP.                  NO:   ONE LINE PER DEPTH STEP
~WELL INFORMATION BLOCK
#MNEM.UNIT           DATA                    DESCRIPTION OF MNEMONIC
#---------    -------------------            -------------------------------
# Generated from Intellog Unique Number	CW_73_75/WELL/3521
WELL.         G&W ET AL SPUR                 : Well_name    - WELL
LOC .         00/08-05-073-02W5/0            : Location     - LOCATION
UWI .         00/08-05-073-02W5/0            : Uwi          - UNIQUE WELL ID
ENTR.         TOM                            : Entered      - ENTERED BY
SRVC.         SCHLUMBERGER                   : Scn          - SERVICE COMPANY
STRT.M        350                            : top_depth    - START DEPTH
STOP.M        600                            : bot_depth    - STOP DEPTH
STEP.M        0.25                           : increment    - STEP LENGTH
 NULL. -999.2500:NULL Value
~CURVE INFORMATION BLOCK
#MNEM UNIT       ERCB CURVE CODE    CURVE DESCRIPTION
#-----------   ------------------   ----------------------------------
DEPT.M        00 001 00 00         : DEPTH        - DEPTH
GR  .API      00 310 00 00         : GR           - GAMMA RAY
NPHI.V/V      00 330 00 00         : PHIN         - NEUTRON POROSITY (SANDSTONE)
DPHI.V/V      00 890 00 00         : PHID         - DENSITY POROSITY (SANDSTONE)
ILD .OHMM     00 120 00 00         : RESD         - DEEP RESISTIVITY (DIL)
~PARAMETER INFORMATION
#MNEM.UNIT           DATA             DESCRIPTION OF MNEMONIC
#---------         -----------     ------------------------------
GL  .M        601.5                : gl           - GROUND LEVEL ELEVATION
EREF.M        604.3                : kb           - ELEVATION OF DEPTH REFERENCE
DATM.M        604.3                : datum        - DATUM ELEVATION
TDD .M        604                  : tdd          - TOTAL DEPTH DRILLER
RUN .         ONE                  : Run          - RUN NUMBER
ENG .         BILL                 : Engineer     - RECORDING ENGINEER
WIT .         JIM                  : Witness      - WITNESSED BY
MUD .         GEL                  : Mud_type     - MUD TYPE
MATR.         SANDSTONE            : Logunit      - NEUTRON MATRIX
TMAX.C        28                   : BHT          - MAXIMUM RECORDED TEMPERATURE
BHTD.M        604                  : BHTDEP       - MAXIMUM RECORDED TEMPERATURE
RMT .C        17                   : MDTP         - TEMPERATURE OF MUD
MUDD.KG/M     1100                 : MWT          - MUD DENSITY
NEUT.         1                    : NEUTRON      - NEUTRON TYPE
RESI.         0                    : RESIST       - RESISTIVITY TYPE
RM  .OHMM     4.5                  : RM           - RESISTIVITY OF MUD
RMC .OHMM     0                    : RMC          - RESISTIVITY OF MUD CAKE
RMF .OHMM     2.744                : RMF          - RESISTIVITY OF MUD FILTRATE
SUFT.C        15                   : SUFT         - SURFACE TEMPERATURE
~A  DEPTH       GR     PHIN     PHID     RESD
# ...
  480.500   70.712    0.419    0.323    3.280
  480.750   68.252    0.418    0.312    3.400
  481.000   64.597    0.360    0.276    3.655
  481.250   59.748    0.334    0.239    4.002
  481.500   57.252    0.329    0.254    4.227
  481.750   56.619    0.355    0.257    4.383
  482.000   55.336    0.383    0.268    4.626
  482.250   54.650    0.398    0.282    4.795
  482.500   55.176    0.408    0.289    4.876
  482.750   55.122    0.419    0.295    4.781
  483.000   56.808    0.418    0.300    4.777
  483.250   57.369    0.405    0.306    4.598
  483.500   57.878    0.397    0.310    4.506
  483.750   58.404    0.402    0.311    4.337
  484.000   58.333    0.403    0.310    4.332
  484.250   58.262    0.397    0.309    4.247
  484.500   57.611    0.394    0.306    4.242
  484.750   56.907    0.396    0.305    4.235
  485.000   56.257    0.404    0.304    4.229
  485.250   54.973    0.412    0.304    4.224
  485.500   54.938    0.414    0.304    4.218
  485.750   54.269    0.410    0.307    4.213
  486.000   54.778    0.409    0.309    4.209
  486.250   56.498    0.397    0.313    4.202
  486.500   57.640    0.395    0.319    4.198
  486.750   57.551    0.413    0.319    4.191
  487.000   56.303    0.393    0.305    4.184
  487.250   56.214    0.370    0.270    4.180
  487.500   55.546    0.357    0.245    4.251
  487.750   54.298    0.325    0.218    4.327
  488.000   51.820    0.307    0.210    5.105
  488.250   51.151    0.307    0.206    6.252
  488.500   52.257    0.307    0.216    7.377
  488.750   53.380    0.308    0.218    7.934
  489.000   55.101    0.311    0.204    7.921
  489.250   56.260    0.358    0.210    7.483
  489.500   55.574    0.385    0.258    6.810
  489.750   55.485    0.405    0.297    6.318
  490.000   57.803    0.396    0.318    5.541
  490.250   60.139    0.385    0.317    5.046
  490.500   58.873    0.383    0.311    4.425
  490.750   57.011    0.380    0.278    4.180
  491.000   54.550    0.376    0.067    4.412
  491.250   52.072    0.370    0.037    4.575
  491.500   49.612    0.366    0.030    5.107
  491.750   47.749    0.355    0.031    5.915
  492.000   45.904    0.347    0.030    7.944
  492.250   44.620    0.352    0.029    8.704
  492.500   43.952    0.355    0.024   10.266
  492.750   45.040    0.364    0.019   10.839
  493.000   46.181    0.368    0.026   10.623
  493.250   46.128    0.370    0.074   10.226
  493.500   46.654    0.375    0.099    9.484
  493.750   47.162    0.374    0.147    8.959
  494.000   48.286    0.372    0.171    8.625
  494.250   50.007    0.379    0.182    8.148
  494.500   52.360    0.386    0.196    7.416
  494.750   58.262    0.382    0.228    6.877
  495.000   58.788    0.382    0.244    6.378
  495.250   59.912    0.386    0.275    5.915
  495.500   61.017    0.392    0.284    5.588
  495.750   61.544    0.402    0.290    5.180
  496.000   61.473    0.411    0.295    4.892
  496.250   59.030    0.407    0.301    4.711
  496.500   54.760    0.398    0.308    4.451
  496.750   52.264    0.387    0.307    4.204
  497.000   54.003    0.380    0.300    4.122
  497.250   58.131    0.375    0.290    4.040
  497.500   60.466    0.377    0.284    4.109
  497.750   62.785    0.378    0.277    4.105
  498.000   63.890    0.380    0.270    4.250
  498.250   63.819    0.383    0.269    4.246
  498.500   58.355    0.383    0.276    4.243
  498.750   58.283    0.385    0.279    4.236
  499.000   61.217    0.390    0.281    4.155
  499.250   64.747    0.398    0.282    3.925
  499.500   67.662    0.409    0.286    3.638
  499.750   65.782    0.419    0.288    3.503
  500.000   64.498    0.427    0.285    3.370
  500.250   64.445    0.428    0.291    3.303
  500.500   64.971    0.428    0.295    3.300
  500.750   66.077    0.423    0.286    3.297
  501.000   65.988    0.410    0.282    3.290
  501.250   65.952    0.392    0.274    3.411
  501.500   63.474    0.366    0.261    3.471
  501.750   63.421    0.374    0.278    3.595
  502.000   64.527    0.401    0.307    3.592
  502.250   66.265    0.413    0.316    3.587
  502.500   67.986    0.421    0.316    3.452
  502.750   69.092    0.412    0.312    3.260
  503.000   70.233    0.399    0.303    3.196
  503.250   70.742    0.401    0.281    3.077
  503.500   71.865    0.404    0.253    3.073
  503.750   72.409    0.408    0.246    3.068
  504.000   74.094    0.414    0.247    3.065
  504.250   75.236    0.420    0.260    3.176
  504.500   75.182    0.421    0.278    3.231
  504.750   73.899    0.422    0.283    3.347
  505.000   71.456    0.422    0.286    3.408
  505.250   68.996    0.419    0.280    3.598
  505.500   68.328    0.410    0.256    4.166
  505.750   64.673    0.259    0.180    4.482
  506.000   63.407    0.264    0.038    5.191
  506.250   64.513    0.313    0.074    5.902
  506.500   65.057    0.365    0.142    6.231
  506.750   66.777    0.395    0.216    6.339
  507.000   69.078    0.416    0.279    5.665
  507.250   71.378    0.427    0.284    4.968
  507.500   72.537    0.424    0.273    4.523
  507.750   72.448    0.421    0.274    4.273
  508.000   72.377    0.417    0.281    4.113
  508.250   72.324    0.408    0.274    3.956
  508.500   72.253    0.399    0.259    3.880
  508.750   71.567    0.402    0.245    3.876
  509.000   71.478    0.413    0.235    3.798
  509.250   72.004    0.411    0.236    3.863
  509.500   71.951    0.410    0.248    3.930
  509.750   71.879    0.408    0.254    4.000
  510.000   70.614    0.406    0.252    4.145
  510.250   71.140    0.400    0.251    4.139
  510.500   72.825    0.393    0.251    4.133
  510.750   74.564    0.393    0.251    4.128
  511.000   75.705    0.404    0.251    4.124
  511.250   76.231    0.413    0.251    4.117
  511.500   74.930    0.407    0.250    4.036
  511.750   76.668    0.400    0.248    3.957
  512.000   78.407    0.389    0.246    3.953
  512.250   81.902    0.396    0.242    3.948
  512.500   83.061    0.405    0.235    3.942
  512.750   85.379    0.409    0.222    4.009
  513.000   89.471    0.380    0.215    4.005
  513.250   91.807    0.371    0.210    4.152
  513.500   92.931    0.385    0.208    4.464
  513.750   93.457    0.397    0.211    4.627
  514.000   91.576    0.405    0.224    4.622
  514.250   89.713    0.406    0.230    4.447
  514.500   89.045    0.408    0.221    4.280
  514.750   89.589    0.408    0.209    4.197
  515.000   89.518    0.411    0.202    4.270
  515.250   88.796    0.416    0.228    4.343
  515.500   88.760    0.417    0.233    4.583
  515.750   88.689    0.407    0.236    4.750
  516.000   87.388    0.399    0.231    4.834
  516.250   86.737    0.392    0.227    4.826
  516.500   85.472    0.386    0.226    4.822
  516.750   84.803    0.375    0.221    4.904
  517.000   84.714    0.379    0.217    5.084
  517.250   84.082    0.404    0.207    5.269
  517.500   84.010    0.411    0.194    5.361
  517.750   86.311    0.410    0.189    5.350
  518.000   88.629    0.384    0.196    5.247
  518.250   86.186    0.363    0.191    5.144
  518.500   81.934    0.350    0.187    5.043
  518.750   77.664    0.328    0.181    4.946
  519.000   78.190    0.331    0.178    5.124
  519.250   82.915    0.368    0.178    5.312
  519.500   87.025    0.400    0.179    5.713
  519.750   87.552    0.414    0.187    5.706
  520.000   87.481    0.421    0.195    5.290
  520.250   86.215    0.418    0.203    4.997
  520.500   84.949    0.416    0.203    4.721
  520.750   84.860    0.419    0.202    4.545
  521.000   86.581    0.421    0.196    4.456
  521.250   89.496    0.418    0.190    4.449
  521.500   91.235    0.413    0.190    4.695
  521.750   91.164    0.410    0.192    4.866
  522.000   91.093    0.409    0.195    5.045
  522.250   90.424    0.411    0.203    5.324
  522.500   89.738    0.406    0.217    5.516
  522.750   88.473    0.403    0.223    5.513
  523.000   86.012    0.394    0.212    5.608
  523.250   87.136    0.389    0.202    5.495
  523.500   90.051    0.380    0.194    5.390
  523.750   92.931    0.398    0.187    5.283
