~VERSION INFORMATION
 VERS.                 2.0:   CWLS LOG ASCII STANDARD -VERSION 2.0
 WRAP.                  NO:   ONE LINE PER DEPTH STEP
~WELL INFORMATION BLOCK
#MNEM.UNIT           DATA                    DESCRIPTION OF MNEMONIC
#---------    -------------------            -------------------------------
# Generated from Intellog Unique Number	CW_76_78/WELL/2570
WELL.         ATCOR ET AL PELICAN            : Well_name    - WELL
LOC .         00/06-34-078-25W4/0            : Location     - LOCATION
UWI .         00/06-34-078-25W4/0            : Uwi          - UNIQUE WELL ID
ENTR.         MAX                            : Entered      - ENTERED BY
SRVC.         COMPUTALOG                     : Scn          - SERVICE COMPANY
STRT.M        270                            : top_depth    - START DEPTH
STOP.M        490                            : bot_depth    - STOP DEPTH
STEP.M        0.25                           : increment    - STEP LENGTH
 NULL. -999.2500:NULL Value
~CURVE INFORMATION BLOCK
#MNEM UNIT       ERCB CURVE CODE    CURVE DESCRIPTION
#-----------   ------------------   ----------------------------------
DEPT.M        00 001 00 00         : DEPTH        - DEPTH
ILD .OHMM     00 120 00 00         : RESD         - DEEP RESISTIVITY (DIL)
NPHI.V/V      00 330 00 00         : PHIN         - NEUTRON POROSITY (SANDSTONE)
DPHI.V/V      00 890 00 00         : PHID         - DENSITY POROSITY (SANDSTONE)
CALI.MM       00 280 01 00         : CAL          - CALIPER
GR  .API      00 310 00 00         : GR           - GAMMA RAY
~PARAMETER INFORMATION
#MNEM.UNIT           DATA             DESCRIPTION OF MNEMONIC
#---------         -----------     ------------------------------
GL  .M        581                  : gl           - GROUND LEVEL ELEVATION
EREF.M        584.7                : kb           - ELEVATION OF DEPTH REFERENCE
DATM.M        581                  : datum        - DATUM ELEVATION
TDD .M        491.9                : tdd          - TOTAL DEPTH DRILLER
RUN .         ONE                  : Run          - RUN NUMBER
ENG .         BILL                 : Engineer     - RECORDING ENGINEER
WIT .         JIM                  : Witness      - WITNESSED BY
MUD .         GEL                  : Mud_type     - MUD TYPE
MATR.         SANDSTONE            : Logunit      - NEUTRON MATRIX
TMAX.C        30                   : BHT          - MAXIMUM RECORDED TEMPERATURE
BHTD.M        491.9                : BHTDEP       - MAXIMUM RECORDED TEMPERATURE
RMT .C        19                   : MDTP         - TEMPERATURE OF MUD
MUDD.KG/M     1120                 : MWT          - MUD DENSITY
NEUT.         1                    : NEUTRON      - NEUTRON TYPE
RESI.         0                    : RESIST       - RESISTIVITY TYPE
RM  .OHMM     4.4                  : RM           - RESISTIVITY OF MUD
RMC .OHMM     0.25                 : RMC          - RESISTIVITY OF MUD CAKE
RMF .OHMM     4.1                  : RMF          - RESISTIVITY OF MUD FILTRATE
SUFT.C        -10                  : SUFT         - SURFACE TEMPERATURE
~A  DEPTH     RESD     PHIN     PHID      CAL       GR
# ...
  306.500   12.265    0.398    0.310  207.633   57.051
  306.750   12.861    0.406    0.311  208.225   56.209
  307.000   13.368    0.424    0.306  208.294   52.671
  307.250   13.264    0.419    0.311  208.398   49.134
  307.500   12.919    0.406    0.321  208.989   45.896
  307.750   12.243    0.406    0.320  209.070   47.156
  308.000   11.597    0.409    0.304  209.174   49.599
  308.250   10.984    0.414    0.278  209.255   53.554
  308.500   10.212    0.413    0.262  206.864   56.611
  308.750    9.409    0.415    0.248  203.974   55.169
  309.000    8.832    0.414    0.242  202.047   52.822
  309.250    8.926    0.414    0.272  200.654   52.279
  309.500    9.450    0.422    0.298  201.245   53.239
  309.750   10.775    0.413    0.315  201.848   53.587
  310.000   12.637    0.415    0.326  202.428   53.650
  310.250   13.253    0.421    0.317  204.517   54.910
  310.500   13.521    0.418    0.321  209.112   55.258
  310.750   13.543    0.412    0.324  210.701   55.320
  311.000   13.543    0.419    0.319  211.293   53.586
  311.250   13.469    0.422    0.325  211.385   53.036
  311.500   13.352    0.417    0.328  209.505   52.207
  311.750   13.352    0.392    0.329  208.077   51.949
  312.000   13.394    0.387    0.330  206.173   52.004
  312.250   13.414    0.396    0.325  203.771   53.264
  312.500   13.435    0.393    0.322  201.867   53.912
  312.750   13.450    0.390    0.326  193.975   54.573
  313.000   13.472    0.448    0.317  183.588   54.935
  313.250   13.494    0.449    0.320  183.182   53.180
  313.500   13.514    0.426    0.315  186.767   53.242
  313.750   13.409    0.399    0.297  192.349   53.604
  314.000   13.426    0.397    0.303  200.947   51.250
  314.250   13.326    0.402    0.315  202.548   50.721
  314.500   13.341    0.387    0.318  201.132   51.062
  314.750   13.361    0.381    0.318  198.730   52.329
  315.000   13.383    0.387    0.317  196.327   53.276
  315.250   13.405    0.398    0.318  195.421   55.141
  315.500   13.422    0.400    0.318  194.516   55.782
  315.750   13.566    0.372    0.318  193.610   55.538
  316.000   13.466    0.374    0.312  193.702   56.206
  316.250   13.483    0.376    0.302  193.795   56.853
  316.500   13.255    0.364    0.294  193.400   58.406
  316.750   13.028    0.369    0.291  192.494   58.767
  317.000   12.689    0.404    0.295  192.587   55.822
  317.250   12.361    0.418    0.306  195.673   53.795
  317.500   12.150    0.417    0.313  197.750   53.538
  317.750   11.946    0.389    0.312  200.349   52.695
  318.000   12.075    0.341    0.298  201.973   51.267
  318.250   12.552    0.265    0.282  202.031   49.533
  318.500   13.287    0.241    0.232  201.636   48.976
  318.750   16.165    0.204    0.103  202.216   49.038
  319.000   17.933    0.136    0.052  203.318   49.386
  319.250   20.068    0.122    0.001  203.898   50.047
  319.500   24.191    0.128    0.006  203.526   50.701
  319.750   25.616    0.161    0.050  203.096   51.349
  320.000   24.496    0.200    0.122  200.693   52.908
  320.250   22.987    0.239    0.168  194.809   54.753
  320.500   21.178    0.276    0.206  191.884   58.109
  320.750   18.285    0.289    0.232  189.482   60.560
  321.000   16.084    0.306    0.253  188.588   60.915
  321.250   14.412    0.322    0.256  189.179   59.772
  321.500   13.910    0.355    0.205  190.281   57.147
  321.750   13.928    0.326    0.180  192.369   55.406
  322.000   13.692    0.323    0.222  195.955   56.046
  322.250   13.091    0.360    0.283  198.067   60.008
  322.500   12.401    0.392    0.294  198.136   63.350
  322.750   11.425    0.420    0.302  197.741   64.304
  323.000   10.526    0.436    0.304  199.342   61.365
  323.250    9.879    0.426    0.298  202.916   60.237
  323.500    9.274    0.422    0.290  206.014   62.388
  323.750    9.113    0.449    0.284  207.093   66.628
  324.000    8.878    0.459    0.282  207.208   67.881
  324.250    8.807    0.444    0.280  205.781   67.039
  324.500    8.660    0.420    0.274  202.913   66.203
  324.750    8.513    0.430    0.267  201.486   66.558
  325.000    8.293    0.458    0.267  201.079   70.512
  325.250    8.078    0.455    0.263  200.661   70.860
  325.500    8.013    0.431    0.254  201.252   70.324
  325.750    7.952    0.425    0.239  202.343   70.679
  326.000    7.816    0.410    0.236  202.969   71.625
  326.250    7.614    0.428    0.235  203.038   70.198
  326.500    7.415    0.441    0.232  202.643   70.552
  326.750    7.157    0.449    0.224  202.747   70.907
  327.000    6.842    0.452    0.226  203.315   71.255
  327.250    6.363    0.447    0.238  206.414   71.610
  327.500    6.084    0.419    0.243  210.510   71.666
  327.750    5.817    0.409    0.243  213.086   70.530
  328.000    5.664    0.425    0.236  214.675   70.286
  328.250    5.568    0.446    0.227  211.773   71.553
  328.500    5.474    0.469    0.235  207.874   72.500
  328.750    5.432    0.472    0.245  203.486   71.650
  329.000    5.443    0.464    0.244  198.090   71.406
  329.250    5.449    0.467    0.239  194.701   72.075
  329.500    5.561    0.473    0.237  193.772   72.116
  329.750    5.619    0.469    0.244  193.876   72.471
  330.000    5.680    0.445    0.250  192.970   74.044
  330.250    5.635    0.428    0.249  192.053   75.889
  330.500    5.644    0.426    0.246  191.669   77.149
  330.750    5.549    0.482    0.246  192.249   76.891
  331.000    5.505    0.504    0.250  194.848   73.653
  331.250    5.566    0.455    0.249  197.436   69.225
  331.500    5.784    0.430    0.223  201.021   64.782
  331.750    6.180    0.408    0.205  205.605   61.251
  332.000    6.917    0.388    0.227  210.212   60.109
  332.250    8.187    0.402    0.264  210.791   60.158
  332.500    9.078    0.395    0.270  210.396   58.417
  332.750    9.886    0.409    0.268  207.483   59.670
  333.000    9.993    0.420    0.268  204.082   59.732
  333.250   10.008    0.423    0.276  199.185   58.883
  333.500    9.930    0.424    0.286  192.279   58.639
  333.750    9.852    0.422    0.294  188.391   59.293
  334.000    9.684    0.408    0.298  186.975   60.253
  334.250    9.434    0.385    0.287  188.077   60.009
  334.500    9.272    0.363    0.252  188.657   60.678
  334.750    9.286    0.331    0.135  189.747   60.120
  335.000    9.744    0.271    0.077  193.832   57.481
  335.250   10.314    0.234    0.081  198.439   65.022
  335.500   10.922    0.224    0.086  198.043   68.078
  335.750   11.038    0.240    0.093  197.625   62.737
  336.000   11.054    0.279    0.129  198.228   56.206
  336.250   10.867    0.342    0.247  199.806   58.065
  336.500   10.683    0.361    0.287  203.914   61.128
  336.750   10.214    0.384    0.310  205.979   60.877
  337.000    9.588    0.394    0.327  209.066   60.633
  337.250    8.999    0.404    0.335  212.164   60.389
  337.500    8.763    0.433    0.333  213.277   60.438
  337.750    8.695    0.451    0.326  213.347   60.493
  338.000    8.631    0.455    0.325  212.441   60.249
  338.250    8.562    0.452    0.338  211.535   62.115
  338.500    8.417    0.436    0.338  204.665   63.368
  338.750    8.417    0.430    0.343  203.736   62.825
  339.000    8.292    0.439    0.353  204.339   61.084
  339.250    7.998    0.448    0.352  203.932   60.533
  339.500    7.647    0.446    0.335  202.029   61.202
  339.750    7.379    0.432    0.321  201.123   62.148
  340.000    6.927    0.419    0.313  200.716   63.102
  340.250    6.499    0.405    0.301  199.822   66.451
  340.500    6.043    0.407    0.278  198.917   68.310
  340.750    5.518    0.421    0.261  198.487   67.168
  341.000    5.373    0.409    0.262  197.105   66.025
  341.250    5.283    0.385    0.251  196.676   66.074
  341.500    5.439    0.380    0.226  195.793   66.728
  341.750    6.033    0.369    0.181  195.387   67.389
  342.000    7.477    0.344    0.127  196.477   67.445
  342.250    7.916    0.330    0.079  197.069   63.002
  342.500    8.699    0.314    0.071  199.644   54.375
  342.750    9.827    0.289    0.069  199.760   48.442
