~VERSION INFORMATION
 VERS.                 2.0:   CWLS LOG ASCII STANDARD -VERSION 2.0
 WRAP.                  NO:   ONE LINE PER DEPTH STEP
~WELL INFORMATION BLOCK
#MNEM.UNIT           DATA                    DESCRIPTION OF MNEMONIC
#---------    -------------------            -------------------------------
# Generated from Intellog Unique Number	CS_67_68/WELL/769
WELL.         FISHER CREEK                   : Well_name    - WELL
LOC .         00/07-08-068-05W4/0            : Location     - LOCATION
UWI .         00/07-08-068-05W4/0            : Uwi          - UNIQUE WELL ID
ENTR.         SP                             : Entered      - ENTERED BY
SRVC.         SCHLUMBERGER                   : Scn          - SERVICE COMPANY
STRT.M        350                            : top_depth    - START DEPTH
STOP.M        560                            : bot_depth    - STOP DEPTH
STEP.M        0.25                           : increment    - STEP LENGTH
 NULL. -999.2500:NULL Value
~CURVE INFORMATION BLOCK
#MNEM UNIT       ERCB CURVE CODE    CURVE DESCRIPTION
#-----------   ------------------   ----------------------------------
DEPT.M        00 001 00 00         : DEPTH        - DEPTH
ILD .OHMM     00 120 00 00         : RESD         - DEEP RESISTIVITY (DIL)
DPHI.V/V      00 890 00 00         : PHID         - DENSITY POROSITY (LIMESTONE)
NPHI.V/V      00 330 00 00         : PHIN         - NEUTRON POROSITY (LIMESTONE)
GR  .API      00 310 00 00         : GR           - GAMMA RAY
~PARAMETER INFORMATION
#MNEM.UNIT           DATA             DESCRIPTION OF MNEMONIC
#---------         -----------     ------------------------------
GL  .M        690.6                : gl           - GROUND LEVEL ELEVATION
EREF.M        694.1                : kb           - ELEVATION OF DEPTH REFERENCE
DATM.M        690.6                : datum        - DATUM ELEVATION
TDD .M        570                  : tdd          - TOTAL DEPTH DRILLER
RUN .         ONE                  : Run          - RUN NUMBER
ENG .         BILL                 : Engineer     - RECORDING ENGINEER
WIT .         JIM                  : Witness      - WITNESSED BY
MUD .         GEL                  : Mud_type     - MUD TYPE
MATR.         LIMESTONE            : Logunit      - NEUTRON MATRIX
TMAX.C        25                   : BHT          - MAXIMUM RECORDED TEMPERATURE
BHTD.M        570                  : BHTDEP       - MAXIMUM RECORDED TEMPERATURE
MATR.         1                    : LOGUNIT      - NEUTRON MATRIX
RMT .C        25                   : MDTP         - TEMPERATURE OF MUD
NEUT.         1                    : NEUTRON      - NEUTRON TYPE
RESI.         0                    : RESIST       - RESISTIVITY TYPE
RMC .OHMM     0.25                 : RMC          - RESISTIVITY OF MUD CAKE
RMF .OHMM     0.25                 : RMF          - RESISTIVITY OF MUD FILTRATE
SUFT.C        15                   : SUFT         - SURFACE TEMPERATURE
~A  DEPTH     RESD     PHID     PHIN       GR
# ...
  524.000    8.792    0.273    0.363   67.457
  524.250    9.094    0.241    0.367   68.261
  524.500    9.128    0.209    0.376   85.135
  524.750    8.959    0.194    0.363   85.939
  525.000    8.454    0.205    0.345   83.604
  525.250    7.903    0.213    0.348   82.352
  525.500    7.801    0.208    0.360   82.854
  525.750    7.830    0.205    0.368   83.956
  526.000    7.889    0.205    0.362   85.545
  526.250    7.904    0.196    0.353   87.558
  526.500    7.904    0.186    0.341   85.461
  526.750    7.860    0.189    0.352   82.278
  527.000    7.773    0.202    0.355   87.979
  527.250    7.600    0.207    0.355   93.006
  527.500    7.459    0.206    0.365   98.342
  527.750    7.132    0.199    0.369  101.382
  528.000    6.870    0.190    0.382  103.392
  528.250    7.267    0.204    0.409  100.934
  528.500    7.644    0.217    0.440   95.996
  528.750    7.951    0.205    0.412   94.324
  529.000    8.301    0.194    0.434   97.421
  529.250    9.271    0.219    0.460   97.561
  529.500   10.830    0.214    0.399   80.481
  529.750   13.433    0.219    0.408   86.059
  530.000   16.290    0.256    0.432   69.521
  530.250   20.130    0.280    0.450   48.031
  530.500   23.427    0.299    0.378   36.388
  530.750   26.263    0.282    0.350   41.605
  531.000   29.331    0.257    0.377   50.987
  531.250   31.911    0.273    0.409   59.402
  531.500   37.982    0.287    0.433   64.372
  531.750   45.977    0.297    0.409   45.662
  532.000   49.834    0.305    0.374   31.542
  532.250   44.373    0.305    0.347   25.218
  532.500   35.048    0.319    0.339   29.828
  532.750   30.399    0.305    0.331   40.056
  533.000   24.011    0.287    0.323   58.801
  533.250   17.996    0.265    0.342   73.743
  533.500   16.855    0.268    0.388   66.512
  533.750   18.441    0.280    0.427   49.733
  534.000   21.826    0.299    0.424   37.667
  534.250   24.331    0.314    0.405   30.195
  534.500   27.584    0.329    0.394   30.697
  534.750   30.066    0.341    0.387   30.655
  535.000   30.236    0.338    0.387   29.825
  535.250   27.846    0.347    0.388   27.910
  535.500   25.885    0.350    0.388   24.907
  535.750   22.453    0.340    0.379   26.133
  536.000   20.950    0.331    0.372   41.255
  536.250   19.512    0.306    0.366   55.352
  536.500   17.802    0.266    0.362   64.855
  536.750   16.120    0.263    0.380   62.154
  537.000   14.434    0.277    0.386   57.943
  537.250   12.638    0.276    0.376   62.311
  537.500   11.316    0.265    0.380   66.980
  537.750    9.982    0.257    0.406   61.742
  538.000    8.839    0.282    0.423   42.003
  538.250    8.079    0.317    0.399   27.703
  538.500    7.234    0.344    0.384   25.365
  538.750    6.393    0.334    0.367   33.478
  539.000    5.746    0.309    0.355   45.883
  539.250    5.514    0.292    0.376   59.676
  539.500    5.282    0.293    0.401   68.635
  539.750    5.098    0.287    0.397   59.953
  540.000    4.994    0.283    0.383   57.796
  540.250    4.920    0.276    0.374   56.968
  540.500    4.856    0.283    0.370   48.770
  540.750    4.730    0.293    0.370   41.901
  541.000    4.634    0.303    0.372   47.599
  541.250    4.455    0.305    0.397   46.890
  541.500    4.252    0.318    0.419   31.501
  541.750    4.088    0.328    0.416   23.183
  542.000    4.042    0.333    0.381   21.931
  542.250    4.005    0.333    0.352   21.045
  542.500    3.975    0.332    0.343   20.762
  542.750    3.968    0.331    0.357   21.322
  543.000    3.960    0.329    0.365   22.185
  543.250    3.946    0.334    0.359   21.780
  543.500    3.953    0.329    0.339   21.314
  543.750    3.976    0.313    0.342   27.437
  544.000    4.021    0.299    0.345   34.764
  544.250    4.058    0.283    0.347   44.026
  544.500    4.166    0.269    0.365   59.208
  544.750    4.285    0.255    0.378   67.745
  545.000    4.653    0.247    0.394   67.762
  545.250    4.997    0.254    0.390   72.013
  545.500    5.178    0.257    0.378   74.928
  545.750    5.178    0.264    0.415   78.029
  546.000    5.159    0.271    0.444   73.997
  546.250    5.130    0.275    0.435   65.559
  546.500    5.092    0.278    0.412   58.747
  546.750    5.035    0.272    0.390   52.000
  547.000    5.026    0.265    0.371   48.029
  547.250    5.045    0.264    0.384   40.616
  547.500    4.961    0.291    0.379   31.027
  547.750    4.778    0.311    0.358   20.474
  548.000    4.484    0.348    0.352   26.896
  548.250    4.231    0.341    0.348   36.521
  548.500    4.137    0.330    0.324   45.297
  548.750    4.122    0.317    0.387   51.297
  549.000    4.114    0.304    0.410   48.779
  549.250    4.169    0.293    0.398   40.098
  549.500    4.224    0.316    0.390   32.382
  549.750    4.248    0.336    0.373   36.265
  550.000    4.272    0.355    0.361   47.461
  550.250    4.232    0.337    0.368   56.783
  550.500    4.200    0.321    0.394   64.292
  550.750    4.232    0.304    0.411   70.231
  551.000    4.304    0.291    0.425   71.460
  551.250    4.402    0.285    0.431   72.202
  551.500    4.452    0.288    0.440   65.453
  551.750    4.477    0.293    0.424   56.709
  552.000    4.469    0.295    0.401   49.175
  552.250    4.403    0.303    0.383   49.376
  552.500    4.362    0.310    0.377   51.872
  552.750    4.453    0.308    0.385   50.498
  553.000    4.710    0.303    0.399   54.202
  553.250    5.057    0.296    0.359   69.806
  553.500    5.380    0.273    0.342   87.405
  553.750    5.649    0.246    0.385   97.634
  554.000    5.919    0.229    0.409  105.688
  554.250    6.169    0.221    0.447  102.807
  554.500    6.297    0.215    0.450   87.357
  554.750    6.321    0.220    0.429   75.412
  555.000    6.321    0.232    0.401   69.026
  555.250    6.321    0.242    0.370   69.467
  555.500    6.369    0.244    0.350   71.842
  555.750    6.502    0.236    0.375   70.047
  556.000    6.674    0.258    0.377   64.205
  556.250    6.916    0.271    0.369   60.900
  556.500    7.344    0.198    0.425   51.434
  556.750    8.233    0.042    0.423   35.198
  557.000    9.873    0.041    0.230   23.798
  557.250   14.385    0.066    0.178   14.694
  557.500   22.844    0.061    0.161   14.710
  557.750   31.703    0.052    0.152   17.630
  558.000   39.692    0.044    0.150   19.521
  558.250   46.979    0.035    0.148   20.808
  558.500   51.882    0.024    0.142   21.552
  558.750   56.129    0.027    0.139   21.084
  559.000   58.820    0.037    0.151   19.955
  559.250   61.411    0.043    0.154   19.006
  559.500   63.162    0.040    0.155   18.541
  559.750   63.282    0.034    0.161   18.922
  560.000   61.416    0.030    0.173   19.367
