~VERSION INFORMATION
 VERS.                 2.0:   CWLS LOG ASCII STANDARD -VERSION 2.0
 WRAP.                  NO:   ONE LINE PER DEPTH STEP
~WELL INFORMATION BLOCK
#MNEM.UNIT           DATA                    DESCRIPTION OF MNEMONIC
#---------    -------------------            -------------------------------
# Generated from Intellog Unique Number	CS_67_68/WELL/771
WELL.         FISHER CREEK                   : Well_name    - WELL
LOC .         00/07-15-068-06W4/0            : Location     - LOCATION
UWI .         00/07-15-068-06W4/0            : Uwi          - UNIQUE WELL ID
ENTR.         SP                             : Entered      - ENTERED BY
SRVC.         SCHLUMBERGER                   : Scn          - SERVICE COMPANY
STRT.M        350                            : top_depth    - START DEPTH
STOP.M        580                            : bot_depth    - STOP DEPTH
STEP.M        0.25                           : increment    - STEP LENGTH
 NULL. -999.2500:NULL Value
~CURVE INFORMATION BLOCK
#MNEM UNIT       ERCB CURVE CODE    CURVE DESCRIPTION
#-----------   ------------------   ----------------------------------
DEPT.M        00 001 00 00         : DEPTH        - DEPTH
ILD .OHMM     00 120 00 00         : RESD         - DEEP RESISTIVITY (DIL)
DPHI.V/V      00 890 00 00         : PHID         - DENSITY POROSITY (LIMESTONE)
NPHI.V/V      00 330 00 00         : PHIN         - NEUTRON POROSITY (LIMESTONE)
GR  .API      00 310 00 00         : GR           - GAMMA RAY
~PARAMETER INFORMATION
#MNEM.UNIT           DATA             DESCRIPTION OF MNEMONIC
#---------         -----------     ------------------------------
GL  .M        694.03               : gl           - GROUND LEVEL ELEVATION
EREF.M        697.03               : kb           - ELEVATION OF DEPTH REFERENCE
DATM.M        694.03               : datum        - DATUM ELEVATION
TDD .M        591                  : tdd          - TOTAL DEPTH DRILLER
RUN .         ONE                  : Run          - RUN NUMBER
ENG .         BILL                 : Engineer     - RECORDING ENGINEER
WIT .         JIM                  : Witness      - WITNESSED BY
MUD .         GEL                  : Mud_type     - MUD TYPE
MATR.         LIMESTONE            : Logunit      - NEUTRON MATRIX
TMAX.C        23.2                 : BHT          - MAXIMUM RECORDED TEMPERATURE
BHTD.M        591                  : BHTDEP       - MAXIMUM RECORDED TEMPERATURE
MATR.         1                    : LOGUNIT      - NEUTRON MATRIX
RMT .C        25                   : MDTP         - TEMPERATURE OF MUD
NEUT.         1                    : NEUTRON      - NEUTRON TYPE
RESI.         0                    : RESIST       - RESISTIVITY TYPE
RMC .OHMM     0.25                 : RMC          - RESISTIVITY OF MUD CAKE
RMF .OHMM     0.25                 : RMF          - RESISTIVITY OF MUD FILTRATE
SUFT.C        15                   : SUFT         - SURFACE TEMPERATURE
~A  DEPTH     RESD     PHID     PHIN       GR
# ...
  524.000    6.658    0.216    0.370   86.168
  524.250    7.193    0.230    0.382   86.350
  524.500    8.175    0.232    0.370   89.823
  524.750   10.794    0.222    0.369   78.855
  525.000   15.218    0.238    0.381   67.888
  525.250   22.958    0.285    0.391   62.952
  525.500   30.307    0.313    0.396   67.216
  525.750   34.835    0.327    0.391   69.287
  526.000   30.569    0.328    0.384   70.748
  526.250   25.120    0.325    0.401   72.331
  526.500   19.700    0.326    0.412   74.829
  526.750   15.048    0.329    0.423   77.996
  527.000   12.001    0.325    0.428   81.163
  527.250   10.182    0.313    0.420   83.356
  527.500    8.463    0.298    0.411   84.330
  527.750    7.537    0.286    0.400   84.329
  528.000    6.689    0.274    0.393   85.852
  528.250    6.221    0.265    0.385   91.030
  528.500    5.906    0.255    0.369   96.512
  528.750    5.965    0.242    0.368  100.837
  529.000    6.161    0.236    0.371  103.334
  529.250    6.352    0.238    0.356  103.455
  529.500    6.585    0.240    0.348  100.835
  529.750    7.169    0.234    0.348  100.469
  530.000    7.892    0.227    0.365   95.716
  530.250    8.575    0.222    0.402   87.368
  530.500    9.144    0.240    0.430   80.178
  530.750    9.588    0.267    0.409   76.095
  531.000    9.848    0.276    0.375   74.815
  531.250    9.890    0.272    0.361   77.251
  531.500    9.531    0.264    0.349   78.225
  531.750    9.049    0.250    0.352   72.802
  532.000    8.640    0.237    0.362   66.892
  532.250    8.515    0.253    0.341   65.977
  532.500    8.895    0.265    0.328   71.764
  532.750    9.756    0.251    0.322   77.917
  533.000   10.442    0.240    0.357   77.002
  533.250   10.448    0.261    0.376   72.554
  533.500    9.554    0.283    0.392   69.933
  533.750    8.802    0.294    0.375   67.496
  534.000    7.842    0.293    0.354   71.942
  534.250    7.500    0.286    0.341   78.034
  534.500    7.448    0.269    0.363   83.882
  534.750    7.328    0.259    0.370   88.207
  535.000    7.049    0.244    0.337   92.167
  535.250    6.767   -0.006    0.312   86.865
  535.500    6.353    0.008    0.288   79.432
  535.750    6.032    0.116    0.312   85.523
  536.000    5.922    0.175    0.359   93.382
  536.250    5.837    0.229    0.383  100.388
  536.500    5.840    0.233    0.367  103.677
  536.750    6.010    0.219    0.359  103.372
  537.000    6.482    0.210    0.357  101.117
  537.250    6.951    0.213    0.358   92.343
  537.500    7.481    0.249    0.382   80.400
  537.750    8.411    0.286    0.407   72.418
  538.000    8.491    0.316    0.424   67.787
  538.250    8.322    0.332    0.401   65.349
  538.500    7.769    0.320    0.388   64.739
  538.750    7.213    0.310    0.380   65.470
  539.000    6.964    0.301    0.378   67.480
  539.250    6.724    0.302    0.379   69.733
  539.500    6.577    0.295    0.380   73.875
  539.750    6.386    0.287    0.379   78.444
  540.000    5.984    0.280    0.375   85.145
  540.250    5.724    0.273    0.370   93.430
  540.500    5.589    0.261    0.380   99.705
  540.750    5.817    0.243    0.385  106.893
  541.000    6.214    0.218    0.390  106.283
  541.250    6.601    0.208    0.361   98.240
  541.500    7.120    0.203    0.326   97.326
  541.750    7.452    0.193    0.305   95.680
  542.000    7.726    0.183    0.310   94.156
  542.250    7.890    0.171    0.309   95.435
  542.500    8.028    0.170    0.305   98.602
  542.750    7.974    0.179    0.313   99.698
  543.000    7.858    0.180    0.319   97.382
  543.250    7.702    0.173    0.319   93.482
  543.500    7.563    0.171    0.309   94.882
  543.750    7.482    0.172    0.311   97.806
  544.000    7.714    0.178    0.327   93.541
  544.250    8.073    0.173    0.321   87.325
  544.500    8.261    0.170    0.318   85.070
  544.750    8.375    0.181    0.318   90.370
  545.000    8.410    0.181    0.322   88.603
  545.250    8.416    0.181    0.325   82.509
  545.500    8.341    0.193    0.335   79.462
  545.750    8.298    0.204    0.344   76.537
  546.000    8.303    0.205    0.340   73.916
  546.250    8.401    0.211    0.332   71.844
  546.500    8.711    0.223    0.337   71.843
  546.750    8.880    0.200    0.317   70.320
  547.000    8.968    0.197    0.351   68.247
  547.250    9.074    0.236    0.374   67.089
  547.500    9.046    0.241    0.356   72.084
  547.750    8.882    0.220    0.325   76.775
  548.000    8.608    0.207    0.318   79.698
  548.250    8.358    0.213    0.337   77.321
  548.500    8.146    0.218    0.349   72.995
  548.750    7.880    0.190    0.338   77.015
  549.000    7.709    0.148    0.328   91.637
  549.250    7.486    0.148    0.326  104.369
  549.500    7.268    0.152    0.345  112.959
  549.750    7.150    0.150    0.360  117.832
  550.000    7.088    0.145    0.359  117.954
  550.250    7.051    0.143    0.361  111.617
  550.500    7.042    0.142    0.367  105.828
  550.750    7.019    0.144    0.374  104.487
  551.000    7.023    0.151    0.360  109.421
  551.250    6.962    0.156    0.362  114.599
  551.500    6.912    0.157    0.381  111.734
  551.750    6.903    0.161    0.404  110.698
  552.000    6.908    0.157    0.393  110.758
  552.250    6.936    0.150    0.376  113.256
  552.500    7.008    0.155    0.364  115.143
  552.750    6.996    0.171    0.381  116.483
  553.000    6.974    0.171    0.389  115.812
  553.250    6.964    0.161    0.384  112.521
  553.500    6.994    0.154    0.381  109.779
  553.750    7.063    0.150    0.379  109.108
  554.000    7.121    0.150    0.381  112.336
  554.250    7.151    0.147    0.388  113.249
  554.500    7.222    0.149    0.399  115.686
  554.750    7.376    0.161    0.405  117.513
  555.000    7.493    0.172    0.384  115.989
  555.250    7.524    0.165    0.374  113.307
  555.500    7.543    0.159    0.382  110.382
  555.750    7.532    0.162    0.379  108.675
  556.000    7.480    0.164    0.373  107.334
  556.250    7.442    0.171    0.368  108.674
  556.500    7.432    0.179    0.364  111.415
  556.750    7.395    0.182    0.360  114.278
  557.000    7.412    0.177    0.356  115.922
  557.250    7.757    0.169    0.361  116.408
  557.500    7.805    0.164    0.378  114.763
  557.750    7.752    0.159    0.388  112.873
  558.000    7.713    0.169    0.381  110.313
  558.250    7.672    0.174    0.370  108.972
  558.500    7.620    0.163    0.366  109.946
  558.750    7.581    0.157    0.365  110.738
  559.000    7.474    0.153    0.367  110.006
  559.250    7.476    0.148    0.367  108.116
  559.500    7.493    0.146    0.367  106.349
  559.750    7.813    0.146    0.369  105.556
  560.000    8.269    0.149    0.373  104.276
  560.250    8.751    0.157    0.376   98.975
  560.500    9.367    0.172    0.378   85.266
  560.750    9.860    0.214    0.384   72.714
  561.000   10.146    0.241    0.393   68.448
  561.250   10.304    0.228    0.349   73.139
  561.500   10.156    0.188    0.323   80.632
  561.750    9.517    0.178    0.321   82.276
  562.000    8.867    0.190    0.321   81.118
  562.250    8.386    0.195    0.324   79.046
  562.500    8.143    0.177    0.328   81.847
  562.750    8.088    0.168    0.333   87.513
  563.000    8.169    0.173    0.337   86.659
  563.250    8.281    0.179    0.335   88.364
  563.500    8.393    0.176    0.339   95.979
  563.750    8.672    0.173    0.344  103.046
  564.000    8.723    0.172    0.351  110.661
  564.250    8.778    0.173    0.359  112.793
  564.500    8.816    0.162    0.353  100.119
  564.750    8.836    0.160    0.364   66.183
  565.000    8.957    0.181    0.400   63.014
  565.250    9.304    0.231    0.396   64.658
  565.500   10.090    0.187    0.365   68.313
  565.750   11.108    0.178    0.337   81.289
  566.000   11.912    0.205    0.366   62.889
  566.250   12.235    0.261    0.395   33.096
  566.500   12.037    0.340    0.402   42.843
  566.750   11.131    0.321    0.345   59.170
  567.000    8.361    0.289    0.318   76.290
  567.250    6.845    0.263    0.337   79.457
