~VERSION INFORMATION
 VERS.                 2.0:   CWLS LOG ASCII STANDARD -VERSION 2.0
 WRAP.                  NO:   ONE LINE PER DEPTH STEP
~WELL INFORMATION BLOCK
#MNEM.UNIT           DATA                    DESCRIPTION OF MNEMONIC
#---------    -------------------            -------------------------------
# Generated from Intellog Unique Number	CS_67_68/WELL/2176
WELL.         07-08-067-02W4                 : Well_name    - WELL
LOC .         00/07-08-067-02W4/0            : Location     - LOCATION
UWI .         00/07-08-067-02W4/0            : Uwi          - UNIQUE WELL ID
ENTR.         SP                             : Entered      - ENTERED BY
SRVC.         SCHLUMBERGER                   : Scn          - SERVICE COMPANY
STRT.M        345                            : top_depth    - START DEPTH
STOP.M        606                            : bot_depth    - STOP DEPTH
STEP.M        0.25                           : increment    - STEP LENGTH
 NULL. -999.2500:NULL Value
~CURVE INFORMATION BLOCK
#MNEM UNIT       ERCB CURVE CODE    CURVE DESCRIPTION
#-----------   ------------------   ----------------------------------
DEPT.M        00 001 00 00         : DEPTH        - DEPTH
ILD .OHMM     00 120 00 00         : RESD         - DEEP RESISTIVITY (DIL)
DPHI.V/V      00 890 00 00         : PHID         - DENSITY POROSITY (LIMESTONE)
NPHI.V/V      00 330 00 00         : PHIN         - NEUTRON POROSITY (LIMESTONE)
GR  .API      00 310 00 00         : GR           - GAMMA RAY
CALI.MM       00 280 01 00         : CAL          - CALIPER
~PARAMETER INFORMATION
#MNEM.UNIT           DATA             DESCRIPTION OF MNEMONIC
#---------         -----------     ------------------------------
GL  .M        644.3                : gl           - GROUND LEVEL ELEVATION
EREF.M        648.1                : kb           - ELEVATION OF DEPTH REFERENCE
DATM.M        648.1                : datum        - DATUM ELEVATION
TDD .M        613.8                : tdd          - TOTAL DEPTH DRILLER
RUN .         ONE                  : Run          - RUN NUMBER
ENG .         BILL                 : Engineer     - RECORDING ENGINEER
WIT .         JIM                  : Witness      - WITNESSED BY
MUD .         GEL                  : Mud_type     - MUD TYPE
MATR.         LIMESTONE            : Logunit      - NEUTRON MATRIX
TMAX.C        25.5                 : BHT          - MAXIMUM RECORDED TEMPERATURE
BHTD.M        618.3                : BHTDEP       - MAXIMUM RECORDED TEMPERATURE
MATR.         1                    : LOGUNIT      - NEUTRON MATRIX
RMT .C        25                   : MDTP         - TEMPERATURE OF MUD
NEUT.         1                    : NEUTRON      - NEUTRON TYPE
RESI.         0                    : RESIST       - RESISTIVITY TYPE
RMC .OHMM     0.25                 : RMC          - RESISTIVITY OF MUD CAKE
RMF .OHMM     0.25                 : RMF          - RESISTIVITY OF MUD FILTRATE
SUFT.C        15                   : SUFT         - SURFACE TEMPERATURE
~A  DEPTH     RESD     PHID     PHIN       GR      CAL
# ...
  564.000    8.751    0.202    0.367   95.512  162.834
  564.250    8.871    0.205    0.373   98.996  161.965
  564.500    8.907    0.207    0.363  104.118  160.986
  564.750    8.846    0.190    0.371  109.238  160.737
  565.000    8.767    0.175    0.399  113.332  161.186
  565.250    8.643    0.166    0.415  111.532  162.034
  565.500    8.536    0.162    0.396  108.286  162.683
  565.750    8.524    0.157    0.377  105.822  162.719
  566.000    8.546    0.151    0.363  103.239  162.659
  566.250    8.629    0.145    0.349   94.644  162.606
  566.500    8.632    0.187    0.389   87.757  162.143
  566.750    8.622    0.219    0.398   79.834  160.667
  567.000    8.562    0.245    0.376   76.031  159.698
  567.250    8.488    0.237    0.364   74.058  158.821
  567.500    8.367    0.233    0.374   75.842  158.860
  567.750    8.247    0.237    0.377   78.536  158.913
  568.000    8.112    0.226    0.360   69.523  158.643
  568.250    7.921    0.223    0.370   61.717  158.594
  568.500    7.722    0.253    0.377   56.708  158.004
  568.750    7.456    0.270    0.385   52.120  157.956
  569.000    7.267    0.292    0.381   53.419  157.296
  569.250    7.164    0.311    0.352   64.607  156.720
  569.500    7.194    0.288    0.351   68.822  156.463
  569.750    7.347    0.267    0.373   61.685  156.107
  570.000    7.517    0.292    0.397   54.918  155.849
  570.250    7.508    0.315    0.382   48.813  155.793
  570.500    7.277    0.330    0.384   44.410  155.731
  570.750    6.908    0.338    0.377   55.537  155.778
  571.000    6.797    0.288    0.374   64.302  155.814
  571.250    6.943    0.266    0.360   69.786  155.963
  571.500    7.279    0.253    0.350   74.182  156.100
  571.750    7.688    0.233    0.354   77.606  156.138
  572.000    8.060    0.219    0.357   78.056  156.067
  572.250    8.545    0.211    0.349   73.407  156.118
  572.500    8.993    0.217    0.339   70.458  156.168
  572.750    9.218    0.228    0.357   64.536  156.000
  573.000    9.136    0.256    0.392   55.642  155.947
  573.250    8.957    0.296    0.405   56.696  155.691
  573.500    8.315    0.311    0.380   65.827  155.833
  573.750    7.750    0.284    0.356   74.406  155.765
  574.000    7.303    0.257    0.356   79.530  155.710
  574.250    7.106    0.246    0.366   79.854  155.653
  574.500    7.366    0.248    0.355   75.756  155.678
  574.750    7.723    0.244    0.351   77.845  155.838
  575.000    8.036    0.231    0.369   86.967  156.176
  575.250    8.131    0.220    0.383   93.489  156.508
  575.500    7.879    0.223    0.396   82.349  156.763
  575.750    7.510    0.273    0.403   59.439  157.019
  576.000    7.158    0.323    0.389   43.326  157.163
  576.250    6.846    0.354    0.381   36.854  157.594
  576.500    6.700    0.331    0.370   48.652  157.642
  576.750    6.555    0.305    0.358   56.623  157.689
  577.000    6.509    0.280    0.366   62.234  157.734
  577.250    6.710    0.298    0.390   57.525  157.873
  577.500    6.969    0.320    0.400   48.812  157.816
  577.750    7.117    0.333    0.389   41.373  158.037
  578.000    6.885    0.341    0.374   35.876  157.989
  578.250    6.573    0.343    0.359   32.989  157.938
  578.500    6.384    0.345    0.362   31.864  157.578
  578.750    6.176    0.349    0.369   34.255  157.298
  579.000    6.066    0.353    0.364   36.283  157.151
  579.250    6.137    0.351    0.361   34.791  157.187
  579.500    6.315    0.345    0.371   29.657  157.139
  579.750    6.450    0.341    0.378   25.312  157.079
  580.000    6.526    0.348    0.384   21.455  157.216
  580.250    6.602    0.355    0.359   19.299  157.163
  580.500    6.693    0.348    0.342   35.644  157.282
  580.750    6.773    0.310    0.333   55.634  157.332
  581.000    6.943    0.272    0.331   59.902  157.384
  581.250    7.238    0.256    0.342   59.263  157.330
  581.500    7.574    0.265    0.352   54.679  157.375
  581.750    7.823    0.298    0.366   47.299  157.407
  582.000    7.929    0.317    0.370   39.316  157.647
  582.250    7.686    0.329    0.363   37.461  157.893
  582.500    7.464    0.334    0.348   37.667  157.835
  582.750    7.396    0.281    0.327   54.500  158.276
  583.000    7.726    0.231    0.311   69.632  158.312
  583.250    8.207    0.192    0.321   85.615  158.449
  583.500    8.734    0.181    0.337   94.863  158.390
  583.750    9.072    0.163    0.344   99.077  158.336
  584.000    9.350    0.143    0.351  102.621  158.082
  584.250    9.356    0.173    0.379   59.868  157.729
  584.500    8.948    0.236    0.407   47.940  157.260
  584.750    8.659    0.284    0.366   39.349  157.009
  585.000    8.160    0.312    0.338   33.975  156.949
  585.250    7.837    0.330    0.339   32.603  156.790
  585.500    7.524    0.338    0.338   32.266  156.512
  585.750    7.197    0.337    0.333   35.863  156.459
  586.000    6.964    0.329    0.327   40.809  156.106
  586.250    6.772    0.319    0.345   46.052  155.629
  586.500    6.715    0.320    0.379   45.167  154.671
  586.750    6.730    0.349    0.400   37.117  154.005
  587.000    6.810    0.368    0.414   34.176  155.057
  587.250    6.877    0.369    0.400   31.712  156.518
  587.500    6.934    0.353    0.364   31.675  158.679
  587.750    6.962    0.344    0.351   31.881  160.544
  588.000    6.965    0.343    0.356   32.152  162.205
  588.250    6.958    0.346    0.354   32.238  163.139
  588.500    6.973    0.348    0.349   32.986  163.804
  588.750    6.938    0.345    0.350   33.987  164.044
  589.000    6.917    0.341    0.356   33.467  164.079
  589.250    6.855    0.336    0.360   33.613  163.822
  589.500    6.796    0.331    0.355   33.752  163.661
  589.750    6.624    0.331    0.349   33.962  163.397
  590.000    6.590    0.336    0.354   34.347  163.244
  590.250    6.730    0.332    0.366   34.560  162.663
  590.500    6.874    0.323    0.373   34.705  162.619
  590.750    7.058    0.327    0.352   34.913  161.948
  591.000    7.130    0.328    0.348   34.755  162.088
  591.250    7.187    0.321    0.363   34.542  162.038
  591.500    7.244    0.326    0.347   35.657  161.872
  591.750    7.386    0.326    0.328   38.897  161.701
  592.000    7.685    0.318    0.318   43.355  161.558
  592.250    7.876    0.298    0.314   47.565  161.396
  592.500    7.708    0.303    0.328   39.882  161.138
  592.750    7.089    0.323    0.350   30.259  161.174
  593.000    6.681    0.339    0.365   24.705  161.316
  593.250    6.342    0.334    0.371   20.357  161.453
  593.500    6.242    0.324    0.365   18.992  161.494
  593.750    6.187    0.308    0.369   19.075  161.542
  594.000    6.260    0.293    0.376   19.586  161.372
  594.250    6.310    0.315    0.374   20.095  161.121
  594.500    6.385    0.327    0.377   20.669  161.151
  594.750    6.399    0.336    0.363   21.116  160.904
  595.000    6.401    0.335    0.353   21.085  160.644
  595.250    6.406    0.334    0.357   20.379  160.482
  595.500    6.420    0.334    0.364   19.738  160.408
  595.750    6.426    0.347    0.362   19.580  160.354
  596.000    6.452    0.353    0.356   19.789  159.989
  596.250    6.444    0.342    0.348   19.806  159.942
  596.500    6.436    0.333    0.343   19.778  159.783
  596.750    6.463    0.328    0.339   19.980  159.403
  597.000    6.478    0.327    0.338   20.193  159.253
  597.250    6.469    0.328    0.338   20.456  158.998
  597.500    6.474    0.329    0.339   20.971  159.137
  597.750    6.513    0.326    0.341   21.542  159.484
  598.000    6.517    0.322    0.341   21.744  160.134
  598.250    6.581    0.315    0.340   21.530  161.088
  598.500    6.635    0.312    0.331   21.918  161.331
  598.750    6.763    0.309    0.332   23.159  161.772
  599.000    6.971    0.303    0.346   24.876  162.125
  599.250    7.214    0.296    0.359   26.182  162.165
  599.500    7.507    0.289    0.368   28.081  163.508
  599.750    7.765    0.282    0.381   29.084  163.765
  600.000    7.933    0.280    0.396   30.381  163.801
  600.250    7.849    0.294    0.385   31.742  163.648
