~VERSION INFORMATION
 VERS.                 2.0:   CWLS LOG ASCII STANDARD -VERSION 2.0
 WRAP.                  NO:   ONE LINE PER DEPTH STEP
~WELL INFORMATION BLOCK
#MNEM.UNIT           DATA                    DESCRIPTION OF MNEMONIC
#---------    -------------------            -------------------------------
# Generated from Intellog Unique Number	CS_73_76/WELL/637
WELL.         AMOCO AEC IPIATIK              : Well_name    - WELL
LOC .         00/06-13-073-06W4/0            : Location     - LOCATION
UWI .         00/06-13-073-06W4/0            : Uwi          - UNIQUE WELL ID
ENTR.         SP                             : Entered      - ENTERED BY
SRVC.         SCHLUMBERGER                   : Scn          - SERVICE COMPANY
STRT.M        305                            : top_depth    - START DEPTH
STOP.M        550                            : bot_depth    - STOP DEPTH
STEP.M        0.25                           : increment    - STEP LENGTH
 NULL. -999.2500:NULL Value
~CURVE INFORMATION BLOCK
#MNEM UNIT       ERCB CURVE CODE    CURVE DESCRIPTION
#-----------   ------------------   ----------------------------------
DEPT.M        00 001 00 00         : DEPTH        - DEPTH
ILD .OHMM     00 120 00 00         : RESD         - DEEP RESISTIVITY (DIL)
DPHI.V/V      00 890 00 00         : PHID         - DENSITY POROSITY (LIMESTONE)
NPHI.V/V      00 330 00 00         : PHIN         - NEUTRON POROSITY (LIMESTONE)
GR  .API      00 310 00 00         : GR           - GAMMA RAY
~PARAMETER INFORMATION
#MNEM.UNIT           DATA             DESCRIPTION OF MNEMONIC
#---------         -----------     ------------------------------
GL  .M        693.7                : gl           - GROUND LEVEL ELEVATION
EREF.M        697.9                : kb           - ELEVATION OF DEPTH REFERENCE
DATM.M        693.7                : datum        - DATUM ELEVATION
TDD .M        570                  : tdd          - TOTAL DEPTH DRILLER
RUN .         ONE                  : Run          - RUN NUMBER
ENG .         BILL                 : Engineer     - RECORDING ENGINEER
WIT .         JIM                  : Witness      - WITNESSED BY
MUD .         GEL                  : Mud_type     - MUD TYPE
MATR.         LIMESTONE            : Logunit      - NEUTRON MATRIX
TMAX.C        20                   : BHT          - MAXIMUM RECORDED TEMPERATURE
BHTD.M        570                  : BHTDEP       - MAXIMUM RECORDED TEMPERATURE
MATR.         1                    : LOGUNIT      - NEUTRON MATRIX
RMT .C        25                   : MDTP         - TEMPERATURE OF MUD
NEUT.         1                    : NEUTRON      - NEUTRON TYPE
RESI.         0                    : RESIST       - RESISTIVITY TYPE
RMC .OHMM     0.25                 : RMC          - RESISTIVITY OF MUD CAKE
RMF .OHMM     0.25                 : RMF          - RESISTIVITY OF MUD FILTRATE
SUFT.C        15                   : SUFT         - SURFACE TEMPERATURE
~A  DEPTH     RESD     PHID     PHIN       GR
# ...
  435.500    4.415    0.325    0.464   71.582
  435.750    4.497    0.323    0.471   72.797
  436.000    4.581    0.318    0.474   72.198
  436.250    4.667    0.309    0.464   69.785
  436.500    4.667    0.312    0.460   69.187
  436.750    4.754    0.307    0.461   68.587
  437.000    4.934    0.313    0.472   68.594
  437.250    5.121    0.318    0.474   66.787
  437.500    5.218    0.319    0.444   64.983
  437.750    5.518    0.306    0.422   64.382
  438.000    5.728    0.267    0.402   63.781
  438.250    5.945    0.274    0.374   63.787
  438.500    5.834    0.290    0.369   63.792
  438.750    5.619    0.291    0.440   64.406
  439.000    5.311    0.298    0.450   65.015
  439.250    5.115    0.305    0.459   65.626
  439.500    4.926    0.310    0.485   67.448
  439.750    4.744    0.303    0.476   69.268
  440.000    4.656    0.312    0.441   71.088
  440.250    4.568    0.314    0.417   74.119
  440.500    4.483    0.290    0.448   79.569
  440.750    4.482    0.281    0.463   85.018
  441.000    4.482    0.264    0.472   92.283
  441.250    4.481    0.231    0.473   98.337
  441.500    4.565    0.261    0.470   99.554
  441.750    4.564    0.275    0.459   91.696
  442.000    4.563    0.294    0.454   83.840
  442.250    4.562    0.281    0.450   79.007
  442.500    4.562    0.278    0.446   76.593
  442.750    4.561    0.261    0.445   75.995
  443.000    4.560    0.231    0.476   78.420
  443.250    4.559    0.239    0.501   80.241
  443.500    4.558    0.243    0.510   79.039
  443.750    4.558    0.254    0.513   77.836
  444.000    4.472    0.247    0.498   76.633
  444.250    4.072    0.275    0.485   76.638
  444.500    3.376    0.281    0.514   77.251
  444.750    2.961    0.270    0.530   77.859
  445.000    2.747    0.294    0.530   77.260
  445.250    2.696    0.281    0.531   74.847
  445.500    2.596    0.276    0.521   74.855
  445.750    2.548    0.286    0.515   76.677
  446.000    2.500    0.280    0.508   77.891
  446.250    2.547    0.269    0.503   79.712
  446.500    2.546    0.265    0.514   80.926
  446.750    2.643    0.265    0.525   80.932
  447.000    2.693    0.256    0.530   79.731
  447.250    2.848    0.266    0.520   78.527
  447.500    3.012    0.278    0.515   78.532
  447.750    3.245    0.279    0.508   78.540
  448.000    3.699    0.284    0.504   78.544
  448.250    3.912    0.290    0.503   76.739
  448.500    4.295    0.323    0.502   76.138
  448.750    4.896    0.307    0.497   74.934
  449.000    6.856    0.333    0.486   68.893
  449.250    8.423    0.342    0.469   64.060
  449.500   11.795    0.326    0.450   59.832
  449.750   14.490    0.342    0.438   56.813
  450.000   18.137    0.342    0.437   51.376
  450.250   20.672    0.333    0.435   51.384
  450.500   21.458    0.338    0.439   51.390
  450.750   21.858    0.321    0.450   51.394
  451.000   21.856    0.321    0.464   52.006
  451.250   22.265    0.333    0.448   52.012
  451.500   23.110    0.332    0.434   52.018
  451.750   24.439    0.329    0.467   52.024
  452.000   25.369    0.337    0.476   52.030
  452.250   26.829    0.337    0.470   50.827
  452.500   27.333    0.332    0.450   50.229
  452.750   28.904    0.340    0.445   52.050
  453.000   29.446    0.341    0.448   53.266
  453.250   30.564    0.336    0.448   53.876
  453.500   31.138    0.333    0.484   54.487
  453.750   32.931    0.344    0.465   52.679
  454.000   33.550    0.345    0.455   50.265
  454.250   35.480    0.336    0.443   49.063
  454.500   36.145    0.328    0.434   50.277
  454.750   36.820    0.322    0.445   50.889
  455.000   36.133    0.316    0.450   49.686
  455.250   36.128    0.332    0.455   52.113
  455.500   34.791    0.329    0.451   53.327
  455.750   33.509    0.322    0.450   55.148
  456.000   32.883    0.314    0.449   54.548
  456.250   33.499    0.311    0.445   50.926
  456.500   34.771    0.324    0.446   48.512
  456.750   36.090    0.323    0.455   50.337
  457.000   37.458    0.330    0.462   52.156
  457.250   38.162    0.336    0.472   53.370
  457.500   38.877    0.329    0.440   53.980
  457.750   39.606    0.339    0.443   52.777
  458.000   41.105    0.334    0.446   53.995
  458.250   41.100    0.330    0.443   53.999
  458.500   41.095    0.328    0.429   52.191
  458.750   39.577    0.333    0.421   50.989
  459.000   38.117    0.334    0.438   51.600
  459.250   36.031    0.330    0.444   52.817
  459.500   32.196    0.325    0.451   53.425
  459.750   29.868    0.325    0.455   52.828
  460.000   28.766    0.325    0.460   51.624
  460.250   28.229    0.322    0.455   52.235
  460.500   28.223    0.320    0.447   54.055
  460.750   28.219    0.329    0.443   54.666
  461.000   28.215    0.337    0.435   54.673
  461.250   29.285    0.345    0.435   54.678
  461.500   30.396    0.347    0.435   54.079
  461.750   32.148    0.340    0.441   53.482
  462.000   35.962    0.326    0.442   52.278
  462.250   38.035    0.302    0.444   51.075
  462.500   42.546    0.240    0.433   50.476
  462.750   46.714    0.206    0.354   49.274
  463.000   49.406    0.227    0.324   49.281
  463.250   50.331    0.334    0.357   49.284
  463.500   49.391    0.332    0.396   51.105
  463.750   44.969    0.337    0.422   52.322
  464.000   40.942    0.332    0.429   52.932
  464.250   40.179    0.326    0.435   54.148
  464.500   37.973    0.335    0.444   55.364
  464.750   37.263    0.336    0.451   54.766
  465.000   36.568    0.340    0.458   53.562
  465.250   35.885    0.342    0.448   52.963
  465.500   34.560    0.337    0.456   53.574
  465.750   33.286    0.329    0.461   54.791
  466.000   30.877    0.324    0.454   56.007
  466.250   29.737    0.318    0.458   56.015
  466.500   29.182    0.324    0.447   55.414
  466.750   29.178    0.311    0.430   54.816
  467.000   29.723    0.300    0.423   53.006
  467.250   30.853    0.278    0.413   51.199
  467.500   32.628    0.215    0.391   48.786
  467.750   33.242    0.182    0.346   47.584
  468.000   33.862    0.210    0.344   48.193
  468.250   33.231    0.285    0.383   51.223
  468.500   31.410    0.303    0.436   54.254
  468.750   29.139    0.298    0.459   55.469
  469.000   27.029    0.311    0.446   57.291
  469.250   26.032    0.323    0.440   57.901
  469.500   25.072    0.320    0.435   58.513
  469.750   24.605    0.327    0.434   59.124
  470.000   24.144    0.336    0.458   59.129
  470.250   24.140    0.333    0.469   59.136
  470.500   24.590    0.314    0.472   58.538
  470.750   25.050    0.299    0.462   57.333
  471.000   25.047    0.305    0.460   55.525
  471.250   25.518    0.322    0.459   54.926
  471.500   25.995    0.329    0.457   55.539
  471.750   25.508    0.336    0.463   56.148
  472.000   24.112    0.336    0.468   55.549
  472.250   19.991    0.338    0.460   54.347
  472.500   18.547    0.344    0.458   55.562
  472.750   16.573    0.349    0.454   56.780
  473.000   15.090    0.338    0.452   56.785
  473.250   13.999    0.323    0.450   56.791
  473.500   12.987    0.320    0.439   55.587
  473.750   12.275    0.316    0.433   54.988
  474.000   11.823    0.300    0.421   54.996
  474.250   11.175    0.288    0.414   54.396
  474.500   10.563    0.287    0.416   53.192
  474.750    9.439    0.302    0.427   50.781
  475.000    8.756    0.328    0.443   49.578
  475.250    8.277    0.328    0.436   49.584
  475.500    7.972    0.328    0.430   50.194
  475.750    7.970    0.334    0.441   50.805
  476.000    8.751    0.317    0.448   52.625
  476.250   10.162    0.295    0.441   52.630
  476.500   11.801    0.265    0.437   50.823
  476.750   12.482    0.235    0.439   50.831
  477.000   13.201    0.213    0.419   50.834
  477.250   13.702    0.182    0.386   46.608
  477.500   13.700    0.189    0.397   49.034
  477.750   12.950    0.258    0.419   51.460
  478.000   11.147    0.307    0.436   53.279
  478.250    9.961    0.328    0.448   53.890
  478.500    8.901    0.324    0.459   53.291
  478.750    8.413    0.324    0.466   52.087
