~VERSION INFORMATION
 VERS.                 2.0:   CWLS LOG ASCII STANDARD -VERSION 2.0
 WRAP.                  NO:   ONE LINE PER DEPTH STEP
~WELL INFORMATION BLOCK
#MNEM.UNIT           DATA                    DESCRIPTION OF MNEMONIC
#---------    -------------------            -------------------------------
# Generated from Intellog Unique Number	CS_77_79/WELL/3270
WELL.         LOGAN RESOURCES LTD.           : Well_name    - WELL
LOC .         00/03-02-077-14W4/0            : Location     - LOCATION
UWI .         00/03-02-077-14W4/0            : Uwi          - UNIQUE WELL ID
ENTR.         JO                             : Entered      - ENTERED BY
SRVC.         SCHLUMBERGER                   : Scn          - SERVICE COMPANY
DATE.         05/22/92                       : Date         - LOG DATE
STRT.M        285                            : top_depth    - START DEPTH
STOP.M        515                            : bot_depth    - STOP DEPTH
STEP.M        0.25                           : increment    - STEP LENGTH
 NULL. -999.2500:NULL Value
~CURVE INFORMATION BLOCK
#MNEM UNIT       ERCB CURVE CODE    CURVE DESCRIPTION
#-----------   ------------------   ----------------------------------
DEPT.M        00 001 00 00         : DEPTH        - DEPTH
ILD .OHMM     00 120 00 00         : RESD         - DEEP RESISTIVITY (DIL)
DPHI.V/V      00 890 00 00         : PHID         - DENSITY POROSITY (SANDSTONE)
NPHI.V/V      00 330 00 00         : PHIN         - NEUTRON POROSITY (SANDSTONE)
GR  .API      00 310 00 00         : GR           - GAMMA RAY
~PARAMETER INFORMATION
#MNEM.UNIT           DATA             DESCRIPTION OF MNEMONIC
#---------         -----------     ------------------------------
GL  .M        671.9                : gl           - GROUND LEVEL ELEVATION
EREF.M        675.4                : kb           - ELEVATION OF DEPTH REFERENCE
DATM.M        675.4                : datum        - DATUM ELEVATION
TDD .M        522                  : tdd          - TOTAL DEPTH DRILLER
RUN .         ONE                  : Run          - RUN NUMBER
ENG .         BILL                 : Engineer     - RECORDING ENGINEER
WIT .         JIM                  : Witness      - WITNESSED BY
MUD .         GEL                  : Mud_type     - MUD TYPE
MATR.         SANDSTONE            : Logunit      - NEUTRON MATRIX
TMAX.C        30                   : BHT          - MAXIMUM RECORDED TEMPERATURE
BHTD.M        522.2                : BHTDEP       - MAXIMUM RECORDED TEMPERATURE
RMT .C        18                   : MDTP         - TEMPERATURE OF MUD
MUDD.KG/M     1160                 : MWT          - MUD DENSITY
NEUT.         1                    : NEUTRON      - NEUTRON TYPE
RESI.         0                    : RESIST       - RESISTIVITY TYPE
RM  .OHMM     2.8                  : RM           - RESISTIVITY OF MUD
RMC .OHMM     1.9                  : RMC          - RESISTIVITY OF MUD CAKE
RMF .OHMM     2.2                  : RMF          - RESISTIVITY OF MUD FILTRATE
SUFT.C        4                    : SUFT         - SURFACE TEMPERATURE
~A  DEPTH     RESD     PHID     PHIN       GR
# ...
  415.500    5.565    0.347    0.420   58.574
  415.750    5.559    0.343    0.424   63.300
  416.000    5.451    0.334    0.401   68.031
  416.250    5.344    0.331    0.410   66.231
  416.500    5.340    0.333    0.416   62.052
  416.750    5.237    0.325    0.400   68.563
  417.000    5.326    0.311    0.398   67.356
  417.250    5.322    0.313    0.397   60.211
  417.500    5.518    0.322    0.390   64.937
  417.750    5.511    0.330    0.390   67.295
  418.000    5.505    0.326    0.398   68.462
  418.250    5.501    0.331    0.419   64.283
  418.500    5.495    0.334    0.420   62.483
  418.750    5.488    0.327    0.414   63.051
  419.000    5.484    0.316    0.407   64.816
  419.250    5.790    0.316    0.413   62.417
  419.500    6.004    0.316    0.406   61.803
  419.750    6.458    0.314    0.408   62.382
  420.000    6.696    0.305    0.422   64.729
  420.250    6.940    0.272    0.401   67.082
  420.500    6.806    0.244    0.379   60.541
  420.750    6.672    0.232    0.350   42.712
  421.000    6.421    0.288    0.387   50.409
  421.250    6.183    0.315    0.428   57.508
  421.500    6.065    0.326    0.431   62.828
  421.750    5.946    0.318    0.450   58.654
  422.000    5.832    0.313    0.439   66.347
  422.250    5.825    0.317    0.435   63.953
  422.500    5.712    0.331    0.415   56.220
  422.750    5.704    0.343    0.410   55.013
  423.000    5.699    0.343    0.411   56.773
  423.250    5.694    0.340    0.398   61.494
  423.500    5.795    0.335    0.403   61.473
  423.750    5.787    0.327    0.420   66.199
  424.000    5.781    0.305    0.417   66.772
  424.250    5.884    0.284    0.422   66.159
  424.500    5.878    0.283    0.413   60.200
  424.750    5.980    0.300    0.415   63.745
  425.000    5.977    0.309    0.398   69.064
  425.250    6.309    0.312    0.435   65.479
  425.500    6.422    0.332    0.439   66.052
  425.750    6.537    0.345    0.435   66.625
  426.000    6.902    0.354    0.427   65.423
  426.250    7.024    0.351    0.412   63.623
  426.500    7.148    0.351    0.434   62.999
  426.750    7.138    0.354    0.441   64.759
  427.000    7.266    0.358    0.445   65.337
  427.250    7.257    0.362    0.433   66.503
  427.500    7.251    0.358    0.425   54.019
  427.750    7.109    0.349    0.405   59.343
  428.000    7.102    0.340    0.407   63.476
  428.250    6.964    0.332    0.401   56.336
  428.500    6.831    0.332    0.410   57.502
  428.750    6.697    0.339    0.403   57.482
  429.000    6.444    0.339    0.398   60.423
  429.250    6.322    0.333    0.435   67.527
  429.500    6.084    0.327    0.438   59.789
  429.750    5.858    0.319    0.437   56.209
  430.000    5.745    0.322    0.428   59.155
  430.250    5.632    0.328    0.419   62.101
  430.500    5.626    0.326    0.421   63.268
  430.750    5.621    0.317    0.417   63.247
  431.000    5.613    0.312    0.408   65.007
  431.250    5.608    0.306    0.402   64.388
  431.500    5.603    0.305    0.390   63.186
  431.750    5.701    0.309    0.391   60.793
  432.000    5.695    0.316    0.398   61.366
  432.250    5.691    0.322    0.409   65.488
  432.500    5.683    0.320    0.418   64.282
  432.750    5.785    0.320    0.418   60.108
  433.000    5.778    0.325    0.408   60.681
  433.250    5.773    0.332    0.407   64.819
  433.500    5.765    0.328    0.403   64.794
  433.750    5.760    0.325    0.391   60.625
  434.000    5.751    0.323    0.406   57.040
  434.250    5.747    0.317    0.418   55.240
  434.500    5.742    0.317    0.416   58.191
  434.750    5.734    0.323    0.436   62.324
  435.000    5.729    0.315    0.467   65.863
  435.250    5.725    0.313    0.455   66.431
  435.500    5.717    0.314    0.438   66.411
  435.750    5.713    0.317    0.410   58.085
  436.000    5.706    0.316    0.421   57.466
  436.250    5.701    0.319    0.418   60.417
  436.500    5.694    0.335    0.403   67.516
  436.750    5.688    0.347    0.406   70.462
  437.000    5.682    0.351    0.550   65.696
  437.250    5.677    0.333    0.520   65.670
  437.500    5.668    0.316    0.495   63.875
  437.750    5.663    0.320    0.444   62.663
  438.000    5.658    0.321    0.398   64.423
  438.250    5.650    0.314    0.403   67.962
  438.500    5.542    0.311    0.416   69.129
  438.750    5.535    0.309    0.415   69.697
  439.000    5.528    0.308    0.433   69.083
  439.250    5.423    0.304    0.438   69.656
  439.500    5.418    0.301    0.425   71.415
  439.750    5.409    0.302    0.417   64.874
  440.000    5.406    0.295    0.406   66.629
  440.250    5.400    0.304    0.412   66.608
  440.500    5.497    0.310    0.425   73.712
  440.750    5.490    0.294    0.442   71.319
  441.000    5.486    0.281    0.427   76.638
  441.250    5.479    0.277    0.424   84.326
  441.500    5.473    0.279    0.432   84.305
  441.750    5.570    0.276    0.434   84.878
  442.000    5.564    0.260    0.426   86.638
  442.250    5.558    0.253    0.412   93.144
  442.500    5.655    0.272    0.412   81.851
  442.750    5.757    0.288    0.423   74.118
  443.000    5.966    0.283    0.423   69.945
  443.250    6.070    0.273    0.432   66.359
  443.500    6.065    0.261    0.461   67.526
  443.750    6.061    0.247    0.456   70.472
  444.000    5.942    0.253    0.451   74.006
  444.250    5.827    0.271    0.445   73.392
  444.500    5.930    0.264    0.419   75.745
  444.750    6.378    0.248    0.422   78.697
  445.000    6.612    0.222    0.438   82.236
  445.250    6.853    0.207    0.421   83.996
  445.500    6.723    0.193    0.396   75.669
  445.750    6.350    0.176    0.326   77.429
  446.000    6.114    0.153    0.304   59.011
  446.250    5.779    0.124    0.340   64.924
  446.500    5.458    0.220    0.374   73.215
  446.750    5.454    0.228    0.463   92.773
  447.000    5.448    0.226    0.477   86.820
  447.250    5.543    0.217    0.446   87.986
  447.500    5.640    0.228    0.439   95.080
  447.750    5.741    0.227    0.442   91.500
  448.000    5.953    0.227    0.436  105.126
  448.250    6.285    0.224    0.424  102.139
  448.500    6.516    0.215    0.436  103.305
  448.750    6.631    0.204    0.444   82.520
  449.000    6.748    0.208    0.424   79.533
  449.250    6.996    0.212    0.394   86.627
  449.500    6.990    0.214    0.395   80.679
  449.750    7.112    0.220    0.397   81.252
  450.000    7.106    0.220    0.391   85.978
  450.250    7.230    0.223    0.388   90.105
  450.500    7.223    0.220    0.392   85.339
  450.750    7.215    0.211    0.404   88.285
  451.000    7.206    0.202    0.407   97.757
  451.250    7.200    0.200    0.396   89.431
  451.500    7.059    0.204    0.387   88.817
  451.750    7.184    0.209    0.420   98.883
  452.000    7.177    0.211    0.431  107.762
  452.250    7.438    0.209    0.407  106.555
  452.500    7.571    0.209    0.395  110.688
  452.750    7.286    0.211    0.383  114.227
  453.000    6.761    0.210    0.373  107.087
  453.250    6.154    0.210    0.397  103.502
  453.500    5.926    0.211    0.424  107.042
  453.750    5.494    0.215    0.429  105.835
  454.000    5.290    0.214    0.412   99.288
  454.250    5.094    0.205    0.418   92.742
  454.500    4.903    0.188    0.411   87.377
  454.750    4.381    0.175    0.406   86.170
  455.000    3.917    0.221    0.457   98.020
  455.250    3.250    0.233    0.469  100.967
  455.500    2.852    0.244    0.480   95.013
  455.750    2.549    0.255    0.554   93.213
  456.000    2.278    0.254    0.585   96.159
  456.250    2.233    0.260    0.601   99.699
  456.500    2.232    0.265    0.590   97.894
  456.750    2.314    0.263    0.560   91.347
  457.000    2.443    0.252    0.589   89.542
  457.250    2.628    0.248    0.599   88.340
  457.500    2.935    0.247    0.587   97.807
  457.750    3.276    0.247    0.554   99.572
  458.000    3.591    0.241    0.546  107.858
  458.250    3.934    0.229    0.586  105.464
  458.500    4.156    0.207    0.553   96.544
  458.750    4.471    0.196    0.495   81.687
