~VERSION INFORMATION
 VERS.                 2.0:   CWLS LOG ASCII STANDARD -VERSION 2.0
 WRAP.                  NO:   ONE LINE PER DEPTH STEP
~WELL INFORMATION BLOCK
#MNEM.UNIT           DATA                    DESCRIPTION OF MNEMONIC
#---------    -------------------            -------------------------------
# Generated from Intellog Unique Number	CW_73_75/WELL/2729
WELL.         MANNVILLE ET AL MITSUE 07-20   : Well_name    - WELL
LOC .         00/07-20-073-02W5/0            : Location     - LOCATION
UWI .         00/07-20-073-02W5/0            : Uwi          - UNIQUE WELL ID
ENTR.         JAYE                           : Entered      - ENTERED BY
SRVC.         SCHLUMBERGER                   : Scn          - SERVICE COMPANY
DATE.         21 MAR 78                      : Date         - LOG DATE
STRT.M        393.192                        : top_depth    - START DEPTH
STOP.M        603.442                        : bot_depth    - STOP DEPTH
STEP.M        0.25                           : increment    - STEP LENGTH
 NULL. -999.2500:NULL Value
~CURVE INFORMATION BLOCK
#MNEM UNIT       ERCB CURVE CODE    CURVE DESCRIPTION
#-----------   ------------------   ----------------------------------
DEPT.M        00 001 00 00         : DEPTH        - DEPTH
DPHI.V/V      00 890 00 00         : PHID         - DENSITY POROSITY (SANDSTONE)
NPHI.V/V      00 330 00 00         : PHIN         - NEUTRON POROSITY (SANDSTONE)
GR  .API      00 310 00 00         : GR           - GAMMA RAY
CALI.MM       00 280 01 00         : CAL          - CALIPER
ILD .OHMM     00 120 00 00         : RESD         - DEEP RESISTIVITY (DIL)
~PARAMETER INFORMATION
#MNEM.UNIT           DATA             DESCRIPTION OF MNEMONIC
#---------         -----------     ------------------------------
GL  .M        627.583              : gl           - GROUND LEVEL ELEVATION
EREF.M        630.631              : kb           - ELEVATION OF DEPTH REFERENCE
DATM.M        627.583              : datum        - DATUM ELEVATION
TDD .M        606.552              : tdd          - TOTAL DEPTH DRILLER
RUN .         ONE                  : Run          - RUN NUMBER
ENG .         DEROCHIE             : Engineer     - RECORDING ENGINEER
WIT .         RILEY                : Witness      - WITNESSED BY
MUD .         GEL GELEX            : Mud_type     - MUD TYPE
MATR.         SANDSTONE            : Logunit      - NEUTRON MATRIX
TMAX.C        17.2222              : BHT          - MAXIMUM RECORDED TEMPERATURE
BHTD.M        607.466              : BHTDEP       - MAXIMUM RECORDED TEMPERATURE
RMT .C        16.1111              : MDTP         - TEMPERATURE OF MUD
MUDD.KG/M     1188                 : MWT          - MUD DENSITY
NEUT.         1                    : NEUTRON      - NEUTRON TYPE
RESI.         0                    : RESIST       - RESISTIVITY TYPE
RM  .OHMM     4.53                 : RM           - RESISTIVITY OF MUD
RMC .OHMM     0                    : RMC          - RESISTIVITY OF MUD CAKE
RMF .OHMM     0                    : RMF          - RESISTIVITY OF MUD FILTRATE
SUFT.C        -17.7778             : SUFT         - SURFACE TEMPERATURE
~A  DEPTH     PHID     PHIN       GR      CAL     RESD
# ...
  429.692    0.254    0.427   94.000  161.387    3.818
  429.942    0.255    0.446   90.818  161.204    3.806
  430.192    0.250    0.453   87.828  160.925    3.830
  430.442    0.245    0.463   85.838  160.949    3.781
  430.692    0.237    0.482   81.465  160.978    3.648
  430.942    0.270    0.472   74.020  161.009    3.440
  431.192    0.297    0.438   67.641  161.042    3.196
  431.442    0.308    0.421   68.536  161.070    2.852
  431.692    0.306    0.415   68.932  160.892    2.700
  431.942    0.301    0.422   67.821  160.706    2.860
  432.192    0.309    0.430   66.334  160.631    3.071
  432.442    0.314    0.441   65.347  160.771    3.265
  432.692    0.317    0.449   64.675  161.012    3.407
  432.942    0.311    0.452   64.757  161.256    3.409
  433.192    0.304    0.449   65.902  161.708    3.352
  433.442    0.302    0.442   67.864  161.742    3.266
  433.692    0.300    0.434   70.581  161.665    3.218
  433.942    0.293    0.444   73.796  161.693    3.183
  434.192    0.282    0.438   79.772  161.724    3.178
  434.442    0.271    0.468   88.381  162.082    3.186
  434.692    0.248    0.486   99.124  162.217    3.200
  434.942    0.267    0.469   92.431  162.246    3.226
  435.192    0.290    0.442   84.862  162.379    3.259
  435.442    0.287    0.441   84.377  162.198    3.304
  435.692    0.273    0.428   86.717  162.224    3.331
  435.942    0.267    0.431   85.040  162.362    3.352
  436.192    0.277    0.434   78.348  162.290    3.373
  436.442    0.294    0.427   68.457  162.102    3.394
  436.692    0.303    0.420   60.824  161.714    3.409
  436.942    0.303    0.409   58.020  161.742    3.423
  437.192    0.297    0.405   57.911  161.775    3.438
  437.442    0.287    0.430   58.808  161.801    3.460
  437.692    0.282    0.453   60.270  161.831    3.495
  437.942    0.288    0.464   61.353  161.648    3.510
  438.192    0.299    0.474   62.436  161.468    3.538
  438.442    0.303    0.483   63.144  161.503    3.581
  438.692    0.297    0.462   63.163  161.528    3.610
  438.942    0.279    0.435   62.239  161.984    3.619
  439.192    0.254    0.403   59.497  162.230    3.641
  439.442    0.225    0.389   54.687  162.042    3.671
  439.692    0.093    0.309   54.955  162.394    3.722
  439.942    0.063    0.226   56.791  162.104    4.297
  440.192    0.054    0.216   60.386  162.451    5.865
  440.442    0.064    0.249   63.289  162.168    7.462
  440.692    0.083    0.276   65.124  162.200    8.915
  440.942    0.140    0.325   67.338  162.226    9.091
  441.192    0.165    0.356   66.979  162.256    7.431
  441.442    0.256    0.385   63.360  162.502    6.097
  441.692    0.315    0.429   64.257  162.319    5.071
  441.942    0.326    0.429   65.780  162.666    4.389
  442.192    0.314    0.431   67.366  162.272    3.806
  442.442    0.315    0.446   68.137  161.879    3.442
  442.692    0.308    0.433   67.462  161.588    3.030
  442.942    0.294    0.432   63.843  160.875    2.908
  443.192    0.286    0.445   65.493  159.842    2.920
  443.442    0.293    0.455   67.015  159.023    2.961
  443.692    0.299    0.464   69.417  158.845    3.060
  443.942    0.307    0.476   71.818  158.450    3.108
  444.192    0.316    0.473   70.207  158.373    3.146
  444.442    0.315    0.458   68.468  158.515    3.239
  444.692    0.293    0.460   71.808  158.754    3.297
  444.942    0.283    0.474   75.715  159.315    3.343
  445.192    0.279    0.458   78.995  159.873    3.357
  445.442    0.278    0.448   81.145  160.331    3.385
  445.692    0.279    0.446   82.731  160.571    3.412
  445.942    0.271    0.443   82.373  160.499    3.407
  446.192    0.277    0.449   83.017  160.533    3.422
  446.442    0.270    0.467   82.282  160.558    3.477
  446.692    0.271    0.475   78.286  160.588    3.579
  446.942    0.261    0.473   80.374  160.726    3.720
  447.192    0.248    0.461   84.594  160.649    3.852
  447.442    0.241    0.451   90.883  160.474    3.988
  447.692    0.275    0.446   84.254  160.395    4.130
  447.942    0.278    0.441   84.838  160.529    4.156
  448.192    0.265    0.439   86.422  160.561    4.166
  448.442    0.252    0.447   92.084  160.592    4.152
  448.692    0.245    0.440   90.096  160.623    4.115
  448.942    0.245    0.450   86.664  160.545    4.093
  449.192    0.214    0.446   83.922  160.360    4.080
  449.442    0.221    0.441   82.999  160.181    4.074
  449.692    0.244    0.444   82.892  160.209    4.037
  449.942    0.261    0.446   83.475  160.134    3.941
  450.192    0.278    0.443   83.681  159.954    3.838
  450.442    0.277    0.440   83.700  159.775    3.761
  450.692    0.279    0.439   82.900  159.592    3.734
  450.942    0.297    0.463   81.539  159.617    3.700
  451.192    0.307    0.475   80.055  159.975    3.703
  451.442    0.306    0.481   79.194  160.000    3.697
  451.692    0.282    0.472   80.527  160.355    3.706
  451.942    0.260    0.460   85.624  160.490    3.744
  452.192    0.226    0.449   94.987  160.730    3.847
  452.442    0.207    0.462   97.765  160.546    3.983
  452.692    0.228    0.473   95.211  160.576    4.093
  452.942    0.257    0.487   95.543  160.609    4.182
  453.192    0.298    0.498   94.871  160.634    4.232
  453.442    0.349    0.507   88.682  160.667    4.202
  453.692    0.381    0.529   85.126  162.078    3.970
  453.942    0.411    0.570   82.005  165.185    3.816
  454.192    0.436    0.677   79.076  168.933    3.753
  454.442    0.485    0.692   77.463  165.248    3.820
  454.692    0.536    0.718   85.948  169.738    3.933
  454.942    0.349    0.691   95.498  174.016    4.159
  455.192    0.261    0.613  105.740  171.922    4.323
  455.442    0.277    0.540  101.933  166.004    4.459
  455.692    0.268    0.476   94.863  161.150    4.599
  455.942    0.281    0.454   89.926  159.380    4.646
  456.192    0.300    0.463   85.492  158.450    4.613
  456.442    0.321    0.470   80.680  157.949    4.460
  456.692    0.316    0.468   77.249  157.665    4.345
  456.942    0.306    0.428   80.843  157.266    4.264
  457.192    0.325    0.413   84.310  156.768    4.178
  457.442    0.318    0.428   86.648  156.904    4.124
  457.692    0.305    0.439   88.045  156.725    4.048
  457.942    0.302    0.447   87.876  156.967    3.989
  458.192    0.320    0.459   87.076  157.101    3.976
  458.442    0.330    0.459   86.909  157.135    3.971
  458.692    0.317    0.455   85.985  157.376    3.950
  458.942    0.310    0.461   82.929  157.405    3.945
  459.192    0.313    0.475   80.124  157.968    3.947
  459.442    0.319    0.488   77.447  158.739    3.941
  459.692    0.319    0.480   75.331  160.364    3.906
  459.942    0.306    0.468   72.781  162.729    3.900
  460.192    0.320    0.468   70.538  164.567    3.880
  460.442    0.332    0.501   68.424  164.914    3.882
  460.692    0.345    0.522   68.379  162.608    3.913
  460.942    0.356    0.539   69.526  160.409    3.953
  461.192    0.332    0.531   71.927  159.700    3.962
  461.442    0.254    0.344   70.378  159.726    4.064
  461.692    0.168    0.311   67.322  160.291    4.655
  461.942    0.073    0.229   63.515  160.639    5.844
  462.192    0.121    0.239   64.725  160.992    7.392
  462.442    0.148    0.279   69.257  160.914    9.053
  462.692    0.217    0.338   74.293  160.625   10.835
  462.942    0.283    0.384   78.136  160.546    9.817
  463.192    0.318    0.446   80.725  160.575    7.754
  463.442    0.301    0.429   82.060  160.501    6.278
  463.692    0.280    0.430   83.085  160.424    5.142
  463.942    0.266    0.430   83.789  160.031    4.484
  464.192    0.270    0.439   86.820  159.741    4.094
  464.442    0.264    0.440   89.973  159.777    4.065
  464.692    0.251    0.426   93.125  160.126    4.044
  464.942    0.233    0.412   95.840  160.153    4.062
  465.192    0.240    0.423   92.096  160.184    4.064
  465.442    0.246    0.433   90.482  160.636    4.089
  465.692    0.224    0.428   93.136  162.900    4.170
  465.942    0.220    0.421   90.771  164.204    4.301
