~VERSION INFORMATION
 VERS.                 2.0:   CWLS LOG ASCII STANDARD -VERSION 2.0
 WRAP.                  NO:   ONE LINE PER DEPTH STEP
~WELL INFORMATION BLOCK
#MNEM.UNIT           DATA                    DESCRIPTION OF MNEMONIC
#---------    -------------------            -------------------------------
# Generated from Intellog Unique Number	CS_71_72/WELL/623
WELL.         BVI ET AL CHARRON              : Well_name    - WELL
LOC .         00/03-07-071-15W4/0            : Location     - LOCATION
UWI .         00/03-07-071-15W4/0            : Uwi          - UNIQUE WELL ID
ENTR.         SP                             : Entered      - ENTERED BY
SRVC.         SCHLUMBERGER                   : Scn          - SERVICE COMPANY
STRT.M        310                            : top_depth    - START DEPTH
STOP.M        500                            : bot_depth    - STOP DEPTH
STEP.M        0.25                           : increment    - STEP LENGTH
 NULL. -999.2500:NULL Value
~CURVE INFORMATION BLOCK
#MNEM UNIT       ERCB CURVE CODE    CURVE DESCRIPTION
#-----------   ------------------   ----------------------------------
DEPT.M        00 001 00 00         : DEPTH        - DEPTH
ILD .OHMM     00 120 00 00         : RESD         - DEEP RESISTIVITY (DIL)
DPHI.V/V      00 890 00 00         : PHID         - DENSITY POROSITY (LIMESTONE)
NPHI.V/V      00 330 00 00         : PHIN         - NEUTRON POROSITY (LIMESTONE)
GR  .API      00 310 00 00         : GR           - GAMMA RAY
~PARAMETER INFORMATION
#MNEM.UNIT           DATA             DESCRIPTION OF MNEMONIC
#---------         -----------     ------------------------------
GL  .M        599.2                : gl           - GROUND LEVEL ELEVATION
EREF.M        602.85               : kb           - ELEVATION OF DEPTH REFERENCE
DATM.M        599.2                : datum        - DATUM ELEVATION
TDD .M        503                  : tdd          - TOTAL DEPTH DRILLER
RUN .         ONE                  : Run          - RUN NUMBER
ENG .         BILL                 : Engineer     - RECORDING ENGINEER
WIT .         JIM                  : Witness      - WITNESSED BY
MUD .         GEL                  : Mud_type     - MUD TYPE
MATR.         LIMESTONE            : Logunit      - NEUTRON MATRIX
TMAX.C        19                   : BHT          - MAXIMUM RECORDED TEMPERATURE
BHTD.M        503                  : BHTDEP       - MAXIMUM RECORDED TEMPERATURE
MATR.         1                    : LOGUNIT      - NEUTRON MATRIX
RMT .C        25                   : MDTP         - TEMPERATURE OF MUD
NEUT.         1                    : NEUTRON      - NEUTRON TYPE
RESI.         0                    : RESIST       - RESISTIVITY TYPE
RMC .OHMM     0.25                 : RMC          - RESISTIVITY OF MUD CAKE
RMF .OHMM     0.25                 : RMF          - RESISTIVITY OF MUD FILTRATE
SUFT.C        15                   : SUFT         - SURFACE TEMPERATURE
~A  DEPTH     RESD     PHID     PHIN       GR
# ...
  440.500    4.589    0.180    0.424   90.446
  440.750    4.581    0.183    0.429   89.785
  441.000    4.555    0.184    0.427   88.941
  441.250    4.555    0.182    0.426   89.133
  441.500    4.590    0.181    0.435   88.778
  441.750    4.766    0.183    0.425   85.620
  442.000    4.802    0.204    0.417   87.520
  442.250    4.839    0.212    0.412   91.796
  442.500    4.802    0.199    0.410   97.356
  442.750    4.722    0.191    0.416   99.254
  443.000    4.652    0.194    0.407  100.300
  443.250    4.634    0.201    0.396  102.018
  443.500    4.643    0.203    0.391  103.370
  443.750    4.849    0.195    0.390  103.929
  444.000    4.904    0.189    0.394   97.782
  444.250    5.016    0.186    0.402   98.341
  444.500    5.073    0.205    0.410  101.338
  444.750    5.092    0.213    0.422  101.471
  445.000    5.150    0.212    0.438   98.862
  445.250    5.248    0.195    0.426   95.762
  445.500    5.409    0.130    0.405   89.982
  445.750    5.585    0.105    0.387   83.654
  446.000    5.745    0.110    0.376   80.738
  446.250    5.899    0.197    0.391   84.227
  446.500    5.954    0.236    0.407   86.124
  446.750    6.011    0.257    0.413   87.417
  447.000    6.114    0.266    0.426   87.302
  447.250    6.325    0.248    0.431   84.387
  447.500    6.655    0.066    0.402   79.461
  447.750    6.975    0.041    0.351   76.789
  448.000    6.820    0.056    0.332   75.276
  448.250    6.605    0.095    0.355   81.016
  448.500    6.173    0.142    0.389   85.598
  448.750    5.524    0.154    0.410   91.279
  449.000    5.114    0.166    0.403   95.798
  449.250    4.981    0.169    0.412   99.710
  449.500    4.629    0.164    0.427  100.999
  449.750    4.559    0.182    0.415   93.636
  450.000    4.111    0.181    0.395   89.927
  450.250    3.631    0.184    0.378   90.852
  450.500    3.112    0.207    0.404   97.203
  450.750    2.780    0.230    0.446  101.847
  451.000    2.464    0.243    0.475  104.597
  451.250    2.325    0.237    0.491  106.375
  451.500    2.218    0.235    0.504  105.594
  451.750    2.545    0.237    0.519  103.289
  452.000    3.183    0.228    0.496  100.556
  452.250    3.821    0.203    0.446   95.325
  452.500    4.501    0.173    0.472   89.363
  452.750    5.454   -0.003    0.495   83.521
  453.000    6.246    0.002    0.301   63.539
  453.250    6.572    0.052    0.246   81.347
  453.500    6.293    0.135    0.339   95.499
  453.750    5.696    0.197    0.388  100.263
  454.000    5.204    0.187    0.417   94.059
  454.250    5.224    0.173    0.431   89.557
  454.500    5.893    0.164    0.448   79.084
  454.750    6.672    0.035    0.206   63.795
  455.000    7.484    0.014    0.186   63.259
  455.250    8.009    0.056    0.239   72.106
  455.500    8.040    0.126    0.324   84.428
  455.750    7.642    0.162    0.360   93.582
  456.000    6.982    0.129    0.384   95.543
  456.250    6.699    0.128    0.385   96.409
  456.500    6.213    0.142    0.371   95.016
  456.750    5.730    0.149    0.345   95.028
  457.000    5.335    0.151    0.343   95.403
  457.250    5.099    0.160    0.372   96.999
  457.500    4.703    0.166    0.398   99.631
  457.750    4.370    0.145    0.411  101.591
  458.000    4.053    0.109    0.420   96.602
  458.250    3.963    0.066    0.415   90.335
  458.500    3.963    0.096    0.424   88.577
  458.750    3.956    0.145    0.433   97.487
  459.000    3.882    0.157    0.441  103.348
  459.250    3.810    0.167    0.433  107.321
  459.500    3.711    0.180    0.430  106.661
  459.750    3.642    0.185    0.430  102.711
  460.000    3.567    0.171    0.430  103.025
  460.250    3.501    0.155    0.435  104.197
  460.500    3.481    0.143    0.440  104.753
  460.750    3.481    0.162    0.452  105.189
  461.000    3.475    0.171    0.463  106.480
  461.250    3.449    0.143    0.436  103.382
  461.500    3.391    0.129    0.426  106.197
  461.750    3.449    0.154    0.434  107.609
  462.000    3.501    0.178    0.443  108.229
  462.250    3.575    0.192    0.448  108.240
  462.500    3.636    0.185    0.455  107.215
  462.750    3.691    0.170    0.460  105.336
  463.000    3.747    0.147    0.462  103.213
  463.250    3.790    0.157    0.451  102.675
  463.500    3.811    0.158    0.413  101.465
  463.750    3.833    0.158    0.392  100.987
  464.000    3.713    0.168    0.411  103.865
  464.250    3.502    0.179    0.434  106.494
  464.500    3.206    0.186    0.457  109.433
  464.750    3.111    0.188    0.475  111.454
  465.000    3.310    0.169    0.420  106.709
  465.250    3.412    0.156    0.387   99.162
  465.500    3.405    0.148    0.396  100.452
  465.750    3.273    0.173    0.414  106.437
  466.000    3.076    0.190    0.437  111.139
  466.250    2.805    0.206    0.450  114.990
  466.500    2.612    0.209    0.468  116.585
  466.750    2.515    0.199    0.466  113.426
  467.000    2.743    0.188    0.453  107.037
  467.250    3.317    0.168    0.437   99.062
  467.500    3.997    0.113    0.417   92.856
  467.750    5.057    0.086    0.341   86.284
  468.000    6.423    0.084    0.310   82.454
  468.250    8.051    0.059    0.247   76.370
  468.500    9.324    0.034    0.218   67.420
  468.750   10.498    0.071    0.261   68.772
  469.000   10.943    0.133    0.289   73.780
  469.250   10.881    0.164    0.312   76.839
  469.500   10.539    0.183    0.327   72.400
  469.750   10.304    0.206    0.342   70.338
  470.000   10.304    0.221    0.356   69.008
  470.250   10.402    0.231    0.347   70.542
  470.500   10.822    0.204    0.347   78.110
  470.750   11.111    0.188    0.347   84.947
  471.000   11.451    0.177    0.343   80.631
  471.250   11.868    0.180    0.338   76.680
  471.500   12.231    0.185    0.331   77.361
  471.750   12.464    0.179    0.326   78.774
  472.000   12.582    0.172    0.320   79.330
  472.250   12.371    0.157    0.317   78.061
  472.500   11.453    0.144    0.316   79.840
  472.750    9.381    0.136    0.321   94.844
  473.000    7.995    0.131    0.335  107.228
  473.250    7.021    0.148    0.348  116.015
  473.500    6.319    0.164    0.366  123.888
  473.750    5.762    0.171    0.378  128.592
  474.000    5.456    0.165    0.383  131.893
  474.250    6.074    0.164    0.385  125.261
  474.500    6.996    0.171    0.391  115.886
  474.750    7.951    0.182    0.348  111.872
  475.000    9.419    0.193    0.337  106.641
  475.250   10.685    0.212    0.347  100.617
  475.500   12.099    0.229    0.361   86.182
  475.750   13.293    0.247    0.382   73.637
  476.000   13.987    0.262    0.365   64.139
  476.250   13.961    0.255    0.332   67.806
  476.500   12.755    0.245    0.330   73.425
  476.750   11.076    0.244    0.333   81.728
  477.000    9.600    0.233    0.322   86.611
  477.250    8.384    0.187    0.312   96.253
  477.500    7.761    0.169    0.311  101.991
  477.750    7.377    0.157    0.317  110.415
  478.000    7.131    0.148    0.322  115.605
  478.250    6.998    0.149    0.319  118.236
  478.500    6.907    0.152    0.316  111.237
  478.750    6.881    0.152    0.315  101.374
  479.000    6.907    0.157    0.320   90.657
  479.250    6.999    0.171    0.328   78.964
  479.500    7.079    0.206    0.324   70.198
  479.750    7.173    0.204    0.311   77.949
  480.000    7.282    0.196    0.301   85.031
  480.250    7.393    0.188    0.294   89.124
  480.500    7.590    0.178    0.291   93.340
  480.750    7.634    0.154    0.290   98.166
  481.000    7.677    0.163    0.293  101.529
  481.250    7.620    0.169    0.301  104.343
  481.500    7.548    0.161    0.311  106.487
  481.750    7.478    0.169    0.327  100.768
  482.000    7.450    0.185    0.331   97.122
  482.250    7.436    0.183    0.321   98.413
  482.500    7.409    0.176    0.316   99.642
  482.750    7.409    0.179    0.325   93.009
  483.000    7.465    0.185    0.334   84.791
  483.250    7.884    0.190    0.319   76.329
  483.500    8.728    0.179    0.288   68.964
  483.750    9.340    0.106    0.270   70.011
