~VERSION INFORMATION
 VERS.                 2.0:   CWLS LOG ASCII STANDARD -VERSION 2.0
 WRAP.                  NO:   ONE LINE PER DEPTH STEP
~WELL INFORMATION BLOCK
#MNEM.UNIT           DATA                    DESCRIPTION OF MNEMONIC
#---------    -------------------            -------------------------------
# Generated from Intellog Unique Number	CW_70_72/WELL/549
NULL.         -999.25                        : NULL_VALUE
WELL.         CZAR ET AL CALLW 06-03         : Well_name    - WELL              
LOC .         06-03-071-19W4                 : Location     - LOCATION          
UWI .         00/06-03-071-19W4/0            : Uwi          - UNIQUE WELL ID    
ENTR.         JAYE                           : Entered      - ENTERED BY        
SRVC.         SCHLUMBERGER                   : Scn          - SERVICE COMPANY   
DATE.         13 DEC 80                      : Date         - LOG DATE          
STRT.M        315                            : top_depth    - START DEPTH       
STOP.M        480                            : bot_depth    - STOP DEPTH        
STEP.M        0.25                           : increment    - STEP LENGTH       
~CURVE INFORMATION BLOCK
#MNEM UNIT       ERCB CURVE CODE    CURVE DESCRIPTION
#-----------   ------------------   ----------------------------------
DEPT.M        00 001 00 00         : DEPTH        - DEPTH                       
DPHI.V/V      00 890 00 00         : PHID         - DENSITY POROSITY (SANDSTONE)
NPHI.V/V      00 330 00 00         : PHIN         - NEUTRON POROSITY (SANDSTONE)
GR  .API      00 310 00 00         : GR           - GAMMA RAY                   
CALI.MM       00 280 01 00         : CAL          - CALIPER                     
ILD .OHMM     00 120 00 00         : RESD         - DEEP RESISTIVITY (DIL)      
~PARAMETER INFORMATION       
#MNEM.UNIT           DATA             DESCRIPTION OF MNEMONIC
#---------         -----------     ------------------------------
GL  .M        586.5                : gl           - GROUND LEVEL ELEVATION      
EREF.M        589.7                : kb           - ELEVATION OF DEPTH REFERENCE
DATM.M        586.5                : datum        - DATUM ELEVATION             
TDD .M        563                  : tdd          - TOTAL DEPTH DRILLER         
RUN .         ONE                  : Run          - RUN NUMBER                  
ENG .         BRANDSTROM           : Engineer     - RECORDING ENGINEER          
WIT .         JOHNSON              : Witness      - WITNESSED BY                
BASE.         EDM                  : Branch       - HOME BASE OF LOGGING UNIT   
MUD .         GEL CHEM             : Mud_type     - MUD TYPE                    
MATR.         SANDSTONE            : Logunit      - NEUTRON MATRIX              
TMAX.C        27.7                 : BHT          - MAXIMUM RECORDED TEMPERATURE
BHTD.M        564                  : BHTDEP       - MAXIMUM RECORDED TEMPERATURE
RMT .C        2.8                  : MDTP         - TEMPERATURE OF MUD          
MUDD.KG/M     1040                 : MWT          - MUD DENSITY                 
NEUT.         1                    : NEUTRON      - NEUTRON TYPE                
RESI.         0                    : RESIST       - RESISTIVITY TYPE            
RM  .OHMM     2.73                 : RM           - RESISTIVITY OF MUD          
RMC .OHMM     0                    : RMC          - RESISTIVITY OF MUD CAKE     
RMF .OHMM     2.35                 : RMF          - RESISTIVITY OF MUD FILTRATE 
SUFT.C        0                    : SUFT         - SURFACE TEMPERATURE         
~A  DEPTH     PHID     PHIN       GR      CAL     RESD
# ...
  424.500    0.194    0.440   89.715  165.247    5.055
  424.750    0.183    0.433   94.009  166.922    5.099
  425.000    0.192    0.420   99.669  167.352    5.134
  425.250    0.211    0.412  104.957  167.884    5.177
  425.500    0.214    0.420  106.210  169.041    5.203
  425.750    0.208    0.425  100.382  168.954    5.228
  426.000    0.199    0.412   92.135  167.211    5.224
  426.250    0.191    0.402   87.115  166.399    5.200
  426.500    0.207    0.389   89.548  166.315    5.197
  426.750    0.213    0.392   92.289  166.744    5.173
  427.000    0.219    0.406   96.087  167.281    5.140
  427.250    0.239    0.420   98.021  167.502    5.118
  427.500    0.234    0.430   94.492  167.624    5.104
  427.750    0.224    0.438   93.634  167.535    5.109
  428.000    0.217    0.451   93.768  167.453    5.096
  428.250    0.208    0.440   94.460  167.363    5.083
  428.500    0.215    0.427   94.781  167.587    5.051
  428.750    0.216    0.398   94.666  167.498    5.037
  429.000    0.209    0.404   93.125  166.796    5.081
  429.250    0.186    0.418   78.854  166.086    5.627
  429.500    0.152    0.382   70.606  165.171    7.320
  429.750    0.103    0.340   61.924  164.980    9.138
  430.000    0.076    0.273   53.986  164.790   11.010
  430.250    0.042    0.229   51.761  164.700   12.104
  430.500    0.030    0.209   63.878  165.652   11.201
  430.750    0.035    0.231   84.813  165.873   10.042
  431.000    0.141    0.323   96.806  165.579    8.688
  431.250    0.201    0.402  111.221  164.253    7.405
  431.500    0.241    0.434  114.149  162.821    6.503
  431.750    0.212    0.429   94.663  161.285    5.786
  432.000    0.188    0.427   81.137  160.061    5.226
  432.250    0.164    0.418   75.499  159.146    4.845
  432.500    0.223    0.410   77.246  158.436    4.586
  432.750    0.242    0.413   78.001  157.937    4.439
  433.000    0.240    0.417   74.596  157.852    4.337
  433.250    0.238    0.417   75.351  157.970    4.310
  433.500    0.243    0.416   77.411  158.302    4.314
  433.750    0.247    0.415   77.544  158.835    4.327
  434.000    0.237    0.411   76.500  159.162    4.389
  434.250    0.220    0.401   78.373  159.486    4.519
  434.500    0.224    0.387   80.431  159.812    4.635
  434.750    0.245    0.393   78.889  160.555    4.728
  435.000    0.260    0.423   75.174  160.880    4.832
  435.250    0.260    0.411   74.749  161.209    4.864
  435.500    0.258    0.400   75.752  161.638    4.852
  435.750    0.250    0.430   77.812  161.965    4.820
  436.000    0.245    0.438   79.746  162.396    4.808
  436.250    0.248    0.425   76.528  162.620    4.831
  436.500    0.248    0.408   75.421  162.637    4.890
  436.750    0.252    0.406   76.175  162.863    4.924
  437.000    0.260    0.410   78.793  162.980    4.939
  437.250    0.258    0.413   80.418  162.896    4.953
  437.500    0.252    0.416   79.806  162.705    4.977
  437.750    0.246    0.412   77.892  162.515    4.992
  438.000    0.243    0.400   75.667  162.429    5.007
  438.250    0.253    0.391   72.386  162.549    4.993
  438.500    0.246    0.406   73.638  162.770    4.962
  438.750    0.237    0.416   74.767  163.412    4.903
  439.000    0.265    0.410   75.334  163.942    4.836
  439.250    0.268    0.411   77.207  164.996    4.733
  439.500    0.270    0.416   81.812  165.427    4.633
  439.750    0.263    0.422   83.249  165.235    4.552
  440.000    0.258    0.424   79.224  164.838    4.558
  440.250    0.256    0.415   76.379  164.130    4.666
  440.500    0.252    0.402   75.084  164.355    4.932
  440.750    0.241    0.377   71.617  164.577    5.281
  441.000    0.226    0.353   66.660  165.837    5.603
  441.250    0.196    0.329   69.713  167.094    6.056
  441.500    0.165    0.354   72.392  167.007    6.795
  441.750    0.169    0.373   74.638  166.405    7.401
  442.000    0.163    0.374   76.138  166.213    7.970
  442.250    0.145    0.331   78.445  166.954    6.883
  442.500    0.166    0.379   88.948  169.251    5.640
  442.750    0.207    0.435  100.507  172.887    4.718
  443.000    0.268    0.487  105.609  177.456    4.222
  443.250    0.260    0.488  104.004  182.235    3.899
  443.500    0.249    0.499  101.593  184.113    3.705
  443.750    0.233    0.492   99.430  182.992    3.526
  444.000    0.247    0.479   96.088  180.318    3.381
  444.250    0.254    0.494   96.781  179.920    3.335
  444.500    0.252    0.504   99.398  182.316    3.357
  444.750    0.235    0.490  101.334  187.923    3.399
  445.000    0.222    0.493  101.965  193.941    3.499
  445.250    0.230    0.497  101.167  194.889    3.657
  445.500    0.219    0.487   94.533  186.527    3.931
  445.750    0.219    0.474   92.246  181.883    4.241
  446.000    0.230    0.457   95.795  177.555    4.483
  446.250    0.217    0.437  103.007  173.535    4.729
  446.500    0.196    0.447  101.093  170.243    4.942
  446.750    0.164    0.495   91.293  168.499    5.098
  447.000    0.103    0.471   89.874  167.377    5.180
  447.250    0.086    0.436   94.852  168.842    5.167
  447.500    0.155    0.409   97.967  174.655    5.172
  447.750    0.176    0.444  100.336  180.361    5.187
  448.000    0.195    0.454  103.761  180.999    5.223
  448.250    0.224    0.431  107.248  172.219    5.238
  448.500    0.214    0.381  107.506  168.719    5.293
  448.750    0.189    0.380  103.481  169.045    5.339
  449.000    0.187    0.409  103.491  169.271    5.375
  449.250    0.192    0.415  107.662  169.700    5.462
  449.500    0.175    0.418  111.768  169.927    5.582
  449.750    0.174    0.424  111.407  170.250    5.834
  450.000    0.185    0.424  105.766  167.992    6.189
  450.250    0.198    0.392   97.580  163.351    6.740
  450.500    0.190    0.390   91.693  162.645    7.606
  450.750    0.149    0.383   84.562  163.282    9.045
  451.000    0.054    0.315   75.196  164.231   11.377
  451.250    0.031    0.208   64.465  164.659   14.337
  451.500    0.010    0.189   57.086  165.090   18.067
  451.750    0.021    0.183   52.128  165.107   22.013
  452.000    0.027    0.184   55.368  165.126   25.405
  452.250    0.027    0.195   62.022  165.452   27.874
  452.500    0.049    0.225   68.675  165.676   25.083
  452.750    0.087    0.246   77.067  165.899   18.754
  453.000    0.113    0.322   88.812  165.502   12.347
  453.250    0.185    0.385   98.384  165.313    9.335
  453.500    0.222    0.414  101.499  167.398    7.425
  453.750    0.226    0.419  101.571  170.830    6.569
  454.000    0.202    0.411   94.006  172.295    6.206
  454.250    0.167    0.411   89.235  169.932    6.086
  454.500    0.175    0.410   89.803  169.019    6.037
  454.750    0.170    0.401   92.732  168.516    5.975
  455.000    0.159    0.394   96.281  169.257    5.938
  455.250    0.140    0.396   95.794  170.005    5.966
  455.500    0.123    0.403   87.857  170.119    6.039
  455.750    0.122    0.406   92.028  170.242    6.047
  456.000    0.145    0.405   98.308  170.365    6.076
  456.250    0.158    0.393  104.279  170.172    6.072
  456.500    0.168    0.406  102.426  169.877    6.113
  456.750    0.174    0.413   98.835  169.689    6.247
  457.000    0.182    0.417   95.802  170.227    6.359
  457.250    0.147    0.401   92.460  170.547    6.487
  457.500    0.108    0.376   86.633  170.772    6.604
  457.750    0.104    0.362   80.496  170.272    6.737
  458.000    0.169    0.374   86.530  170.702    6.782
  458.250    0.195    0.381   96.287  170.719    6.713
  458.500    0.166    0.377  100.023  170.630    6.609
  458.750    0.136    0.371  104.814  171.269    6.469
  459.000    0.156    0.375  111.281  172.940    6.309
  459.250    0.204    0.392  111.353  171.922    6.210
  459.500    0.175    0.411  106.210  166.868    6.241
  459.750    0.169    0.390  100.011  163.677    6.401
  460.000    0.163    0.365   97.227  163.904    6.553
  460.250    0.139    0.336   96.802  164.229    6.837
  460.500    0.147    0.351   98.862  165.280    6.870
  460.750    0.182    0.375   98.748  166.643    6.775
