~VERSION INFORMATION
 VERS.                 2.0:   CWLS LOG ASCII STANDARD -VERSION 2.0
 WRAP.                  NO:   ONE LINE PER DEPTH STEP
~WELL INFORMATION BLOCK
#MNEM.UNIT           DATA                    DESCRIPTION OF MNEMONIC
#---------    -------------------            -------------------------------
# Generated from Intellog Unique Number	CS_67_68/WELL/2171
WELL.         06-17-067-06W4                 : Well_name    - WELL
LOC .         00/06-17-067-06W4/0            : Location     - LOCATION
UWI .         00/06-17-067-06W4/0            : Uwi          - UNIQUE WELL ID
ENTR.         SP                             : Entered      - ENTERED BY
SRVC.         SCHLUMBERGER                   : Scn          - SERVICE COMPANY
STRT.M        330                            : top_depth    - START DEPTH
STOP.M        535                            : bot_depth    - STOP DEPTH
STEP.M        0.25                           : increment    - STEP LENGTH
 NULL. -999.2500:NULL Value
~CURVE INFORMATION BLOCK
#MNEM UNIT       ERCB CURVE CODE    CURVE DESCRIPTION
#-----------   ------------------   ----------------------------------
DEPT.M        00 001 00 00         : DEPTH        - DEPTH
ILD .OHMM     00 120 00 00         : RESD         - DEEP RESISTIVITY (DIL)
DPHI.V/V      00 890 00 00         : PHID         - DENSITY POROSITY (LIMESTONE)
NPHI.V/V      00 330 00 00         : PHIN         - NEUTRON POROSITY (LIMESTONE)
GR  .API      00 310 00 00         : GR           - GAMMA RAY
CALI.MM       00 280 01 00         : CAL          - CALIPER
~PARAMETER INFORMATION
#MNEM.UNIT           DATA             DESCRIPTION OF MNEMONIC
#---------         -----------     ------------------------------
GL  .M        653.87               : gl           - GROUND LEVEL ELEVATION
EREF.M        656.96               : kb           - ELEVATION OF DEPTH REFERENCE
DATM.M        656.96               : datum        - DATUM ELEVATION
TDD .M        545                  : tdd          - TOTAL DEPTH DRILLER
RUN .         ONE                  : Run          - RUN NUMBER
ENG .         BILL                 : Engineer     - RECORDING ENGINEER
WIT .         JIM                  : Witness      - WITNESSED BY
MUD .         GEL                  : Mud_type     - MUD TYPE
MATR.         LIMESTONE            : Logunit      - NEUTRON MATRIX
TMAX.C        21                   : BHT          - MAXIMUM RECORDED TEMPERATURE
BHTD.M        545.5                : BHTDEP       - MAXIMUM RECORDED TEMPERATURE
MATR.         1                    : LOGUNIT      - NEUTRON MATRIX
RMT .C        25                   : MDTP         - TEMPERATURE OF MUD
NEUT.         1                    : NEUTRON      - NEUTRON TYPE
RESI.         0                    : RESIST       - RESISTIVITY TYPE
RMC .OHMM     0.25                 : RMC          - RESISTIVITY OF MUD CAKE
RMF .OHMM     0.25                 : RMF          - RESISTIVITY OF MUD FILTRATE
SUFT.C        15                   : SUFT         - SURFACE TEMPERATURE
~A  DEPTH     RESD     PHID     PHIN       GR      CAL
# ...
  403.000    3.528    0.306    0.399   58.026  160.759
  403.250    3.671    0.295    0.407   62.311  160.686
  403.500    3.862    0.284    0.413   65.925  160.007
  403.750    4.018    0.278    0.398   62.346  159.931
  404.000    4.141    0.289    0.388   64.802  159.350
  404.250    4.260    0.282    0.382   71.160  158.770
  404.500    4.374    0.267    0.383   75.505  157.991
  404.750    4.416    0.251    0.401   76.742  157.916
  405.000    4.517    0.236    0.406   76.881  157.645
  405.250    4.595    0.240    0.397   76.716  157.569
  405.500    4.648    0.256    0.399   73.198  157.599
  405.750    4.631    0.270    0.406   73.461  157.728
  406.000    4.623    0.263    0.413   76.404  158.776
  406.250    4.554    0.261    0.412   75.934  159.311
  406.500    4.470    0.263    0.410   73.819  159.345
  406.750    4.379    0.271    0.417   69.447  158.049
  407.000    4.297    0.285    0.421   66.051  155.846
  407.250    4.202    0.298    0.430   66.496  153.951
  407.500    4.218    0.301    0.429   69.806  153.367
  407.750    4.323    0.281    0.421   72.444  152.891
  408.000    4.498    0.274    0.426   74.412  153.628
  408.250    4.653    0.270    0.439   76.564  154.369
  408.500    4.715    0.260    0.434   78.775  155.310
  408.750    4.742    0.249    0.426   78.245  156.967
  409.000    4.752    0.257    0.439   75.154  158.112
  409.250    4.735    0.274    0.417   71.759  158.141
  409.500    4.682    0.279    0.402   69.582  157.155
  409.750    4.613    0.283    0.410   70.026  156.070
  410.000    4.561    0.289    0.413   73.639  156.612
  410.250    4.519    0.263    0.401   77.379  157.144
  410.500    4.486    0.238    0.397   80.381  157.579
  410.750    4.452    0.226    0.406   82.592  157.811
  411.000    4.411    0.262    0.415   77.855  158.044
  411.250    4.329    0.279    0.408   71.839  157.976
  411.500    4.249    0.293    0.403   72.953  158.108
  411.750    4.186    0.296    0.421   80.773  158.235
  412.000    4.163    0.297    0.442   73.236  157.857
  412.250    4.195    0.308    0.452   68.436  157.991
  412.500    4.275    0.319    0.433   68.331  157.917
  412.750    4.381    0.322    0.414   73.530  158.148
  413.000    4.541    0.306    0.416   80.984  158.487
  413.250    4.689    0.291    0.424   88.317  158.615
  413.500    4.824    0.273    0.422   90.284  159.665
  413.750    4.944    0.261    0.421   88.597  160.303
  414.000    5.057    0.257    0.421   85.322  160.432
  414.250    5.164    0.253    0.423   84.246  160.768
  414.500    5.193    0.245    0.438   85.422  160.592
  414.750    5.126    0.237    0.450   86.229  160.522
  415.000    5.069    0.234    0.460   85.393  160.652
  415.250    5.031    0.237    0.447   83.888  160.681
  415.500    5.032    0.240    0.435   82.137  160.509
  415.750    5.080    0.250    0.436   82.642  160.332
  416.000    5.081    0.264    0.441   84.917  159.650
  416.250    5.062    0.244    0.438   85.543  159.276
  416.500    5.053    0.247    0.430   82.573  158.902
  416.750    4.959    0.260    0.448   79.301  158.423
  417.000    5.035    0.268    0.458   77.671  157.740
  417.250    4.960    0.275    0.451   80.433  157.260
  417.500    4.769    0.274    0.444   82.768  156.578
  417.750    4.760    0.261    0.444   84.247  155.394
  418.000    4.788    0.242    0.440   88.349  154.807
  418.250    4.770    0.225    0.438   92.758  155.042
  418.500    4.735    0.227    0.440   95.394  155.680
  418.750    4.745    0.239    0.434   95.657  156.724
  419.000    4.881    0.235    0.430   93.357  159.298
  419.250    4.993    0.227    0.452   93.192  160.440
  419.500    5.088    0.231    0.457   90.469  161.996
  419.750    5.175    0.235    0.455   88.778  162.736
  420.000    5.235    0.226    0.450   90.441  162.563
  420.250    5.206    0.215    0.454   94.239  161.779
  420.500    5.167    0.206    0.458   95.841  160.489
  420.750    5.081    0.206    0.463   93.970  159.399
  421.000    5.287    0.214    0.456   93.926  158.820
  421.250    5.387    0.226    0.448   93.883  158.343
  421.500    5.470    0.224    0.439   91.035  158.879
  421.750    5.543    0.220    0.434   90.200  159.723
  422.000    5.575    0.222    0.444   92.232  160.569
  422.250    5.533    0.220    0.452   93.039  160.697
  422.500    5.240    0.217    0.447   91.350  158.794
  422.750    4.944    0.223    0.446   90.759  157.400
  423.000    4.647    0.228    0.446   89.434  158.653
  423.250    4.595    0.219    0.450   87.685  160.103
  423.500    4.622    0.212    0.456   87.765  163.184
  423.750    4.728    0.223    0.466   89.915  164.633
  424.000    4.809    0.228    0.474   91.334  164.964
  424.250    4.738    0.222    0.473   95.070  161.541
  424.500    4.354    0.223    0.465   97.343  163.506
  424.750    4.241    0.237    0.480   91.388  165.969
  425.000    4.265    0.252    0.488   94.821  169.147
  425.250    4.124    0.265    0.486   97.457  165.723
  425.500    3.891    0.249    0.520   98.755  165.447
  425.750    3.489    0.239    0.521   98.716  167.406
  426.000    3.212    0.255    0.484  100.316  168.961
  426.250    3.008    0.240    0.471  100.759  167.466
  426.500    3.094    0.240    0.488   94.742  170.340
  426.750    3.244    0.257    0.480   88.177  170.471
  427.000    3.497    0.267    0.440   81.673  164.712
  427.250    3.750    0.242    0.409   86.689  161.895
  427.500    3.764    0.231    0.428   91.279  168.224
  427.750    3.688    0.243    0.458   90.869  170.795
  428.000    3.702    0.265    0.474   87.960  166.659
  428.250    3.759    0.292    0.455   84.018  161.100
  428.500    3.830    0.304    0.463   78.975  157.981
  428.750    3.881    0.317    0.475   76.981  156.689
  429.000    3.926    0.327    0.483   83.950  155.709
  429.250    3.926    0.322    0.462   86.343  155.736
  429.500    3.919    0.311    0.472   82.765  155.659
  429.750    3.957    0.309    0.471   79.673  156.196
  430.000    4.002    0.315    0.484   74.509  156.534
  430.250    4.025    0.324    0.487   69.896  156.664
  430.500    4.026    0.330    0.476   66.194  156.594
  430.750    3.988    0.332    0.470   64.811  156.418
  431.000    3.944    0.330    0.466   64.705  156.145
  431.250    3.915    0.321    0.460   64.846  155.766
  431.500    3.879    0.305    0.428   63.888  155.998
  431.750    3.923    0.272    0.417   62.869  155.316
  432.000    3.953    0.270    0.426   60.388  154.633
  432.250    3.931    0.304    0.449   56.687  154.468
  432.500    3.880    0.316    0.463   57.746  154.085
  432.750    3.837    0.322    0.471   58.675  154.318
  433.000    3.795    0.322    0.471   60.155  154.550
  433.250    3.795    0.327    0.460   60.964  155.190
  433.500    3.795    0.328    0.452   61.715  156.032
  433.750    3.789    0.323    0.445   63.195  157.380
  434.000    3.761    0.320    0.440   63.943  158.124
  434.250    3.684    0.317    0.439   66.460  158.559
  434.500    3.602    0.313    0.460   69.770  158.994
  434.750    3.542    0.322    0.482   67.898  159.124
  435.000    3.483    0.331    0.497   63.709  158.952
  435.250    3.431    0.329    0.470   62.143  158.269
  435.500    3.387    0.327    0.453   61.856  158.298
  435.750    3.362    0.330    0.452   61.995  158.329
  436.000    3.407    0.337    0.453   62.562  158.056
  436.250    3.478    0.339    0.450   63.372  158.085
  436.500    3.565    0.339    0.447   63.635  158.214
  436.750    3.702    0.337    0.439   63.834  158.040
  437.000    3.830    0.339    0.436   63.424  158.480
  437.250    4.075    0.331    0.457   61.249  158.099
  437.500    4.394    0.322    0.439   59.071  158.131
  437.750    4.606    0.309    0.412   57.142  158.058
  438.000    4.694    0.300    0.390   55.938  157.883
  438.250    4.793    0.302    0.392   57.052  157.608
  438.500    4.912    0.303    0.398   58.166  156.828
  438.750    4.959    0.307    0.402   59.403  156.855
  439.000    4.950    0.304    0.405   59.544  156.884
  439.250    4.941    0.306    0.407   59.684  157.117
