~VERSION INFORMATION
 VERS.                 2.0:   CWLS LOG ASCII STANDARD -VERSION 2.0
 WRAP.                  NO:   ONE LINE PER DEPTH STEP
~WELL INFORMATION BLOCK
#MNEM.UNIT           DATA                    DESCRIPTION OF MNEMONIC
#---------    -------------------            -------------------------------
# Generated from Intellog Unique Number	CS_73_76/WELL/2811
WELL.         ESSO RESOURCES CANADA LTD.     : Well_name    - WELL
LOC .         00/06-32-075-04W4/0            : Location     - LOCATION
UWI .         00/06-32-075-04W4/0            : Uwi          - UNIQUE WELL ID
ENTR.         JOETTE                         : Entered      - ENTERED BY
SRVC.         COMPUTALOG                     : Scn          - SERVICE COMPANY
DATE.         05/22/92                       : Date         - LOG DATE
STRT.M        200                            : top_depth    - START DEPTH
STOP.M        450                            : bot_depth    - STOP DEPTH
STEP.M        0.25                           : increment    - STEP LENGTH
 NULL. -999.2500:NULL Value
~CURVE INFORMATION BLOCK
#MNEM UNIT       ERCB CURVE CODE    CURVE DESCRIPTION
#-----------   ------------------   ----------------------------------
DEPT.M        00 001 00 00         : DEPTH        - DEPTH
ILD .OHMM     00 120 00 00         : RESD         - DEEP RESISTIVITY (DIL)
RHOB.KG/M3    00 350 00 00         : DENS         - BULK DENSITY
NPHI.V/V      00 330 00 00         : PHIN         - NEUTRON POROSITY (SANDSTONE)
GR  .API      00 310 00 00         : GR           - GAMMA RAY
~PARAMETER INFORMATION
#MNEM.UNIT           DATA             DESCRIPTION OF MNEMONIC
#---------         -----------     ------------------------------
GL  .M        598.7                : gl           - GROUND LEVEL ELEVATION
EREF.M        602.4                : kb           - ELEVATION OF DEPTH REFERENCE
DATM.M        602.4                : datum        - DATUM ELEVATION
TDD .M        456.6                : tdd          - TOTAL DEPTH DRILLER
RUN .         ONE                  : Run          - RUN NUMBER
ENG .         BILL                 : Engineer     - RECORDING ENGINEER
WIT .         JIM                  : Witness      - WITNESSED BY
MUD .         GEL                  : Mud_type     - MUD TYPE
MATR.         SANDSTONE            : Logunit      - NEUTRON MATRIX
TMAX.C        32                   : BHT          - MAXIMUM RECORDED TEMPERATURE
BHTD.M        456.6                : BHTDEP       - MAXIMUM RECORDED TEMPERATURE
MATR.         1                    : LOGUNIT      - NEUTRON MATRIX
RMT .C        19.7                 : MDTP         - TEMPERATURE OF MUD
NEUT.         1                    : NEUTRON      - NEUTRON TYPE
RESI.         0                    : RESIST       - RESISTIVITY TYPE
RMC .OHMM     6.4                  : RMC          - RESISTIVITY OF MUD CAKE
RMF .OHMM     4.2                  : RMF          - RESISTIVITY OF MUD FILTRATE
SUFT.C        5                    : SUFT         - SURFACE TEMPERATURE
~A  DEPTH     RESD     DENS     PHIN       GR
  200.000    2.532 2098.970    0.614   83.476
  200.250    2.488 2107.190    0.617   84.039
  200.500    2.538 2121.370    0.618   83.594
  200.750    2.588 2129.600    0.616   82.717
  201.000    2.742 2129.810    0.608   81.827
  201.250    2.851 2136.090    0.602   83.294
  201.500    2.909 2148.320    0.594   84.760
  201.750    2.911 2152.540    0.589   85.755
  202.000    2.914 2172.770    0.589   83.438
  202.250    2.918 2251.140    0.594   80.663
  202.500    2.867 2279.440    0.599   79.773
  202.750    2.870 2207.510    0.603   81.711
  203.000    2.874 2177.640    0.613   83.177
  203.250    2.878 2169.840    0.617   83.714
  203.500    2.935 2172.060    0.622   83.767
  203.750    3.052 2166.270    0.621   82.877
  204.000    3.113 2178.550    0.615   82.458
  204.250    3.299 2230.830    0.609   82.027
  204.500    3.302 2301.180    0.600   82.106
  204.750    3.369 2255.400    0.595   83.572
  205.000    3.373 2249.550    0.596   84.554
  205.250    3.376 2203.650    0.603   86.046
  205.500    3.380 2193.910    0.627   85.143
  205.750    3.384 2188.060    0.631   85.667
  206.000    3.388 2194.340    0.638   87.133
  206.250    3.392 2182.540    0.632   87.657
  206.500    3.334 2194.720    0.618   88.181
  206.750    3.338 2205.000    0.596   93.431
  207.000    3.343 2217.280    0.585   92.056
  207.250    3.345 2227.510    0.588   88.823
  207.500    3.412 2221.710    0.590   88.876
  207.750    3.615 2223.930    0.577   90.342
  208.000    3.830 2234.100    0.582   90.395
  208.250    3.905 2254.400    0.586   92.346
  208.500    3.910 2258.670    0.594   94.257
  208.750    3.702 2254.830    0.599   95.723
  209.000    3.636 2245.080    0.610   92.477
  209.250    3.574 2249.300    0.619   90.645
  209.500    3.644 2269.490    0.612   87.399
  209.750    3.935 2333.830    0.594   81.325
  210.000    4.092 2364.140    0.559   84.205
  210.250    4.095 2386.380    0.543   85.671
  210.500    4.099 2360.560    0.540   85.724
  210.750    3.881 2334.690    0.545   86.732
  211.000    3.811 2294.860    0.555   89.154
  211.250    3.674 2250.970    0.569   91.092
  211.500    3.822 2247.290    0.578   92.087
  211.750    3.897 2241.390    0.585   87.414
  212.000    4.129 2255.670    0.580   82.754
  212.250    4.133 2275.960    0.566   84.220
  212.500    3.986 2250.090    0.569   88.056
  212.750    3.771 2242.300    0.561   85.739
  213.000    3.704 2252.530    0.567   87.219
  213.250    3.709 2244.730    0.587   87.271
  213.500    3.930 2240.940    0.593   80.242
  213.750    4.572 2261.180    0.549   75.111
  214.000    5.736 2311.510    0.496   70.909
  214.250    7.332 2415.900    0.433   66.249
  214.500    9.372 2335.970    0.432   68.658
  214.750   11.983 2228.050    0.446   65.412
  215.000   13.948 2172.090    0.432   60.294
  215.250   14.499 2166.300    0.406   66.460
  215.500   14.516 2228.640    0.443   77.377
  215.750   14.808 2260.950    0.434   75.061
  216.000   15.102 2241.140    0.405   63.790
  216.250   15.704 2189.240    0.368   55.832
  216.500   16.015 2145.350    0.367   55.884
  216.750   16.353 2153.620    0.407   68.674
  217.000   16.062 2197.890    0.429   74.852
  217.250   15.777 2230.200    0.447   76.816
  217.500   14.938 2258.450    0.443   75.442
  217.750   14.127 2266.780    0.450   73.610
  218.000   12.636 2258.880    0.458   75.076
  218.250   11.308 2261.100    0.470   80.312
  218.500   10.897 2275.380    0.466   82.250
  218.750   10.507 2269.640    0.443   79.959
  219.000   10.926 2279.820    0.437   80.483
  219.250   11.354 2278.030    0.447   80.536
  219.500   12.491 2266.280    0.479   79.174
  219.750   13.478 2274.450    0.485   75.444
  220.000   15.400 2254.640    0.444   68.899
  220.250   15.409 2220.760    0.432   63.781
  220.500   14.581 2202.960    0.421   63.834
  220.750   13.041 2211.230    0.415   61.046
  221.000   14.892 2183.360    0.401   54.488
  221.250   16.699 2161.550    0.393   53.598
  221.500   16.714 2181.790    0.394   64.031
  221.750   15.237 2218.100    0.413   74.936
  222.000   14.146 2238.390    0.459   81.114
  222.250   12.652 2248.570    0.474   85.408
  222.500   11.531 2286.880    0.481   88.786
  222.750   10.316 2297.160    0.477   85.998
  223.000    9.944 2289.310    0.445   83.210
  223.250    9.413 2263.500    0.439   79.492
  223.500    9.600 2277.730    0.424   73.419
  223.750   10.364 2308.090    0.424   69.230
  224.000   10.978 2272.150    0.436   68.353
  224.250   11.196 2246.330    0.432   71.220
  224.500   11.645 2260.570    0.426   72.687
  224.750   11.652 2256.780    0.421   71.797
  225.000   11.452 2269.010    0.440   83.185
  225.250   11.462 2291.350    0.442   80.397
  225.500   11.268 2279.500    0.432   76.209
  225.750   11.489 2283.720    0.422   74.861
  226.000   11.727 2297.950    0.429   78.199
  226.250   11.967 2304.170    0.443   82.022
  226.500   11.751 2292.370    0.441   82.545
  226.750   11.120 2282.580    0.433   79.770
  227.000   10.326 2290.800    0.425   82.179
  227.250    9.777 2309.040    0.432   81.289
  227.500    9.783 2293.230    0.446   78.528
  227.750    9.983 2293.450    0.445   78.109
  228.000   10.184 2281.650    0.431   74.850
  228.250   10.584 2227.800    0.424   64.535
  228.500   10.800 2175.900    0.426   62.703
  228.750   11.018 2166.100    0.436   70.295
  229.000   11.034 2190.340    0.445   85.454
  229.250   10.835 2262.700    0.454   85.048
  229.500   10.256 2297.010    0.453   84.603
  229.750    9.708 2293.270    0.450   84.656
  230.000    9.716 2289.480    0.448   87.549
  230.250   10.106 2305.660    0.443   87.615
  230.500   10.304 2319.890    0.433   85.769
  230.750   10.711 2314.100    0.432   79.683
  231.000   11.134 2296.290    0.442   73.138
  231.250   11.793 2294.510    0.432   71.790
  231.500   12.978 2306.790    0.419   75.599
  231.750   13.487 2288.930    0.413   72.353
  232.000   14.016 2247.090    0.394   67.707
  232.250   14.040 2257.320    0.371   69.160
  232.500   14.048 2257.540    0.377   69.697
  232.750   14.065 2235.720    0.404   65.495
  233.000   14.089 2221.920    0.422   56.594
  233.250   13.581 2204.110    0.431   59.003
  233.500   12.613 2186.250    0.442   75.562
  233.750   11.281 2224.570    0.488   93.535
  234.000    9.714 2357.050    0.552   97.842
  234.250    7.909 2365.270    0.566   99.766
  234.500    6.813 2341.460    0.585  104.544
  234.750    5.980 2305.580    0.600  106.011
  235.000    5.249 2289.830    0.623  106.535
  235.250    4.437 2316.130    0.634  107.058
  235.500    3.822 2298.270    0.603  108.996
  235.750    3.551 2284.410    0.598  112.832
  236.000    3.424 2278.620    0.591  111.012
  236.250    3.492 2290.900    0.588  111.065
  236.500    3.840 2275.040    0.594  110.175
  236.750    4.555 2219.190    0.588  102.661
  237.000    5.714 2201.380    0.559   87.150
  237.250    7.303 2201.600    0.517   76.835
  237.500   10.450 2203.820    0.482   69.819
  237.750   16.124 2200.030    0.470   66.089
  238.000   18.418 2182.220    0.459   57.188
  238.250   21.425 2126.310    0.449   49.700
  238.500   25.403 2088.480    0.455   52.122
  238.750   27.954 2084.640    0.463   54.047
  239.000   26.954 2094.920    0.456   57.869
  239.250   22.786 2093.130    0.452   61.221
  239.500   20.001 2103.360    0.455   64.114
  239.750   18.569 2125.600    0.457   65.593
  240.000   18.596 2147.890    0.446   67.531
  240.250   19.325 2156.170    0.439   69.455
  240.500   19.358 2160.390    0.439   70.922
  240.750   19.015 2156.600    0.448   73.815
  241.000   17.329 2174.780    0.458   74.810
  241.250   14.923 2203.090    0.469   69.221
  241.500   15.224 2165.200    0.452   71.629
  241.750   17.715 2105.400    0.431   72.611
  242.000   20.235 2115.570    0.443   74.549
  242.250   21.041 2133.810    0.450   76.015
  242.500   21.053 2152.040    0.447   75.125
  242.750   21.484 2144.250    0.457   71.408
  243.000   21.502 2126.440    0.486   73.830
  243.250   23.662 2108.690    0.485   76.697
