~VERSION INFORMATION
 VERS.                 2.0:   CWLS LOG ASCII STANDARD -VERSION 2.0
 WRAP.                  NO:   ONE LINE PER DEPTH STEP
~WELL INFORMATION BLOCK
#MNEM.UNIT           DATA                    DESCRIPTION OF MNEMONIC
#---------    -------------------            -------------------------------
# Generated from Intellog Unique Number	CW_82_90/WELL/642
WELL.         08-09-082-21W4                 : Well_name    - WELL
LOC .         00/08-09-082-21W4/0            : Location     - LOCATION
UWI .         00/08-09-082-21W4/0            : Uwi          - UNIQUE WELL ID
ENTR.         JAYE                           : Entered      - ENTERED BY
SRVC.         SCHLUMBERGER                   : Scn          - SERVICE COMPANY
DATE.         01 FEB 1974                    : Date         - LOG DATE
STRT.M        234.696                        : top_depth    - START DEPTH
STOP.M        444.946                        : bot_depth    - STOP DEPTH
STEP.M        0.25                           : increment    - STEP LENGTH
 NULL. -999.2500:NULL Value
~CURVE INFORMATION BLOCK
#MNEM UNIT       ERCB CURVE CODE    CURVE DESCRIPTION
#-----------   ------------------   ----------------------------------
DEPT.M        00 001 00 00         : DEPTH        - DEPTH
CALI.MM       00 280 01 00         : CAL          - CALIPER
GR  .API      00 310 00 00         : GR           - GAMMA RAY
DPHI.V/V      00 890 00 00         : PHID         - DENSITY POROSITY (SANDSTONE)
NPHI.V/V      00 330 00 00         : PHIN         - NEUTRON POROSITY (SANDSTONE)
ILD .OHMM     00 120 00 00         : RESD         - DEEP RESISTIVITY (DLL)
~PARAMETER INFORMATION
#MNEM.UNIT           DATA             DESCRIPTION OF MNEMONIC
#---------         -----------     ------------------------------
GL  .M        631.241              : gl           - GROUND LEVEL ELEVATION
EREF.M        627.583              : kb           - ELEVATION OF DEPTH REFERENCE
DATM.M        631.241              : datum        - DATUM ELEVATION
TDD .M        458.724              : tdd          - TOTAL DEPTH DRILLER
RUN .         ONE                  : Run          - RUN NUMBER
ENG .         STRUYK               : Engineer     - RECORDING ENGINEER
BASE.         EDMONTON             : Branch       - HOME BASE OF LOGGING UNIT
MUD .         GEL CHEM             : Mud_type     - MUD TYPE
MATR.         SANDSTONE            : Logunit      - NEUTRON MATRIX
TMAX.C        11.6667              : BHT          - MAXIMUM RECORDED TEMPERATURE
BHTD.M        458.724              : BHTDEP       - MAXIMUM RECORDED TEMPERATURE
RMT .C        11.6667              : MDTP         - TEMPERATURE OF MUD
MUDD.KG/M     8900                 : MWT          - MUD DENSITY
NEUT.         0                    : NEUTRON      - NEUTRON TYPE
RESI.         1                    : RESIST       - RESISTIVITY TYPE
RM  .OHMM     4.2                  : RM           - RESISTIVITY OF MUD
RMC .OHMM     3.9                  : RMC          - RESISTIVITY OF MUD CAKE
RMF .OHMM     0.25                 : RMF          - RESISTIVITY OF MUD FILTRATE
SUFT.C        4                    : SUFT         - SURFACE TEMPERATURE
~A  DEPTH      CAL       GR     PHID     PHIN     RESD
# ...
  271.196  170.087   54.528    0.336    0.520   43.568
  271.446  169.139   54.940    0.331    0.537   46.689
  271.696  168.605   55.235    0.332    0.543   49.671
  271.946  167.759   55.710    0.335    0.553   50.664
  272.196  167.126   56.001    0.338    0.553   49.277
  272.446  166.486   56.110    0.344    0.537   44.300
  272.696  166.056   56.282    0.352    0.537   34.089
  272.946  165.312   56.698    0.356    0.535   28.902
  273.196  165.809   58.754    0.356    0.528   25.747
  273.446  165.995   59.961    0.342    0.539   21.951
  273.696  166.077   57.574    0.346    0.549   20.507
  273.946  165.129   56.041    0.350    0.544   20.538
  274.196  164.903   58.831    0.352    0.546   20.682
  274.446  164.780   58.330    0.349    0.534   21.095
  274.696  165.373   58.258    0.342    0.521   21.243
  274.946  165.663   59.465    0.344    0.507   21.629
  275.196  166.466   58.539    0.335    0.486   21.780
  275.446  166.654   56.274    0.326    0.483   21.377
  275.696  166.738   54.373    0.321    0.487   21.176
  275.946  166.922   53.631    0.347    0.480   22.080
  276.196  166.284   53.375    0.352    0.482   22.195
  276.446  166.059   53.486    0.351    0.492   21.626
  276.696  165.318   55.174    0.364    0.502   21.149
  276.946  165.606   56.079    0.342    0.511   20.721
  277.196  165.485   57.225    0.352    0.548   20.227
  277.446  164.023   56.482    0.369    0.568   20.000
  277.696  163.282   55.861    0.343    0.555   20.399
  277.946  163.983   55.483    0.341    0.550   20.392
  278.196  164.578   55.533    0.348    0.534   20.499
  278.446  165.176   55.642    0.350    0.554   20.604
  278.696  166.390   56.179    0.353    0.571   20.262
  278.946  166.886   56.589    0.345    0.571   19.634
  279.196  167.177   57.127    0.343    0.549   18.991
  279.446  166.950   57.483    0.346    0.530   18.099
  279.696  166.620   58.139    0.354    0.515   18.065
  279.946  165.464   58.312    0.358    0.508   17.570
  280.196  165.243   57.264    0.355    0.527   17.057
  280.446  165.221   54.816    0.354    0.525   16.742
  280.696  165.506   53.646    0.351    0.529   16.554
  280.946  166.520   54.549    0.339    0.534   16.458
  281.196  167.014   54.598    0.338    0.550   16.333
  281.446  166.891   53.671    0.340    0.547   16.720
  281.696  166.253   54.146    0.347    0.542   16.807
  281.946  165.614   54.318    0.342    0.546   16.649
  282.196  164.876   52.663    0.348    0.572   16.312
  282.446  164.133   53.015    0.353    0.572   15.778
  282.696  163.802   53.369    0.356    0.561   15.374
  282.946  163.578   52.078    0.346    0.555   15.369
  283.196  162.939   51.518    0.346    0.559   14.866
  283.446  162.608   53.150    0.356    0.535   14.197
  283.696  162.488   54.477    0.361    0.527   13.557
  283.946  162.672   55.015    0.355    0.531   13.210
  284.196  162.859   53.601    0.349    0.600   13.523
  284.446  162.837   54.683    0.353    0.600   13.569
  284.696  163.334   56.501    0.354    0.590   13.416
  284.946  163.416   58.132    0.359    0.619   13.265
  285.196  163.909   57.877    0.358    0.621   12.761
  285.446  164.301   57.865    0.349    0.603   12.757
  285.696  164.795   57.854    0.333    0.588   11.918
  285.946  165.186   56.746    0.324    0.595   12.268
  286.196  165.889   55.639    0.316    0.600   12.491
  286.446  165.973   57.270    0.325    0.574   12.578
  286.696  164.922   60.060    0.328    0.577   12.667
  286.946  163.976   61.264    0.326    0.558   12.731
  287.196  163.335   61.375    0.334    0.540   12.821
  287.446  163.215   60.329    0.337    0.521   12.864
  287.696  163.291   59.706    0.343    0.532   12.883
  287.946  163.484   60.121    0.341    0.560   12.832
  288.196  163.768   61.874    0.329    0.570   12.758
  288.446  164.060   63.386    0.337    0.580   12.895
  288.696  164.555   67.271    0.344    0.574   12.937
  288.946  164.639   68.052    0.350    0.578   12.862
  289.196  165.337   66.881    0.344    0.584   12.835
  289.446  165.628   66.323    0.336    0.587   12.807
  289.696  165.706   65.336    0.332    0.583   12.275
  289.946  166.202   65.018    0.327    0.585   11.830
  290.196  166.390   65.252    0.329    0.594   11.380
  290.446  166.166   63.535    0.328    0.600   11.089
  290.696  167.073   59.808    0.326    0.601   10.964
  290.946  166.324   56.629    0.329    0.591   11.041
  291.196  165.693   55.886    0.328    0.582   11.262
  291.446  165.358   54.900    0.326    0.576   11.571
  291.696  165.238   52.998    0.319    0.570   11.696
  291.946  165.012   52.133    0.315    0.559   11.543
  292.196  164.370   51.697    0.330    0.554   11.392
  292.446  164.247   51.257    0.324    0.551   11.161
  292.696  163.813   51.733    0.324    0.559   11.056
  292.946  163.486   52.636    0.323    0.564   10.932
  293.196  163.573   54.025    0.316    0.567   10.868
  293.446  163.243   55.596    0.323    0.551   10.551
  293.696  164.047   56.617    0.335    0.549   10.300
  293.946  166.499   57.764    0.334    0.564   10.185
  294.196  167.507   59.457    0.329    0.592    9.833
  294.446  166.357   62.854    0.317    0.578    9.529
  294.696  165.204   65.644    0.309    0.565    9.234
  294.946  165.594   68.313    0.300    0.547    8.674
  295.196  166.395   69.885    0.300    0.535    8.268
  295.446  166.067   69.688    0.294    0.517    7.824
  295.696  166.050   68.826    0.284    0.516    7.417
  295.946  165.512   68.509    0.283    0.543    7.083
  296.196  164.872   71.721    0.290    0.547    6.629
  296.446  164.851   72.869    0.298    0.544    6.366
  296.696  164.937   68.595    0.304    0.598    7.754
  296.946  164.816   64.137    0.306    0.601    9.073
  297.196  164.587   60.045    0.316    0.557    9.547
  297.446  164.569   57.049    0.327    0.529   11.068
  297.696  164.750   54.844    0.317    0.503   11.541
  297.946  164.630   53.432    0.316    0.489   11.836
  298.196  164.713   52.384    0.313    0.489   12.140
  298.446  165.004   51.155    0.307    0.501   12.542
  298.696  164.878   50.959    0.312    0.497   12.723
  298.946  164.962   51.374    0.316    0.516   12.789
  299.196  164.733   53.310    0.310    0.522   12.668
  299.446  164.813   55.614    0.292    0.517   12.321
  299.696  164.798   56.333    0.293    0.507   11.874
  299.946  164.676   55.041    0.297    0.555   11.486
  300.196  164.242   54.421    0.310    0.572   11.253
  300.446  163.914   52.215    0.328    0.547   11.107
  300.696  164.096   51.655    0.337    0.540   11.225
  300.946  164.183   51.398    0.329    0.551   11.325
  301.196  164.674   51.450    0.330    0.542   11.551
  301.446  165.377   50.401    0.328    0.523   11.869
  301.696  165.664   50.084    0.321    0.526   12.398
  301.946  165.439   50.135    0.335    0.521   12.646
  302.196  165.212   50.059    0.346    0.527   12.899
  302.446  165.191   50.964    0.349    0.529   13.133
  302.696  164.969   49.854    0.342    0.530   13.080
  302.946  164.329   49.659    0.338    0.536   12.934
  303.196  163.794   52.694    0.337    0.510   12.464
  303.446  163.466   53.473    0.336    0.507   12.190
  303.696  163.344   53.642    0.329    0.526   11.921
  303.946  163.527   54.179    0.328    0.547   11.594
  304.196  164.333   53.499    0.332    0.568   11.485
  304.446  163.694   51.964    0.338    0.557   11.356
  304.696  162.230   49.942    0.338    0.543   11.208
  304.946  162.621   50.782    0.339    0.564   11.062
  305.196  163.422   50.893    0.330    0.562   10.997
  305.446  163.815   50.211    0.330    0.566   10.974
  305.696  164.314   47.946    0.329    0.578   11.051
  305.946  165.428   46.655    0.336    0.559   11.108
  306.196  164.891   47.008    0.331    0.547   11.145
  306.446  164.975   47.727    0.330    0.545   11.223
  306.696  164.646   48.081    0.328    0.549   11.241
  306.946  164.419   49.225    0.329    0.556   11.277
  307.196  164.397   50.797    0.333    0.554   11.399
  307.446  164.174   49.385    0.345    0.566   11.499
