~VERSION INFORMATION
 VERS.                 2.0:   CWLS LOG ASCII STANDARD -VERSION 2.0
 WRAP.                  NO:   ONE LINE PER DEPTH STEP
~WELL INFORMATION BLOCK
#MNEM.UNIT           DATA                    DESCRIPTION OF MNEMONIC
#---------    -------------------            -------------------------------
# Generated from Intellog Unique Number	CS_69_70/WELL/776
WELL.         MAYNARD EXPLORATION            : Well_name    - WELL
LOC .         00/06-25-070-16W4/0            : Location     - LOCATION
UWI .         00/06-25-070-16W4/0            : Uwi          - UNIQUE WELL ID
ENTR.         SP                             : Entered      - ENTERED BY
SRVC.         SCHLUMBERGER                   : Scn          - SERVICE COMPANY
STRT.M        280                            : top_depth    - START DEPTH
STOP.M        490                            : bot_depth    - STOP DEPTH
STEP.M        0.25                           : increment    - STEP LENGTH
 NULL. -999.2500:NULL Value
~CURVE INFORMATION BLOCK
#MNEM UNIT       ERCB CURVE CODE    CURVE DESCRIPTION
#-----------   ------------------   ----------------------------------
DEPT.M        00 001 00 00         : DEPTH        - DEPTH
ILD .OHMM     00 120 00 00         : RESD         - DEEP RESISTIVITY (DIL)
DPHI.V/V      00 890 00 00         : PHID         - DENSITY POROSITY (LIMESTONE)
NPHI.V/V      00 330 00 00         : PHIN         - NEUTRON POROSITY (LIMESTONE)
GR  .API      00 310 00 00         : GR           - GAMMA RAY
~PARAMETER INFORMATION
#MNEM.UNIT           DATA             DESCRIPTION OF MNEMONIC
#---------         -----------     ------------------------------
GL  .M        580.53               : gl           - GROUND LEVEL ELEVATION
EREF.M        583.73               : kb           - ELEVATION OF DEPTH REFERENCE
DATM.M        580.53               : datum        - DATUM ELEVATION
TDD .M        499                  : tdd          - TOTAL DEPTH DRILLER
RUN .         ONE                  : Run          - RUN NUMBER
ENG .         BILL                 : Engineer     - RECORDING ENGINEER
WIT .         JIM                  : Witness      - WITNESSED BY
MUD .         GEL                  : Mud_type     - MUD TYPE
MATR.         LIMESTONE            : Logunit      - NEUTRON MATRIX
TMAX.C        23                   : BHT          - MAXIMUM RECORDED TEMPERATURE
BHTD.M        499                  : BHTDEP       - MAXIMUM RECORDED TEMPERATURE
MATR.         1                    : LOGUNIT      - NEUTRON MATRIX
RMT .C        25                   : MDTP         - TEMPERATURE OF MUD
NEUT.         1                    : NEUTRON      - NEUTRON TYPE
RESI.         0                    : RESIST       - RESISTIVITY TYPE
RMC .OHMM     0.25                 : RMC          - RESISTIVITY OF MUD CAKE
RMF .OHMM     0.25                 : RMF          - RESISTIVITY OF MUD FILTRATE
SUFT.C        15                   : SUFT         - SURFACE TEMPERATURE
~A  DEPTH     RESD     PHID     PHIN       GR
# ...
  367.000    3.499    0.291    0.413   99.768
  367.250    3.367    0.307    0.415   99.760
  367.500    3.351    0.328    0.413   99.085
  367.750    3.261    0.345    0.419   98.042
  368.000    3.204    0.343    0.433   97.303
  368.250    3.236    0.319    0.432   96.751
  368.500    3.302    0.301    0.412   95.101
  368.750    3.474    0.293    0.397   92.905
  369.000    3.597    0.282    0.403   92.837
  369.250    3.736    0.260    0.394   95.445
  369.500    3.827    0.244    0.391   98.722
  369.750    3.925    0.233    0.386   98.959
  370.000    3.991    0.231    0.382   95.788
  370.250    4.015    0.245    0.378   92.739
  370.500    4.015    0.258    0.389   90.299
  370.750    3.999    0.253    0.393   89.197
  371.000    3.942    0.244    0.396   90.527
  371.250    3.909    0.234    0.389   91.615
  371.500    3.827    0.226    0.387   93.190
  371.750    3.687    0.237    0.389   92.999
  372.000    3.589    0.249    0.381   89.525
  372.250    3.442    0.261    0.376   85.990
  372.500    3.343    0.271    0.372   80.022
  372.750    3.270    0.277    0.366   75.878
  373.000    3.204    0.286    0.363   78.302
  373.250    3.286    0.290    0.361   79.452
  373.500    3.483    0.284    0.355   80.296
  373.750    3.843    0.286    0.326   78.708
  374.000    4.294    0.260    0.227   72.192
  374.250    4.770    0.221    0.205   67.684
  374.500    5.024    0.126    0.191   71.326
  374.750    5.065    0.132    0.232   76.002
  375.000    4.671    0.231    0.277   79.827
  375.250    4.237    0.287    0.314   80.853
  375.500    3.753    0.328    0.342   80.299
  375.750    3.204    0.314    0.358   79.439
  376.000    3.024    0.308    0.370   78.399
  376.250    2.975    0.307    0.376   75.895
  376.500    3.204    0.301    0.362   73.090
  376.750    3.794    0.280    0.338   69.009
  377.000    4.762    0.245    0.271   62.980
  377.250    5.909    0.122    0.221   56.100
  377.500    6.663    0.077    0.153   59.438
  377.750    6.606    0.210    0.117   68.190
  378.000    6.483    0.254    0.348   75.603
  378.250    6.114    0.280    0.367   78.759
  378.500    5.286    0.300    0.377   78.204
  378.750    4.459    0.313    0.384   75.277
  379.000    3.778    0.321    0.388   74.418
  379.250    3.270    0.312    0.381   76.358
  379.500    3.024    0.318    0.393   77.810
  379.750    2.893    0.324    0.388   78.776
  380.000    2.877    0.324    0.392   79.859
  380.250    2.909    0.330    0.394   79.977
  380.500    2.926    0.323    0.392   80.395
  380.750    2.967    0.318    0.399   80.996
  381.000    2.983    0.316    0.390   80.200
  381.250    2.983    0.316    0.382   78.609
  381.500    3.024    0.318    0.377   78.907
  381.750    3.065    0.320    0.381   83.036
  382.000    3.131    0.323    0.377   86.253
  382.250    3.164    0.325    0.372   86.063
  382.500    3.180    0.312    0.373   83.988
  382.750    3.205    0.305    0.387   81.790
  383.000    3.246    0.298    0.378   80.323
  383.250    3.311    0.293    0.372   79.160
  383.500    3.344    0.284    0.380   78.606
  383.750    3.426    0.273    0.376   79.572
  384.000    3.500    0.260    0.381   82.057
  384.250    3.623    0.250    0.388   83.266
  384.500    3.803    0.244    0.382   83.503
  384.750    3.992    0.241    0.388   82.947
  385.000    4.090    0.240    0.396   81.116
  385.250    4.156    0.246    0.409   81.595
  385.500    4.172    0.255    0.402   85.053
  385.750    4.230    0.265    0.394   87.176
  386.000    4.238    0.279    0.389   89.177
  386.250    4.238    0.291    0.395   89.716
  386.500    4.246    0.298    0.390   88.737
  386.750    4.262    0.288    0.388   87.451
  387.000    4.295    0.283    0.388   87.079
  387.250    4.361    0.286    0.387   87.556
  387.500    4.402    0.286    0.384   88.037
  387.750    4.418    0.267    0.390   88.761
  388.000    4.443    0.241    0.396   90.030
  388.250    4.467    0.224    0.401   91.541
  388.500    4.508    0.215    0.394   92.690
  388.750    4.517    0.211    0.387   92.808
  389.000    4.549    0.213    0.381   90.610
  389.250    4.558    0.210    0.377   92.488
  389.500    4.558    0.206    0.371   94.305
  389.750    4.558    0.206    0.372   95.090
  390.000    4.591    0.210    0.382   91.311
  390.250    4.607    0.221    0.367   86.681
  390.500    4.615    0.233    0.384   84.665
  390.750    4.591    0.241    0.372   85.206
  391.000    4.558    0.248    0.365   86.597
  391.250    4.525    0.256    0.376   86.713
  391.500    4.419    0.261    0.376   84.515
  391.750    4.410    0.248    0.366   83.595
  392.000    4.296    0.242    0.365   83.770
  392.250    4.238    0.243    0.366   84.431
  392.500    4.165    0.251    0.368   85.824
  392.750    4.132    0.257    0.365   87.824
  393.000    4.140    0.256    0.354   87.391
  393.250    4.132    0.258    0.346   84.464
  393.500    4.148    0.262    0.378   82.571
  393.750    4.148    0.254    0.390   84.571
  394.000    4.197    0.244    0.375   87.362
  394.250    4.206    0.238    0.366   89.787
  394.500    4.222    0.237    0.376   91.180
  394.750    4.238    0.241    0.384   90.077
  395.000    4.206    0.246    0.382   89.522
  395.250    4.173    0.251    0.380   92.435
  395.500    4.050    0.258    0.380   96.928
  395.750    3.845    0.265    0.397  100.874
  396.000    3.517    0.273    0.414  104.152
  396.250    3.181    0.278    0.424  108.220
  396.500    2.870    0.280    0.435  111.315
  396.750    2.468    0.277    0.450  111.794
  397.000    2.263    0.273    0.469  109.416
  397.250    2.009    0.264    0.490  104.723
  397.500    1.911    0.253    0.473  102.526
  397.750    2.067    0.247    0.441  102.338
  398.000    2.362    0.240    0.420  102.208
  398.250    2.534    0.233    0.405  101.532
  398.500    2.853    0.229    0.394  100.369
  398.750    3.214    0.224    0.390   99.328
  399.000    3.354    0.220    0.387   99.868
  399.250    3.632    0.216    0.390  101.563
  399.500    3.763    0.212    0.399  102.165
  399.750    3.944    0.205    0.405  100.698
  400.000    4.034    0.203    0.404   99.170
  400.250    4.059    0.215    0.401   99.283
  400.500    4.091    0.225    0.398  100.186
  400.750    4.091    0.235    0.403  100.907
  401.000    4.059    0.244    0.403  100.904
  401.250    4.034    0.254    0.401   99.194
  401.500    4.009    0.263    0.392   93.225
  401.750    4.034    0.258    0.382   90.420
  402.000    4.100    0.212    0.372   88.284
  402.250    4.264    0.198    0.353   86.878
  402.500    4.329    0.202    0.333   85.592
  402.750    4.329    0.225    0.316   85.525
  403.000    4.206    0.257    0.348   85.274
  403.250    3.911    0.289    0.374   82.834
  403.500    3.649    0.290    0.377   78.265
  403.750    3.477    0.287    0.367   74.607
  404.000    3.313    0.290    0.361   70.403
  404.250    3.198    0.295    0.353   69.119
  404.500    3.034    0.304    0.347   69.293
  404.750    2.903    0.310    0.348   68.130
  405.000    2.862    0.322    0.361   66.360
  405.250    2.797    0.333    0.366   67.143
  405.500    2.682    0.332    0.372   68.839
  405.750    2.666    0.325    0.367   70.352
  406.000    2.608    0.322    0.368   69.433
  406.250    2.600    0.326    0.376   70.155
  406.500    2.567    0.317    0.382   73.371
  406.750    2.559    0.306    0.387   75.980
  407.000    2.567    0.306    0.378   75.790
  407.250    2.567    0.308    0.367   75.052
  407.500    2.584    0.305    0.357   74.923
  407.750    2.617    0.313    0.349   74.426
  408.000    2.658    0.321    0.347   73.809
  408.250    2.731    0.320    0.359   73.624
  408.500    2.781    0.312    0.368   74.164
  408.750    2.838    0.303    0.373   75.738
  409.000    2.944    0.293    0.378   78.346
  409.250    2.994    0.285    0.383   80.711
  409.500    3.067    0.277    0.389   83.441
  409.750    3.133    0.265    0.395   85.988
  410.000    3.281    0.250    0.400   87.746
  410.250    3.330    0.243    0.404   90.656
