~VERSION INFORMATION
 VERS.                 2.0:   CWLS LOG ASCII STANDARD -VERSION 2.0
 WRAP.                  NO:   ONE LINE PER DEPTH STEP
~WELL INFORMATION BLOCK
#MNEM.UNIT           DATA                    DESCRIPTION OF MNEMONIC
#---------    -------------------            -------------------------------
# Generated from Intellog Unique Number	CN_94_101/WELL/2626
WELL.         PARAMOUNT RESOURCES LTD.       : Well_name    - WELL
LOC .         00/03-31-094-17W4/0            : Location     - LOCATION
UWI .         00/03-31-094-17W400            : Uwi          - UNIQUE WELL ID
ENTR.         JOETTE                         : Entered      - ENTERED BY
SRVC.         COMPUTALOG                     : Scn          - SERVICE COMPANY
DATE.         06/18/92                       : Date         - LOG DATE
STRT.M        90                             : top_depth    - START DEPTH
STOP.M        280                            : bot_depth    - STOP DEPTH
STEP.M        0.25                           : increment    - STEP LENGTH
 NULL. -999.2500:NULL Value
~CURVE INFORMATION BLOCK
#MNEM UNIT       ERCB CURVE CODE    CURVE DESCRIPTION
#-----------   ------------------   ----------------------------------
DEPT.M        00 001 00 00         : DEPTH        - DEPTH
CALI.MM       00 280 01 00         : CAL          - CALIPER
GR  .API      00 310 00 00         : GR           - GAMMA RAY
NPHI.V/V      00 330 00 00         : PHIN         - NEUTRON POROSITY (SANDSTONE)
DPHI.V/V      00 890 00 00         : PHID         - DENSITY POROSITY (SANDSTONE)
ILD .OHMM     00 120 00 00         : RESD         - DEEP RESISTIVITY (DIL)
~PARAMETER INFORMATION
#MNEM.UNIT           DATA             DESCRIPTION OF MNEMONIC
#---------         -----------     ------------------------------
GL  .M        538.3                : gl           - GROUND LEVEL ELEVATION
EREF.M        542.1                : kb           - ELEVATION OF DEPTH REFERENCE
DATM.M        542.1                : datum        - DATUM ELEVATION
TDD .M        281.4                : tdd          - TOTAL DEPTH DRILLER
RUN .         ONE                  : Run          - RUN NUMBER
ENG .         JO                   : Engineer     - RECORDING ENGINEER
WIT .         TIM                  : Witness      - WITNESSED BY
MUD .         GEL                  : Mud_type     - MUD TYPE
MATR.         SANDSTONE            : Logunit      - NEUTRON MATRIX
TMAX.C        25                   : BHT          - MAXIMUM RECORDED TEMPERATURE
BHTD.M        281.4                : BHTDEP       - MAXIMUM RECORDED TEMPERATURE
RMT .C        16                   : MDTP         - TEMPERATURE OF MUD
MUDD.KG/M     1100                 : MWT          - MUD DENSITY
NEUT.         1                    : NEUTRON      - NEUTRON TYPE
RESI.         0                    : RESIST       - RESISTIVITY TYPE
RM  .OHMM     4.1                  : RM           - RESISTIVITY OF MUD
RMC .OHMM     4.1                  : RMC          - RESISTIVITY OF MUD CAKE
RMF .OHMM     4.1                  : RMF          - RESISTIVITY OF MUD FILTRATE
SUFT.C        4                    : SUFT         - SURFACE TEMPERATURE
~A  DEPTH      CAL       GR     PHIN     PHID     RESD
# ...
  126.500  163.248   86.502    0.456    0.264    6.583
  126.750  163.389   82.297    0.450    0.254    6.354
  127.000  163.436   87.837    0.448    0.239    6.249
  127.250  162.535   93.390    0.474    0.237    6.145
  127.500  161.611   95.307    0.469    0.244    6.158
  127.750  160.687   94.753    0.451    0.245    6.287
  128.000  160.804   93.559    0.447    0.245    6.416
  128.250  160.851   91.172    0.455    0.253    6.802
  128.500  160.968   88.813    0.464    0.267    7.210
  128.750  161.038   88.870    0.484    0.280    7.366
  129.000  161.132   88.898    0.491    0.278    6.973
  129.250  162.267   84.678    0.485    0.274    6.988
  129.500  162.361   81.070    0.478    0.264    7.274
  129.750  162.432   75.629    0.465    0.250    7.427
  130.000  163.567   70.188    0.438    0.241    8.022
  130.250  163.661   75.741    0.447    0.237    7.746
  130.500  164.796   79.462    0.462    0.264    7.330
  130.750  165.861   83.198    0.458    0.273    6.444
  131.000  166.996   82.032    0.454    0.282    6.104
  131.250  168.132   81.478    0.454    0.277    6.117
  131.500  168.179   82.145    0.456    0.262    6.126
  131.750  169.290   80.355    0.467    0.260    6.374
  132.000  168.390   81.036    0.475    0.264    6.631
  132.250  167.442   85.993    0.468    0.265    7.029
  132.500  162.469   88.492    0.468    0.267    7.459
  132.750  160.503   85.481    0.462    0.260    7.467
  133.000  156.525   83.094    0.453    0.231    7.628
  133.250  154.630   80.692    0.454    0.212    7.501
  133.500  154.677   83.220    0.409    0.252    7.377
  133.750  155.789   85.720    0.465    0.263    7.120
  134.000  156.900   86.387    0.496    0.267    6.869
  134.250  158.012   83.375    0.491    0.263    6.629
  134.500  158.106   78.559    0.470    0.259    6.286
  134.750  159.265   76.754    0.453    0.266    6.295
  135.000  159.312   76.825    0.443    0.274    6.188
  135.250  159.406   80.546    0.457    0.278    6.086
  135.500  158.505   86.100    0.473    0.277    5.874
  135.750  157.628   90.432    0.478    0.268    5.566
  136.000  157.674   95.999    0.473    0.266    5.372
  136.250  157.792   98.499    0.468    0.264    5.086
  136.500  157.862   99.166    0.461    0.264    4.645
  136.750  158.997   96.168    0.459    0.265    4.483
  137.000  160.086   93.156    0.460    0.265    4.407
  137.250  161.221   88.326    0.462    0.260    4.336
  137.500  162.356   88.993    0.460    0.259    4.423
  137.750  163.421   92.118    0.466    0.264    4.516
  138.000  164.533   89.106    0.477    0.266    4.698
  138.250  164.627   85.497    0.470    0.266    4.890
  138.500  164.744   89.233    0.475    0.266    5.487
  138.750  162.779   94.175    0.505    0.249    5.708
  139.000  158.824   96.064    0.526    0.213    5.933
  139.250  154.845   88.777    0.512    0.183    6.172
  139.500  154.939   82.739    0.451    0.212    6.309
  139.750  157.046   84.003    0.455    0.234    6.089
  140.000  161.235   79.172    0.445    0.256    5.657
  140.250  165.425   80.450    0.448    0.261    5.256
  140.500  168.549  101.899    0.494    0.270    4.709
  140.750  169.637  105.635    0.501    0.278    4.296
  141.000  168.737  102.012    0.511    0.287    4.144
  141.250  164.758   99.625    0.514    0.280    4.078
  141.500  161.798  101.514    0.506    0.257    4.088
  141.750  159.879  104.638    0.500    0.252    4.095
  142.000  158.932  107.749    0.557    0.248    4.179
  142.250  157.984  109.651    0.570    0.243    4.266
  142.500  156.089  109.680    0.544    0.241    4.356
  142.750  156.135  108.528    0.533    0.248    4.452
  143.000  156.229  107.988    0.512    0.260    4.376
  143.250  156.347  108.016    0.473    0.261    3.995
  143.500  156.464  108.086    0.470    0.253    3.782
  143.750  157.552  105.088    0.490    0.250    3.652
  144.000  160.724  100.855    0.504    0.261    3.656
  144.250  161.789  101.522    0.520    0.275    3.804
  144.500  160.864  100.968    0.512    0.275    4.110
  144.750  157.951   97.970    0.516    0.269    4.274
  145.000  157.003   98.651    0.516    0.264    4.707
  145.250  157.097   94.417    0.492    0.255    5.183
  145.500  157.168   82.257    0.476    0.231    5.386
  145.750  157.285   86.603    0.469    0.211    5.713
  146.000  160.433   90.311    0.463    0.255    6.059
  146.250  162.539   92.227    0.460    0.262    5.962
  146.500  170.824   89.201    0.465    0.269    5.748
  146.750  167.840   78.874    0.476    0.280    5.551
  147.000  160.831   70.365    0.432    0.298    5.668
  147.250  157.824   65.534    0.412    0.311    5.893
  147.500  154.864   71.088    0.456    0.282    6.131
  147.750  154.958   88.261    0.468    0.267    6.144
  148.000  155.075   92.607    0.483    0.245    5.605
  148.250  155.145   95.093    0.494    0.240    5.022
  148.500  155.263  101.271    0.495    0.239    4.844
  148.750  156.421  104.993    0.488    0.245    4.673
  149.000  156.492  100.773    0.474    0.249    4.864
  149.250  156.609   89.849    0.464    0.257    5.359
  149.500  156.656   88.044    0.450    0.263    5.569
  149.750  156.750   81.993    0.443    0.266    6.130
  150.000  156.844   77.176    0.431    0.273    6.746
  150.250  155.919   74.789    0.424    0.281    7.155
  150.500  156.013   73.624    0.431    0.284    6.403
  150.750  157.149   75.499    0.417    0.288    5.220
  151.000  160.320   80.456    0.426    0.276    4.418
  151.250  162.403   85.995    0.448    0.252    4.029
  151.500  167.634   94.006    0.469    0.245    3.542
  151.750  168.722  100.782    0.551    0.238    3.417
  152.000  167.798  106.335    0.527    0.238    3.424
  152.250  164.861  111.278    0.498    0.245    3.496
  152.500  162.872  111.959    0.487    0.243    3.570
  152.750  158.894  111.391    0.485    0.230    3.645
  153.000  158.988  110.240    0.491    0.229    3.721
  153.250  159.081  110.296    0.492    0.230    3.800
  153.500  159.222  111.574    0.505    0.230    3.880
  153.750  159.269  112.852    0.516    0.230    3.888
  154.000  158.368  109.229    0.504    0.227    3.823
  154.250  155.431  102.566    0.495    0.227    3.833
  154.500  154.484  104.455    0.501    0.230    3.839
  154.750  153.536  106.955    0.506    0.236    3.847
  155.000  151.594  107.011    0.508    0.258    3.928
  155.250  151.688  105.235    0.509    0.264    3.940
  155.500  151.805  104.083    0.511    0.263    4.023
  155.750  151.922  103.529    0.505    0.260    4.107
  156.000  151.993  102.974    0.498    0.260    4.194
  156.250  152.063  103.017    0.494    0.260    4.282
  156.500  152.204  105.530    0.509    0.257    4.372
  156.750  152.251  106.808    0.520    0.248    4.546
  157.000  152.368  103.810    0.515    0.227    4.819
  157.250  152.462   98.355    0.510    0.172    5.407
  157.500  152.532   89.249    0.511    0.219    5.954
  157.750  152.626   85.641    0.501    0.253    6.188
  158.000  152.743   89.973    0.472    0.271    6.564
  158.250  152.814   88.821    0.466    0.289    6.825
  158.500  152.931   83.991    0.452    0.296    6.587
  158.750  153.001   84.047    0.435    0.241    6.726
  159.000  153.118   87.158    0.504    0.204    6.495
  159.250  157.308   92.101    0.501    0.175    6.390
  159.500  160.432   93.975    0.465    0.130    6.400
  159.750  163.580   84.258    0.409    0.117    6.410
  160.000  163.674   76.985    0.374    0.087    6.433
  160.250  161.755   85.593    0.403    0.088    6.317
  160.500  160.808  103.988    0.545    0.134    6.100
  160.750  160.901  110.763    0.554    0.177    5.775
  161.000  161.019  115.720    0.553    0.193    5.171
  161.250  161.136  112.097    0.539    0.190    4.718
  161.500  161.183  106.073    0.514    0.185    4.146
  161.750  161.277  107.323    0.504    0.189    3.784
  162.000  161.394  109.837    0.505    0.204    3.651
  162.250  160.470  109.879    0.507    0.222    3.394
  162.500  159.546  106.881    0.505    0.232    3.216
  162.750  158.621  103.287    0.518    0.242    3.046
