~VERSION INFORMATION
 VERS.                 2.0:   CWLS LOG ASCII STANDARD -VERSION 2.0
 WRAP.                  NO:   ONE LINE PER DEPTH STEP
~WELL INFORMATION BLOCK
#MNEM.UNIT           DATA                    DESCRIPTION OF MNEMONIC
#---------    -------------------            -------------------------------
# Generated from Intellog Unique Number	CC_84_87/WELL/1163
NULL.         -999.25                        : NULL_VALUE
WELL.         PCI PCEJ HANGST                : Well_name    - WELL              
LOC .         07-21-084-10W4                 : Location     - LOCATION          
UWI .         00/07-21-084-10W400            : Uwi          - UNIQUE WELL ID    
ENTR.         JHS                            : Entered      - ENTERED BY        
SRVC.         SCHLUMBERGER                   : Scn          - SERVICE COMPANY   
DATE.         21 FEB 86                      : Date         - LOG DATE
STRT.M        150                            : top_depth    - START DEPTH       
STOP.M        389.996                        : bot_depth    - STOP DEPTH        
STEP.M        0.3                            : increment    - STEP LENGTH       
~CURVE INFORMATION BLOCK
#MNEM UNIT       ERCB CURVE CODE    CURVE DESCRIPTION
#-----------   ------------------   ----------------------------------
DEPT.M        00 001 00 00         : DEPTH        - DEPTH                       
DPHI.V/V      00 890 00 00         : PHID         - DENSITY POROSITY (LIMESTONE)
NPHI.V/V      00 330 00 00         : PHIN         - NEUTRON POROSITY (LIMESTONE)
GR  .API      00 310 00 00         : GR           - GAMMA RAY                   
ILD .OHMM     00 120 00 00         : RESD         - DEEP RESISTIVITY (DIL)      
~PARAMETER INFORMATION       
#MNEM.UNIT           DATA             DESCRIPTION OF MNEMONIC
#---------         -----------     ------------------------------
GL  .M        633.5                : gl           - GROUND LEVEL ELEVATION      
EREF.M        637                  : kb           - ELEVATION OF DEPTH REFERENCE
DATM.M        637                  : datum        - DATUM ELEVATION             
TDD .M        399                  : tdd          - TOTAL DEPTH DRILLER         
RUN .         ONE                  : Run          - RUN NUMBER                  
ENG .         BILL                 : Engineer     - RECORDING ENGINEER          
WIT .         JIM                  : Witness      - WITNESSED BY                
MUD .         GEL                  : Mud_type     - MUD TYPE                    
MATR.         LIMESTONE            : Logunit      - NEUTRON MATRIX              
TMAX.C        15                   : BHT          - MAXIMUM RECORDED TEMPERATURE
BHTD.M        399                  : BHTDEP       - MAXIMUM RECORDED TEMPERATURE
MATR.         1                    : LOGUNIT      - NEUTRON MATRIX              
RMT .C        25                   : MDTP         - TEMPERATURE OF MUD          
NEUT.         1                    : NEUTRON      - NEUTRON TYPE                
RESI.         0                    : RESIST       - RESISTIVITY TYPE            
RMC .OHMM     0.25                 : RMC          - RESISTIVITY OF MUD CAKE     
RMF .OHMM     0.25                 : RMF          - RESISTIVITY OF MUD FILTRATE 
SUFT.C        15                   : SUFT         - SURFACE TEMPERATURE         
~A  DEPTH     PHID     PHIN       GR     RESD
  150.000    0.269    0.537  111.430    2.890
  150.300    0.262    0.519  108.444    3.291
  150.600    0.269    0.502  108.472    3.352
  150.900    0.280    0.531  113.324    3.289
  151.200    0.273    0.531  113.352    2.995
  151.500    0.282    0.493  109.762    2.885
  151.800    0.288    0.515  106.174    2.938
  152.100    0.271    0.506  110.422    2.937
  152.400    0.277    0.524  112.858    2.626
  152.700    0.275    0.529  112.884    2.776
  153.000    0.273    0.533  115.926    2.934
  153.300    0.277    0.546  112.943    2.623
  153.600    0.291    0.551  112.369    2.389
  153.900    0.301    0.531  113.599    2.388
  154.200    0.293    0.520  116.640    2.388
  154.500    0.286    0.547  113.652    2.669
  154.800    0.290    0.548  113.082    2.718
  155.100    0.288    0.546  112.506    2.927
  155.400    0.279    0.548  108.917    3.153
  155.700    0.256    0.551  103.520    3.211
  156.000    0.228    0.526  101.136    3.151
  156.300    0.272    0.544  108.997    2.924
  156.600    0.297    0.530  114.450    2.713
  156.900    0.292    0.510  107.850    2.662
  157.200    0.282    0.519  106.673    2.711
  157.500    0.287    0.525  108.508    2.761
  157.800    0.283    0.510  107.930    2.709
  158.100    0.292    0.505  108.561    2.561
  158.400    0.288    0.556  104.371    2.609
  158.700    0.292    0.569  100.781    2.706
  159.000    0.297    0.551  105.033    2.607
  159.300    0.292    0.539  104.453    2.511
  159.600    0.294    0.530  105.095    2.510
  159.900    0.296    0.532  104.514    2.463
  160.200    0.300    0.523  104.544    2.508
  160.500    0.307    0.538  104.566    2.701
  160.800    0.307    0.573   99.769    2.554
  161.100    0.288    0.527   96.183    3.192
  161.400    0.285    0.494   99.829    3.017
  161.700    0.292    0.532  103.471    2.239
  162.000    0.291    0.548  105.304    2.323
  162.300    0.294    0.560  103.524    2.280
  162.600    0.309    0.589  105.363    2.155
  162.900    0.320    0.575  104.786    2.115
  163.200    0.318    0.554  105.415    1.999
  163.500    0.298    0.578  104.239    2.235
  163.800    0.296    0.568   89.199    2.193
  164.100    0.269    0.482   85.006    3.008
  164.400    0.265    0.497   94.077    3.623
  164.700    0.242    0.585   63.365    1.277
  165.000    0.094    0.285   47.725    1.959
  165.300    0.178    0.308   85.118    4.047
  165.600    0.287    0.480   98.404    3.971
  165.900    0.293    0.546   95.420    3.685
  166.200    0.286    0.540   65.915    3.419
  166.500    0.275    0.419   62.929    3.548
  166.800    0.283    0.484   97.309    3.821
  167.100    0.283    0.522  100.350    3.612
  167.400    0.270    0.529   96.161    3.351
  167.700    0.259    0.507   97.999    3.110
  168.000    0.283    0.517   98.026    2.940
  168.300    0.259    0.501   89.012    3.286
  168.600    0.223    0.463   86.026    3.813
  168.900    0.239    0.513   95.696    4.031
  169.200    0.245    0.513  103.559    3.882
  169.500    0.260    0.554  108.406    3.407
  169.800    0.261    0.553  107.235    3.535
  170.100    0.268    0.524  108.464    3.737
  170.400    0.279    0.549  106.080    3.159
  170.700    0.284    0.528  109.121    3.597
  171.000    0.273    0.541  109.153    3.465
  171.300    0.252    0.533  107.369    3.215
  171.600    0.263    0.509  103.177    3.594
  171.900    0.277    0.504   98.985    3.461
  172.200    0.272    0.482   97.811    3.525
  172.500    0.274    0.463   96.630    4.014
  172.800    0.265    0.504   99.675    4.166
  173.100    0.269    0.523   92.468    5.304
  173.400    0.292    0.469   78.030    6.755
  173.700    0.330    0.444   68.415    8.134
  174.000    0.338    0.420   64.222   10.167
  174.300    0.335    0.424   64.254   12.947
  174.600    0.341    0.453   69.704   15.304
  174.900    0.346    0.444   76.964   15.017
  175.200    0.328    0.421   84.222   12.232
  175.500    0.302    0.422   93.290    7.968
  175.800    0.275    0.444   94.527    6.992
  176.100    0.272    0.445   87.319    7.121
  176.400    0.281    0.437   77.103   10.140
  176.700    0.327    0.412   81.348   14.172
  177.000    0.332    0.418   86.199   15.263
  177.300    0.325    0.438   87.433   13.902
  177.600    0.310    0.430   83.844   13.896
  177.900    0.301    0.419   75.433   15.826
  178.200    0.298    0.417   70.035   15.821
  178.500    0.287    0.412   70.064   13.129
  178.800    0.276    0.407   75.520   11.307
  179.100    0.295    0.420   77.351   11.517
  179.400    0.320    0.434   79.789   14.666
  179.700    0.315    0.434   84.638   14.937
  180.000    0.301    0.431   84.666   11.293
  180.300    0.305    0.438   80.477   11.718
  180.600    0.302    0.432   82.912   13.595
  180.900    0.305    0.449   87.161   11.930
  181.200    0.339    0.470   77.545   14.636
  181.500    0.371    0.430   73.355   21.232
  181.800    0.360    0.440   74.587   23.296
  182.100    0.336    0.457   68.588   26.041
  182.400    0.352    0.417   64.397   28.046
  182.700    0.366    0.397   71.052   24.155
  183.000    0.364    0.406   90.367   17.597
  183.300    0.320    0.435  106.668   14.603
  183.600    0.243    0.447  104.284    8.196
  183.900    0.245    0.411   88.040    9.161
  184.200    0.284    0.388   75.410   14.319
  184.500    0.276    0.413   71.823   18.925
  184.800    0.293    0.394   57.385   22.371
  185.100    0.316    0.371   53.195   24.091
  185.400    0.344    0.360   68.287   21.944
  185.700    0.327    0.385   92.425   17.220
  186.000    0.265    0.435   84.013   18.202
  186.300    0.294    0.436   77.417   18.888
  186.600    0.309    0.444   83.471   19.598
  186.900    0.278    0.423   89.522   18.185
  187.200    0.250    0.398   91.961   16.561
  187.500    0.272    0.407   87.771   17.838
  187.800    0.311    0.408   81.769   22.296
  188.100    0.314    0.396   81.197   22.289
  188.400    0.294    0.407   82.428   16.236
  188.700    0.291    0.439   74.622   16.536
  189.000    0.308    0.425   65.606   25.841
  189.300    0.345    0.415   55.390   27.829
  189.600    0.360    0.406   62.050   28.346
  189.900    0.347    0.424   66.894   23.964
  190.200    0.319    0.435   69.336   25.328
  190.500    0.327    0.421   72.375   28.316
  190.800    0.339    0.415   79.034   28.837
  191.100    0.347    0.430   80.868   28.830
  191.400    0.354    0.422   76.679   29.357
  191.700    0.342    0.452   76.103   30.465
  192.000    0.348    0.437   75.528   29.891
  192.300    0.348    0.423   77.965   27.738
  192.600    0.338    0.423   86.433   23.892
  192.900    0.304    0.429   89.474   22.586
  193.200    0.297    0.455   88.295   23.436
  193.500    0.352    0.465   76.871   24.774
  193.800    0.364    0.439   72.077   27.180
  194.100    0.359    0.431   79.939   28.733
  194.400    0.351    0.433   81.175   30.370
  194.700    0.346    0.427   75.175   30.933
  195.000    0.352    0.433   72.188   31.503
  195.300    0.356    0.423   69.205   30.912
  195.600    0.349    0.439   71.038   29.772
  195.900    0.343    0.440   74.077   28.147
  196.200    0.330    0.422   78.930   25.635
  196.500    0.321    0.431   85.584   23.788
  196.800    0.319    0.450   85.612   20.875
  197.100    0.310    0.460   88.052   19.013
  197.400    0.298    0.455   92.901   17.317
  197.700    0.305    0.432   89.311   16.069
  198.000    0.316    0.447   87.531   16.064
  198.300    0.315    0.445   89.368   17.625
  198.600    0.299    0.412   99.639   15.757
  198.900    0.259    0.441  112.326   11.693
  199.201    0.242    0.476  121.994    9.177
  199.501    0.207    0.469  115.996    7.337
  199.801    0.141    0.460  114.214    6.319
  200.101    0.186    0.480  120.271    6.087
  200.401    0.223    0.515  120.300    5.341
  200.701    0.231    0.558  123.339    4.515
  201.001    0.241    0.561  129.995    3.962
  201.301    0.230    0.550  127.014    3.609
  201.601    0.209    0.535  127.640    3.412
  201.901    0.248    0.558  124.050    3.225
