~VERSION INFORMATION
 VERS.                 2.0:   CWLS LOG ASCII STANDARD -VERSION 2.0
 WRAP.                  NO:   ONE LINE PER DEPTH STEP
~WELL INFORMATION BLOCK
#MNEM.UNIT           DATA                    DESCRIPTION OF MNEMONIC
#---------    -------------------            -------------------------------
# Generated from Intellog Unique Number	CS_73_76/WELL/1092
WELL.         BOW VALLLEY INDUSTRIES         : Well_name    - WELL
LOC .         00/02-07-076-13W4/0            : Location     - LOCATION
UWI .         00/02-07-076-13W4/0            : Uwi          - UNIQUE WELL ID
ENTR.         T                              : Entered      - ENTERED BY
SRVC.         SCHLUMBERGER                   : Scn          - SERVICE COMPANY
STRT.M        335                            : top_depth    - START DEPTH
STOP.M        565                            : bot_depth    - STOP DEPTH
STEP.M        0.25                           : increment    - STEP LENGTH
 NULL. -999.2500:NULL Value
~CURVE INFORMATION BLOCK
#MNEM UNIT       ERCB CURVE CODE    CURVE DESCRIPTION
#-----------   ------------------   ----------------------------------
DEPT.M        00 001 00 00         : DEPTH        - DEPTH
GR  .API      00 310 00 00         : GR           - GAMMA RAY
NPHI.V/V      00 330 00 00         : PHIN         - NEUTRON POROSITY (SANDSTONE)
DPHI.V/V      00 890 00 00         : PHID         - DENSITY POROSITY (SANDSTONE)
ILD .OHMM     00 120 00 00         : RESD         - DEEP RESISTIVITY (DIL)
~PARAMETER INFORMATION
#MNEM.UNIT           DATA             DESCRIPTION OF MNEMONIC
#---------         -----------     ------------------------------
GL  .M        709.6                : gl           - GROUND LEVEL ELEVATION
EREF.M        712.3                : kb           - ELEVATION OF DEPTH REFERENCE
DATM.M        712.3                : datum        - DATUM ELEVATION
TDD .M        572                  : tdd          - TOTAL DEPTH DRILLER
RUN .         ONE                  : Run          - RUN NUMBER
ENG .         BILL                 : Engineer     - RECORDING ENGINEER
WIT .         JIM                  : Witness      - WITNESSED BY
MUD .         GEL                  : Mud_type     - MUD TYPE
MATR.         SANDSTONE            : Logunit      - NEUTRON MATRIX
TMAX.C        24                   : BHT          - MAXIMUM RECORDED TEMPERATURE
BHTD.M        572                  : BHTDEP       - MAXIMUM RECORDED TEMPERATURE
MATR.         1                    : LOGUNIT      - NEUTRON MATRIX
RMT .C        25                   : MDTP         - TEMPERATURE OF MUD
NEUT.         1                    : NEUTRON      - NEUTRON TYPE
RESI.         0                    : RESIST       - RESISTIVITY TYPE
RMC .OHMM     0.25                 : RMC          - RESISTIVITY OF MUD CAKE
RMF .OHMM     0.25                 : RMF          - RESISTIVITY OF MUD FILTRATE
SUFT.C        15                   : SUFT         - SURFACE TEMPERATURE
~A  DEPTH       GR     PHIN     PHID     RESD
# ...
  422.000   90.017    0.535    0.219    4.879
  422.250   89.459    0.544    0.220    4.700
  422.500   88.901    0.542    0.223    4.527
  422.750   87.151    0.537    0.227    4.280
  423.000   84.171    0.536    0.250    4.122
  423.250   81.749    0.537    0.255    4.046
  423.500   74.444    0.534    0.265    4.045
  423.750   60.353    0.528    0.280    4.198
  424.000   59.833    0.507    0.286    4.523
  424.250   70.348    0.473    0.287    5.250
  424.500   75.383    0.471    0.292    6.446
  424.750   78.535    0.471    0.295    8.851
  425.000   81.668    0.470    0.296    9.536
  425.250   87.934    0.473    0.295    8.685
  425.500   92.931    0.498    0.290    7.910
  425.750   96.064    0.505    0.283    7.071
  426.000  101.695    0.531    0.275    5.866
  426.250  101.157    0.546    0.269    5.052
  426.500   98.792    0.569    0.268    4.270
  426.750   97.023    0.575    0.266    3.543
  427.000   95.234    0.580    0.266    3.108
  427.250   93.466    0.589    0.270    2.677
  427.500   92.927    0.600    0.277    2.393
  427.750   91.177    0.595    0.283    2.437
  428.000   87.562    0.568    0.286    2.530
  428.250   83.333    0.558    0.282    2.675
  428.500   80.315    0.522    0.261    3.048
  428.750   75.470    0.473    0.222    3.813
  429.000   70.606    0.463    0.213    5.641
  429.250   56.535    0.442    0.174    6.548
  429.500   51.671    0.427    0.156    6.924
  429.750   46.211    0.420    0.100    7.322
  430.000   42.597    0.343    0.004    8.037
  430.250   43.288    0.237   -0.002    9.867
  430.500   52.611    0.204    0.002   12.342
  430.750   56.416    0.192    0.004   16.024
  431.000   57.069    0.197    0.007   19.672
  431.250   58.376    0.199    0.007   21.195
  431.500   59.682    0.205    0.011   19.303
  431.750   62.873    0.211    0.023   16.937
  432.000   66.005    0.218    0.049   14.051
  432.250   72.233    0.247    0.090   11.657
  432.500   76.634    0.302    0.118    9.853
  432.750   77.960    0.442    0.164    8.174
  433.000   78.036    0.457    0.220    7.040
  433.250   78.709    0.464    0.262    6.293
  433.500   78.189    0.465    0.275    6.292
  433.750   77.035    0.467    0.275    6.175
  434.000   77.111    0.471    0.275    6.174
  434.250   77.169    0.473    0.271    6.173
  434.500   77.283    0.484    0.269    6.172
  434.750   77.340    0.491    0.267    6.171
  435.000   77.417    0.498    0.267    6.170
  435.250   77.493    0.494    0.267    6.169
  435.500   77.589    0.494    0.266    6.168
  435.750   77.031    0.504    0.266    6.054
  436.000   74.647    0.512    0.267    6.052
  436.250   73.512    0.510    0.268    5.939
  436.500   73.569    0.502    0.274    5.938
  436.750   73.683    0.500    0.279    5.938
  437.000   73.741    0.498    0.283    6.048
  437.250   73.798    0.497    0.285    6.048
  437.500   74.490    0.495    0.288    6.276
  437.750   75.834    0.494    0.289    6.276
  438.000   76.488    0.492    0.290    6.275
  438.250   78.447    0.492    0.287    6.274
  438.500   80.388    0.497    0.277    6.157
  438.750   81.657    0.505    0.269    6.156
  439.000   81.752    0.512    0.257    6.041
  439.250   79.983    0.517    0.257    6.041
  439.500   78.848    0.514    0.257    5.928
  439.750   79.502    0.512    0.257    5.817
  440.000   79.597    0.509    0.257    5.709
  440.250   76.598    0.509    0.255    5.602
  440.500   73.599    0.507    0.254    5.602
  440.750   75.539    0.492    0.253    5.497
  441.000   78.691    0.482    0.250    5.496
  441.250   80.613    0.475    0.248    5.496
  441.500   82.554    0.483    0.249    5.495
  441.750   82.630    0.503    0.255    5.494
  442.000   81.457    0.506    0.262    5.597
  442.250   80.284    0.498    0.268    5.701
  442.500   79.149    0.474    0.271    5.700
  442.750   79.207    0.468    0.275    5.699
  443.000   79.302    0.466    0.272    5.805
  443.250   79.974    0.466    0.269    5.805
  443.500   80.070    0.467    0.266    5.804
  443.750   79.531    0.468    0.261    5.803
  444.000   78.396    0.472    0.259    5.802
  444.250   76.608    0.479    0.257    5.802
  444.500   74.839    0.499    0.254    5.800
  444.750   71.897    0.504    0.255    5.800
  445.000   71.320    0.508    0.261    5.799
  445.250   70.147    0.501    0.279    5.798
  445.500   68.378    0.472    0.275    5.797
  445.750   67.224    0.473    0.273    5.796
  446.000   66.090    0.477    0.270    5.795
  446.250   66.147    0.479    0.270    5.794
  446.500   68.683    0.481    0.270    5.793
  446.750   70.624    0.487    0.271    5.793
  447.000   71.297    0.485    0.272    5.901
  447.250   72.007    0.476    0.272    5.900
  447.500   72.718    0.478    0.272    5.899
  447.750   73.390    0.485    0.269    5.898
  448.000   75.946    0.490    0.268    5.788
  448.250   77.849    0.487    0.268    5.680
  448.500   80.405    0.481    0.266    5.271
  448.750   82.922    0.476    0.260    4.801
  449.000   84.882    0.480    0.250    4.291
  449.250   86.170    0.482    0.238    3.836
  449.500   87.495    0.484    0.238    3.560
  449.750   88.187    0.490    0.239    3.559
  450.000   88.244    0.496    0.241    3.626
  450.250   88.974    0.501    0.245    3.693
  450.500   89.031    0.508    0.246    3.762
  450.750   89.088    0.510    0.244    3.833
  451.000   89.184    0.512    0.241    3.978
  451.250   88.683    0.518    0.239    4.128
  451.500   87.510    0.521    0.240    4.285
  451.750   86.990    0.520    0.242    4.365
  452.000   86.414    0.512    0.245    4.530
  452.250   85.875    0.487    0.246    4.615
  452.500   85.970    0.476    0.247    4.701
  452.750   86.046    0.466    0.249    4.879
  453.000   86.142    0.466    0.249    4.971
  453.250   86.180    0.465    0.246    5.158
  453.500   86.276    0.465    0.233    5.255
  453.750   85.122    0.471    0.233    5.254
  454.000   84.564    0.489    0.240    5.453
  454.250   82.180    0.497    0.246    5.452
  454.500   78.603    0.493    0.240    5.554
  454.750   77.430    0.491    0.230    5.658
  455.000   75.642    0.487    0.220    5.657
  455.250   73.892    0.481    0.212    5.763
  455.500   73.335    0.476    0.224    5.871
  455.750   70.354    0.472    0.252    5.869
  456.000   62.415    0.467    0.265    5.869
  456.250   58.186    0.463    0.296    5.868
  456.500   55.821    0.452    0.308    5.867
  456.750   55.282    0.449    0.315    5.866
  457.000   54.743    0.452    0.313    5.865
  457.250   54.800    0.452    0.313    5.864
  457.500   54.261    0.450    0.314    5.863
  457.750   54.357    0.448    0.318    5.862
  458.000   54.433    0.444    0.321    5.861
  458.250   54.510    0.439    0.319    5.752
  458.500   54.605    0.437    0.312    5.751
  458.750   54.662    0.445    0.307    5.751
  459.000   54.739    0.449    0.305    5.749
  459.250   55.449    0.454    0.303    5.749
  459.500   55.526    0.453    0.302    5.748
  459.750   55.583    0.449    0.302    5.747
  460.000   55.659    0.447    0.303    5.746
  460.250   55.736    0.447    0.308    5.853
  460.500   55.197    0.448    0.309    5.853
  460.750   55.273    0.448    0.312    5.852
  461.000   55.368    0.448    0.313    5.961
  461.250   55.426    0.448    0.316    6.073
  461.500   56.175    0.444    0.318    6.072
  461.750   56.232    0.442    0.318    6.071
  462.000   56.289    0.445    0.318    6.070
  462.250   57.000    0.450    0.316    6.069
  462.500   57.057    0.454    0.315    5.955
  462.750   57.767    0.459    0.313    5.955
  463.000   57.844    0.461    0.310    5.954
  463.250   57.324    0.466    0.307    5.843
  463.500   56.747    0.471    0.307    5.628
  463.750   56.843    0.477    0.307    5.523
  464.000   56.900    0.483    0.310    5.320
  464.250   58.225    0.481    0.314    5.221
  464.500   60.166    0.479    0.308    5.123
  464.750   61.454    0.476    0.296    5.123
  465.000   62.798    0.472    0.295    5.027
  465.250   62.856    0.475    0.296    5.026
