~VERSION INFORMATION
 VERS.                 2.0:   CWLS LOG ASCII STANDARD -VERSION 2.0
 WRAP.                  NO:   ONE LINE PER DEPTH STEP
~WELL INFORMATION BLOCK
#MNEM.UNIT           DATA                    DESCRIPTION OF MNEMONIC
#---------    -------------------            -------------------------------
# Generated from Intellog Unique Number	CN_94_101/WELL/3278
WELL.         CDC OIL & GAS LTD.             : Well_name    - WELL
LOC .         00/03-14-095-07W4/0            : Location     - LOCATION
UWI .         00/03-14-095-07W400            : Uwi          - UNIQUE WELL ID
ENTR.         JOETTE                         : Entered      - ENTERED BY
SRVC.         SCHLUMBERGER                   : Scn          - SERVICE COMPANY
DATE.         07/22/92                       : Date         - LOG DATE
STRT.M        50                             : top_depth    - START DEPTH
STOP.M        286                            : bot_depth    - STOP DEPTH
STEP.M        0.25                           : increment    - STEP LENGTH
 NULL. -999.2500:NULL Value
~CURVE INFORMATION BLOCK
#MNEM UNIT       ERCB CURVE CODE    CURVE DESCRIPTION
#-----------   ------------------   ----------------------------------
DEPT.M        00 001 00 00         : DEPTH        - DEPTH
GR  .API      00 310 00 00         : GR           - GAMMA RAY
ILD .OHMM     00 120 00 00         : RESD         - DEEP RESISTIVITY (DIL)
NPHI.V/V      00 330 00 00         : PHIN         - NEUTRON POROSITY (SANDSTONE)
DPHI.V/V      00 890 00 00         : PHID         - DENSITY POROSITY (SANDSTONE)
~PARAMETER INFORMATION
#MNEM.UNIT           DATA             DESCRIPTION OF MNEMONIC
#---------         -----------     ------------------------------
GL  .M        505.28               : gl           - GROUND LEVEL ELEVATION
EREF.M        506.66               : kb           - ELEVATION OF DEPTH REFERENCE
DATM.M        506.66               : datum        - DATUM ELEVATION
TDD .M        404                  : tdd          - TOTAL DEPTH DRILLER
RUN .         ONE                  : Run          - RUN NUMBER
ENG .         JO                   : Engineer     - RECORDING ENGINEER
WIT .         TIM                  : Witness      - WITNESSED BY
MUD .         GEL                  : Mud_type     - MUD TYPE
MATR.         SANDSTONE            : Logunit      - NEUTRON MATRIX
TMAX.C        21                   : BHT          - MAXIMUM RECORDED TEMPERATURE
BHTD.M        404                  : BHTDEP       - MAXIMUM RECORDED TEMPERATURE
RMT .C        15                   : MDTP         - TEMPERATURE OF MUD
MUDD.KG/M     1030                 : MWT          - MUD DENSITY
NEUT.         1                    : NEUTRON      - NEUTRON TYPE
RESI.         0                    : RESIST       - RESISTIVITY TYPE
RM  .OHMM     0.33                 : RM           - RESISTIVITY OF MUD
RMC .OHMM     0.58                 : RMC          - RESISTIVITY OF MUD CAKE
RMF .OHMM     0.32                 : RMF          - RESISTIVITY OF MUD FILTRATE
SUFT.C        4                    : SUFT         - SURFACE TEMPERATURE
~A  DEPTH       GR     RESD     PHIN     PHID
# ...
  180.500   38.962    7.568    0.445    0.241
  180.750   38.951    7.181    0.417    0.255
  181.000   38.929    6.931    0.402    0.265
  181.250   38.314    8.970    0.402    0.260
  181.500   37.108   12.224    0.406    0.252
  181.750   36.488   13.315    0.410    0.244
  182.000   37.053   13.303    0.412    0.248
  182.250   37.634   13.063    0.416    0.250
  182.500   38.785   13.505    0.424    0.250
  182.750   39.366   13.727    0.435    0.250
  183.000   40.528   13.956    0.450    0.250
  183.250   39.908   13.943    0.432    0.250
  183.500   39.299   13.930    0.420    0.249
  183.750   38.679   13.917    0.409    0.247
  184.000   38.071   14.142    0.407    0.243
  184.250   38.641   14.132    0.408    0.238
  184.500   39.216   14.119    0.410    0.238
  184.750   40.965   14.102    0.415    0.243
  185.000   41.529   14.580    0.419    0.246
  185.250   40.323   15.081    0.419    0.252
  185.500   39.714   15.870    0.419    0.256
  185.750   39.105   16.984    0.418    0.262
  186.000   38.480   17.878    0.414    0.272
  186.250   39.061   19.803    0.410    0.285
  186.500   39.631   21.198    0.396    0.285
  186.750   40.793   21.546    0.403    0.285
  187.000   40.178   21.158    0.408    0.283
  187.250   40.156   21.138    0.402    0.282
  187.500   40.134   21.485    0.395    0.282
  187.750   40.112   22.998    0.398    0.281
  188.000   38.313   24.618    0.403    0.281
  188.250   35.928   26.351    0.405    0.280
  188.500   33.532   27.731    0.405    0.280
  188.750   31.734   31.797    0.405    0.283
  189.000   31.125   34.052    0.406    0.291
  189.250   30.505   41.127    0.407    0.294
  189.500   30.483   44.789    0.407    0.288
  189.750   29.869   46.307    0.408    0.283
  190.000   29.254   46.274    0.408    0.283
  190.250   28.640   45.429    0.408    0.282
  190.500   28.031   44.609    0.407    0.279
  190.750   27.417   43.056    0.407    0.276
  191.000   28.579   40.148    0.412    0.276
  191.250   31.523   35.556    0.417    0.272
  191.500   36.238   29.383    0.419    0.270
  191.750   35.623   25.572    0.415    0.283
  192.000   32.049   28.333    0.406    0.298
  192.250   31.423   28.306    0.404    0.276
  192.500   32.596   26.847    0.402    0.276
  192.750   36.714   25.918    0.399    0.275
  193.000   39.652   24.162    0.396    0.264
  193.250   41.406   23.320    0.391    0.261
  193.500   43.171   23.303    0.380    0.263
  193.750   47.294   23.686    0.383    0.255
  194.000   50.233   24.076    0.429    0.247
  194.250   53.763   19.896    0.462    0.232
  194.500   58.478    9.303    0.485    0.226
  194.750   64.371    6.469    0.485    0.222
  195.000   66.723    6.353    0.483    0.215
  195.250   67.287    6.239    0.481    0.209
  195.500   66.673    6.126    0.481    0.206
  195.750   66.070    6.016    0.480    0.213
  196.000   64.272    5.907    0.479    0.224
  196.250   63.657    5.900    0.473    0.225
  196.500   63.635    5.894    0.460    0.219
  196.750   64.205    5.993    0.448    0.214
  197.000   64.775    6.092    0.450    0.210
  197.250   64.753    6.297    0.459    0.217
  197.500   62.954    6.294    0.456    0.223
  197.750   61.156    6.397    0.451    0.227
  198.000   59.949    6.391    0.453    0.233
  198.250   61.111    6.383    0.458    0.238
  198.500   63.458    6.379    0.467    0.231
  198.750   64.620    6.371    0.476    0.224
  199.000   65.184    6.367    0.477    0.228
  199.250   64.575    6.361    0.483    0.232
  199.500   63.967    6.355    0.488    0.225
  199.750   62.755    6.347    0.489    0.216
  200.000   62.140    6.344    0.491    0.209
  200.250   61.521    6.338    0.496    0.214
  200.500   62.096    6.441    0.495    0.212
  200.750   63.856    6.547    0.484    0.209
  201.000   65.018    6.541    0.474    0.215
  201.250   66.772    6.421    0.456    0.221
  201.500   67.934    6.417    0.427    0.226
  201.750   68.493    6.524    0.429    0.228
  202.000   68.482    6.517    0.455    0.228
  202.250   67.270    6.737    0.459    0.225
  202.500   67.259    6.732    0.465    0.222
  202.750   66.036    6.841    0.470    0.220
  203.000   65.427    6.838    0.475    0.218
  203.250   65.410    6.711    0.482    0.214
  203.500   65.394    6.592    0.487    0.209
  203.750   65.366    6.587    0.499    0.209
  204.000   65.344    6.468    0.502    0.224
  204.250   65.316    6.462    0.498    0.228
  204.500   65.897    6.456    0.491    0.221
  204.750   66.467    6.448    0.486    0.213
  205.000   67.037    6.444    0.487    0.209
  205.250   67.009    6.221    0.492    0.204
  205.500   66.987    5.801    0.503    0.202
  205.750   66.971    5.047    0.509    0.212
  206.000   66.948    4.789    0.501    0.216
  206.250   66.932    4.784    0.491    0.203
  206.500   66.910    4.948    0.482    0.188
  206.750   66.882    5.388    0.474    0.167
  207.000   67.446    5.868    0.471    0.163
  207.250   67.435    6.280    0.463    0.166
  207.500   68.000    6.385    0.455    0.163
  207.750   66.793    6.716    0.444    0.158
  208.000   63.816    6.828    0.437    0.156
  208.250   60.833    7.183    0.443    0.156
  208.500   57.258    7.054    0.453    0.156
  208.750   53.684    6.463    0.455    0.159
  209.000   46.556    6.028    0.448    0.172
  209.250   40.612    5.429    0.443    0.203
  209.500   37.032    5.424    0.437    0.247
  209.750   33.463    6.330    0.419    0.251
  210.000   29.296   12.184    0.341    0.249
  210.250   25.129   24.695    0.356    0.256
  210.500   22.146   47.496    0.378    0.266
  210.750   19.750   48.300    0.396    0.288
  211.000   18.543   52.601    0.399    0.309
  211.250   17.331   64.636    0.398    0.324
  211.500   16.723   79.444    0.398    0.339
  211.750   16.108  106.414    0.398    0.336
  212.000   16.097  142.540    0.390    0.324
  212.250   15.483  157.933    0.384    0.322
  212.500   15.455  184.325    0.379    0.318
  212.750   16.025  211.399    0.394    0.308
  213.000   16.595  264.288    0.400    0.303
  213.250   17.757  287.821    0.401    0.300
  213.500   18.919  282.631    0.407    0.300
  213.750   18.903  268.123    0.412    0.302
  214.000   17.696  221.575    0.424    0.308
  214.250   17.071  165.104    0.429    0.313
  214.500   17.054  107.143    0.422    0.312
  214.750   17.630  116.684    0.414    0.305
  215.000   20.563  129.315    0.404    0.301
  215.250   21.736  140.829    0.397    0.294
  215.500   26.451  140.696    0.389    0.280
  215.750   31.758   39.894    0.382    0.267
  216.000   37.064   26.804    0.376    0.246
  216.250   44.148   17.394    0.375    0.215
  216.500   51.231   17.081    0.378    0.173
  216.750   55.359   17.361    0.383    0.198
  217.000   55.337   18.907    0.383    0.205
  217.250   54.717   20.586    0.381    0.206
  217.500   51.729   20.224    0.380    0.179
  217.750   50.533   19.511    0.382    0.174
  218.000   48.729   19.502    0.385    0.178
  218.250   47.529   19.822    0.385    0.183
  218.500   50.461   20.494    0.381    0.193
  218.750   51.629   21.198    0.386    0.219
  219.000   53.970   20.816    0.391    0.212
  219.250   55.718   20.431    0.398    0.204
  219.500   56.300   20.072    0.404    0.187
  219.750   57.462   16.876    0.408    0.181
  220.000   59.808   13.016    0.410    0.171
  220.250   63.936   11.131    0.407    0.166
  220.500   65.690   10.560    0.404    0.160
  220.750   64.478   10.370    0.395    0.147
  221.000   63.870   10.360    0.393    0.136
  221.250   62.658   10.173    0.389    0.133
  221.500   62.043    9.649    0.398    0.134
  221.750   62.027    9.644    0.407    0.137
  222.000   61.993    9.470    0.413    0.151
  222.250   61.982    9.457    0.421    0.173
  222.500   60.776    9.450    0.423    0.183
  222.750   60.162    9.441    0.422    0.195
  223.000   58.950    9.596    0.421    0.208
  223.250   58.346    9.756    0.418    0.220
  223.500   55.950   10.810    0.423    0.234
  223.750   54.157   12.185    0.435    0.248
