~VERSION INFORMATION
 VERS.                 2.0:   CWLS LOG ASCII STANDARD -VERSION 2.0
 WRAP.                  NO:   ONE LINE PER DEPTH STEP
~WELL INFORMATION BLOCK
#MNEM.UNIT           DATA                    DESCRIPTION OF MNEMONIC
#---------    -------------------            -------------------------------
# Generated from Intellog Unique Number	CX_WELLS/WELL/2993
WELL.         TRITON ATCOR THORNBURY         : Well_name    - WELL
LOC .         00/08-11-082-12W4/0            : Location     - LOCATION
UWI .         00/08-11-082-12W400            : Uwi          - UNIQUE WELL ID
ENTR.         T                              : Entered      - ENTERED BY
SRVC.         SCHLUMBERGER                   : Scn          - SERVICE COMPANY
STRT.M        300                            : top_depth    - START DEPTH
STOP.M        534                            : bot_depth    - STOP DEPTH
STEP.M        0.25                           : increment    - STEP LENGTH
 NULL. -999.2500:NULL Value
~CURVE INFORMATION BLOCK
#MNEM UNIT       ERCB CURVE CODE    CURVE DESCRIPTION
#-----------   ------------------   ----------------------------------
DEPT.M        00 001 00 00         : DEPTH        - DEPTH
GR  .API      00 310 00 00         : GR           - GAMMA RAY
NPHI.V/V      00 330 00 00         : PHIN         - NEUTRON POROSITY (SANDSTONE)
DPHI.V/V      00 890 00 00         : PHID         - DENSITY POROSITY (SANDSTONE)
ILD .OHMM     00 120 00 00         : RESD         - DEEP RESISTIVITY (OTHER)
~PARAMETER INFORMATION
#MNEM.UNIT           DATA             DESCRIPTION OF MNEMONIC
#---------         -----------     ------------------------------
GL  .M        762                  : gl           - GROUND LEVEL ELEVATION
EREF.M        766                  : kb           - ELEVATION OF DEPTH REFERENCE
DATM.M        766                  : datum        - DATUM ELEVATION
TDD .M        546                  : tdd          - TOTAL DEPTH DRILLER
RUN .         ONE                  : Run          - RUN NUMBER
ENG .         BILL                 : Engineer     - RECORDING ENGINEER
WIT .         JIM                  : Witness      - WITNESSED BY
MUD .         GEL                  : Mud_type     - MUD TYPE
MATR.         SANDSTONE            : Logunit      - NEUTRON MATRIX
TMAX.C        22                   : BHT          - MAXIMUM RECORDED TEMPERATURE
BHTD.M        546                  : BHTDEP       - MAXIMUM RECORDED TEMPERATURE
MATR.         1                    : LOGUNIT      - NEUTRON MATRIX
RMT .C        12.5                 : MDTP         - TEMPERATURE OF MUD
NEUT.         1                    : NEUTRON      - NEUTRON TYPE
RESI.         4.2                  : RESIST       - RESISTIVITY TYPE
RMC .OHMM     2                    : RMC          - RESISTIVITY OF MUD CAKE
RMF .OHMM     3.9                  : RMF          - RESISTIVITY OF MUD FILTRATE
SUFT.C        4                    : SUFT         - SURFACE TEMPERATURE
~A  DEPTH       GR     PHIN     PHID     RESD
# ...
  474.000   79.293    0.406    0.238    5.693
  474.250   79.258    0.406    0.241    5.479
  474.500   80.957    0.403    0.242    4.984
  474.750   83.238    0.401    0.243    4.048
  475.000   85.530    0.404    0.244    3.414
  475.250   88.975    0.434    0.247    3.475
  475.500   94.746    0.454    0.248    3.538
  475.750   91.210    0.477    0.249    3.881
  476.000   87.650    0.471    0.251    4.259
  476.250   85.859    0.443    0.246    4.675
  476.500   83.486    0.436    0.214    4.583
  476.750   82.276    0.418    0.198    3.653
  477.000   83.975    0.463    0.186    3.322
  477.250   85.686    0.481    0.248    3.196
  477.500   90.294    0.478    0.263    3.192
  477.750   93.145    0.471    0.254    3.374
  478.000   94.274    0.461    0.250    3.499
  478.250   95.391    0.457    0.250    3.563
  478.500   97.079    0.454    0.250    3.694
  478.750   95.869    0.458    0.247    3.761
  479.000   95.823    0.515    0.241    3.826
  479.250   97.511    0.510    0.231    3.823
  479.500   97.477    0.483    0.213    3.747
  479.750   96.267    0.477    0.188    3.674
  480.000   91.556    0.461    0.177    3.602
  480.250   88.601    0.448    0.207    3.598
  480.500   93.790    0.453    0.243    3.663
  480.750   99.573    0.460    0.256    3.799
  481.000  101.249    0.461    0.263    4.014
  481.250  101.192    0.458    0.235    4.404
  481.500  100.564    0.452    0.229    4.655
  481.750   99.377    0.449    0.227    5.204
  482.000   96.423    0.443    0.227    5.605
  482.250   91.711    0.416    0.253    6.267
  482.500   87.582    0.410    0.260    7.276
  482.750   86.372    0.411    0.264    8.442
  483.000   85.745    0.409    0.259    8.924
  483.250   85.698    0.402    0.255    9.256
  483.500   85.652    0.400    0.256    9.424
  483.750   85.036    0.401    0.256    9.769
  484.000   82.663    0.392    0.256    9.947
  484.250   79.697    0.380    0.253   10.319
  484.500   76.731    0.371    0.240   10.700
  484.750   77.266    0.369    0.240   10.891
  485.000   79.559    0.371    0.238   10.677
  485.250   83.585    0.371    0.238   10.468
  485.500   87.599    0.378    0.238   10.262
  485.750   89.869    0.389    0.240   10.058
  486.000   91.009    0.388    0.243   10.235
  486.250   91.545    0.383    0.245   10.424
  486.500   92.069    0.381    0.246   10.601
  486.750   92.023    0.378    0.246   11.002
  487.000   93.711    0.381    0.245   11.624
  487.250   97.143    0.383    0.242   12.518
  487.500  100.018    0.385    0.241   13.739
  487.750  102.310    0.388    0.241   15.653
  488.000  104.009    0.391    0.240   18.172
  488.250  103.963    0.392    0.243   22.319
  488.500   96.936    0.409    0.252   30.675
  488.750   75.936    0.402    0.275   33.669
  489.000   71.818    0.391    0.281   39.086
  489.250   63.023    0.376    0.273   46.236
  489.500   61.814    0.379    0.280   46.175
  489.750   61.198    0.388    0.296   42.776
  490.000   61.140    0.386    0.308   40.411
  490.250   61.687    0.383    0.307   34.736
  490.500   62.223    0.382    0.308   28.750
  490.750   61.595    0.381    0.308   24.713
  491.000   61.538    0.379    0.303   21.639
  491.250   62.050    0.375    0.288   19.312
  491.500   62.597    0.372    0.275   17.231
  491.750   63.726    0.366    0.266   16.274
  492.000   67.171    0.359    0.255   14.800
  492.250   74.687    0.359    0.236   13.455
  492.500   82.215    0.364    0.225   12.708
  492.750   88.568    0.368    0.217   12.220
  493.000   93.746    0.376    0.206   13.413
  493.250   96.609    0.382    0.192   15.277
  493.500   99.483    0.383    0.183   17.736
  493.750   85.464    0.385    0.217   19.104
  494.000   77.273    0.385    0.228   19.079
  494.250   69.653    0.385    0.248   17.679
  494.500   68.421    0.380    0.255   16.082
  494.750   68.398    0.348    0.222   14.349
  495.000   70.679    0.332    0.117   13.296
  495.250   75.868    0.309    0.169   12.311
  495.500   81.058    0.494    0.213   12.072
  495.750   83.339    0.534    0.390   12.063
  496.000   86.783    0.540    0.303   11.829
  496.250   90.216    0.407    0.236   11.591
  496.500   90.751    0.367    0.206   11.369
  496.750   91.869    0.375    0.205   11.143
  497.000   94.150    0.385    0.204   10.921
  497.250   95.849    0.393    0.206   10.709
  497.500   95.233    0.399    0.212   10.496
  497.750   94.582    0.398    0.216   10.290
  498.000   93.954    0.392    0.213   10.281
  498.250   95.060    0.390    0.204   10.077
  498.500   95.618    0.396    0.199   10.069
  498.750   97.899    0.398    0.200    9.868
  499.000   99.005    0.401    0.198    9.858
  499.250   98.948    0.406    0.192    9.848
  499.500   98.913    0.408    0.190    9.835
  499.750   98.867    0.405    0.194    9.827
  500.000   98.821    0.403    0.203    9.811
  500.250   99.357    0.406    0.209    9.803
  500.500   99.881    0.413    0.214    9.796
  500.750   99.835    0.423    0.216    9.598
  501.000   99.789    0.427    0.218    9.412
  501.250  100.325    0.422    0.218    9.400
  501.500  100.290    0.411    0.218    9.392
  501.750  100.232    0.398    0.214    9.205
  502.000   97.871    0.402    0.205    9.198
  502.250   94.905    0.413    0.189    9.188
  502.500   94.277    0.409    0.176    9.001
  502.750   94.813    0.402    0.172    8.993
  503.000   95.325    0.393    0.181    8.984
  503.250   96.466    0.388    0.187    8.974
  503.500   97.572    0.386    0.173    8.967
  503.750   98.678    0.381    0.167    8.956
  504.000   99.236    0.395    0.162    8.948
  504.250   99.760    0.399    0.165    9.108
  504.500   99.714    0.399    0.169    9.094
  504.750   98.493    0.399    0.173    9.084
  505.000   98.447    0.397    0.179    9.244
  505.250   98.401    0.397    0.176    9.237
  505.500   98.367    0.400    0.171    9.405
  505.750   98.309    0.403    0.172    9.395
  506.000   96.518    0.402    0.175    9.926
  506.250   91.807    0.374    0.178   10.107
  506.500   91.761    0.378    0.187   10.675
  506.750   92.296    0.395    0.195   10.869
  507.000   91.087    0.399    0.204   11.481
  507.250   87.562    0.376    0.210   11.914
  507.500   86.352    0.357    0.216   12.588
  507.750   94.451    0.367    0.186   13.556
  508.000   98.477    0.392    0.182   14.064
  508.250   95.522    0.410    0.208   15.141
  508.500   90.229    0.420    0.218   16.310
  508.750   87.274    0.409    0.232   19.293
  509.000   88.391    0.402    0.243   22.398
  509.250   84.273    0.403    0.257   26.002
  509.500   70.836    0.408    0.271   30.178
  509.750   63.809    0.411    0.281   32.507
  510.000   57.946    0.413    0.287   37.728
  510.250   53.816    0.417    0.298   42.984
  510.500   50.862    0.418    0.307   45.427
  510.750   47.896    0.418    0.320   40.543
  511.000   49.606    0.419    0.319   36.174
  511.250   54.784    0.418    0.291   38.240
  511.500   55.331    0.411    0.283   46.081
  511.750   55.285    0.417    0.295   51.538
  512.000   51.737    0.430    0.305   58.702
  512.250   51.691    0.428    0.303   64.431
  512.500   55.124    0.420    0.294   66.791
  512.750   51.599    0.421    0.307   64.295
  513.000   46.888    0.417    0.325   55.251
  513.250   49.751    0.405    0.326   50.245
  513.500   53.195    0.404    0.313   44.831
  513.750   56.069    0.417    0.299   39.256
  514.000   58.338    0.425    0.294   37.085
  514.250   58.281    0.424    0.300   35.007
  514.500   58.816    0.418    0.303   32.439
  514.750   59.945    0.411    0.293   29.492
  515.000   65.716    0.398    0.277   26.820
  515.250   70.336    0.384    0.261   24.852
  515.500   74.362    0.380    0.235   24.371
  515.750   77.795    0.386    0.228   23.892
  516.000   75.422    0.396    0.251   23.422
  516.250   70.722    0.412    0.276   23.835
  516.500   64.859    0.415    0.289   25.190
  516.750   56.075    0.416    0.302   28.158
  517.000   54.272    0.416    0.274   29.759
  517.250   61.218    0.416    0.240   28.106
