~VERSION INFORMATION
 VERS.                 2.0:   CWLS LOG ASCII STANDARD -VERSION 2.0
 WRAP.                  NO:   ONE LINE PER DEPTH STEP
~WELL INFORMATION BLOCK
#MNEM.UNIT           DATA                    DESCRIPTION OF MNEMONIC
#---------    -------------------            -------------------------------
# Generated from Intellog Unique Number	CW_70_72/WELL/3303
NULL.         -999.25                        : NULL_VALUE
WELL.         BVX ET AL SMITH                : Well_name    - WELL              
LOC .         07-16-072-26W4                 : Location     - LOCATION          
UWI .         00/07-16-072-26W4/0            : Uwi          - UNIQUE WELL ID    
ENTR.         CAMPBELL                       : Entered      - ENTERED BY        
SRVC.         WESTERN ATLAS                  : Scn          - SERVICE COMPANY   
DATE.         15 NOV 73                      : Date         - LOG DATE          
STRT.M        557.784                        : top_depth    - START DEPTH       
STOP.M        701.034                        : bot_depth    - STOP DEPTH        
STEP.M        0.25                           : increment    - STEP LENGTH       
~CURVE INFORMATION BLOCK
#MNEM UNIT       ERCB CURVE CODE    CURVE DESCRIPTION
#-----------   ------------------   ----------------------------------
DEPT.M        00 001 00 00         : DEPTH        - DEPTH                       
ILD .OHMM     00 120 00 00         : RESD         - DEEP RESISTIVITY (DIL)      
CALI.MM       00 280 01 00         : CAL          - CALIPER                     
DELT.US/F     00 520 00 00         : DELT         - SONIC TRAVEL TIME           
GR  .API      00 310 00 00         : GR           - GAMMA RAY                   
~PARAMETER INFORMATION       
#MNEM.UNIT           DATA             DESCRIPTION OF MNEMONIC
#---------         -----------     ------------------------------
GL  .M        627.888              : gl           - GROUND LEVEL ELEVATION      
EREF.M        630.936              : kb           - ELEVATION OF DEPTH REFERENCE
DATM.M        630.936              : datum        - DATUM ELEVATION             
TDD .M        880.872              : tdd          - TOTAL DEPTH DRILLER         
RUN .         ONE                  : Run          - RUN NUMBER                  
ENG .         KAWOLSKI             : Engineer     - RECORDING ENGINEER          
WIT .         BROWN                : Witness      - WITNESSED BY                
MUD .         GEL                  : Mud_type     - MUD TYPE                    
MATR.         SANDSTONE            : Logunit      - NEUTRON MATRIX              
TMAX.C        34.4444              : BHT          - MAXIMUM RECORDED TEMPERATURE
BHTD.M        880.872              : BHTDEP       - MAXIMUM RECORDED TEMPERATURE
RMT .C        22.2222              : MDTP         - TEMPERATURE OF MUD          
MUDD.KG/M     9600                 : MWT          - MUD DENSITY                 
NEUT.         1                    : NEUTRON      - NEUTRON TYPE                
RESI.         0                    : RESIST       - RESISTIVITY TYPE            
RM  .OHMM     3.25                 : RM           - RESISTIVITY OF MUD          
RMC .OHMM     0.25                 : RMC          - RESISTIVITY OF MUD CAKE     
RMF .OHMM     0.25                 : RMF          - RESISTIVITY OF MUD FILTRATE 
SUFT.C        0                    : SUFT         - SURFACE TEMPERATURE         
~A  DEPTH     RESD      CAL     DELT       GR
# ...
  601.284    6.409  182.719  348.846   98.155
  601.534    6.623  182.790  345.899   98.759
  601.784    6.939  182.322  344.256  101.132
  602.034    6.956  181.854  340.021   96.439
  602.284    6.869  181.394  328.973   89.691
  602.534    6.593  180.931  311.117   90.883
  602.784    6.409  180.964  302.017   91.491
  603.034    6.129  181.010  311.717   94.742
  603.284    5.850  181.039  345.413  102.110
  603.534    5.668  180.575  345.714   98.597
  603.784    5.490  180.115  341.150   96.260
  604.034    5.404  180.153  341.452   97.458
  604.284    5.321  180.182  347.264   98.354
  604.534    5.244  180.219  352.429   99.252
  604.784    5.259  180.248  352.727   97.209
  605.034    5.275  180.783  352.380   93.401
  605.284    5.291  180.824  347.813   94.299
  605.534    5.307  180.857  346.496   96.084
  605.784    5.320  180.882  349.715   97.862
  606.034    5.342  181.417  351.635   98.760
  606.284    5.354  181.951  355.827  103.778
  606.534    5.372  181.980  356.452  105.853
  606.784    5.486  182.523  356.754  104.694
  607.034    5.502  182.556  357.049  102.945
  607.284    5.715  182.586  355.406  101.490
  607.534    5.929  182.623  347.602  100.625
  607.784    5.947  182.656  346.931  101.229
  608.034    6.061  182.188  351.447  102.128
  608.284    5.980  181.729  350.449  102.732
  608.534    6.095  181.269  349.129  104.516
  608.784    6.506  181.302  360.453  104.824
  609.034    7.906  180.847  369.508  105.428
  609.284    9.305  180.379  356.839  102.210
  609.534   10.903  179.919  342.228   94.285
  609.784   13.192  178.958  320.157   86.360
  610.034   13.702  178.490  307.164   81.083
  610.284   13.522  178.031  294.819   76.097
  610.534   13.044  177.074  283.444   74.644
  610.784   12.665  176.606  281.155   75.248
  611.034   11.797  176.146  281.132   75.854
  611.284   11.414  175.682  295.698   77.635
  611.534   10.638  175.227  294.378   79.121
  611.784    9.962  175.256  302.782   80.903
  612.034    9.389  175.293  316.051   83.862
  612.284    8.516  175.824  329.644   86.819
  612.534    7.937  175.857  333.835   90.364
  612.784    7.459  175.890  328.626   94.792
  613.034    6.784  175.932  327.952   98.927
  613.284    6.503  175.969  327.605  102.178
  613.534    7.212  175.994  330.824  105.135
  613.784    7.922  176.533  334.040  106.035
  614.034    8.234  176.562  314.890   97.522
  614.284    7.758  176.595  308.054   90.184
  614.534    7.477  176.135  297.660   84.612
  614.784    7.295  176.169  260.998   83.159
  615.034    7.212  176.206  305.716   88.469
  615.284    7.232  176.239  331.631   96.722
  615.534    7.145  176.277  329.009   97.326
  615.784    7.066  176.306  323.478   94.401
  616.034    6.981  176.339  315.672   91.477
  616.284    6.999  176.397  312.732   90.905
  616.534    6.916  176.410  313.030   90.626
  616.784    6.835  176.940  320.464   88.877
  617.034    6.752  176.977  326.276   89.485
  617.284    6.669  177.015  328.847   90.676
  617.534    6.689  177.048  318.447   89.223
  617.784    6.799  177.081  323.936   90.121
  618.034    7.013  177.119  330.073   94.844
  618.284    7.429  177.156  329.723   93.978
  618.534    7.540  177.189  312.842   90.464
  618.784    7.556  177.223  300.173   90.482
  619.034    7.479  177.256  313.767   93.439
  619.284    7.589  177.289  316.661   94.631
  619.534    8.200  177.327  315.660   97.296
  619.784    8.709  177.364  314.020   96.429
  620.034    8.824  177.397  316.590   90.857
  620.284    8.545  177.430  318.834   89.696
  620.534    8.263  177.969  303.574   87.949
  620.784    7.887  178.491  287.339   87.671
  621.034    7.706  178.524  301.581   89.747
  621.284    7.720  179.063  307.069   92.998
  621.534    7.935  179.096  312.558   95.663
  621.784    8.348  179.138  318.367   96.853
  622.034    8.361  179.167  312.833   99.520
  622.284    7.883  178.703  302.110   96.593
  622.534    7.508  178.732  293.010   92.491
  622.784    7.032  178.770  298.495   91.628
  623.034    6.751  178.803  306.901   96.642
  623.284    6.665  178.836  305.906  100.187
  623.534    6.783  178.878  295.504  101.675
  623.784    6.896  178.907  310.072  108.456
  624.034    6.815  178.940  321.396  110.238
  624.284    5.841  178.977  332.720  102.607
  624.534    4.079  179.019  321.350   99.681
  624.784    2.911  179.044  310.300   98.523
  625.034    2.433  181.078  306.065   98.835
  625.284    2.255  182.598  308.309   99.147
  625.534    2.465  183.128  315.094  100.631
  625.784    2.682  184.653  328.039  103.000
  626.034    2.796  187.175  412.635  105.664
  626.284    2.810  191.189  448.600  107.445
  626.534    2.828  194.698  443.063  104.225
  626.784    2.844  197.713  419.047  101.006
  627.034    2.862  200.236  397.625   99.847
  627.284    3.176  196.790  406.031  106.922
  627.534    3.685  194.839  408.599  109.880
  627.784    4.094  192.884  407.280  107.837
  628.034    4.705  190.436  389.427  105.208
  628.284    5.412  187.984  362.493  100.810
  628.534    5.728  186.029  344.313   97.299
  628.784    5.939  184.074  325.809   96.432
  629.034    6.352  184.107  319.627   96.153
  629.284    7.160  187.624  339.055  101.463
  629.534    7.867  188.155  331.249   99.422
  629.784    8.476  187.194  328.309   98.852
  630.034    9.183  188.225  324.714   97.983
  630.284    9.495  186.771  321.776   95.944
  630.534    8.626  182.331  298.409   89.781
  630.784    7.652  179.883  240.675   82.739
  631.034    6.881  177.932  266.263   78.050
  631.284    7.091  177.465  284.398   81.890
  631.534    7.602  176.504  306.096   83.670
  631.784    8.213  176.044  327.470   86.041
  632.034    8.128  183.529  327.123   87.233
  632.284    7.650  179.093  308.294   83.425
  632.534    6.385  177.643  295.625   80.208
  632.784    5.710  177.184  296.575   82.282
  633.034    5.133  177.213  315.355   84.065
  633.284    4.554  177.250  315.981   86.433
  633.534    3.780  177.279  315.307   84.096
  633.784    3.106  177.317  324.682   83.232
  634.034    2.826  177.346  316.558   76.483
  634.284    2.743  176.890  308.428   67.967
  634.534    2.660  175.933  313.592   59.750
  634.784    2.480  175.963  320.377   47.413
  635.034    2.397  175.499  323.596   40.664
  635.284    2.413  175.039  324.864   37.739
  635.534    2.430  174.074  327.114   34.813
  635.784    2.448  173.122  333.899   34.539
  636.034    2.462  172.161  331.607   34.849
  636.284    2.480  171.200  335.796   33.098
  636.534    2.495  170.235  339.985   31.061
  636.784    2.513  170.272  337.692   30.484
  637.034    2.428  170.305  335.073   29.618
  637.284    2.347  170.305  334.081   28.459
  637.534    2.363  169.891  333.086   29.651
  637.784    2.284  168.926  334.681   31.728
  638.034    2.300  168.454  336.922   33.508
  638.284    2.314  167.506  337.874   34.700
  638.534    2.314  168.028  338.176   36.187
  638.784    2.345  168.562  338.801   35.030
  639.034    2.361  169.594  338.779   34.161
  639.284    2.379  170.128  338.426   33.883
  639.534    2.396  170.655  340.351   34.197
  639.784    2.414  171.189  340.974   32.154
  640.034    2.428  171.222  340.624   31.583
  640.284    2.446  171.260  338.983   32.479
  640.534    2.462  171.260  336.364   34.260
  640.784    2.578  171.322  333.097   35.452
  641.034    2.691  171.364  329.511   36.648
  641.284    2.708  170.908  325.595   36.372
  641.534    2.708  170.465  330.435   36.384
  641.784    2.742  170.477  333.330   36.697
  642.034    2.756  170.010  334.280   37.005
  642.284    2.772  170.047  335.551   37.315
  642.534    2.791  169.090  335.852   37.337
  642.784    2.807  169.115  335.181   37.349
  643.034    2.821  168.660  334.825   37.955
  643.284    2.839  168.714  334.160   38.562
  643.534    2.856  168.730  332.838   39.164
  643.784    2.971  168.730  331.518   39.767
  644.034    3.086  168.797  331.495   41.553
  644.284    3.103  168.333  331.791   43.329
  644.534    3.216  168.370  331.447   45.406
