~VERSION INFORMATION
 VERS.                 2.0:   CWLS LOG ASCII STANDARD -VERSION 2.0
 WRAP.                  NO:   ONE LINE PER DEPTH STEP
~WELL INFORMATION BLOCK
#MNEM.UNIT           DATA                    DESCRIPTION OF MNEMONIC
#---------    -------------------            -------------------------------
# Generated from Intellog Unique Number	CS_77_79/WELL/871
WELL.         HOME LEISMER                   : Well_name    - WELL
LOC .         00/06-11-078-07W4/0            : Location     - LOCATION
UWI .         00/06-11-078-07W4/0            : Uwi          - UNIQUE WELL ID
ENTR.         JHS                            : Entered      - ENTERED BY
SRVC.         SCHLUMBERGER                   : Scn          - SERVICE COMPANY
STRT.M        106.680                        : top_depth    - START DEPTH
STOP.M        344.180                        : bot_depth    - STOP DEPTH
STEP.M        0.25                           : increment    - STEP LENGTH
 NULL. -999.2500:NULL Value
~CURVE INFORMATION BLOCK
#MNEM UNIT       ERCB CURVE CODE    CURVE DESCRIPTION
#-----------   ------------------   ----------------------------------
DEPT.M        00 001 00 00         : DEPTH        - DEPTH
RHOB.KG/M3    00 350 00 00         : DENS         - BULK DENSITY
GR  .API      00 310 00 00         : GR           - GAMMA RAY
DPHI.V/V      00 890 00 00         : PHID         - DENSITY POROSITY (SANDSTONE)
NPHI.V/V      00 330 00 00         : PHIN         - NEUTRON POROSITY (SANDSTONE)
ILD .OHMM     00 120 00 00         : RESD         - DEEP RESISTIVITY (DIL)
~PARAMETER INFORMATION
#MNEM.UNIT           DATA             DESCRIPTION OF MNEMONIC
#---------         -----------     ------------------------------
GL  .M        533.461              : gl           - GROUND LEVEL ELEVATION
EREF.M        536.814              : kb           - ELEVATION OF DEPTH REFERENCE
DATM.M        536.814              : datum        - DATUM ELEVATION
TDD .M        347.472              : tdd          - TOTAL DEPTH DRILLER
RUN .         ONE                  : Run          - RUN NUMBER
ENG .         BILL                 : Engineer     - RECORDING ENGINEER
WIT .         JIM                  : Witness      - WITNESSED BY
MUD .         GEL                  : Mud_type     - MUD TYPE
MATR.         SANDSTONE            : Logunit      - NEUTRON MATRIX
TMAX.C        21.6667              : BHT          - MAXIMUM RECORDED TEMPERATURE
BHTD.M        347.472              : BHTDEP       - MAXIMUM RECORDED TEMPERATURE
MATR.         1                    : LOGUNIT      - NEUTRON MATRIX
RMT .C        25                   : MDTP         - TEMPERATURE OF MUD
NEUT.         1                    : NEUTRON      - NEUTRON TYPE
RESI.         0                    : RESIST       - RESISTIVITY TYPE
RMC .OHMM     0.25                 : RMC          - RESISTIVITY OF MUD CAKE
RMF .OHMM     0.25                 : RMF          - RESISTIVITY OF MUD FILTRATE
SUFT.C        15                   : SUFT         - SURFACE TEMPERATURE
~A  DEPTH     DENS       GR     PHID     PHIN     RESD
# ...
  143.180    0.000  109.257    0.226    0.447    6.858
  143.430    0.000  114.764    0.194    0.468    6.213
  143.680    0.000  118.258    0.217    0.491    5.937
  143.930    0.000  120.105    0.222    0.501    5.863
  144.180    0.000  120.350    0.208    0.490    5.794
  144.430    0.000  119.103    0.244    0.477    5.864
  144.680    0.000  120.251    0.236    0.479    6.067
  144.930    0.000  120.443    0.219    0.495    6.582
  145.180    0.000  118.426    0.210    0.510    7.043
  145.430    0.000  119.284    0.201    0.495    8.136
  145.680    0.000  118.708    0.205    0.489    9.917
  145.930    0.000  118.664    0.290    0.501   12.754
  146.180    0.000  117.334    0.311    0.469   15.862
  146.430    0.000  108.486    0.322    0.446   16.554
  146.680    0.000   95.639    0.321    0.435   15.509
  146.930    0.000   89.006    0.317    0.439   14.141
  147.180    0.000   88.170    0.291    0.467   12.838
  147.430    0.000   93.405    0.285    0.472   12.492
  147.680    0.000   99.530    0.276    0.462   12.763
  147.930    0.000  103.263    0.282    0.459   13.250
  148.180    0.000  101.662    0.275    0.464   14.780
  148.430    0.000   95.475    0.270    0.462   16.158
  148.680    0.000   88.557    0.275    0.424   17.339
  148.930    0.000   79.313    0.281    0.406   18.447
  149.180    0.000   68.894    0.281    0.405   18.692
  149.430    0.000   71.200    0.289    0.414   18.978
  149.680    0.000   74.318    0.311    0.425   18.362
  149.930    0.000   72.616    0.318    0.429   17.854
  150.180    0.000   73.846    0.306    0.405   17.077
  150.430    0.000   76.930    0.288    0.394   16.786
  150.680    0.000   81.784    0.260    0.404   16.571
  150.930    0.000   85.103    0.247    0.424   16.468
  151.180    0.000   86.271    0.255    0.434   16.793
  151.430    0.000   87.514    0.259    0.421   16.446
  151.680    0.000   89.475    0.241    0.407   16.402
  151.930    0.000   92.826    0.248    0.408   16.204
  152.180    0.000   93.530    0.249    0.420   15.403
  152.430    0.000   93.483    0.247    0.429   14.951
  152.680    0.000   93.920    0.228    0.435   13.870
  152.930    0.000   97.056    0.234    0.436   12.509
  153.180    0.000  100.318    0.252    0.439   11.287
  153.430    0.000  105.239    0.262    0.451    9.972
  153.680    0.000  108.854    0.242    0.448    9.171
  153.930    0.000  109.729    0.237    0.457    8.648
  154.180    0.000  108.895    0.227    0.467    7.794
  154.430    0.000  107.678    0.233    0.479    7.075
  154.680    0.000  107.885    0.237    0.496    6.702
  154.930    0.000  110.933    0.226    0.496    6.570
  155.180    0.000  114.546    0.208    0.482    6.604
  155.430    0.000  118.581    0.206    0.483    7.180
  155.680    0.000  119.069    0.217    0.493    8.100
  155.930    0.000  117.941    0.239    0.471    9.928
  156.180    0.000  114.343    0.247    0.441   10.693
  156.430    0.000  110.806    0.246    0.429   11.009
  156.680    0.000  107.885    0.251    0.428   10.762
  156.930    0.000  107.234    0.249    0.431   10.435
  157.180    0.000  109.266    0.231    0.440    9.698
  157.430    0.000  114.545    0.223    0.448    8.982
  157.680    0.000  119.374    0.228    0.455    8.447
  157.930    0.000  116.279    0.245    0.474    8.155
  158.180    0.000  117.926    0.243    0.481    7.906
  158.430    0.000  119.658    0.246    0.492    8.041
  158.680    0.000  115.325    0.237    0.503    8.548
  158.930    0.000  111.488    0.257    0.497    9.383
  159.180    0.000  106.855    0.278    0.477   10.306
  159.430    0.000  102.344    0.273    0.486   11.035
  159.680    0.000  102.337    0.271    0.496   11.753
  159.930    0.000  103.876    0.278    0.477   12.304
  160.180    0.000  103.764    0.268    0.455   12.965
  160.430    0.000  102.407    0.282    0.447   12.956
  160.680    0.000   99.380    0.290    0.452   12.904
  160.930    0.000   96.602    0.267    0.441   12.501
  161.180    0.000   97.238    0.270    0.434   12.134
  161.430    0.000   99.198    0.264    0.421   11.805
  161.680    0.000   99.618    0.249    0.432   11.828
  161.930    0.000   98.493    0.246    0.450   12.016
  162.180    0.000   99.706    0.230    0.463   12.777
  162.430    0.000   96.905    0.222    0.482   14.217
  162.680    0.000   92.682    0.240    0.487   16.149
  162.930    0.000   84.127    0.250    0.457   17.068
  163.180    0.000   73.738    0.277    0.439   15.885
  163.430    0.000   69.499    0.294    0.433   14.277
  163.680    0.000   68.438    0.284    0.424   11.160
  163.930   -0.000   72.271    0.272    0.432    8.762
  164.180   -0.000   76.005    0.285    0.456    7.014
  164.430    0.000   79.070    0.249    0.501    6.002
  164.680    0.000   85.693    0.238    0.515    5.787
  164.930    0.000   90.964    0.201    0.518    6.269
  165.180   -0.000   97.464    0.251    0.534    7.749
  165.430   -0.000   99.085    0.281    0.543    9.278
  165.680   -0.000   93.485    0.291    0.486   11.568
  165.930    0.000   85.887    0.294    0.454   13.932
  166.180    0.000   79.787    0.284    0.436   16.206
  166.430    0.000   76.720    0.285    0.439   18.061
  166.680   -0.000   71.001    0.300    0.464   19.183
  166.930   -0.000   64.558    0.294    0.466   20.395
  167.180    0.000   63.082    0.294    0.431   21.250
  167.430    0.000   60.737    0.305    0.426   21.639
  167.680    0.000   61.874    0.296    0.423   22.102
  167.930   -0.000   63.185    0.295    0.414   22.027
  168.180   -0.000   60.588    0.302    0.401   22.465
  168.430   -0.000   58.209    0.293    0.399   22.957
  168.680    0.000   58.321    0.312    0.406   23.676
  168.930    0.000   57.600    0.307    0.415   23.680
  169.180    0.000   57.650    0.305    0.424   24.194
  169.430   -0.000   60.954    0.316    0.437   24.117
  169.680   -0.000   62.870    0.308    0.449   24.663
  169.930   -0.000   59.452    0.328    0.446   24.614
  170.180    0.000   60.173    0.317    0.435   24.616
  170.430    0.000   62.851    0.328    0.445   24.641
  170.680   -0.000   65.421    0.330    0.450   24.181
  170.930   -0.000   65.271    0.331    0.448   24.173
  171.180   -0.000   62.828    0.315    0.434   24.166
  171.430    0.000   62.478    0.312    0.425   24.134
  171.680    0.000   64.053    0.329    0.421   24.828
  171.930    0.000   69.530    0.330    0.418   25.528
  172.180   -0.000   70.458    0.327    0.426   26.257
  172.430   -0.000   70.345    0.333    0.439   26.993
  172.680   -0.000   70.335    0.326    0.440   26.967
  172.930    0.000   70.982    0.325    0.443   27.031
  173.180    0.000   69.909    0.335    0.442   26.584
  173.430   -0.000   68.521    0.329    0.446   26.964
  173.680   -0.000   69.182    0.338    0.454   28.133
  173.930   -0.000   71.082    0.330    0.457   29.207
  174.180    0.000   69.801    0.341    0.468   31.698
  174.430    0.000   67.817    0.353    0.461   33.092
  174.680    0.000   66.051    0.366    0.458   33.602
  174.930   -0.000   65.421    0.375    0.470   32.768
  175.180   -0.000   66.982    0.368    0.456   27.400
  175.430   -0.000   69.317    0.375    0.454   24.430
  175.680    0.000   70.965    0.385    0.470   23.260
  175.930    0.000   68.072    0.394    0.485   22.917
  176.180    0.000   63.102    0.399    0.511   23.707
  176.430   -0.000   64.313    0.353    0.486   24.711
  176.680   -0.000   67.428    0.342    0.469   26.203
  176.930    0.000   70.936    0.346    0.476   26.428
  177.180    0.000   68.764    0.335    0.488   27.495
  177.430    0.000   65.226    0.348    0.485   28.115
  177.680   -0.000   62.329    0.354    0.467   28.444
  177.930   -0.000   59.020    0.362    0.453   29.037
  178.180   -0.000   59.632    0.351    0.454   28.936
  178.430    0.000   61.934    0.361    0.468   28.433
  178.680    0.000   66.359    0.360    0.478   28.290
  178.930    0.000   66.085    0.350    0.478   27.427
  179.180   -0.000   62.487    0.350    0.477   27.120
  179.430   -0.000   61.994    0.339    0.469   26.407
