~VERSION INFORMATION
 VERS.                 2.0:   CWLS LOG ASCII STANDARD -VERSION 2.0
 WRAP.                  NO:   ONE LINE PER DEPTH STEP
~WELL INFORMATION BLOCK
#MNEM.UNIT           DATA                    DESCRIPTION OF MNEMONIC
#---------    -------------------            -------------------------------
# Generated from Intellog Unique Number	CC_84_87/WELL/1174
NULL.         -999.25                        : NULL_VALUE
WELL.         NOVALTA NEWBY                  : Well_name    - WELL              
LOC .         09-04-084-04W4                 : Location     - LOCATION          
UWI .         00/09-04-084-04W400            : Uwi          - UNIQUE WELL ID    
ENTR.         JHS                            : Entered      - ENTERED BY        
SRVC.         SCHLUMBERGER                   : Scn          - SERVICE COMPANY   
DATE.         09 JAN 85                      : Date         - LOG DATE
STRT.M        65                             : top_depth    - START DEPTH       
STOP.M        299.9                          : bot_depth    - STOP DEPTH        
STEP.M        0.3                            : increment    - STEP LENGTH       
~CURVE INFORMATION BLOCK
#MNEM UNIT       ERCB CURVE CODE    CURVE DESCRIPTION
#-----------   ------------------   ----------------------------------
DEPT.M        00 001 00 00         : DEPTH        - DEPTH                       
DPHI.V/V      00 890 00 00         : PHID         - DENSITY POROSITY (LIMESTONE)
NPHI.V/V      00 330 00 00         : PHIN         - NEUTRON POROSITY (LIMESTONE)
GR  .API      00 310 00 00         : GR           - GAMMA RAY                   
ILD .OHMM     00 120 00 00         : RESD         - DEEP RESISTIVITY (DIL)      
~PARAMETER INFORMATION       
#MNEM.UNIT           DATA             DESCRIPTION OF MNEMONIC
#---------         -----------     ------------------------------
GL  .M        474.5                : gl           - GROUND LEVEL ELEVATION      
EREF.M        477.5                : kb           - ELEVATION OF DEPTH REFERENCE
DATM.M        477.5                : datum        - DATUM ELEVATION             
TDD .M        308                  : tdd          - TOTAL DEPTH DRILLER         
RUN .         ONE                  : Run          - RUN NUMBER                  
ENG .         BILL                 : Engineer     - RECORDING ENGINEER          
WIT .         JIM                  : Witness      - WITNESSED BY                
MUD .         GEL                  : Mud_type     - MUD TYPE                    
MATR.         LIMESTONE            : Logunit      - NEUTRON MATRIX              
TMAX.C        21                   : BHT          - MAXIMUM RECORDED TEMPERATURE
BHTD.M        308                  : BHTDEP       - MAXIMUM RECORDED TEMPERATURE
MATR.         1                    : LOGUNIT      - NEUTRON MATRIX              
RMT .C        25                   : MDTP         - TEMPERATURE OF MUD          
NEUT.         1                    : NEUTRON      - NEUTRON TYPE                
RESI.         0                    : RESIST       - RESISTIVITY TYPE            
RMC .OHMM     0.25                 : RMC          - RESISTIVITY OF MUD CAKE     
RMF .OHMM     0.25                 : RMF          - RESISTIVITY OF MUD FILTRATE 
SUFT.C        15                   : SUFT         - SURFACE TEMPERATURE         
~A  DEPTH     PHID     PHIN       GR     RESD
# ...
  273.801    0.196    0.381   88.617    3.428
  274.101    0.199    0.365   82.449    3.238
  274.401    0.208    0.370   83.655    3.116
  274.701    0.216    0.384   83.632    3.234
  275.001    0.218    0.371   82.997    3.487
  275.301    0.197    0.380   88.507    3.486
  275.601    0.201    0.406   87.873    3.355
  275.901    0.191    0.406   80.472    2.882
  276.201    0.105    0.416   67.543    2.340
  276.501    0.175    0.431   50.923    2.383
  276.801    0.328    0.444   50.286    2.771
  277.101    0.288    0.442   64.403    3.285
  277.401    0.157    0.347   87.126    3.967
  277.701    0.146    0.327   82.801    4.442
  278.001    0.166    0.311   66.181    4.525
  278.301    0.187    0.300   59.397    4.355
  278.601    0.189    0.294   57.530    3.535
  278.901    0.201    0.298   56.279    2.980
  279.201    0.232    0.308   50.724    2.709
  279.501    0.266    0.315   43.325    2.658
  279.801    0.281    0.314   37.156    2.920
  280.101    0.229    0.302   45.127    3.269
  280.401    0.215    0.331   58.010    3.147
  280.701    0.235    0.350   50.614    2.861
  281.001    0.266    0.346   38.913    2.367
  281.301    0.288    0.330   31.514    2.072
  281.601    0.299    0.335   23.501    2.071
  281.901    0.304    0.304   20.405    2.110
  282.201    0.282    0.288   24.071    2.275
  282.501    0.259    0.331   35.114    2.407
  282.801    0.281    0.354   30.789    2.406
  283.101    0.301    0.331   25.235    2.229
  283.401    0.291    0.321   27.053    2.027
  283.701    0.287    0.339   29.494    1.843
  284.001    0.308    0.346   27.012    1.614
  284.301    0.343    0.354   20.229    1.467
  284.601    0.349    0.340   13.442    1.412
  284.901    0.333    0.317   12.806    1.385
  285.201    0.325    0.332   15.860    1.411
  285.501    0.331    0.329   16.449    1.410
  285.801    0.321    0.319   15.201    1.464
  286.101    0.311    0.305   14.563    1.520
  286.401    0.298    0.290   15.152    1.639
  286.701    0.266    0.264   16.362    1.835
  287.001    0.248    0.262   18.181    2.016
  287.301    0.283    0.284   19.390    2.174
  287.601    0.271    0.279   18.757    2.480
  287.901    0.252    0.273   19.345    2.624
  288.201    0.231    0.253   19.936    2.829
  288.501    0.222    0.248   21.146    2.993
  288.801    0.230    0.246   22.969    2.936
  289.101    0.241    0.244   26.639    2.619
  289.401    0.242    0.257   61.656    2.427
  289.701    0.260    0.273   61.020    2.473
  290.001    0.281    0.288   38.252    2.822
  290.301    0.288    0.295   39.459    3.281
  290.601    0.266    0.281   84.314    3.815
  290.901    0.282    0.280   95.970    4.114
  291.201    0.284    0.491  100.251    4.521
  291.500    0.066    0.462  100.845    5.460
  291.800    0.080    0.389   90.988    6.349
  292.100    0.056    0.327   78.055    7.245
  292.400    0.041    0.310   71.270    8.426
  292.700    0.043    0.306   70.631    9.615
  293.000    0.053    0.300   71.842   10.565
  293.300    0.041    0.273   68.746   12.056
  293.600    0.015    0.179   55.814   14.289
  293.900    0.000    0.164   46.573   20.079
  294.200    0.019    0.170   47.776   20.844
  294.500    0.026    0.197   54.517   20.442
  294.800    0.024    0.216   56.955   19.676
  295.100    0.014    0.222   57.550   18.582
  295.400    0.009    0.227   59.371   17.883
  295.700    0.019    0.230   61.809   17.538
  296.000    0.022    0.234   64.242   17.532
  296.300    0.014    0.236   61.147   17.858
  296.600    0.011    0.237   59.892   19.254
  296.900    0.017    0.229   60.487   19.614
  297.200    0.019    0.218   61.080   19.601
  297.500    0.016    0.220   62.291   19.225
  297.800    0.016    0.225   60.423   19.216
  298.100    0.026    0.223   62.859   18.848
  298.400    0.013    0.220   63.454   18.839
  298.700    0.022    0.220   62.818   18.831
  299.000    0.023    0.224   64.022   18.825
  299.300    0.018    0.230   65.232   19.175
  299.600    0.010    0.238   65.823   19.527
  299.900    0.009    0.233   65.803   19.896
