~VERSION INFORMATION
 VERS.                 2.0:   CWLS LOG ASCII STANDARD -VERSION 2.0
 WRAP.                  NO:   ONE LINE PER DEPTH STEP
~WELL INFORMATION BLOCK
#MNEM.UNIT           DATA                    DESCRIPTION OF MNEMONIC
#---------    -------------------            -------------------------------
# Generated from Intellog Unique Number	CS_73_76/WELL/958
WELL.         DOME PETROLEUM LIMITED         : Well_name    - WELL
LOC .         00/05-12-075-05W4/0            : Location     - LOCATION
UWI .         00/05-12-075-05W4/0            : Uwi          - UNIQUE WELL ID
ENTR.         SP                             : Entered      - ENTERED BY
SRVC.         SCHLUMBERGER                   : Scn          - SERVICE COMPANY
STRT.M        200                            : top_depth    - START DEPTH
STOP.M        410                            : bot_depth    - STOP DEPTH
STEP.M        0.25                           : increment    - STEP LENGTH
 NULL. -999.2500:NULL Value
~CURVE INFORMATION BLOCK
#MNEM UNIT       ERCB CURVE CODE    CURVE DESCRIPTION
#-----------   ------------------   ----------------------------------
DEPT.M        00 001 00 00         : DEPTH        - DEPTH
GR  .API      00 310 00 00         : GR           - GAMMA RAY
NPHI.V/V      00 330 00 00         : PHIN         - NEUTRON POROSITY (LIMESTONE)
DPHI.V/V      00 890 00 00         : PHID         - DENSITY POROSITY (LIMESTONE)
ILD .OHMM     00 120 00 00         : RESD         - DEEP RESISTIVITY (DIL)
~PARAMETER INFORMATION
#MNEM.UNIT           DATA             DESCRIPTION OF MNEMONIC
#---------         -----------     ------------------------------
GL  .M        609.08               : gl           - GROUND LEVEL ELEVATION
EREF.M        612.85               : kb           - ELEVATION OF DEPTH REFERENCE
DATM.M        609.08               : datum        - DATUM ELEVATION
TDD .M        415                  : tdd          - TOTAL DEPTH DRILLER
RUN .         ONE                  : Run          - RUN NUMBER
ENG .         BILL                 : Engineer     - RECORDING ENGINEER
WIT .         JIM                  : Witness      - WITNESSED BY
MUD .         GEL                  : Mud_type     - MUD TYPE
MATR.         LIMESTONE            : Logunit      - NEUTRON MATRIX
TMAX.C        19                   : BHT          - MAXIMUM RECORDED TEMPERATURE
BHTD.M        415                  : BHTDEP       - MAXIMUM RECORDED TEMPERATURE
MATR.         1                    : LOGUNIT      - NEUTRON MATRIX
RMT .C        25                   : MDTP         - TEMPERATURE OF MUD
NEUT.         1                    : NEUTRON      - NEUTRON TYPE
RESI.         0                    : RESIST       - RESISTIVITY TYPE
RMC .OHMM     0.25                 : RMC          - RESISTIVITY OF MUD CAKE
RMF .OHMM     0.25                 : RMF          - RESISTIVITY OF MUD FILTRATE
SUFT.C        15                   : SUFT         - SURFACE TEMPERATURE
~A  DEPTH       GR     PHIN     PHID     RESD
# ...
  287.000   63.745    0.458    0.325    1.912
  287.250   61.932    0.456    0.331    1.912
  287.500   59.512    0.445    0.329    1.876
  287.750   60.736    0.430    0.325    1.875
  288.000   63.172    0.425    0.315    1.875
  288.250   68.648    0.436    0.295    1.910
  288.500   76.551    0.457    0.262    1.909
  288.750   88.099    0.481    0.250    1.909
  289.000   93.571    0.520    0.258    1.909
  289.250   94.796    0.546    0.266    1.908
  289.500   93.589    0.547    0.260    1.908
  289.750   91.168    0.495    0.247    1.944
  290.000   87.539    0.429    0.245    1.980
  290.250   85.723    0.473    0.253    1.980
  290.500   83.301    0.481    0.271    1.870
  290.750   80.273    0.482    0.292    1.702
  291.000   76.639    0.464    0.283    1.578
  291.250   73.614    0.447    0.271    1.519
  291.500   73.010    0.459    0.283    1.519
  291.750   71.804    0.468    0.296    1.490
  292.000   76.066    0.452    0.301    1.518
  292.250   84.577    0.420    0.295    1.489
  292.500   90.050    0.417    0.263    1.489
  292.750   94.916    0.490    0.251    1.461
  293.000   97.355    0.530    0.298    1.407
  293.250   88.253    0.537    0.320    1.305
  293.500   75.510    0.478    0.316    1.187
  293.750   65.195    0.444    0.318    1.060
  294.000   57.309    0.426    0.331    0.965
  294.250   53.673    0.414    0.337    0.894
  294.500   51.861    0.403    0.340    0.829
  294.750   53.695    0.399    0.342    0.798
  295.000   54.917    0.399    0.344    0.783
  295.250   55.529    0.401    0.348    0.769
  295.500   56.145    0.398    0.354    0.754
  295.750   58.586    0.403    0.351    0.768
  296.000   60.413    0.416    0.346    0.768
  296.250   63.458    0.434    0.346    0.783
  296.500   65.897    0.439    0.349    0.812
  296.750   65.905    0.431    0.333    0.892
  297.000   65.913    0.431    0.310    0.999
  297.250   67.747    0.449    0.285    1.076
  297.500   72.005    0.454    0.296    1.118
  297.750   74.441    0.443    0.307    1.205
  298.000   73.239    0.440    0.311    1.227
  298.250   73.852    0.435    0.318    1.204
  298.500   75.682    0.429    0.322    1.138
  298.750   78.122    0.431    0.323    1.075
  299.000   78.737    0.441    0.321    1.016
  299.250   78.745    0.448    0.307    0.978
  299.500   77.539    0.452    0.285    0.959
  299.750   74.511    0.449    0.270    0.977
  300.000   73.304    0.450    0.273    1.034
  300.250   78.780    0.463    0.268    1.136
  300.500   83.647    0.472    0.256    1.247
  300.750   84.262    0.476    0.240    1.370
  301.000   83.057    0.477    0.257    1.477
  301.250   80.638    0.478    0.281    1.622
  301.500   79.429    0.469    0.274    1.653
  301.750   81.261    0.463    0.274    1.716
  302.000   80.662    0.479    0.269    1.748
  302.250   81.887    0.472    0.265    1.747
  302.500   83.108    0.463    0.264    1.780
  302.750   84.332    0.468    0.268    1.746
  303.000   85.557    0.469    0.275    1.746
  303.250   85.563    0.467    0.287    1.746
  303.500   83.751    0.462    0.290    1.745
  303.750   79.507    0.461    0.281    1.745
  304.000   79.518    0.455    0.270    1.744
  304.250   80.740    0.446    0.259    1.744
  304.500   82.571    0.464    0.253    1.777
  304.750   85.008    0.479    0.251    1.776
  305.000   86.838    0.488    0.251    1.776
  305.250   86.240    0.489    0.253    1.775
  305.500   86.248    0.468    0.254    1.809
  305.750   86.867    0.461    0.246    1.843
  306.000   87.482    0.470    0.247    1.877
  306.250   88.097    0.462    0.252    1.912
  306.500   86.890    0.447    0.249    1.948
  306.750   84.472    0.437    0.243    1.948
  307.000   82.656    0.430    0.239    1.984
  307.250   83.882    0.440    0.237    2.021
  307.500   87.534    0.456    0.225    2.021
  307.750   92.401    0.473    0.216    2.059
  308.000   93.016    0.461    0.210    2.058
  308.250   93.026    0.453    0.220    2.097
  308.500   95.465    0.453    0.220    2.096
  308.750   96.686    0.475    0.217    2.096
  309.000   97.909    0.497    0.222    2.095
  309.250   96.703    0.517    0.225    2.095
  309.500   94.890    0.511    0.226    2.094
  309.750   93.077    0.507    0.229    2.054
  310.000   93.085    0.501    0.222    2.054
  310.250   94.308    0.518    0.239    2.015
  310.500   94.925    0.539    0.265    1.977
  310.750   94.933    0.537    0.276    1.904
  311.000   93.120    0.510    0.259    1.833
  311.250   93.129    0.496    0.221    1.798
  311.500   94.959    0.492    0.221    1.764
  311.750   98.004    0.519    0.235    1.764
  312.000  101.658    0.541    0.240    1.763
  312.250  104.095    0.565    0.251    1.763
  312.500  100.459    0.571    0.260    1.763
  312.750   93.789    0.543    0.270    1.762
  313.000   91.369    0.510    0.265    1.795
  313.250   91.983    0.490    0.244    1.795
  313.500   91.384    0.474    0.248    1.828
  313.750   83.501    0.479    0.251    1.828
  314.000   78.044    0.493    0.254    1.794
  314.250   73.193    0.491    0.283    1.727
  314.500   68.341    0.433    0.307    1.726
  314.750   58.635    0.387    0.271    1.792
  315.000   48.926    0.315    0.193    1.969
  315.250   51.364    0.241    0.139    2.331
  315.500   59.874    0.283    0.095    2.610
  315.750   70.207    0.315    0.225    2.659
  316.000   65.965    0.337    0.305    2.244
  316.250   62.937    0.342    0.356    1.824
  316.500   63.553    0.361    0.357    1.455
  316.750   63.563    0.370    0.349    1.228
  317.000   62.356    0.381    0.346    1.036
  317.250   62.365    0.392    0.341    0.925
  317.500   63.587    0.400    0.332    0.908
  317.750   64.203    0.395    0.313    0.842
  318.000   62.997    0.395    0.306    0.826
  318.250   66.046    0.409    0.302    0.826
  318.500   66.658    0.416    0.313    0.841
  318.750   66.061    0.420    0.310    0.841
  319.000   64.853    0.422    0.305    0.841
  319.250   66.684    0.431    0.312    0.825
  319.500   67.907    0.427    0.322    0.824
  319.750   69.738    0.417    0.317    0.824
  320.000   70.353    0.415    0.300    0.824
  320.250   69.759    0.415    0.306    0.824
  320.500   70.371    0.426    0.320    0.824
  320.750   70.381    0.435    0.331    0.824
  321.000   69.175    0.429    0.327    0.823
  321.250   71.614    0.421    0.327    0.823
  321.500   74.052    0.423    0.322    0.839
  321.750   74.666    0.438    0.298    0.854
  322.000   74.677    0.457    0.274    0.870
  322.250   75.294    0.468    0.276    0.887
  322.500   76.516    0.430    0.295    0.903
  322.750   78.953    0.421    0.303    0.938
  323.000   82.605    0.414    0.296    1.011
  323.250   85.042    0.423    0.282    1.049
  323.500   82.625    0.429    0.282    1.131
  323.750   82.630    0.431    0.267    1.242
  324.000   86.282    0.435    0.251    1.314
  324.250   88.721    0.429    0.236    1.390
  324.500   87.514    0.424    0.249    1.443
  324.750   89.347    0.452    0.249    1.498
  325.000   90.569    0.463    0.232    1.526
  325.250   86.937    0.435    0.235    1.526
  325.500   85.124    0.412    0.242    1.554
  325.750   83.915    0.390    0.238    1.584
  326.000   85.747    0.380    0.229    1.613
  326.250   88.792    0.379    0.220    1.643
  326.500   91.231    0.393    0.227    1.674
  326.750   92.450    0.402    0.236    1.706
  327.000   92.460    0.425    0.231    1.705
  327.250   91.253    0.455    0.226    1.705
  327.500   91.261    0.456    0.224    1.704
  327.750   93.095    0.465    0.227    1.704
  328.000   94.924    0.453    0.231    1.704
  328.250   93.718    0.432    0.230    1.736
  328.500   94.940    0.459    0.234    1.802
  328.750   97.380    0.485    0.250    1.801
  329.000   96.174    0.518    0.255    1.801
  329.250   91.930    0.517    0.258    1.767
  329.500   90.118    0.508    0.275    1.766
  329.750   90.733    0.531    0.282    1.701
  330.000   87.707    0.518    0.287    1.700
  330.250   85.286    0.517    0.291    1.700
