~VERSION INFORMATION
 VERS.                 2.0:   CWLS LOG ASCII STANDARD -VERSION 2.0
 WRAP.                  NO:   ONE LINE PER DEPTH STEP
~WELL INFORMATION BLOCK
#MNEM.UNIT           DATA                    DESCRIPTION OF MNEMONIC
#---------    -------------------            -------------------------------
# Generated from Intellog Unique Number	CC_84_87/WELL/1064
NULL.         -999.25                        : NULL_VALUE
WELL.         PARA ET AL GRANOR              : Well_name    - WELL              
LOC .         06-06-084-17W4                 : Location     - LOCATION          
UWI .         00/06-06-084-17W400            : Uwi          - UNIQUE WELL ID    
ENTR.         JHS                            : Entered      - ENTERED BY        
SRVC.         COMPUTALOG                     : Scn          - SERVICE COMPANY   
DATE.         25 JAN 82                      : Date         - LOG DATE
STRT.M        97                             : top_depth    - START DEPTH       
STOP.M        290.5                          : bot_depth    - STOP DEPTH        
STEP.M        0.3                            : increment    - STEP LENGTH       
~CURVE INFORMATION BLOCK
#MNEM UNIT       ERCB CURVE CODE    CURVE DESCRIPTION
#-----------   ------------------   ----------------------------------
DEPT.M        00 001 00 00         : DEPTH        - DEPTH                       
DPHI.V/V      00 890 00 00         : PHID         - DENSITY POROSITY (LIMESTONE)
NPHI.V/V      00 330 00 00         : PHIN         - NEUTRON POROSITY (LIMESTONE)
GR  .API      00 310 00 00         : GR           - GAMMA RAY                   
ILD .OHMM     00 120 00 00         : RESD         - DEEP RESISTIVITY (DIL)      
~PARAMETER INFORMATION       
#MNEM.UNIT           DATA             DESCRIPTION OF MNEMONIC
#---------         -----------     ------------------------------
GL  .M        536.88               : gl           - GROUND LEVEL ELEVATION      
EREF.M        540.48               : kb           - ELEVATION OF DEPTH REFERENCE
DATM.M        540.48               : datum        - DATUM ELEVATION             
TDD .M        291                  : tdd          - TOTAL DEPTH DRILLER         
RUN .         ONE                  : Run          - RUN NUMBER                  
ENG .         BILL                 : Engineer     - RECORDING ENGINEER          
WIT .         JIM                  : Witness      - WITNESSED BY                
MUD .         GEL                  : Mud_type     - MUD TYPE                    
MATR.         LIMESTONE            : Logunit      - NEUTRON MATRIX              
TMAX.C        22                   : BHT          - MAXIMUM RECORDED TEMPERATURE
BHTD.M        291                  : BHTDEP       - MAXIMUM RECORDED TEMPERATURE
MATR.         1                    : LOGUNIT      - NEUTRON MATRIX              
RMT .C        25                   : MDTP         - TEMPERATURE OF MUD          
NEUT.         1                    : NEUTRON      - NEUTRON TYPE                
RESI.         0                    : RESIST       - RESISTIVITY TYPE            
RMC .OHMM     0.25                 : RMC          - RESISTIVITY OF MUD CAKE     
RMF .OHMM     0.25                 : RMF          - RESISTIVITY OF MUD FILTRATE 
SUFT.C        15                   : SUFT         - SURFACE TEMPERATURE         
~A  DEPTH     PHID     PHIN       GR     RESD
# ...
  149.201    0.347    0.433   70.900   13.691
  149.501    0.344    0.434   69.061   13.691
  149.801    0.332    0.414   65.992   13.692
  150.101    0.327    0.467   64.767   13.436
  150.401    0.307    0.446   66.616   13.184
  150.701    0.219    0.379   64.776   12.937
  151.001    0.234    0.353   64.781   12.695
  151.301    0.274    0.453   67.860   12.457
  151.601    0.339    0.440   69.709   12.458
  151.901    0.333    0.403   70.328   12.458
  152.201    0.323    0.454   71.562   12.697
  152.501    0.314    0.461   72.796   12.697
  152.801    0.329    0.441   69.728   12.697
  153.101    0.328    0.406   69.732   12.226
  153.401    0.311    0.432   72.810   11.997
  153.701    0.318    0.446   72.200   11.773
  154.001    0.313    0.472   69.747   11.773
  154.301    0.302    0.325   66.062   11.998
  154.601    0.159    0.141   60.534   12.699
  154.901    0.027    0.104   53.776   13.960
  155.201    0.134    0.118   50.093   15.346
  155.501    0.202    0.188   53.171   16.243
  155.801    0.291    0.307   58.709   14.500
  156.101    0.330    0.481   64.247   12.944
  156.401    0.327    0.460   66.096   12.230
  156.701    0.319    0.459   64.256   11.776
  157.001    0.329    0.459   63.645   11.776
  157.301    0.340    0.452   61.806   12.002
  157.601    0.339    0.426   62.425   12.002
  157.901    0.331    0.426   61.201   12.465
  158.201    0.312    0.455   58.746   13.194
  158.501    0.278    0.482   59.981   13.965
  158.801    0.284    0.454   61.216   15.645
  159.101    0.324    0.470   61.834   15.645
  159.401    0.328    0.515   63.683   15.065
  159.701    0.330    0.592   64.302   13.967
  160.001    0.335    0.519   64.308   13.196
  160.301    0.336    0.460   64.927   12.949
  160.601    0.334    0.452   63.702   12.469
  160.901    0.328    0.508   65.550   12.235
  161.201    0.324    0.514   67.400   12.006
  161.501    0.337    0.449   63.716   12.007
  161.801    0.333    0.430   62.492   12.007
  162.101    0.324    0.445   63.111   12.007
  162.401    0.318    0.453   64.960   12.008
  162.701    0.323    0.433   66.194   12.008
  163.001    0.342    0.432   66.814   12.008
  163.301    0.342    0.445   64.359   12.009
  163.601    0.336    0.470   62.519   11.784
  163.901    0.334    0.449   62.525   11.784
  164.201    0.332    0.418   64.373   11.784
  164.501    0.329    0.415   66.222   11.785
  164.801    0.324    0.432   63.768   11.785
  165.101    0.318    0.450   65.001   11.786
  165.401    0.325    0.476   67.466   11.786
  165.701    0.320    0.479   68.086   11.786
  166.001    0.330    0.419   67.476   11.566
  166.301    0.332    0.423   67.480   11.787
  166.601    0.327    0.431   68.099   11.787
  166.901    0.320    0.466   68.105   11.788
  167.201    0.322    0.436   67.495   11.788
  167.501    0.326    0.418   66.269   12.014
  167.801    0.330    0.467   65.044   12.014
  168.101    0.324    0.447   64.434   12.014
  168.401    0.314    0.384   63.209   12.244
  168.701    0.310    0.414   61.370   12.717
  169.001    0.321    0.453   58.916   12.960
  169.301    0.325    0.478   57.077   13.460
  169.601    0.321    0.469   54.006   14.519
  169.901    0.317    0.438   46.634   15.662
  170.201    0.316    0.409   45.410   16.577
  170.501    0.324    0.429   45.415   17.546
  170.801    0.321    0.446   43.574   17.882
  171.101    0.317    0.478   43.580   17.882
  171.401    0.321    0.505   44.198   17.547
  171.701    0.325    0.479   42.974   17.884
  172.001    0.321    0.451   41.135   17.548
  172.301    0.317    0.432   42.368   17.884
  172.601    0.312    0.425   41.758   17.885
  172.901    0.321    0.417   42.378   17.885
  173.201    0.325    0.438   43.612   17.886
  173.501    0.327    0.482   46.691   17.886
  173.801    0.332    0.486   47.310   17.552
  174.101    0.332    0.464   49.159   17.552
  174.401    0.319    0.443   48.549   17.223
  174.701    0.317    0.447   43.021   16.584
  175.001    0.305    0.448   43.640   16.274
  175.301    0.302    0.456   47.333   15.670
  175.601    0.304    0.448   49.182   15.088
  175.901    0.289    0.473   49.803   14.528
  176.201    0.212    0.417   51.652   13.989
  176.501    0.205    0.401   52.886   13.727
  176.801    0.277    0.426   55.964   12.970
  177.101    0.283    0.457   59.657   12.024
  177.401    0.281    0.483   63.965   10.533
  177.701    0.290    0.484   65.815    9.765
  178.001    0.279    0.460   68.278    8.554
  178.301    0.234    0.396   82.422    6.946
  178.601    0.195    0.391  100.869    5.641
  178.901    0.188    0.415  109.481    4.758
  179.201    0.190    0.401  118.092    4.089
  179.501    0.178    0.425  118.097    3.864
  179.801    0.168    0.469  119.331    3.792
  180.101    0.175    0.541  121.180    3.938
  180.401    0.183    0.495  119.955    4.013
  180.701    0.187    0.465  119.345    4.090
  181.001    0.191    0.471  119.965    4.168
  181.301    0.189    0.462  119.969    4.248
  181.601    0.206    0.499  119.975    4.329
  181.901    0.213    0.511  115.676    4.329
  182.201    0.203    0.490  116.295    4.330
  182.501    0.195    0.454  119.373    4.330
  182.801    0.195    0.413  113.845    4.330
  183.101    0.196    0.413  108.932    4.249
  183.401    0.217    0.523  110.167    4.249
  183.701    0.234    0.544  108.941    4.330
  184.001    0.242    0.543  105.257    4.330
  184.301    0.228    0.466   99.730    4.497
  184.601    0.221    0.415   89.283    4.851
  184.901    0.237    0.377   83.755    5.644
  185.201    0.238    0.360   90.522    7.498
  185.501    0.229    0.375   98.518    7.936
  185.801    0.227    0.474   92.990    8.088
  186.101    0.229    0.507   93.610    7.936
  186.401    0.228    0.476   95.459    7.358
  186.701    0.234    0.442   90.545    7.642
  187.001    0.229    0.354   88.706    7.788
  187.301    0.229    0.391   91.784    7.789
  187.601    0.232    0.408   99.166    7.789
  187.901    0.224    0.375   96.097    8.244
  188.201    0.242    0.340   93.643    8.726
  188.501    0.237    0.390   94.877    9.063
  188.801    0.213    0.412   96.726    9.063
  189.101    0.211    0.418   96.116    8.563
  189.401    0.221    0.425   97.350    8.091
  189.701    0.240    0.414   99.200    7.939
  190.001    0.248    0.371   93.670    7.939
  190.301    0.244    0.376   88.142    8.091
  190.601    0.234    0.395   86.918    8.246
  190.901    0.221    0.367   91.841    8.404
  191.201    0.234    0.345   93.690    8.565
  191.501    0.230    0.379   91.235    8.729
  191.801    0.224    0.375   89.396    8.565
  192.101    0.192    0.370   88.785    8.565
  192.401    0.198    0.374   88.176    8.566
  192.701    0.235    0.392   87.566    8.405
  193.001    0.240    0.411   94.947    7.503
  193.301    0.257    0.440   99.255    6.957
  193.601    0.255    0.453   94.956    6.573
  193.901    0.212    0.450   83.895    6.329
  194.201    0.225    0.427   81.441    6.329
  194.501    0.239    0.377   84.519    6.450
  194.801    0.233    0.360   91.902    5.980
  195.101    0.240    0.492   93.136    5.338
  195.401    0.240    0.523  100.517    4.502
  195.701    0.249    0.525  101.752    4.174
  196.001    0.256    0.513   94.994    4.503
  196.301    0.282    0.513   83.933    5.441
  196.601    0.287    0.497   85.783    6.451
  196.901    0.275    0.441   91.320    7.796
  197.201    0.265    0.410   92.554    8.251
  197.501    0.255    0.501   91.330    8.409
  197.801    0.238    0.365   88.875    8.901
  198.101    0.071    0.251   82.117    9.071
  198.401    0.099    0.268   77.818    8.571
  198.701    0.186    0.329   85.200    7.507
  199.001    0.226    0.321   86.434    6.830
  199.301    0.233    0.352   88.898    6.213
  199.601    0.225    0.425   93.821    6.214
  199.901    0.218    0.497   95.055    6.333
  200.201    0.225    0.503   97.519    6.454
  200.501    0.223    0.491   96.909    7.230
  200.801    0.209    0.419   94.455    7.368
  201.101    0.212    0.383   93.230    7.230
