~VERSION INFORMATION
 VERS.                 2.0:   CWLS LOG ASCII STANDARD -VERSION 2.0
 WRAP.                  NO:   ONE LINE PER DEPTH STEP
~WELL INFORMATION BLOCK
#MNEM.UNIT           DATA                    DESCRIPTION OF MNEMONIC
#---------    -------------------            -------------------------------
# Generated from Intellog Unique Number	CS_73_76/WELL/1084
WELL.         BOW VALLEY INDUSTRIES LTD.     : Well_name    - WELL
LOC .         00/06-30-075-13W4/0            : Location     - LOCATION
UWI .         00/06-30-075-13W4/0            : Uwi          - UNIQUE WELL ID
ENTR.         SP                             : Entered      - ENTERED BY
SRVC.         SCHLUMBERGER                   : Scn          - SERVICE COMPANY
STRT.M        360                            : top_depth    - START DEPTH
STOP.M        597                            : bot_depth    - STOP DEPTH
STEP.M        0.25                           : increment    - STEP LENGTH
 NULL. -999.2500:NULL Value
~CURVE INFORMATION BLOCK
#MNEM UNIT       ERCB CURVE CODE    CURVE DESCRIPTION
#-----------   ------------------   ----------------------------------
DEPT.M        00 001 00 00         : DEPTH        - DEPTH
ILD .OHMM     00 120 00 00         : RESD         - DEEP RESISTIVITY (DIL)
DPHI.V/V      00 890 00 00         : PHID         - DENSITY POROSITY (LIMESTONE)
NPHI.V/V      00 330 00 00         : PHIN         - NEUTRON POROSITY (LIMESTONE)
GR  .API      00 310 00 00         : GR           - GAMMA RAY
~PARAMETER INFORMATION
#MNEM.UNIT           DATA             DESCRIPTION OF MNEMONIC
#---------         -----------     ------------------------------
GL  .M        736                  : gl           - GROUND LEVEL ELEVATION
EREF.M        739.2                : kb           - ELEVATION OF DEPTH REFERENCE
DATM.M        736                  : datum        - DATUM ELEVATION
TDD .M        603                  : tdd          - TOTAL DEPTH DRILLER
RUN .         ONE                  : Run          - RUN NUMBER
ENG .         BILL                 : Engineer     - RECORDING ENGINEER
WIT .         JIM                  : Witness      - WITNESSED BY
MUD .         GEL                  : Mud_type     - MUD TYPE
MATR.         LIMESTONE            : Logunit      - NEUTRON MATRIX
TMAX.C        23                   : BHT          - MAXIMUM RECORDED TEMPERATURE
BHTD.M        603                  : BHTDEP       - MAXIMUM RECORDED TEMPERATURE
MATR.         1                    : LOGUNIT      - NEUTRON MATRIX
RMT .C        25                   : MDTP         - TEMPERATURE OF MUD
NEUT.         1                    : NEUTRON      - NEUTRON TYPE
RESI.         0                    : RESIST       - RESISTIVITY TYPE
RMC .OHMM     0.25                 : RMC          - RESISTIVITY OF MUD CAKE
RMF .OHMM     0.25                 : RMF          - RESISTIVITY OF MUD FILTRATE
SUFT.C        15                   : SUFT         - SURFACE TEMPERATURE
~A  DEPTH     RESD     PHID     PHIN       GR
# ...
  447.000   10.646    0.353    0.481   68.254
  447.250   10.446    0.352    0.475   67.632
  447.500   10.251    0.352    0.482   68.831
  447.750   10.061    0.353    0.481   70.028
  448.000    9.875    0.353    0.471   70.618
  448.250    9.691    0.353    0.461   69.990
  448.500    9.337    0.350    0.458   69.362
  448.750    8.669    0.344    0.457   69.347
  449.000    8.049    0.337    0.460   69.336
  449.250    7.613    0.330    0.450   69.321
  449.500    7.068    0.324    0.446   67.483
  449.750    6.810    0.320    0.454   71.712
  450.000    6.322    0.324    0.454   77.161
  450.250    6.205    0.312    0.453   82.610
  450.500    6.090    0.283    0.452   86.844
  450.750    5.760    0.267    0.484   86.828
  451.000    5.549    0.268    0.490   86.811
  451.250    5.249    0.268    0.490   89.222
  451.500    4.784    0.266    0.498   88.598
  451.750    4.281    0.265    0.491   87.975
  452.000    3.831    0.265    0.484   87.956
  452.250    3.303    0.266    0.492   87.938
  452.500    3.068    0.266    0.503   90.349
  452.750    2.901    0.260    0.509   91.552
  453.000    2.954    0.252    0.515   92.139
  453.250    3.121    0.255    0.512   90.303
  453.500    2.846    0.267    0.500   86.640
  453.750    3.421    0.280    0.526   87.842
  454.000    3.615    0.278    0.532   90.860
  454.250    3.750    0.276    0.536   91.450
  454.500    3.963    0.285    0.537   89.006
  454.750    4.111    0.292    0.540   86.560
  455.000    4.590    0.299    0.543   85.931
  455.250    4.761    0.303    0.553   85.913
  455.500    4.849    0.316    0.546   84.680
  455.750    4.586    0.345    0.532   83.455
  456.000    4.104    0.341    0.523   81.617
  456.250    3.227    0.348    0.477   80.996
  456.500    2.633    0.348    0.456   87.045
  456.750    2.070    0.332    0.473   91.888
  457.000    2.228    0.306    0.499   95.518
  457.250    2.780    0.302    0.542   96.716
  457.500    3.469    0.305    0.551   94.877
  457.750    4.328    0.313    0.556   95.466
  458.000    4.746    0.321    0.558   94.840
  458.250    5.706    0.317    0.524   92.398
  458.500    6.492    0.328    0.454   86.918
  458.750    6.610    0.322    0.457   81.433
  459.000    6.487    0.319    0.465   78.382
  459.250    6.249    0.322    0.468   78.363
  459.500    6.133    0.329    0.464   79.560
  459.750    5.909    0.327    0.459   81.368
  460.000    5.908    0.319    0.459   80.133
  460.250    5.798    0.307    0.474   78.299
  460.500    5.796    0.302    0.490   77.675
  460.750    5.902    0.301    0.488   81.904
  461.000    5.901    0.303    0.485   82.498
  461.250    6.008    0.312    0.488   81.268
  461.500    6.118    0.324    0.479   83.068
  461.750    6.231    0.314    0.467   84.269
  462.000    6.344    0.312    0.466   84.249
  462.250    6.461    0.317    0.472   83.626
  462.500    6.578    0.321    0.474   83.001
  462.750    6.577    0.331    0.472   81.775
  463.000    6.575    0.333    0.481   78.723
  463.250    6.696    0.339    0.503   81.736
  463.500    6.818    0.334    0.518   81.726
  463.750    7.339    0.315    0.495   80.494
  464.000    8.663    0.253    0.467   79.263
  464.250   10.226    0.206    0.474   75.602
  464.500   11.007    0.144    0.445   71.336
  464.750   11.418    0.077    0.243   64.027
  465.000    9.488    0.199    0.225   60.375
  465.250    8.975    0.261    0.354   65.209
  465.500    7.884    0.300    0.415   68.841
  465.750    6.925    0.318    0.437   74.894
  466.000    6.430    0.327    0.466   77.308
  466.250    6.196    0.335    0.473   75.468
  466.500    6.080    0.339    0.463   73.025
  466.750    6.078    0.339    0.471   72.389
  467.000    5.965    0.347    0.477   72.376
  467.250    5.853    0.347    0.472   72.967
  467.500    5.852    0.332    0.468   74.168
  467.750    5.851    0.324    0.471   75.368
  468.000    5.957    0.318    0.472   77.769
  468.250    5.955    0.307    0.474   78.974
  468.500    5.954    0.300    0.475   80.780
  468.750    5.952    0.299    0.481   82.588
  469.000    5.840    0.296    0.483   83.781
  469.250    5.948    0.296    0.475   83.769
  469.500    5.836    0.301    0.468   85.570
  469.750    5.834    0.292    0.474   85.556
  470.000    5.833    0.294    0.480   83.718
  470.250    5.831    0.294    0.488   84.917
  470.500    5.829    0.287    0.504   84.293
  470.750    6.047    0.283    0.511   81.239
  471.000    6.158    0.294    0.507   82.435
  471.250    6.388    0.301    0.499   84.244
  471.500    6.750    0.306    0.487   84.221
  471.750    7.001    0.302    0.479   83.599
  472.000    6.999    0.310    0.460   83.586
  472.250    6.743    0.318    0.450   81.747
  472.500    6.378    0.306    0.442   79.299
  472.750    6.144    0.297    0.448   81.706
  473.000    6.030    0.293    0.456   82.912
  473.250    6.029    0.288    0.465   85.927
  473.500    6.253    0.287    0.470   84.699
  473.750    6.368    0.285    0.477   82.251
  474.000    6.365    0.287    0.467   81.022
  474.250    6.364    0.307    0.454   81.002
  474.500    6.245    0.314    0.464   81.590
  474.750    6.129    0.307    0.460   82.795
  475.000    6.015    0.296    0.452   84.597
  475.250    5.903    0.298    0.448   82.152
  475.500    5.901    0.302    0.454   82.742
  475.750    5.899    0.309    0.460   81.510
  476.000    5.897    0.312    0.469   79.674
  476.250    6.005    0.311    0.458   77.834
  476.500    6.004    0.321    0.455   76.603
  476.750    6.002    0.321    0.459   75.974
  477.000    6.000    0.319    0.460   75.959
  477.250    5.998    0.317    0.468   76.549
  477.500    5.996    0.314    0.451   76.540
  477.750    5.994    0.310    0.452   77.726
  478.000    5.993    0.308    0.463   78.324
  478.250    5.881    0.304    0.471   80.131
  478.500    5.562    0.310    0.481   83.145
  478.750    5.070    0.307    0.468   84.343
  479.000    4.795    0.299    0.457   84.936
  479.250    4.371    0.296    0.452   83.099
  479.500    3.911    0.298    0.452   86.117
  479.750    3.500    0.288    0.446   89.744
  480.000    3.310    0.277    0.468   91.551
  480.250    3.131    0.272    0.476   90.924
  480.500    3.016    0.280    0.493   90.909
  480.750    3.015    0.285    0.509   89.680
  481.000    3.071    0.291    0.522   89.055
  481.250    3.185    0.299    0.534   90.856
  481.500    3.243    0.288    0.527   90.235
  481.750    3.491    0.275    0.521   88.394
  482.000    3.758    0.280    0.536   86.558
  482.250    4.120    0.282    0.553   87.146
  482.500    4.516    0.287    0.520   87.737
  482.750    4.685    0.304    0.471   87.723
  483.000    4.950    0.293    0.459   86.491
  483.250    5.041    0.286    0.471   85.260
  483.500    5.229    0.293    0.483   83.421
  483.750    5.325    0.296    0.472   82.191
  484.000    5.423    0.283    0.468   80.959
  484.250    5.730    0.273    0.470   82.159
  484.500    5.835    0.252    0.477   79.710
  484.750    5.833    0.245    0.485   76.051
  485.000    5.724    0.240    0.463   71.784
  485.250    5.515    0.254    0.467   68.126
  485.500    5.413    0.289    0.470   64.465
  485.750    5.411    0.326    0.467   61.412
  486.000    5.212    0.344    0.446   58.970
  486.250    5.211    0.362    0.434   58.346
  486.500    5.210    0.367    0.447   58.325
  486.750    5.208    0.370    0.459   58.313
  487.000    5.206    0.370    0.454   57.077
  487.250    5.205    0.367    0.442   57.061
  487.500    5.203    0.359    0.437   57.650
  487.750    5.202    0.349    0.441   58.246
  488.000    5.200    0.336    0.430   58.837
  488.250    5.102    0.316    0.418   60.034
  488.500    5.101    0.327    0.426   61.227
  488.750    5.100    0.356    0.434   61.214
  489.000    5.098    0.368    0.426   60.591
  489.250    5.097    0.364    0.423   60.573
  489.500    5.095    0.360    0.426   61.166
  489.750    5.094    0.356    0.434   60.542
  490.000    5.187    0.353    0.440   59.305
  490.250    4.997    0.352    0.449   59.901
