~VERSION INFORMATION
 VERS.                 2.0:   CWLS LOG ASCII STANDARD -VERSION 2.0
 WRAP.                  NO:   ONE LINE PER DEPTH STEP
~WELL INFORMATION BLOCK
#MNEM.UNIT           DATA                    DESCRIPTION OF MNEMONIC
#---------    -------------------            -------------------------------
# Generated from Intellog Unique Number	CS_77_79/WELL/852
WELL.         CWWE LEISMER                   : Well_name    - WELL
LOC .         00/05-04-078-05W4/0            : Location     - LOCATION
UWI .         00/05-04-078-05W4/0            : Uwi          - UNIQUE WELL ID
ENTR.         JHS                            : Entered      - ENTERED BY
SRVC.         SCHLUMBERGER                   : Scn          - SERVICE COMPANY
STRT.M        165                            : top_depth    - START DEPTH
STOP.M        420                            : bot_depth    - STOP DEPTH
STEP.M        0.25                           : increment    - STEP LENGTH
 NULL. -999.2500:NULL Value
~CURVE INFORMATION BLOCK
#MNEM UNIT       ERCB CURVE CODE    CURVE DESCRIPTION
#-----------   ------------------   ----------------------------------
DEPT.M        00 001 00 00         : DEPTH        - DEPTH
DPHI.V/V      00 890 00 00         : PHID         - DENSITY POROSITY (LIMESTONE)
NPHI.V/V      00 330 00 00         : PHIN         - NEUTRON POROSITY (LIMESTONE)
GR  .API      00 310 00 00         : GR           - GAMMA RAY
ILD .OHMM     00 120 00 00         : RESD         - DEEP RESISTIVITY (DIL)
RHOB.KG/M3    00 350 00 00         : DENS         - BULK DENSITY
~PARAMETER INFORMATION
#MNEM.UNIT           DATA             DESCRIPTION OF MNEMONIC
#---------         -----------     ------------------------------
GL  .M        585.9                : gl           - GROUND LEVEL ELEVATION
EREF.M        589.8                : kb           - ELEVATION OF DEPTH REFERENCE
DATM.M        589.8                : datum        - DATUM ELEVATION
TDD .M        430                  : tdd          - TOTAL DEPTH DRILLER
RUN .         ONE                  : Run          - RUN NUMBER
ENG .         BILL                 : Engineer     - RECORDING ENGINEER
WIT .         JIM                  : Witness      - WITNESSED BY
MUD .         GEL                  : Mud_type     - MUD TYPE
MATR.         LIMESTONE            : Logunit      - NEUTRON MATRIX
TMAX.C        19                   : BHT          - MAXIMUM RECORDED TEMPERATURE
BHTD.M        430                  : BHTDEP       - MAXIMUM RECORDED TEMPERATURE
MATR.         1                    : LOGUNIT      - NEUTRON MATRIX
RMT .C        25                   : MDTP         - TEMPERATURE OF MUD
NEUT.         1                    : NEUTRON      - NEUTRON TYPE
RESI.         0                    : RESIST       - RESISTIVITY TYPE
RMC .OHMM     0.25                 : RMC          - RESISTIVITY OF MUD CAKE
RMF .OHMM     0.25                 : RMF          - RESISTIVITY OF MUD FILTRATE
SUFT.C        15                   : SUFT         - SURFACE TEMPERATURE
~A  DEPTH     PHID     PHIN       GR     RESD     DENS
# ...
  384.000    0.256    0.297   33.614    5.447 2272.550
  384.250    0.256    0.299   34.807    5.454 2272.440
  384.500    0.258    0.302   35.376    5.463 2268.060
  384.750    0.265    0.302   35.345    5.368 2257.330
  385.000    0.267    0.301   34.073    5.378 2252.960
  385.250    0.260    0.302   34.649    5.387 2265.530
  385.500    0.255    0.298   37.682    5.498 2273.870
  385.750    0.254    0.291   38.243    5.504 2275.870
  386.000    0.259    0.285   36.983    5.513 2267.220
  386.250    0.258    0.286   34.483    5.629 2269.220
  386.500    0.258    0.302   33.209    5.747 2269.050
  386.750    0.257    0.299   32.557    5.866 2271.050
  387.000    0.248    0.291   35.582    5.986 2285.750
  387.250    0.240    0.292   38.006    5.996 2300.410
  387.500    0.240    0.299   40.423    5.894 2300.290
  387.750    0.245    0.302   42.845    5.899 2291.670
  388.000    0.242    0.304   41.575    5.799 2295.770
  388.250    0.249    0.309   37.848    5.697 2285.040
  388.500    0.258    0.318   37.193    5.598 2267.970
  388.750    0.267    0.319   48.826    5.609 2253.000
  389.000    0.277    0.326   67.836    5.512 2235.830
  389.250    0.281    0.345   71.475    5.417 2229.350
  389.500    0.284    0.375   67.744    5.424 2224.990
  389.750    0.287    0.396   65.246    5.332 2218.490
  390.000    0.289    0.410   64.590    5.140 2216.260
  390.250    0.294    0.405   64.558    4.958 2207.650
  390.500    0.301    0.394   62.655    4.871 2194.790
  390.750    0.313    0.384   63.241    4.785 2175.570
  391.000    0.309    0.380   64.428    4.703 2181.800
  391.250    0.306    0.378   64.395    4.622 2185.900
  391.500    0.315    0.400   61.280    4.374 2170.910
  391.750    0.324    0.426   60.620    4.217 2155.970
  392.000    0.335    0.413   63.036    4.066 2136.720
  392.250    0.339    0.397   63.617    3.922 2130.210
  392.500    0.339    0.390   63.573    3.854 2130.100
  392.750    0.337    0.386   62.921    3.787 2134.170
  393.000    0.337    0.384   62.258    3.721 2134.020
  393.250    0.339    0.391   59.767    3.727 2129.680
  393.500    0.343    0.403   57.884    3.663 2123.160
  393.750    0.340    0.401   65.212    3.668 2129.370
  394.000    0.337    0.393   74.388    3.745 2133.460
  394.250    0.336    0.393   86.028    3.824 2135.460
  394.500    0.335    0.408   92.748    3.902 2137.450
  394.750    0.332    0.414   82.868    4.059 2141.570
  395.000    0.334    0.404   71.158    4.304 2139.270
  395.250    0.333    0.391   60.669    4.475 2141.250
  395.500    0.320    0.385   81.521    4.745 2162.320
  395.750    0.287    0.396   91.313    4.845 2219.390
  396.000    0.277    0.417   85.737    4.762 2236.200
  396.250    0.314    0.426   68.496    4.589 2172.510
  396.500    0.350    0.432   55.552    4.596 2110.920
  396.750    0.347    0.438   56.741    4.604 2117.100
  397.000    0.329    0.426   67.139    4.699 2146.640
  397.250    0.315    0.411   74.475    4.797 2171.940
  397.500    0.300    0.406   67.062    4.897 2197.240
  397.750    0.319    0.419   62.106    5.000 2165.310
  398.000    0.314    0.431   74.356    5.006 2173.640
  398.250    0.289    0.424   76.768    4.918 2215.880
  398.500    0.301    0.433   65.054    4.834 2194.510
  398.750    0.309    0.439   61.940    4.750 2181.690
  399.000    0.305    0.416   69.276    4.667 2187.920
  399.250    0.310    0.407   65.540    4.589 2179.280
  399.500    0.322    0.411   54.445    4.507 2160.090
  399.750    0.330    0.423   42.725    4.347 2145.120
  400.000    0.337    0.428   38.998    4.272 2134.350
  400.250    0.337    0.420   44.487    4.198 2134.210
  400.500    0.334    0.388   42.598    4.206 2138.330
  400.750    0.328    0.368   39.498    4.212 2148.760
  401.000    0.317    0.354   33.927    4.301 2167.700
  401.250    0.318    0.346   28.963    4.304 2165.440
  401.500    0.315    0.341   27.701    4.394 2171.680
  401.750    0.289    0.337   29.488    4.403 2216.040
  402.000    0.274    0.334   31.907    4.407 2241.340
  402.250    0.288    0.339   34.325    4.414 2217.890
  402.500    0.310    0.352   35.517    4.506 2179.570
  402.750    0.308    0.355   35.485    4.512 2183.690
  403.000    0.312    0.350   34.206    4.608 2177.180
  403.250    0.319    0.349   33.557    4.793 2164.350
  403.500    0.307    0.354   34.748    4.890 2185.400
  403.750    0.294    0.359   40.229    5.188 2206.430
  404.000    0.291    0.353   43.269    5.293 2212.660
  404.250    0.290    0.350   48.134    5.403 2214.640
  404.500    0.280    0.353   48.715    5.310 2231.450
  404.750    0.268    0.351   46.826    5.120 2252.500
  405.000    0.259    0.341   43.717    4.846 2267.160
  405.250    0.264    0.337   38.147    4.584 2258.570
  405.500    0.284    0.338   30.736    4.175 2224.520
  405.750    0.308    0.350   28.233    3.804 2184.130
  406.000    0.322    0.368   28.178    3.667 2158.570
  406.250    0.329    0.381   27.532    3.605 2147.840
  406.500    0.334    0.390   26.265    3.542 2139.200
  406.750    0.340    0.390   28.682    3.616 2128.480
  407.000    0.349    0.391   30.484    3.693 2113.500
  407.250    0.363    0.396   29.217    3.698 2090.050
  407.500    0.364    0.406   27.951    3.701 2087.780
  407.750    0.358    0.406   29.135    3.706 2098.250
  408.000    0.349    0.405   34.618    3.783 2112.900
  408.250    0.348    0.395   36.428    3.648 2114.940
  408.500    0.346    0.387   37.611    3.656 2119.010
  408.750    0.339    0.392   37.579    3.659 2129.470
  409.000    0.333    0.397   36.310    3.529 2139.910
  409.250    0.336    0.384   33.187    3.402 2135.560
  409.500    0.343    0.382   30.697    3.344 2122.690
  409.750    0.342    0.389   26.969    3.417 2124.630
  410.000    0.342    0.394   23.234    3.420 2124.550
  410.250    0.346    0.397   22.573    3.424 2118.000
  410.500    0.349    0.392   22.542    3.430 2113.670
  410.750    0.350    0.386   23.724    3.435 2111.370
  411.000    0.350    0.384   24.301    3.440 2111.270
  411.250    0.348    0.384   23.646    3.445 2115.360
  411.500    0.348    0.375   25.446    3.516 2115.210
  411.750    0.344    0.369   27.259    3.591 2121.430
  412.000    0.336    0.367   29.047    3.595 2136.090
  412.250    0.333    0.373   28.406    3.602 2140.230
  412.500    0.349    0.382   25.294    3.605 2112.530
  412.750    0.352    0.389   23.408    3.612 2108.170
  413.000    0.351    0.393   25.212    3.687 2110.150
  413.250    0.342    0.386   30.082    3.835 2124.780
  413.500    0.339    0.379   31.887    4.066 2131.040
  413.750    0.339    0.389   34.922    4.309 2130.900
  414.000    0.346    0.402   39.797    4.745 2118.060
  414.250    0.351    0.413   35.437    5.428    0.000
  414.500    0.336    0.428   49.544    6.700    0.000
  414.750    0.151    0.379   61.176    8.585    0.000
  415.000    0.000    0.348   69.127   11.871    0.000
  415.250    0.000    0.327   59.860   18.047    0.000
  415.500    0.000    0.260   51.839   26.922    0.000
  415.750    0.000    0.196   40.733   35.172    0.000
  416.000    0.031    0.171   30.868   41.775    0.000
  416.250    0.064    0.164   22.839   44.299    0.000
  416.500    0.064    0.186   25.861   44.364    0.000
  416.750    0.046    0.185   25.210   44.440    0.000
  417.000    0.039    0.179   23.318   44.500    0.000
  417.250    0.034    0.175   21.429   45.430    0.000
  417.500    0.035    0.173   20.776   47.255    0.000
  417.750    0.038    0.175   21.349   50.089    0.000
  418.000    0.039    0.178   23.157   55.188    0.000
  418.250    0.046    0.180   23.112   57.387    0.000
  418.500    0.034    0.175   21.846   63.235    0.000
  418.750    0.019    0.171   21.803   65.744    0.000
  419.000    0.014    0.168   23.002   67.097    0.000
  419.250    0.013    0.167   24.186   68.494    0.000
  419.500    0.011    0.161   23.529   68.597    0.000
  419.750    0.009    0.158   22.882   68.696    0.000
  420.000    0.012    0.160   23.455   67.536    0.000
