~VERSION INFORMATION
 VERS.                 2.0:   CWLS LOG ASCII STANDARD -VERSION 2.0
 WRAP.                  NO:   ONE LINE PER DEPTH STEP
~WELL INFORMATION BLOCK
#MNEM.UNIT           DATA                    DESCRIPTION OF MNEMONIC
#---------    -------------------            -------------------------------
# Generated from Intellog Unique Number	CW_70_72/WELL/3002
NULL.         -999.25                        : NULL_VALUE
WELL.         CDN-SUP MI5TSUE 04-03          : Well_name    - WELL              
LOC .         04-03-070-03W5                 : Location     - LOCATION          
UWI .         00/04-03-070-03W5/0            : Uwi          - UNIQUE WELL ID    
ENTR.         JAYE                           : Entered      - ENTERED BY        
SRVC.         SCHLUMBERGER                   : Scn          - SERVICE COMPANY   
DATE.         8 SEPT 80                      : Date         - LOG DATE          
STRT.M        495                            : top_depth    - START DEPTH       
STOP.M        705                            : bot_depth    - STOP DEPTH        
STEP.M        0.25                           : increment    - STEP LENGTH       
~CURVE INFORMATION BLOCK
#MNEM UNIT       ERCB CURVE CODE    CURVE DESCRIPTION
#-----------   ------------------   ----------------------------------
DEPT.M        00 001 00 00         : DEPTH        - DEPTH                       
ILD .OHMM     00 120 00 00         : RESD         - DEEP RESISTIVITY (DIL)      
CALI.MM       00 280 01 00         : CAL          - CALIPER                     
GR  .API      00 310 00 00         : GR           - GAMMA RAY                   
NPHI.V/V      00 330 00 00         : PHIN         - NEUTRON POROSITY (SANDSTONE)
DPHI.V/V      00 890 00 00         : PHID         - DENSITY POROSITY (SANDSTONE)
~PARAMETER INFORMATION       
#MNEM.UNIT           DATA             DESCRIPTION OF MNEMONIC
#---------         -----------     ------------------------------
GL  .M        614                  : gl           - GROUND LEVEL ELEVATION      
EREF.M        621                  : kb           - ELEVATION OF DEPTH REFERENCE
DATM.M        614                  : datum        - DATUM ELEVATION             
TDD .M        1710.5               : tdd          - TOTAL DEPTH DRILLER         
RUN .         ONE                  : Run          - RUN NUMBER                  
ENG .         IRELAND              : Engineer     - RECORDING ENGINEER          
WIT .         KELLY                : Witness      - WITNESSED BY                
BASE.         EDMONTON             : Branch       - HOME BASE OF LOGGING UNIT   
MUD .         GEL BENEX            : Mud_type     - MUD TYPE                    
MATR.         SANDSTONE            : Logunit      - NEUTRON MATRIX              
TMAX.C        44                   : BHT          - MAXIMUM RECORDED TEMPERATURE
BHTD.M        1708.5               : BHTDEP       - MAXIMUM RECORDED TEMPERATURE
RMT .C        17.8                 : MDTP         - TEMPERATURE OF MUD          
MUDD.KG/M     1110                 : MWT          - MUD DENSITY                 
NEUT.         1                    : NEUTRON      - NEUTRON TYPE                
RESI.         0                    : RESIST       - RESISTIVITY TYPE            
RM  .OHMM     1.9                  : RM           - RESISTIVITY OF MUD          
RMC .OHMM     0.25                 : RMC          - RESISTIVITY OF MUD CAKE     
RMF .OHMM     0.99                 : RMF          - RESISTIVITY OF MUD FILTRATE 
SUFT.C        0                    : SUFT         - SURFACE TEMPERATURE         
~A  DEPTH     RESD      CAL       GR     PHIN     PHID
  495.000    1.861  327.583   75.122    0.599    0.491
  495.250    1.929  316.905   76.289    0.599    0.461
  495.500    1.996  304.380   77.148    0.581    0.420
  495.750    2.058  305.504   76.775    0.567    0.398
  496.000    2.113  311.656   75.787    0.578    0.401
  496.250    2.187  298.104   77.077    0.607    0.420
  496.500    2.217  289.171   78.060    0.592    0.403
  496.750    2.248  288.653   77.441    0.585    0.409
  497.000    2.270  299.526   76.268    0.603    0.446
  497.250    2.289  307.321   75.588    0.582    0.413
  497.500    2.287  293.769   78.787    0.546    0.376
  497.750    2.280  284.220   82.108    0.523    0.310
  498.000    2.290  294.580   78.534    0.532    0.386
  498.250    2.326  318.590   74.775    0.562    0.430
  498.500    2.324  309.964   75.141    0.591    0.453
  498.750    2.335  290.768   74.646    0.589    0.410
  499.000    2.389  301.436   70.887    0.575    0.370
  499.250    2.454  334.373   67.928    0.605    0.422
  499.500    2.521  335.601   73.097    0.617    0.465
  499.750    2.574  305.218   79.437    0.568    0.407
  500.000    2.673  268.884   53.818    0.525    0.313
  500.250    2.829  244.042   50.859    0.498    0.339
  500.500    2.965  229.876   56.398    0.527    0.388
  500.750    3.126  214.169   55.965    0.590    0.357
  501.000    3.258  208.212   53.498    0.505    0.237
  501.250    3.340  206.153   56.759    0.406    0.230
  501.500    3.380  206.354   58.357    0.409    0.235
  501.750    3.377  207.682   59.093    0.407    0.215
  502.000    3.354  209.629   64.816    0.387    0.216
  502.250    3.319  215.882   68.693    0.402    0.254
  502.500    3.189  221.010   69.305    0.456    0.288
  502.750    3.019  234.243   67.517    0.515    0.332
  503.000    2.890  246.246   64.681    0.549    0.407
  503.250    2.788  295.912   62.338    0.587    0.471
  503.500    2.826  257.730   59.072    0.608    0.495
  503.750    2.996  222.114   56.175    0.605    0.267
  504.000    3.169  203.841   57.403    0.382    0.218
  504.250    3.518  229.596   61.156    0.362    0.193
  504.500    3.814  246.215   67.311    0.411    0.294
  504.750    3.760  255.858   68.601    0.438    0.344
  505.000    3.115  255.750   63.918    0.536    0.473
  505.250    2.784  263.442   58.373    0.575    0.562
  505.500    2.844  240.654   63.050    0.599    0.266
  505.750    3.003  222.689   67.788    0.417    0.234
  506.000    3.267  215.090   66.800    0.392    0.199
  506.250    3.501  217.240   60.578    0.394    0.171
  506.500    3.859  218.158   57.435    0.403    0.141
  506.750    3.964  214.151   62.727    0.419    0.188
  507.000    3.780  215.069   67.096    0.443    0.250
  507.250    3.532  222.249   67.770    0.474    0.237
  507.500    3.307  242.973   68.568    0.504    0.233
  507.750    3.113  254.258   80.880    0.535    0.265
  508.000    2.871  263.386   81.554    0.532    0.266
  508.250    2.659  262.868   79.766    0.532    0.334
  508.500    2.403  257.424   77.546    0.519    0.396
  508.750    2.200  252.801   76.558    0.548    0.472
  509.000    2.173  252.694   79.695    0.595    0.506
  509.250    2.404  269.828   86.773    0.619    0.534
  509.500    2.765  295.479   91.511    0.551    0.231
  509.750    3.156  264.789   94.218    0.479    0.206
  510.000    3.732  244.976   92.244    0.441    0.171
  510.250    4.174  233.888   86.330    0.437    0.220
  510.500    4.626  228.238   80.909    0.448    0.253
  510.750    4.528  225.052   73.147    0.464    0.251
  511.000    4.161  219.710   68.095    0.486    0.196
  511.250    3.705  213.959   65.136    0.442    0.327
  511.500    3.386  250.592   68.335    0.462    0.454
  511.750    3.043  299.539   72.212    0.588    0.510
  512.000    2.675  276.545   77.627    0.626    0.566
  512.250    2.422  246.677   81.503    0.532    0.168
  512.500    3.467  210.239   85.810    0.425    0.123
  512.750    4.200  210.952   87.716    0.421    0.177
  513.000    4.543  214.026   88.268    0.414    0.241
  513.250    4.649  219.358   82.784    0.410    0.291
  513.500    4.256  250.551   80.811    0.471    0.355
  513.750    3.927  276.715   81.670    0.507    0.390
  514.000    3.907  277.634   83.330    0.509    0.342
  514.250    4.059  265.211   85.173    0.470    0.278
  514.500    4.160  257.305   86.094    0.458    0.272
  514.750    4.148  246.318   87.261    0.467    0.258
  515.000    4.015  250.829   87.382    0.462    0.230
  515.250    3.887  256.776   87.686    0.450    0.237
  515.500    3.783  260.363   88.299    0.469    0.269
  515.750    3.621  260.255   87.372    0.494    0.289
  516.000    3.525  257.480   87.616    0.507    0.305
  516.250    3.528  252.855   84.842    0.541    0.300
  516.500    3.583  250.286   81.883    0.534    0.268
  516.750    3.735  252.641   82.373    0.499    0.251
  517.000    3.844  252.842   84.402    0.480    0.243
  517.250    3.934  245.652   87.047    0.463    0.224
  517.500    3.995  240.824   87.905    0.453    0.190
  517.750    4.028  247.695   86.363    0.426    0.207
  518.000    4.032  240.404   84.205    0.438    0.228
  518.250    3.997  246.350   83.648    0.443    0.251
  518.500    3.912  256.814   84.322    0.453    0.284
  518.750    3.773  264.505   84.258    0.472    0.327
  519.000    3.539  269.735   82.469    0.491    0.351
  519.250    3.363  277.324   81.173    0.503    0.385
  519.500    3.273  277.934   81.416    0.514    0.410
  519.750    3.197  281.112   80.982    0.542    0.373
  520.000    3.182  261.607   77.654    0.541    0.304
  520.250    3.317  234.099   72.601    0.419    0.205
  520.500    3.483  217.366   68.165    0.386    0.221
  520.750    3.762  208.740   59.604    0.400    0.250
  521.000    4.062  203.809   49.687    0.394    0.265
  521.250    4.386  206.266   50.484    0.315    0.246
  521.500    4.497  208.209   53.252    0.311    0.232
  521.750    4.484  208.617   53.434    0.326    0.225
  522.000    4.364  211.281   53.492    0.361    0.239
  522.250    4.139  214.662   62.972    0.363    0.219
  522.500    3.882  215.375   69.065    0.341    0.198
  522.750    3.723  215.062   71.525    0.326    0.186
  523.000    3.570  214.749   70.352    0.344    0.204
  523.250    3.520  217.721   68.379    0.368    0.204
  523.500    3.569  225.412   70.346    0.366    0.210
  523.750    3.612  235.568   76.932    0.396    0.250
  524.000    3.710  247.776   82.409    0.444    0.272
  524.250    3.804  259.881   84.623    0.475    0.275
  524.500    3.906  242.941   83.018    0.466    0.227
  524.750    4.035  237.087   79.629    0.423    0.185
  525.000    4.121  393.279   77.840    0.360    0.227
  525.250    4.109  378.188   76.175    0.421    0.474
  525.500    4.097  355.811   76.787    0.496    0.507
  525.750    3.843  322.247   80.110    0.588    0.495
  526.000    3.322  245.785   87.927    0.455    0.246
  526.250    2.975  225.666   88.909    0.435    0.279
  526.500    3.101  231.202   83.364    0.461    0.319
  526.750    3.203  224.630   77.757    0.530    0.334
  527.000    3.265  216.311   74.922    0.561    0.256
  527.250    3.184  211.483   70.547    0.419    0.269
  527.500    3.252  206.962   66.111    0.392    0.274
  527.750    3.685  204.802   61.305    0.394    0.274
  528.000    3.994  202.847   58.654    0.408    0.270
  528.250    4.281  202.637   58.404    0.422    0.270
  528.500    4.413  203.351   58.648    0.414    0.273
  528.750    4.368  205.603   60.123    0.396    0.268
  529.000    4.275  209.292   62.953    0.372    0.248
  529.250    4.092  215.753   64.859    0.364    0.235
  529.500    3.838  232.990   66.087    0.422    0.271
  529.750    3.540  290.353   65.529    0.502    0.422
  530.000    3.153  285.319   63.803    0.539    0.494
  530.250    2.736  260.889   59.920    0.579    0.311
  530.500    2.204  211.213   56.839    0.463    0.278
  530.750    2.438  206.589   58.806    0.414    0.254
  531.000    2.632  206.174   59.604    0.405    0.260
  531.250    2.827  206.579   59.108    0.421    0.276
