~VERSION INFORMATION
 VERS.                 2.0:   CWLS LOG ASCII STANDARD -VERSION 2.0
 WRAP.                  NO:   ONE LINE PER DEPTH STEP
~WELL INFORMATION BLOCK
#MNEM.UNIT           DATA                    DESCRIPTION OF MNEMONIC
#---------    -------------------            -------------------------------
# Generated from Intellog Unique Number	CW_76_78/WELL/468
WELL.         PCP MARTIN HILLS 06-05         : Well_name    - WELL
LOC .         00/06-05-076-04W5/0            : Location     - LOCATION
UWI .         00/06-05-076-04W5/0            : Uwi          - UNIQUE WELL ID
ENTR.         JAYE                           : Entered      - ENTERED BY
SRVC.         SCHLUMBERGER                   : Scn          - SERVICE COMPANY
DATE.         8 MAR 74                       : Date         - LOG DATE
STRT.M        682.752                        : top_depth    - START DEPTH
STOP.M        905.252                        : bot_depth    - STOP DEPTH
STEP.M        0.25                           : increment    - STEP LENGTH
 NULL. -999.2500:NULL Value
~CURVE INFORMATION BLOCK
#MNEM UNIT       ERCB CURVE CODE    CURVE DESCRIPTION
#-----------   ------------------   ----------------------------------
DEPT.M        00 001 00 00         : DEPTH        - DEPTH
ILD .OHMM     00 120 00 00         : RESD         - DEEP RESISTIVITY (DIL)
NPHI.V/V      00 330 00 00         : PHIN         - NEUTRON POROSITY (SANDSTONE)
DPHI.V/V      00 890 00 00         : PHID         - DENSITY POROSITY (SANDSTONE)
GR  .API      00 310 00 00         : GR           - GAMMA RAY
CALI.MM       00 280 01 00         : CAL          - CALIPER
~PARAMETER INFORMATION
#MNEM.UNIT           DATA             DESCRIPTION OF MNEMONIC
#---------         -----------     ------------------------------
GL  .M        955.243              : gl           - GROUND LEVEL ELEVATION
EREF.M        958.596              : kb           - ELEVATION OF DEPTH REFERENCE
DATM.M        955.243              : datum        - DATUM ELEVATION
TDD .M        920.496              : tdd          - TOTAL DEPTH DRILLER
RUN .         ONE                  : Run          - RUN NUMBER
BASE.         EDM                  : Branch       - HOME BASE OF LOGGING UNIT
MATR.         SANDSTONE            : Logunit      - NEUTRON MATRIX
TMAX.C        33.3333              : BHT          - MAXIMUM RECORDED TEMPERATURE
BHTD.M        825.094              : BHTDEP       - MAXIMUM RECORDED TEMPERATURE
RMT .C        2.22222              : MDTP         - TEMPERATURE OF MUD
MUDD.KG/M     0                    : MWT          - MUD DENSITY
NEUT.         1                    : NEUTRON      - NEUTRON TYPE
RESI.         0                    : RESIST       - RESISTIVITY TYPE
RM  .OHMM     2.5                  : RM           - RESISTIVITY OF MUD
RMC .OHMM     0                    : RMC          - RESISTIVITY OF MUD CAKE
RMF .OHMM     4.8                  : RMF          - RESISTIVITY OF MUD FILTRATE
SUFT.C        -17.7778             : SUFT         - SURFACE TEMPERATURE
~A  DEPTH     RESD     PHIN     PHID       GR      CAL
# ...
  755.752    4.221    0.440    0.238   80.104  202.067
  756.002    4.251    0.429    0.241   82.441  202.097
  756.252    4.306    0.472    0.241   84.105  202.332
  756.502    4.313    0.498    0.236   82.721  202.675
  756.752    4.258    0.491    0.229   79.206  203.741
  757.002    4.111    0.461    0.218   80.750  204.395
  757.252    3.882    0.453    0.208   82.171  204.328
  757.502    3.686    0.453    0.215   82.191  203.428
  757.752    3.507    0.446    0.223   82.332  201.810
  758.002    3.374    0.436    0.239   86.009  197.925
  758.252    3.449    0.460    0.264   77.314  195.373
  758.502    3.774    0.461    0.283   71.054  192.828
  758.752    4.176    0.444    0.298   62.663  191.933
  759.002    4.856    0.430    0.299   56.527  191.863
  759.252    5.443    0.422    0.295   58.558  191.693
  759.502    6.045    0.411    0.293   57.847  191.515
  759.752    6.317    0.395    0.294   61.584  191.555
  760.002    6.399    0.416    0.293   60.629  191.587
  760.252    6.433    0.462    0.287   58.029  191.620
  760.502    6.362    0.469    0.287   57.560  191.546
  760.752    6.291    0.443    0.298   58.679  191.578
  761.002    6.221    0.424    0.301   61.683  192.026
  761.252    6.029    0.415    0.300   65.725  192.267
  761.502    5.885    0.414    0.305   62.575  192.611
  761.752    5.766    0.414    0.306   57.903  192.952
  762.002    5.702    0.412    0.308   55.911  192.677
  762.252    5.639    0.425    0.309   56.845  192.502
  762.502    5.597    0.435    0.308   58.997  192.226
  762.752    5.607    0.410    0.316   61.090  191.846
  763.002    5.606    0.401    0.315   59.890  191.362
  763.252    5.605    0.411    0.311   57.535  191.085
  763.502    5.615    0.417    0.311   58.954  191.330
  763.752    5.635    0.424    0.316   57.694  191.571
  764.002    5.634    0.434    0.323   54.544  191.701
  764.252    5.654    0.470    0.332   53.956  191.846
  764.502    5.685    0.487    0.331   54.402  191.772
  764.752    5.726    0.458    0.329   54.908  192.014
  765.002    5.726    0.436    0.326   57.915  192.048
  765.252    5.693    0.416    0.323   56.532  191.976
  765.502    5.651    0.407    0.318   55.882  191.701
  765.752    5.619    0.422    0.310   57.973  191.730
  766.002    5.588    0.435    0.313   61.407  191.565
  766.252    5.556    0.456    0.320   58.745  191.280
  766.502    5.535    0.458    0.321   57.728  191.007
  766.752    5.463    0.429    0.313   58.723  190.833
  767.002    5.423    0.419    0.317   60.876  190.657
  767.252    5.462    0.419    0.320   63.332  190.796
  767.502    5.451    0.407    0.321   64.938  191.032
  767.752    5.441    0.402    0.320   62.032  191.482
  768.002    5.420    0.414    0.318   59.433  191.513
  768.252    5.389    0.426    0.315   58.538  191.237
  768.502    5.213    0.465    0.316   59.410  191.067
  768.752    5.070    0.459    0.319   61.317  190.999
  769.002    4.815    0.455    0.321   65.177  191.233
  769.252    4.539    0.450    0.324   69.220  191.064
  769.502    4.200    0.442    0.331   69.972  190.886
  769.752    3.967    0.426    0.325   66.517  190.714
  770.002    3.830    0.454    0.324   62.452  190.749
  770.252    3.808    0.495    0.323   57.901  190.785
  770.502    3.850    0.481    0.324   57.859  190.821
  770.752    3.900    0.457    0.329   60.195  190.850
  771.002    3.972    0.436    0.336   64.055  191.192
  771.252    4.030    0.442    0.336   65.357  192.568
  771.502    4.082    0.431    0.333   64.337  193.221
  771.752    4.104    0.414    0.326   62.773  193.562
  772.002    4.141    0.409    0.321   60.903  193.705
  772.252    4.156    0.417    0.320   59.337  193.734
  772.502    4.179    0.435    0.321   59.784  193.766
  772.752    4.217    0.450    0.323   61.632  193.696
  773.002    4.263    0.454    0.326   63.968  193.728
  773.252    4.286    0.430    0.321   65.755  193.661
  773.502    4.333    0.435    0.320   63.399  193.483
  773.752    4.405    0.469    0.319   62.812  193.105
  774.002    4.454    0.483    0.317   64.171  192.315
  774.252    4.536    0.455    0.313   65.468  191.730
  774.502    4.628    0.445    0.307   66.950  191.449
  774.752    4.775    0.432    0.307   68.250  192.002
  775.002    4.696    0.444    0.299   69.306  193.582
  775.252    4.354    0.454    0.285   71.275  195.062
  775.502    3.970    0.438    0.270   73.552  196.435
  775.752    3.561    0.418    0.254   76.192  198.841
  776.002    3.534    0.406    0.237   78.100  201.144
  776.252    3.687    0.426    0.221   74.950  203.141
  776.502    3.910    0.447    0.244   73.508  203.691
  776.752    4.155    0.429    0.260   72.983  199.697
  777.002    4.382    0.407    0.274   70.072  190.028
  777.252    4.439    0.401    0.282   72.226  191.300
  777.502    4.325    0.399    0.270   75.843  194.948
  777.752    4.238    0.409    0.232   78.727  198.798
  778.002    4.114    0.436    0.218   82.464  200.588
  778.252    3.936    0.459    0.227   83.824  201.036
  778.502    3.800    0.443    0.227   83.112  201.067
  778.752    3.655    0.430    0.220   79.902  201.098
  779.002    3.478    0.416    0.214   79.010  202.268
  779.252    3.023    0.408    0.208   81.892  203.747
  779.502    2.686    0.430    0.198   85.811  205.434
  779.752    2.686    0.448    0.193   85.405  205.878
  780.002    2.584    0.465    0.200   83.596  206.015
  780.252    2.513    0.484    0.195   84.349  206.665
  780.502    2.453    0.501    0.184   84.671  207.219
  780.752    2.422    0.468    0.196   80.730  207.974
  781.002    2.412    0.418    0.198   77.581  208.420
  781.252    2.408    0.430    0.201   77.111  208.864
  781.502    2.434    0.441    0.208   77.254  209.103
  781.752    2.470    0.430    0.207   77.760  208.829
  782.002    2.534    0.416    0.210   76.746  208.136
  782.252    2.605    0.404    0.214   73.959  207.451
  782.502    2.682    0.393    0.212   73.005  206.863
  782.752    2.788    0.383    0.210   74.852  205.970
  783.002    3.057    0.402    0.220   77.921  204.766
  783.252    3.394    0.417    0.230   81.962  203.662
  783.502    3.735    0.435    0.238   86.736  202.453
  783.752    3.991    0.456    0.244   84.319  202.179
  784.002    4.225    0.471    0.249   84.764  202.624
  784.252    4.335    0.485    0.247   81.921  195.640
  784.502    4.326    0.472    0.244   79.257  196.711
  784.752    4.255    0.442    0.236   76.473  198.493
  785.002    4.176    0.429    0.223   75.824  195.429
  785.252    4.122    0.417    0.219   79.133  196.497
  785.502    4.145    0.450    0.225   82.809  198.695
  785.752    4.160    0.457    0.237   86.547  197.594
  786.002    4.197    0.448    0.247   87.726  192.158
  786.252    4.236    0.433    0.258   84.636  192.193
  786.502    4.322    0.455    0.271   79.416  192.429
  786.752    4.451    0.453    0.282   72.302  192.463
  787.002    4.651    0.437    0.300   62.998  192.292
  787.252    4.915    0.422    0.307   60.702  192.018
  787.502    5.271    0.416    0.304   62.307  191.849
  787.752    5.418    0.406    0.298   64.583  191.566
  788.002    5.477    0.387    0.289   66.489  191.498
  788.252    5.477    0.420    0.284   68.276  191.323
  788.502    5.386    0.448    0.287   65.919  191.357
  788.752    5.346    0.443    0.284   60.453  191.391
  789.002    5.355    0.412    0.281   60.900  191.323
  789.252    5.384    0.416    0.287   64.760  191.455
  789.502    5.403    0.432    0.284   69.411  191.386
  789.752    5.442    0.412    0.281   69.431  191.524
  790.002    5.512    0.406    0.284   69.023  191.247
  790.252    5.553    0.405    0.291   68.617  190.870
  790.502    5.614    0.398    0.291   66.626  191.826
  790.752    5.707    0.399    0.290   64.269  189.074
  791.002    5.727    0.399    0.289   62.765  185.808
  791.252    5.726    0.405    0.291   60.833  187.283
  791.502    5.747    0.422    0.296   59.572  188.764
  791.752    5.746    0.428    0.300   59.775  189.206
  792.002    5.735    0.432    0.301   56.747  189.962
