~VERSION INFORMATION
 VERS.                 2.0:   CWLS LOG ASCII STANDARD -VERSION 2.0
 WRAP.                  NO:   ONE LINE PER DEPTH STEP
~WELL INFORMATION BLOCK
#MNEM.UNIT           DATA                    DESCRIPTION OF MNEMONIC
#---------    -------------------            -------------------------------
# Generated from Intellog Unique Number	CS_77_79/WELL/915
WELL.         MESA HB LEISMER                : Well_name    - WELL
LOC .         00/07-33-078-09W4/0            : Location     - LOCATION
UWI .         00/07-33-078-09W4/0            : Uwi          - UNIQUE WELL ID
ENTR.         JHS                            : Entered      - ENTERED BY
SRVC.         SCHLUMBERGER                   : Scn          - SERVICE COMPANY
STRT.M        228.6                          : top_depth    - START DEPTH
STOP.M        460.1                          : bot_depth    - STOP DEPTH
STEP.M        0.25                           : increment    - STEP LENGTH
 NULL. -999.2500:NULL Value
~CURVE INFORMATION BLOCK
#MNEM UNIT       ERCB CURVE CODE    CURVE DESCRIPTION
#-----------   ------------------   ----------------------------------
DEPT.M        00 001 00 00         : DEPTH        - DEPTH
RHOB.KG/M3    00 350 00 00         : DENS         - BULK DENSITY
GR  .API      00 310 00 00         : GR           - GAMMA RAY
DPHI.V/V      00 890 00 00         : PHID         - DENSITY POROSITY (SANDSTONE)
NPHI.V/V      00 330 00 00         : PHIN         - NEUTRON POROSITY (SANDSTONE)
ILD .OHMM     00 120 00 00         : RESD         - DEEP RESISTIVITY (DIL)
~PARAMETER INFORMATION
#MNEM.UNIT           DATA             DESCRIPTION OF MNEMONIC
#---------         -----------     ------------------------------
GL  .M        660.38               : gl           - GROUND LEVEL ELEVATION
EREF.M        661.416              : kb           - ELEVATION OF DEPTH REFERENCE
DATM.M        661.416              : datum        - DATUM ELEVATION
TDD .M        475.488              : tdd          - TOTAL DEPTH DRILLER
RUN .         ONE                  : Run          - RUN NUMBER
ENG .         BILL                 : Engineer     - RECORDING ENGINEER
WIT .         JIM                  : Witness      - WITNESSED BY
MUD .         GEL                  : Mud_type     - MUD TYPE
MATR.         SANDSTONE            : Logunit      - NEUTRON MATRIX
TMAX.C        60                   : BHT          - MAXIMUM RECORDED TEMPERATURE
BHTD.M        475.488              : BHTDEP       - MAXIMUM RECORDED TEMPERATURE
MATR.         1                    : LOGUNIT      - NEUTRON MATRIX
RMT .C        25                   : MDTP         - TEMPERATURE OF MUD
NEUT.         1                    : NEUTRON      - NEUTRON TYPE
RESI.         0                    : RESIST       - RESISTIVITY TYPE
RMC .OHMM     0.25                 : RMC          - RESISTIVITY OF MUD CAKE
RMF .OHMM     0.25                 : RMF          - RESISTIVITY OF MUD FILTRATE
SUFT.C        15                   : SUFT         - SURFACE TEMPERATURE
~A  DEPTH     DENS       GR     PHID     PHIN     RESD
# ...
  374.600 2207.150   82.438    0.294    0.479    7.616
  374.850 2194.110   83.235    0.302    0.469    7.626
  375.100 2202.080   80.613    0.297    0.453    7.638
  375.350 2204.850   78.091    0.295    0.447    7.513
  375.600 2195.790   81.980    0.301    0.448    7.526
  375.850 2192.670   80.471    0.303    0.461    7.371
  376.100 2182.300   83.028    0.309    0.468    7.268
  376.350 2197.480   86.240    0.300    0.458    7.197
  376.600 2218.760   86.066    0.287    0.449    7.122
  376.850 2238.870   86.816    0.276    0.455    7.008
  377.100 2247.340   90.658    0.271    0.464    6.830
  377.350 2217.130   93.939    0.288    0.470    6.639
  377.600 2244.150   95.200    0.272    0.486    6.203
  377.850 2259.410   95.349    0.264    0.483    6.067
  378.100 2284.070   98.024    0.249    0.470    5.978
  378.350 2302.740  101.370    0.238    0.473    5.870
  378.600 2333.600  103.680    0.220    0.468    5.753
  378.850 2354.360  104.791    0.208    0.482    5.778
  379.100 2296.170  101.837    0.242    0.505    5.650
  379.350 2280.000  102.002    0.251    0.490    5.785
  379.600 2307.450  103.773    0.235    0.462    5.868
  379.850 2306.870   99.700    0.236    0.446    6.086
  380.100 2334.370   95.900    0.220    0.432    6.479
  380.350 2371.960  104.099    0.198    0.437    6.647
  380.600 2348.670  111.803    0.211    0.466    6.929
  380.850 2330.200  109.041    0.222    0.458    7.249
  381.100 2328.770  104.978    0.223    0.446    6.954
  381.350 2325.840  109.456    0.225    0.434    6.701
  381.600 2339.950  110.788    0.216    0.432    6.191
  381.850 2309.830  109.993    0.234    0.428    5.857
  382.100 2329.650  105.758    0.222    0.443    5.152
  382.350 2310.020  100.468    0.234    0.451    4.521
  382.600 2341.640   94.962    0.215    0.485    3.842
  382.850 2294.900   96.439    0.243    0.517    3.357
  383.100 2265.560   97.049    0.260    0.527    2.830
  383.350 2256.860   95.248    0.265    0.532    2.408
  383.600 2231.420   93.299    0.280    0.554    2.177
  383.850 2236.820   93.153    0.277    0.583    2.045
  384.100 2205.260   93.614    0.295    0.609    2.025
  384.350 2187.590   95.117    0.306    0.563    2.105
  384.600 2249.960   96.375    0.269    0.548    2.127
  384.850 2233.730   98.165    0.279    0.562    2.200
  385.100 2202.840   96.513    0.297    0.547    2.264
  385.350 2235.280   94.859    0.278    0.548    2.488
  385.600 2246.780   97.980    0.271    0.554    2.615
  385.850 2266.840  100.926    0.259    0.560    3.027
  386.100 2279.060  102.434    0.252    0.546    3.271
  386.350 2283.570  103.019    0.249    0.548    3.710
  386.600 2306.840  104.473    0.236    0.505    4.117
  386.850 2333.920  105.816    0.220    0.490    4.884
  387.100 2358.800  105.413    0.205    0.480    5.633
  387.350 2370.340   99.661    0.199    0.464    5.959
  387.600 2376.380  102.214    0.195    0.457    6.060
  387.850 2397.110   99.714    0.183    0.444    5.979
  388.100 2401.510   95.076    0.180    0.426    5.711
  388.350 2419.700   96.762    0.170    0.409    5.315
  388.600 2435.690  100.814    0.160    0.421    4.933
  388.850 2350.840  103.601    0.210    0.453    4.540
  389.100 2366.160  104.713    0.201    0.457    3.979
  389.350 2370.030  103.468    0.199    0.471    3.633
  389.600 2343.870  104.343    0.214    0.482    3.533
  389.850 2311.350  106.666    0.233    0.479    3.467
  390.100 2320.610  108.490    0.228    0.486    3.481
  390.350 2331.640  105.209    0.221    0.494    3.411
  390.600 2320.720  104.186    0.228    0.515    3.354
  390.850 2304.030  103.913    0.237    0.552    3.452
  391.100 2327.290  102.047    0.224    0.536    3.636
  391.350 2336.090  101.171    0.219    0.518    3.805
  391.600 2335.170  101.326    0.219    0.507    4.012
  391.850 2334.010   99.069    0.220    0.490    4.127
  392.100 2355.740   99.047    0.207    0.484    4.193
  392.350 2394.320  103.857    0.185    0.478    4.226
  392.600 2352.940  109.827    0.209    0.485    4.460
  392.850 2351.150  112.735    0.210    0.496    4.657
  393.100 2313.720  109.967    0.232    0.510    4.971
  393.350 2317.990  106.013    0.229    0.516    5.565
  393.600 2345.400  102.040    0.213    0.492    6.023
  393.850 2355.050   99.275    0.208    0.464    6.565
  394.100 2376.120  102.247    0.195    0.439    7.178
  394.350 2379.230  102.530    0.193    0.453    7.941
  394.600 2394.190   96.924    0.185    0.457    8.863
  394.850 2405.970   85.193    0.178    0.409   10.100
  395.100 2390.340   78.169    0.187    0.361   12.155
  395.350 2355.140   75.203    0.208    0.337   13.627
  395.600 2203.320   75.074    0.296    0.322   13.449
  395.850 2230.620   77.186    0.280    0.320   12.667
  396.100 2231.800   79.498    0.280    0.328   11.947
  396.350 2239.030   77.144    0.275    0.353   12.111
  396.600 2267.520   75.447    0.259    0.368   12.050
  396.850 2297.050   76.820    0.241    0.403   12.065
  397.100 2291.620   80.013    0.245    0.410   11.716
  397.350 2280.060   83.152    0.251    0.394   11.358
  397.600 2334.950   88.653    0.219    0.382   10.694
  397.850 2365.670   92.763    0.201    0.393   10.078
  398.100 2377.200   94.666    0.195    0.391    9.755
  398.350 2386.310   96.826    0.189    0.377   10.077
  398.600 2411.100   94.855    0.175    0.383   10.685
  398.850 2375.770   91.180    0.195    0.377   11.613
  399.100 2319.470   88.878    0.228    0.365   12.590
  399.350 2301.990   90.921    0.239    0.360   13.042
  399.600 2342.220   93.312    0.215    0.365   13.198
  399.850 2365.830   92.733    0.201    0.382   13.062
  400.100 2331.910   92.031    0.221    0.380   13.053
  400.350 2356.830   93.278    0.207    0.368   13.502
  400.600 2378.940   96.358    0.194    0.378   13.647
  400.850 2361.550   96.787    0.204    0.391   14.123
  401.100 2342.740   89.905    0.215    0.385   14.338
  401.350 2346.780   88.910    0.212    0.364   14.841
  401.600 2346.130   90.519    0.213    0.357   16.133
  401.850 2314.830   89.833    0.231    0.352   16.916
  402.100 2289.060   84.775    0.246    0.339   17.372
  402.350 2273.380   82.716    0.255    0.325   18.371
  402.600 2255.850   81.684    0.266    0.312   18.770
  402.850 2279.260   82.464    0.252    0.321   18.289
  403.100 2258.570   83.978    0.264    0.331   17.781
  403.350 2311.220   90.485    0.233    0.338   16.240
  403.600 2344.130   98.018    0.214    0.352   15.247
  403.850 2369.360  100.973    0.199    0.383   14.360
  404.100 2399.800   99.016    0.181    0.397   14.064
  404.350 2327.910   97.205    0.223    0.382   14.127
  404.600 2332.840   95.618    0.221    0.380   14.596
  404.850 2336.710   95.697    0.218    0.383   14.986
  405.100 2301.830   98.856    0.239    0.385   14.662
  405.350 2308.400  101.053    0.235    0.379   14.246
  405.600 2329.030  100.575    0.223    0.369   13.830
  405.850 2312.690  101.707    0.232    0.375   13.714
  406.100 2301.590  100.256    0.239    0.382   13.725
  406.350 2296.650   98.702    0.242    0.382   13.749
  406.600 2281.360  101.156    0.251    0.370   13.780
  406.850 2287.100   98.596    0.247    0.365   13.538
  407.100 2314.840   93.034    0.231    0.378   13.242
  407.350 2328.860   89.308    0.223    0.394   13.104
  407.600 2282.890   83.262    0.250    0.400   12.848
  407.850 2261.540   78.209    0.262    0.399   12.891
  408.100 2206.520   84.338    0.294    0.368   12.893
  408.350 2243.110   80.749    0.273    0.353   13.281
  408.600 2280.230   79.275    0.251    0.364   13.700
  408.850 2303.230   82.568    0.238    0.377   14.178
  409.100 2292.730   87.199    0.244    0.391   14.323
  409.350 2257.030   88.243    0.265    0.389   14.530
  409.600 2216.450   85.297    0.289    0.370   14.555
  409.850 2251.170   85.494    0.268    0.361   14.592
  410.100 2283.060   87.153    0.250    0.370   14.359
  410.350 2294.700   84.595    0.243    0.379   14.100
  410.600 2281.300   81.796    0.251    0.394   13.841
  410.850 2289.710   74.820    0.246    0.385   13.660
