~VERSION INFORMATION
 VERS.                 2.0:   CWLS LOG ASCII STANDARD -VERSION 2.0
 WRAP.                  NO:   ONE LINE PER DEPTH STEP
~WELL INFORMATION BLOCK
#MNEM.UNIT           DATA                    DESCRIPTION OF MNEMONIC
#---------    -------------------            -------------------------------
# Generated from Intellog Unique Number	CS_77_79/WELL/898
WELL.         TRANS-PRAIRIE PIPELINES        : Well_name    - WELL
LOC .         00/07-15-077-12W4/0            : Location     - LOCATION
UWI .         00/07-15-077-12W4/0            : Uwi          - UNIQUE WELL ID
ENTR.         SP                             : Entered      - ENTERED BY
SRVC.         SCHLUMBERGER                   : Scn          - SERVICE COMPANY
STRT.M        242.621                        : top_depth    - START DEPTH
STOP.M        467.871                        : bot_depth    - STOP DEPTH
STEP.M        0.25                           : increment    - STEP LENGTH
 NULL. -999.2500:NULL Value
~CURVE INFORMATION BLOCK
#MNEM UNIT       ERCB CURVE CODE    CURVE DESCRIPTION
#-----------   ------------------   ----------------------------------
DEPT.M        00 001 00 00         : DEPTH        - DEPTH
GR  .API      00 310 00 00         : GR           - GAMMA RAY
DPHI.V/V      00 890 00 00         : PHID         - DENSITY POROSITY (SANDSTONE)
NPHI.V/V      00 330 00 00         : PHIN         - NEUTRON POROSITY (SANDSTONE)
ILD .OHMM     00 120 00 00         : RESD         - DEEP RESISTIVITY (DIL)
~PARAMETER INFORMATION
#MNEM.UNIT           DATA             DESCRIPTION OF MNEMONIC
#---------         -----------     ------------------------------
GL  .M        635.66               : gl           - GROUND LEVEL ELEVATION
EREF.M        639.166              : kb           - ELEVATION OF DEPTH REFERENCE
DATM.M        635.66               : datum        - DATUM ELEVATION
TDD .M        472.44               : tdd          - TOTAL DEPTH DRILLER
RUN .         ONE                  : Run          - RUN NUMBER
ENG .         BILL                 : Engineer     - RECORDING ENGINEER
WIT .         JIM                  : Witness      - WITNESSED BY
MUD .         GEL                  : Mud_type     - MUD TYPE
MATR.         SANDSTONE            : Logunit      - NEUTRON MATRIX
TMAX.C        21.1111              : BHT          - MAXIMUM RECORDED TEMPERATURE
BHTD.M        472.44               : BHTDEP       - MAXIMUM RECORDED TEMPERATURE
MATR.         1                    : LOGUNIT      - NEUTRON MATRIX
RMT .C        25                   : MDTP         - TEMPERATURE OF MUD
NEUT.         1                    : NEUTRON      - NEUTRON TYPE
RESI.         0                    : RESIST       - RESISTIVITY TYPE
RMC .OHMM     0.25                 : RMC          - RESISTIVITY OF MUD CAKE
RMF .OHMM     0.25                 : RMF          - RESISTIVITY OF MUD FILTRATE
SUFT.C        15                   : SUFT         - SURFACE TEMPERATURE
~A  DEPTH       GR     PHID     PHIN     RESD
# ...
  329.621   83.467    0.243    0.614    4.081
  329.871   85.079    0.231    0.606    4.074
  330.121   86.666    0.231    0.610    4.164
  330.371   88.649    0.237    0.605    4.356
  330.621   87.585    0.281    0.599    4.515
  330.871   82.239    0.224    0.593    5.006
  331.121   78.413    0.231    0.593    5.473
  331.371   75.674    0.258    0.572    6.006
  331.621   76.299    0.281    0.523    6.216
  331.871   76.767    0.291    0.495    5.782
  332.121   74.675    0.306    0.520    5.380
  332.371   79.776    0.270    0.566    4.752
  332.621   84.080    0.248    0.601    4.207
  332.871   90.698    0.234    0.603    3.807
  333.121   94.216    0.235    0.602    3.477
  333.371   92.661    0.237    0.600    3.212
  333.621   91.777    0.236    0.600    2.970
  333.871   92.228    0.247    0.605    2.894
  334.121   93.214    0.261    0.603    2.745
  334.371   94.190    0.271    0.606    2.668
  334.621   94.801    0.262    0.607    2.583
  334.871   94.804    0.267    0.606    2.559
  335.121   94.148    0.274    0.605    2.528
  335.371   94.615    0.262    0.622    2.430
  335.621   92.061    0.265    0.635    2.385
  335.871   89.468    0.263    0.638    2.389
  336.121   91.803    0.265    0.632    2.381
  336.371   93.453    0.251    0.636    2.490
  336.621   92.370    0.260    0.643    2.679
  336.871   92.290    0.280    0.635    3.079
  337.121   92.270    0.297    0.620    4.102
  337.371   92.019    0.311    0.600    5.722
  337.621   88.395    0.308    0.573    7.121
  337.871   84.521    0.295    0.562    7.567
  338.121   79.539    0.291    0.570    7.660
  338.371   75.370    0.300    0.568    7.741
  338.621   76.436    0.302    0.573    7.716
  338.871   77.180    0.272    0.573    7.706
  339.121   77.881    0.251    0.545    7.701
  339.371   77.868    0.232    0.546    7.700
  339.621   75.286    0.238    0.545    7.712
  339.871   71.716    0.248    0.531    7.552
  340.121   71.665    0.256    0.526    7.448
  340.371   71.648    0.248    0.545    7.384
  340.621   71.266    0.260    0.547    7.148
  340.871   75.859    0.263    0.538    7.060
  341.121   77.188    0.255    0.531    7.029
  341.371   80.142    0.259    0.515    6.892
  341.621   80.102    0.270    0.535    6.890
  341.871   82.295    0.272    0.548    6.886
  342.121   81.576    0.261    0.557    6.884
  342.371   79.713    0.267    0.574    6.870
  342.621   79.423    0.264    0.569    7.018
  342.871   78.895    0.259    0.545    7.011
  343.121   79.610    0.247    0.553    7.076
  343.371   80.636    0.259    0.566    7.008
  343.621   78.282    0.250    0.577    7.048
  343.871   76.820    0.237    0.568    6.998
  344.121   77.028    0.256    0.568    7.131
  344.371   77.898    0.257    0.575    7.134
  344.621   79.348    0.252    0.561    6.926
  344.871   78.844    0.262    0.575    6.747
  345.121   77.757    0.259    0.601    6.495
  345.371   78.862    0.280    0.618    6.107
  345.621   80.351    0.258    0.590    5.846
  345.871   82.350    0.234    0.593    5.554
  346.121   83.579    0.242    0.596    5.402
  346.371   84.640    0.223    0.585    5.553
  346.621   83.601    0.212    0.577    5.868
  346.871   82.269    0.235    0.569    6.038
  347.121   80.707    0.253    0.542    6.027
  347.371   79.042    0.268    0.536    5.970
  347.621   78.101    0.235    0.528    5.816
  347.871   78.100    0.221    0.548    5.638
  348.121   78.152    0.262    0.591    5.628
  348.371   79.220    0.305    0.572    5.708
  348.621   79.602    0.266    0.561    5.659
  348.871   79.186    0.254    0.559    5.472
  349.121   78.769    0.245    0.565    5.228
  349.371   77.726    0.247    0.587    4.959
  349.621   77.447    0.235    0.605    4.391
  349.871   77.948    0.254    0.611    3.953
  350.121   79.863    0.267    0.617    3.319
  350.371   82.155    0.290    0.632    2.893
  350.621   85.334    0.284    0.609    2.592
  350.871   87.932    0.258    0.610    2.446
  351.121   86.421    0.255    0.618    2.453
  351.371   86.936    0.274    0.629    2.610
  351.621   88.982    0.280    0.610    2.768
  351.871   89.002    0.261    0.609    3.039
  352.121   85.570    0.251    0.606    3.366
  352.371   83.696    0.241    0.598    3.821
  352.621   82.206    0.255    0.576    4.230
  352.871   81.645    0.252    0.548    4.609
  353.121   82.053    0.222    0.524    4.739
  353.371   80.347    0.199    0.515    4.679
  353.621   78.597    0.181    0.530    4.531
  353.871   75.492    0.170    0.544    4.557
  354.121   72.928    0.215    0.559    4.965
  354.371   71.393    0.263    0.558    5.680
  354.621   72.438    0.226    0.527    6.175
  354.871   72.165    0.200    0.506    7.045
  355.121   70.262    0.200    0.504    7.675
  355.371   66.676    0.226    0.519    7.408
  355.621   64.644    0.281    0.531    6.985
  355.871   62.627    0.336    0.542    6.555
  356.121   59.453    0.330    0.523    6.115
  356.371   57.510    0.340    0.502    6.108
  356.621   56.803    0.347    0.475    6.107
  356.871   59.096    0.354    0.480    6.106
  357.121   59.044    0.351    0.497    6.105
  357.371   57.498    0.355    0.513    6.104
  357.621   54.069    0.332    0.502    6.103
  357.871   53.766    0.324    0.494    6.101
  358.121   53.754    0.332    0.512    6.100
  358.371   54.006    0.339    0.524    6.099
  358.621   55.101    0.344    0.521    6.098
  358.871   57.685    0.332    0.517    6.098
  359.121   58.453    0.321    0.524    6.099
  359.371   56.046    0.324    0.526    6.100
  359.621   55.156    0.330    0.528    6.215
  359.871   55.392    0.342    0.543    6.207
  360.121   54.842    0.341    0.549    6.205
  360.371   55.489    0.335    0.537    6.137
  360.621   55.468    0.332    0.539    6.124
  360.871   54.867    0.345    0.538    6.100
  361.121   54.836    0.350    0.524    6.092
  361.371   54.851    0.342    0.498    6.087
  361.621   56.374    0.323    0.505    6.086
  361.871   57.158    0.320    0.509    6.085
  362.121   57.828    0.333    0.512    6.084
  362.371   58.762    0.325    0.509    6.080
  362.621   59.423    0.339    0.501    6.042
  362.871   58.323    0.341    0.465    5.971
  363.121   57.554    0.347    0.448    5.969
  363.371   56.328    0.350    0.464    5.968
  363.621   55.884    0.353    0.499    5.967
  363.871   56.827    0.354    0.510    5.966
  364.121   57.696    0.351    0.506    5.965
  364.371   58.169    0.345    0.498    5.964
  364.621   59.206    0.344    0.523    5.952
  364.871   59.498    0.353    0.532    6.080
  365.121   60.014    0.346    0.521    6.070
  365.371   59.359    0.333    0.511    6.070
  365.621   56.919    0.340    0.533    6.070
  365.871   54.579    0.353    0.543    6.068
  366.121   56.266    0.351    0.550    6.068
  366.371   57.579    0.342    0.544    6.066
  366.621   57.225    0.329    0.520    6.064
  366.871   56.202    0.327    0.523    6.057
  367.121   55.244    0.327    0.528    6.170
  367.371   53.516    0.330    0.531    6.239
  367.621   53.319    0.339    0.546    6.305
  367.871   54.279    0.340    0.553    6.382
  368.121   56.089    0.338    0.546    6.888
  368.371   56.321    0.338    0.537    7.453
  368.621   55.373    0.337    0.525    8.280
  368.871   55.289    0.320    0.437    8.779
  369.121   56.274    0.293    0.413    9.410
  369.371   56.669    0.290    0.423    9.474
  369.621   56.831    0.312    0.465    8.864
  369.871   56.836    0.304    0.497    8.129
  370.121   56.845    0.308    0.522    7.355
  370.371   56.934    0.324    0.533    6.709
  370.621   57.418    0.329    0.507    6.526
  370.871   57.383    0.333    0.477    6.330
  371.121   57.320    0.330    0.486    6.138
  371.371   56.691    0.322    0.496    6.049
  371.621   57.364    0.337    0.499    5.877
  371.871   57.967    0.341    0.494    5.827
  372.121   58.324    0.338    0.511    5.828
  372.371   59.314    0.302    0.521    5.867
  372.621   60.310    0.258    0.526    6.497
  372.871   58.933    0.204    0.523    7.561
