~VERSION INFORMATION
 VERS.                 2.0:   CWLS LOG ASCII STANDARD -VERSION 2.0
 WRAP.                  NO:   ONE LINE PER DEPTH STEP
~WELL INFORMATION BLOCK
#MNEM.UNIT           DATA                    DESCRIPTION OF MNEMONIC
#---------    -------------------            -------------------------------
# Generated from Intellog Unique Number	CS_69_70/WELL/769
WELL.         INTER-CITY CITY GAS            : Well_name    - WELL
LOC .         00/06-08-070-16W4/0            : Location     - LOCATION
UWI .         00/06-08-070-16W4/0            : Uwi          - UNIQUE WELL ID
ENTR.         SP                             : Entered      - ENTERED BY
SRVC.         SCHLUMBERGER                   : Scn          - SERVICE COMPANY
STRT.M        285                            : top_depth    - START DEPTH
STOP.M        485                            : bot_depth    - STOP DEPTH
STEP.M        0.25                           : increment    - STEP LENGTH
 NULL. -999.2500:NULL Value
~CURVE INFORMATION BLOCK
#MNEM UNIT       ERCB CURVE CODE    CURVE DESCRIPTION
#-----------   ------------------   ----------------------------------
DEPT.M        00 001 00 00         : DEPTH        - DEPTH
ILD .OHMM     00 120 00 00         : RESD         - DEEP RESISTIVITY (DIL)
DPHI.V/V      00 890 00 00         : PHID         - DENSITY POROSITY (LIMESTONE)
NPHI.V/V      00 330 00 00         : PHIN         - NEUTRON POROSITY (LIMESTONE)
GR  .API      00 310 00 00         : GR           - GAMMA RAY
~PARAMETER INFORMATION
#MNEM.UNIT           DATA             DESCRIPTION OF MNEMONIC
#---------         -----------     ------------------------------
GL  .M        569.4                : gl           - GROUND LEVEL ELEVATION
EREF.M        573                  : kb           - ELEVATION OF DEPTH REFERENCE
DATM.M        569.4                : datum        - DATUM ELEVATION
TDD .M        493.5                : tdd          - TOTAL DEPTH DRILLER
RUN .         ONE                  : Run          - RUN NUMBER
ENG .         BILL                 : Engineer     - RECORDING ENGINEER
WIT .         JIM                  : Witness      - WITNESSED BY
MUD .         GEL                  : Mud_type     - MUD TYPE
MATR.         LIMESTONE            : Logunit      - NEUTRON MATRIX
TMAX.C        22.5                 : BHT          - MAXIMUM RECORDED TEMPERATURE
BHTD.M        493.5                : BHTDEP       - MAXIMUM RECORDED TEMPERATURE
MATR.         1                    : LOGUNIT      - NEUTRON MATRIX
RMT .C        25                   : MDTP         - TEMPERATURE OF MUD
NEUT.         1                    : NEUTRON      - NEUTRON TYPE
RESI.         0                    : RESIST       - RESISTIVITY TYPE
RMC .OHMM     0.25                 : RMC          - RESISTIVITY OF MUD CAKE
RMF .OHMM     0.25                 : RMF          - RESISTIVITY OF MUD FILTRATE
SUFT.C        15                   : SUFT         - SURFACE TEMPERATURE
~A  DEPTH     RESD     PHID     PHIN       GR
# ...
  328.500    3.391    0.208    0.490   84.396
  328.750    3.521    0.207    0.488   82.713
  329.000    3.628    0.228    0.462   82.056
  329.250    3.661    0.247    0.434   80.676
  329.500    3.760    0.259    0.426   83.344
  329.750    3.793    0.252    0.427   83.594
  330.000    3.907    0.240    0.428   80.460
  330.250    3.997    0.227    0.412   82.524
  330.500    3.991    0.218    0.411   87.972
  330.750    3.936    0.222    0.421   92.393
  331.000    3.873    0.254    0.432   95.847
  331.250    3.705    0.271    0.438   87.394
  331.500    3.682    0.266    0.443   77.430
  331.750    3.611    0.256    0.450   75.868
  332.000    3.580    0.251    0.458   75.272
  332.250    3.597    0.245    0.466   75.101
  332.500    3.712    0.253    0.471   75.472
  332.750    4.149    0.235    0.462   78.623
  333.000    4.674    0.126    0.446   80.868
  333.250    5.167    0.081    0.415   74.048
  333.500    5.596    0.048    0.260   66.743
  333.750    5.686    0.017    0.226   59.559
  334.000    5.381    0.044    0.217   57.211
  334.250    4.947    0.076    0.255   60.666
  334.500    4.416    0.108    0.384   66.356
  334.750    4.047    0.154    0.423   70.474
  335.000    3.944    0.219    0.439   74.715
  335.250    3.961    0.247    0.445   76.898
  335.500    3.995    0.248    0.450   78.418
  335.750    4.029    0.249    0.455   79.394
  336.000    4.095    0.251    0.459   78.859
  336.250    4.144    0.257    0.464   77.900
  336.500    4.259    0.243    0.465   80.811
  336.750    4.317    0.222    0.457   83.358
  337.000    4.278    0.231    0.454   84.092
  337.250    4.231    0.234    0.451   83.919
  337.500    4.232    0.231    0.451   83.203
  337.750    4.225    0.216    0.449   86.537
  338.000    4.163    0.201    0.455   90.776
  338.250    4.091    0.193    0.463   93.201
  338.500    4.044    0.192    0.469   94.540
  338.750    4.094    0.188    0.475   95.335
  339.000    4.136    0.212    0.470   95.282
  339.250    4.185    0.234    0.467   93.418
  339.500    4.276    0.253    0.463   86.839
  339.750    4.326    0.258    0.452   81.650
  340.000    4.335    0.249    0.445   81.176
  340.250    4.337    0.241    0.447   83.300
  340.500    4.241    0.235    0.451   86.330
  340.750    4.146    0.227    0.443   90.812
  341.000    4.034    0.218    0.448   94.085
  341.250    4.019    0.207    0.467   95.966
  341.500    3.997    0.201    0.490   96.823
  341.750    3.958    0.207    0.476   97.375
  342.000    3.911    0.198    0.510   97.202
  342.250    4.057    0.199    0.524   96.062
  342.500    4.357    0.211    0.508   95.950
  342.750    4.665    0.212    0.491   98.317
  343.000    4.932    0.221    0.488   99.111
  343.250    5.167    0.215    0.469   94.949
  343.500    5.330    0.210    0.447   91.694
  343.750    5.510    0.203    0.431   90.494
  344.000    5.534    0.193    0.418   90.746
  344.250    5.552    0.193    0.412   90.936
  344.500    5.489    0.193    0.402   91.185
  344.750    5.216    0.206    0.406   91.255
  345.000    4.678    0.217    0.421   89.934
  345.250    4.324    0.229    0.435   86.498
  345.500    4.003    0.247    0.447   82.216
  345.750    3.779    0.269    0.457   77.872
  346.000    3.781    0.278    0.462   74.739
  346.250    3.838    0.264    0.449   76.320
  346.500    3.969    0.252    0.431   77.900
  346.750    4.180    0.247    0.429   78.754
  347.000    4.318    0.244    0.441   79.911
  347.250    4.303    0.238    0.458   81.855
  347.500    3.748    0.230    0.466   83.979
  347.750    3.419    0.225    0.465   84.894
  348.000    3.308    0.253    0.471   82.487
  348.250    3.285    0.276    0.479   79.170
  348.500    3.295    0.288    0.456   70.838
  348.750    3.320    0.280    0.439   62.143
  349.000    3.322    0.275    0.429   64.389
  349.250    3.283    0.271    0.425   65.667
  349.500    3.203    0.274    0.430   65.736
  349.750    3.084    0.281    0.435   62.723
  350.000    2.997    0.295    0.435   57.534
  350.250    2.958    0.306    0.428   54.823
  350.500    2.927    0.311    0.420   54.713
  350.750    2.913    0.304    0.430   55.747
  351.000    3.044    0.299    0.420   57.388
  351.250    3.125    0.293    0.414   60.176
  351.500    3.441    0.287    0.407   65.385
  351.750    3.765    0.273    0.409   68.416
  352.000    3.943    0.258    0.424   71.446
  352.250    4.017    0.250    0.444   73.146
  352.500    3.857    0.255    0.466   74.243
  352.750    3.537    0.260    0.479   73.284
  353.000    3.216    0.272    0.477   69.848
  353.250    3.039    0.289    0.458   61.940
  353.500    2.824    0.311    0.449   59.411
  353.750    2.672    0.329    0.458   57.787
  354.000    2.608    0.335    0.467   57.012
  354.250    2.577    0.336    0.461   56.779
  354.500    2.547    0.333    0.447   56.605
  354.750    2.516    0.324    0.447   56.681
  355.000    2.518    0.332    0.448   56.867
  355.250    2.551    0.337    0.437   57.660
  355.500    2.601    0.321    0.428   58.937
  355.750    2.667    0.304    0.432   60.759
  356.000    2.959    0.292    0.446   63.793
  356.250    3.065    0.273    0.454   67.244
  356.500    3.373    0.256    0.454   73.116
  356.750    3.503    0.224    0.454   78.262
  357.000    3.754    0.216    0.452   81.896
  357.250    3.958    0.211    0.458   84.322
  357.500    3.991    0.207    0.470   85.540
  357.750    4.033    0.210    0.476   84.884
  358.000    4.034    0.220    0.482   83.140
  358.250    4.003    0.252    0.482   79.825
  358.500    3.763    0.276    0.466   75.663
  358.750    3.409    0.290    0.458   69.749
  359.000    3.298    0.286    0.455   64.319
  359.250    3.219    0.307    0.448   60.096
  359.500    3.204    0.316    0.435   56.418
  359.750    3.182    0.298    0.421   58.059
  360.000    3.216    0.302    0.426   59.581
  360.250    3.224    0.298    0.431   60.314
  360.500    3.275    0.291    0.434   61.472
  360.750    3.324    0.296    0.446   62.748
  361.000    3.341    0.286    0.450   64.088
  361.250    3.359    0.279    0.454   63.673
  361.500    3.393    0.276    0.457   61.992
  361.750    3.403    0.274    0.460   61.515
  362.000    3.397    0.274    0.455   62.188
  362.250    3.260    0.281    0.449   63.588
  362.500    3.285    0.285    0.453   64.683
  362.750    3.287    0.276    0.461   64.813
  363.000    3.312    0.274    0.451   63.734
  363.250    3.314    0.283    0.455   65.859
  363.500    3.332    0.288    0.459   66.169
  363.750    3.373    0.293    0.459   64.546
  364.000    3.423    0.294    0.459   62.802
  364.250    3.473    0.294    0.456   63.538
  364.500    3.555    0.280    0.450   66.387
  364.750    3.629    0.273    0.449   68.510
  365.000    3.735    0.275    0.459   69.365
  365.250    3.801    0.276    0.454   67.984
  365.500    3.842    0.273    0.441   67.085
  365.750    3.892    0.253    0.431   70.721
  366.000    3.773    0.229    0.430   74.056
  366.250    3.621    0.229    0.429   75.573
  366.500    3.477    0.244    0.430   73.286
  366.750    3.374    0.262    0.440   68.943
  367.000    3.303    0.280    0.477   66.474
  367.250    3.240    0.292    0.476   65.214
  367.500    3.193    0.293    0.472   65.827
  367.750    3.218    0.275    0.460   66.379
  368.000    3.300    0.257    0.445   67.235
  368.250    3.358    0.246    0.441   68.332
  368.500    3.400    0.244    0.454   71.846
  368.750    3.377    0.242    0.467   76.206
  369.000    3.298    0.230    0.470   82.923
  369.250    3.179    0.215    0.459   89.400
  369.500    3.123    0.204    0.453   92.552
  369.750    3.093    0.195    0.462   94.433
  370.000    3.134    0.193    0.472   95.469
  370.250    3.184    0.202    0.474   94.692
  370.500    3.266    0.212    0.471   92.829
  370.750    3.405    0.229    0.469   89.693
  371.000    3.535    0.241    0.469   83.901
  371.250    3.706    0.254    0.474   81.310
  371.500    3.901    0.256    0.470   80.293
  371.750    4.039    0.254    0.459   81.086
