~VERSION INFORMATION
 VERS.                 2.0:   CWLS LOG ASCII STANDARD -VERSION 2.0
 WRAP.                  NO:   ONE LINE PER DEPTH STEP
~WELL INFORMATION BLOCK
#MNEM.UNIT           DATA                    DESCRIPTION OF MNEMONIC
#---------    -------------------            -------------------------------
# Generated from Intellog Unique Number	CW_70_72/WELL/3002
NULL.         -999.25                        : NULL_VALUE
WELL.         CDN-SUP MI5TSUE 04-03          : Well_name    - WELL              
LOC .         04-03-070-03W5                 : Location     - LOCATION          
UWI .         00/04-03-070-03W5/0            : Uwi          - UNIQUE WELL ID    
ENTR.         JAYE                           : Entered      - ENTERED BY        
SRVC.         SCHLUMBERGER                   : Scn          - SERVICE COMPANY   
DATE.         8 SEPT 80                      : Date         - LOG DATE          
STRT.M        495                            : top_depth    - START DEPTH       
STOP.M        705                            : bot_depth    - STOP DEPTH        
STEP.M        0.25                           : increment    - STEP LENGTH       
~CURVE INFORMATION BLOCK
#MNEM UNIT       ERCB CURVE CODE    CURVE DESCRIPTION
#-----------   ------------------   ----------------------------------
DEPT.M        00 001 00 00         : DEPTH        - DEPTH                       
ILD .OHMM     00 120 00 00         : RESD         - DEEP RESISTIVITY (DIL)      
CALI.MM       00 280 01 00         : CAL          - CALIPER                     
GR  .API      00 310 00 00         : GR           - GAMMA RAY                   
NPHI.V/V      00 330 00 00         : PHIN         - NEUTRON POROSITY (SANDSTONE)
DPHI.V/V      00 890 00 00         : PHID         - DENSITY POROSITY (SANDSTONE)
~PARAMETER INFORMATION       
#MNEM.UNIT           DATA             DESCRIPTION OF MNEMONIC
#---------         -----------     ------------------------------
GL  .M        614                  : gl           - GROUND LEVEL ELEVATION      
EREF.M        621                  : kb           - ELEVATION OF DEPTH REFERENCE
DATM.M        614                  : datum        - DATUM ELEVATION             
TDD .M        1710.5               : tdd          - TOTAL DEPTH DRILLER         
RUN .         ONE                  : Run          - RUN NUMBER                  
ENG .         IRELAND              : Engineer     - RECORDING ENGINEER          
WIT .         KELLY                : Witness      - WITNESSED BY                
BASE.         EDMONTON             : Branch       - HOME BASE OF LOGGING UNIT   
MUD .         GEL BENEX            : Mud_type     - MUD TYPE                    
MATR.         SANDSTONE            : Logunit      - NEUTRON MATRIX              
TMAX.C        44                   : BHT          - MAXIMUM RECORDED TEMPERATURE
BHTD.M        1708.5               : BHTDEP       - MAXIMUM RECORDED TEMPERATURE
RMT .C        17.8                 : MDTP         - TEMPERATURE OF MUD          
MUDD.KG/M     1110                 : MWT          - MUD DENSITY                 
NEUT.         1                    : NEUTRON      - NEUTRON TYPE                
RESI.         0                    : RESIST       - RESISTIVITY TYPE            
RM  .OHMM     1.9                  : RM           - RESISTIVITY OF MUD          
RMC .OHMM     0.25                 : RMC          - RESISTIVITY OF MUD CAKE     
RMF .OHMM     0.99                 : RMF          - RESISTIVITY OF MUD FILTRATE 
SUFT.C        0                    : SUFT         - SURFACE TEMPERATURE         
~A  DEPTH     RESD      CAL       GR     PHIN     PHID
# ...
  568.000    3.841  233.142   92.533    0.466    0.190
  568.250    3.831  232.213   93.083    0.447    0.163
  568.500    3.820  229.849   92.712    0.422    0.148
  568.750    3.801  226.252   90.123    0.424    0.179
  569.000    3.804  222.655   85.132    0.420    0.211
  569.250    3.857  224.908   80.942    0.402    0.198
  569.500    3.903  229.213   78.230    0.414    0.182
  569.750    3.863  231.158   83.953    0.427    0.173
  570.000    3.830  231.768   88.938    0.427    0.164
  570.250    3.749  231.148   85.178    0.419    0.176
  570.500    3.697  227.141   80.496    0.434    0.191
  570.750    3.666  225.596   78.030    0.443    0.203
  571.000    3.648  229.901   78.396    0.433    0.216
  571.250    3.651  236.258   80.979    0.420    0.226
  571.500    3.661  240.359   83.193    0.398    0.213
  571.750    3.671  242.304   86.207    0.424    0.219
  572.000    3.694  242.401   85.834    0.468    0.222
  572.250    3.718  239.523   85.278    0.461    0.163
  572.500    3.741  231.920   84.351    0.416    0.150
  572.750    3.821  230.995   83.609    0.410    0.175
  573.000    3.954  238.379   83.790    0.396    0.156
  573.250    4.061  243.916   86.497    0.392    0.128
  573.500    4.202  244.526   88.218    0.413    0.156
  573.750    4.292  249.344   87.784    0.436    0.164
  574.000    4.216  255.600   84.948    0.454    0.208
  574.250    4.044  263.908   81.498    0.458    0.249
  574.500    3.828  273.139   74.598    0.468    0.300
  574.750    3.597  288.323   66.221    0.493    0.345
  575.000    3.287  466.168   56.489    0.577    0.407
  575.250    2.911  437.223   51.252    0.634    0.735
  575.500    2.429  400.786   53.958    0.645    0.752
  575.750    2.112  336.742   62.453    0.624    0.447
  576.000    1.888  278.138   70.824    0.597    0.397
  576.250    1.712  236.672   78.395    0.563    0.262
  576.500    1.736  217.784   72.481    0.527    0.267
  576.750    1.850  221.063   68.413    0.475    0.265
  577.000    2.120  235.630   71.735    0.449    0.251
  577.250    2.389  240.551   74.010    0.390    0.221
  577.500    2.662  241.983   74.562    0.401    0.214
  577.750    2.801  243.518   75.175    0.413    0.221
  578.000    2.752  244.743   75.664    0.418    0.214
  578.250    2.635  245.046   76.338    0.428    0.195
  578.500    2.607  244.835   76.335    0.439    0.184
  578.750    2.654  244.524   75.163    0.444    0.202
  579.000    2.690  243.800   75.652    0.451    0.220
  579.250    2.712  243.179   78.913    0.462    0.200
  579.500    2.714  242.250   79.587    0.457    0.185
  579.750    2.696  241.630   78.537    0.446    0.181
  580.000    2.664  240.906   76.687    0.436    0.186
  580.250    2.675  239.978   75.206    0.427    0.195
  580.500    2.733  239.460   75.388    0.397    0.190
  580.750    2.881  239.455   76.862    0.417    0.173
  581.000    3.025  239.757   76.983    0.429    0.197
  581.250    3.033  239.957   74.825    0.449    0.212
  581.500    2.936  241.081   76.176    0.455    0.200
  581.750    2.858  242.412   78.021    0.452    0.177
  582.000    2.701  244.767   79.064    0.446    0.153
  582.250    2.663  247.121   77.768    0.424    0.149
  582.500    2.715  248.657   75.733    0.417    0.181
  582.750    2.835  250.600   74.684    0.445    0.231
  583.000    2.896  251.109   74.250    0.446    0.226
  583.250    2.798  251.721   74.801    0.435    0.215
  583.500    2.644  251.304   75.352    0.425    0.201
  583.750    2.573  251.915   75.719    0.422    0.190
  584.000    2.528  253.142   76.085    0.436    0.174
  584.250    2.530  253.547   75.712    0.424    0.163
  584.500    2.560  253.748   74.354    0.409    0.156
  584.750    2.615  256.411   74.844    0.420    0.180
  585.000    2.711  261.743   76.011    0.450    0.245
  585.250    2.703  268.922   77.855    0.467    0.264
  585.500    2.545  267.685   78.530    0.486    0.237
  585.750    2.454  273.837   77.110    0.465    0.228
  586.000    2.488  277.322   74.091    0.457    0.261
  586.250    2.594  248.171   69.777    0.476    0.299
  586.500    2.785  232.157   65.402    0.490    0.305
  586.750    2.963  216.039   61.520    0.425    0.297
  587.000    3.066  214.802   59.239    0.396    0.293
  587.250    3.051  217.158   58.374    0.393    0.282
  587.500    2.943  225.158   60.464    0.412    0.254
  587.750    2.770  231.925   62.924    0.425    0.195
  588.000    2.666  237.976   63.229    0.438    0.213
  588.250    2.610  241.666   60.578    0.450    0.253
  588.500    2.651  222.162   58.420    0.464    0.280
  588.750    2.774  213.741   54.846    0.434    0.298
  589.000    2.907  210.555   51.148    0.413    0.310
  589.250    3.270  209.421   48.867    0.398    0.314
  589.500    3.597  210.135   47.879    0.390    0.317
  589.750    3.771  212.387   49.969    0.387    0.318
  590.000    3.670  214.435   53.476    0.393    0.321
  590.250    3.373  216.276   57.599    0.406    0.315
  590.500    3.100  218.221   60.736    0.413    0.303
  590.750    2.962  220.063   64.489    0.394    0.282
  591.000    2.809  221.700   66.703    0.384    0.256
  591.250    2.714  222.825   66.207    0.403    0.257
  591.500    2.696  225.180   64.049    0.408    0.265
  591.750    2.729  229.587   61.829    0.409    0.276
  592.000    2.782  233.995   59.856    0.412    0.267
  592.250    2.922  238.096   59.175    0.414    0.232
  592.500    3.096  245.480   62.066    0.410    0.189
  592.750    3.288  259.843   67.975    0.403    0.208
  593.000    3.273  269.485   74.129    0.440    0.269
  593.250    3.162  271.839   75.112    0.467    0.287
  593.500    2.955  262.599   75.847    0.498    0.323
  593.750    2.781  252.126   76.091    0.519    0.288
  594.000    2.820  247.811   74.980    0.424    0.240
  594.250    2.907  245.445   72.514    0.416    0.257
  594.500    3.099  245.440   73.742    0.411    0.286
  594.750    3.309  246.667   74.047    0.404    0.263
  595.000    3.508  248.202   71.458    0.390    0.268
  595.250    3.616  250.864   66.406    0.390    0.272
  595.500    3.605  252.912   66.834    0.405    0.247
  595.750    3.394  255.883   70.340    0.403    0.217
  596.000    3.183  252.081   69.537    0.407    0.233
  596.250    3.042  250.331   67.933    0.416    0.245
  596.500    2.917  251.455   69.100    0.419    0.254
  596.750    2.866  252.887   67.989    0.426    0.260
  597.000    2.868  254.216   64.044    0.412    0.262
  597.250    2.996  255.237   62.318    0.379    0.244
  597.500    3.105  256.258   63.300    0.391    0.252
  597.750    3.316  257.074   66.252    0.392    0.263
  598.000    3.394  257.274   66.126    0.387    0.273
  598.250    3.396  257.577   64.891    0.386    0.281
  598.500    3.349  258.804   63.473    0.411    0.284
  598.750    3.290  259.414   61.930    0.407    0.276
  599.000    3.232  259.307   60.880    0.400    0.273
  599.250    3.151  259.302   60.015    0.393    0.273
  599.500    3.067  259.502   59.950    0.382    0.271
  599.750    3.002  259.497   59.886    0.361    0.227
  600.000    2.944  259.800   60.868    0.319    0.231
  600.250    2.969  259.898   63.267    0.362    0.248
  600.500    2.970  259.995   63.756    0.391    0.267
  600.750    2.978  260.811   67.879    0.403    0.282
  601.000    2.997  261.934   70.770    0.407    0.272
  601.250    2.973  264.085   66.149    0.408    0.266
  601.500    2.904  269.622   59.988    0.417    0.267
  601.750    2.779  273.004   59.062    0.415    0.271
  602.000    2.583  268.791   61.952    0.441    0.269
  602.250    2.436  264.374   64.905    0.447    0.278
  602.500    2.345  260.160   66.564    0.421    0.277
  602.750    2.296  258.204   67.917    0.401    0.280
  603.000    2.280  257.482   66.251    0.418    0.281
  603.250    2.257  256.142   67.664    0.435    0.269
  603.500    2.258  255.933   67.846    0.420    0.258
  603.750    2.239  255.311   65.872    0.406    0.271
  604.000    2.188  254.794   66.485    0.410    0.280
  604.250    2.154  253.865   69.869    0.424    0.282
