~VERSION INFORMATION
 VERS.                 2.0:   CWLS LOG ASCII STANDARD -VERSION 2.0
 WRAP.                  NO:   ONE LINE PER DEPTH STEP
~WELL INFORMATION BLOCK
#MNEM.UNIT           DATA                    DESCRIPTION OF MNEMONIC
#---------    -------------------            -------------------------------
# Generated from Intellog Unique Number	CS_77_79/WELL/922
WELL.         CANADIAN WORLDWIDE ENERGY      : Well_name    - WELL
LOC .         00/09-06-077-04W4/0            : Location     - LOCATION
UWI .         00/09-06-077-04W4/0            : Uwi          - UNIQUE WELL ID
ENTR.         SP                             : Entered      - ENTERED BY
SRVC.         SCHLUMBERGER                   : Scn          - SERVICE COMPANY
STRT.M        150                            : top_depth    - START DEPTH
STOP.M        392                            : bot_depth    - STOP DEPTH
STEP.M        0.25                           : increment    - STEP LENGTH
 NULL. -999.2500:NULL Value
~CURVE INFORMATION BLOCK
#MNEM UNIT       ERCB CURVE CODE    CURVE DESCRIPTION
#-----------   ------------------   ----------------------------------
DEPT.M        00 001 00 00         : DEPTH        - DEPTH
ILD .OHMM     00 120 00 00         : RESD         - DEEP RESISTIVITY (DIL)
DPHI.V/V      00 890 00 00         : PHID         - DENSITY POROSITY (LIMESTONE)
NPHI.V/V      00 330 00 00         : PHIN         - NEUTRON POROSITY (LIMESTONE)
GR  .API      00 310 00 00         : GR           - GAMMA RAY
~PARAMETER INFORMATION
#MNEM.UNIT           DATA             DESCRIPTION OF MNEMONIC
#---------         -----------     ------------------------------
GL  .M        576.6                : gl           - GROUND LEVEL ELEVATION
EREF.M        579.8                : kb           - ELEVATION OF DEPTH REFERENCE
DATM.M        576.6                : datum        - DATUM ELEVATION
TDD .M        397                  : tdd          - TOTAL DEPTH DRILLER
RUN .         ONE                  : Run          - RUN NUMBER
ENG .         BILL                 : Engineer     - RECORDING ENGINEER
WIT .         JIM                  : Witness      - WITNESSED BY
MUD .         GEL                  : Mud_type     - MUD TYPE
MATR.         LIMESTONE            : Logunit      - NEUTRON MATRIX
TMAX.C        19                   : BHT          - MAXIMUM RECORDED TEMPERATURE
BHTD.M        397                  : BHTDEP       - MAXIMUM RECORDED TEMPERATURE
MATR.         1                    : LOGUNIT      - NEUTRON MATRIX
RMT .C        25                   : MDTP         - TEMPERATURE OF MUD
NEUT.         1                    : NEUTRON      - NEUTRON TYPE
RESI.         0                    : RESIST       - RESISTIVITY TYPE
RMC .OHMM     0.25                 : RMC          - RESISTIVITY OF MUD CAKE
RMF .OHMM     0.25                 : RMF          - RESISTIVITY OF MUD FILTRATE
SUFT.C        15                   : SUFT         - SURFACE TEMPERATURE
~A  DEPTH     RESD     PHID     PHIN       GR
# ...
  193.500   35.624    0.353    0.402   49.886
  193.750   35.644    0.347    0.385   55.409
  194.000   35.671    0.333    0.384   60.928
  194.250   36.368    0.329    0.372   78.695
  194.500   37.088    0.317    0.356  133.810
  194.750   37.835    0.304    0.385  125.864
  195.000   37.850    0.292    0.418   95.264
  195.250   37.175    0.318    0.413   83.031
  195.500   35.150    0.324    0.383   72.024
  195.750   32.004    0.318    0.402   76.935
  196.000   28.600    0.303    0.408   77.556
  196.250   26.537    0.296    0.420   71.446
  196.500   26.056    0.297    0.420   75.745
  196.750   26.072    0.299    0.415   79.432
  197.000   25.610    0.294    0.427   80.056
  197.250   25.148    0.288    0.422   83.742
  197.500   24.691    0.286    0.409   85.588
  197.750   24.250    0.283    0.409   80.708
  198.000   23.805    0.281    0.418   81.328
  198.250   24.275    0.279    0.412   85.629
  198.500   25.709    0.279    0.397   89.313
  198.750   25.246    0.288    0.384   86.263
  199.000   23.873    0.291    0.391   85.052
  199.250   23.005    0.281    0.384   90.575
  199.500   22.588    0.268    0.376   94.871
  199.750   21.362    0.248    0.372   96.719
  200.000   20.582    0.241    0.366   82.650
  200.250   20.212    0.239    0.358   75.929
  200.500   20.614    0.230    0.350   82.675
  200.750   21.424    0.222    0.352   79.017
  201.000   22.256    0.240    0.362   71.679
  201.250   24.020    0.264    0.346   61.895
  201.500   25.440    0.258    0.350   68.037
  201.750   25.939    0.236    0.359   69.267
  202.000   26.962    0.238    0.368   63.769
  202.250   26.973    0.275    0.384   61.947
  202.500   27.504    0.283    0.387   60.735
  202.750   27.521    0.283    0.369   61.357
  203.000   26.530    0.294    0.357   64.432
  203.250   26.042    0.294    0.356   71.178
  203.500   23.715    0.289    0.357   77.925
  203.750   21.192    0.281    0.358   77.324
  204.000   19.664    0.274    0.360   82.233
  204.250   20.433    0.272    0.380   88.369
  204.500   21.233    0.271    0.383   85.320
  204.750   22.486    0.285    0.374   84.723
  205.000   23.376    0.283    0.364   86.572
  205.250   23.833    0.275    0.373   79.847
  205.500   24.298    0.279    0.386   73.124
  205.750   24.313    0.291    0.385   76.201
  206.000   25.755    0.289    0.391   80.500
  206.250   26.260    0.286    0.395   78.672
  206.500   26.785    0.292    0.390   76.236
  206.750   26.796    0.306    0.395   76.249
  207.000   25.825    0.310    0.401   78.710
  207.250   24.419    0.300    0.402   84.234
  207.500   23.086    0.280    0.369   89.141
  207.750   21.021    0.263    0.349   93.438
  208.000   18.786    0.254    0.346   89.166
  208.250   17.105    0.258    0.360   91.014
  208.500   15.575    0.258    0.381   97.763
  208.750   13.403    0.244    0.385  106.961
  209.000   12.435    0.222    0.376  112.481
  209.250   11.539    0.214    0.398  116.163
  209.500   10.709    0.214    0.415  118.627
  209.750    9.938    0.222    0.401  119.252
  210.000    9.757    0.229    0.391  117.424
  210.250    9.403    0.231    0.415  115.600
  210.500    9.408    0.218    0.445  113.168
  210.750    9.416    0.217    0.459  110.729
  211.000    9.784    0.228    0.461  106.457
  211.250   10.558    0.235    0.452  103.408
  211.500   11.832    0.252    0.435   99.133
  211.750   13.258    0.277    0.428   96.698
  212.000   14.581    0.286    0.420   97.319
  212.250   15.156    0.273    0.408  101.011
  212.500   15.162    0.253    0.393  101.631
  212.750   15.175    0.251    0.393  102.257
  213.000   14.901    0.251    0.399  102.271
  213.250   15.200    0.257    0.402  102.277
  213.500   15.499    0.252    0.392  104.743
  213.750   16.104    0.234    0.389  106.588
  214.000   17.053    0.225    0.401   94.358
  214.250   18.399    0.272    0.397   80.898
  214.500   20.235    0.295    0.389   57.646
  214.750   21.027    0.317    0.398   50.311
  215.000   21.043    0.325    0.393   55.837
  215.250   20.276    0.319    0.367   61.361
  215.500   18.465    0.294    0.368   65.653
  215.750   17.135    0.294    0.387   75.463
  216.000   16.202    0.280    0.396   81.597
  216.250   15.613    0.254    0.407   76.103
  216.500   14.762    0.262    0.385   73.049
  216.750   13.442    0.256    0.380   81.025
  217.000   12.475    0.247    0.400   88.996
  217.250   11.795    0.265    0.427   96.350
  217.500   12.492    0.281    0.428   92.081
  217.750   13.736    0.297    0.421   88.417
  218.000   16.291    0.304    0.412   81.698
  218.250   18.605    0.304    0.411   78.032
  218.500   19.701    0.305    0.402   73.760
  218.750   18.284    0.286    0.399   80.508
  219.000   16.649    0.271    0.373   88.478
  219.250   15.740    0.260    0.371   92.778
  219.500   14.882    0.252    0.376   92.787
  219.750   14.075    0.240    0.382   92.193
  220.000   13.307    0.234    0.400   93.429
  220.250   13.572    0.233    0.408   94.050
  220.500   14.374    0.243    0.408   83.654
  220.750   14.655    0.265    0.406   68.361
  221.000   15.234    0.277    0.382   56.126
  221.250   15.534    0.277    0.365   57.976
  221.500   16.139    0.259    0.376   64.111
  221.750   16.777    0.260    0.383   66.573
  222.000   16.784    0.287    0.383   58.626
  222.250   16.792    0.316    0.371   54.965
  222.500   17.129    0.325    0.378   59.261
  222.750   17.463    0.322    0.401   62.947
  223.000   18.149    0.332    0.406   60.510
  223.250   19.960    0.338    0.409   64.199
  223.500   20.739    0.341    0.414   66.045
  223.750   21.552    0.336    0.417   58.711
  224.000   22.401    0.330    0.417   58.723
  224.250   22.838    0.331    0.397   61.799
  224.500   23.742    0.333    0.408   62.420
  224.750   23.751    0.342    0.419   63.048
  225.000   23.326    0.350    0.424   63.062
  225.250   22.899    0.341    0.403   63.071
  225.500   22.067    0.346    0.405   63.087
  225.750   20.475    0.360    0.432   62.484
  226.000   18.297    0.366    0.452   62.495
  226.250   17.637    0.357    0.467   59.445
  226.500   17.646    0.342    0.431   52.112
  226.750   17.994    0.351    0.403   48.449
  227.000   18.346    0.357    0.404   46.626
  227.250   19.429    0.351    0.406   46.025
  227.500   20.573    0.351    0.404   46.652
  227.750   21.380    0.358    0.405   46.664
  228.000   20.997    0.367    0.405   46.062
  228.250   20.616    0.371    0.419   44.238
  228.500   20.636    0.368    0.431   49.760
  228.750   21.043    0.354    0.417   58.961
  229.000   21.456    0.332    0.416   63.256
  229.250   22.730    0.317    0.417   64.493
  229.500   23.174    0.312    0.406   65.120
  229.750   23.626    0.317    0.409   64.516
  230.000   24.099    0.326    0.407   60.855
  230.250   24.568    0.333    0.404   58.418
  230.500   24.132    0.339    0.411   55.982
  230.750   24.144    0.338    0.414   57.217
  231.000   24.157    0.327    0.409   57.842
  231.250   24.643    0.325    0.405   53.570
  231.500   24.654    0.325    0.402   56.029
  231.750   24.667    0.326    0.400   59.717
  232.000   24.692    0.328    0.407   58.503
  232.250   24.706    0.338    0.412   54.846
  232.500   24.260    0.353    0.399   55.469
  232.750   24.282    0.355    0.396   57.319
  233.000   23.840    0.350    0.400   59.782
  233.250   23.413    0.344    0.419   61.014
  233.500   23.424    0.340    0.410   63.477
  233.750   23.002    0.340    0.391   64.097
  234.000   23.022    0.340    0.391   65.337
  234.250   22.601    0.342    0.395   61.675
  234.500   22.623    0.340    0.393   59.236
  234.750   22.211    0.330    0.406   57.414
  235.000   22.229    0.324    0.425   57.424
  235.250   22.244    0.328    0.443   58.049
  235.500   22.683    0.335    0.454   56.226
  235.750   23.126    0.312    0.448   55.627
  236.000   24.495    0.206    0.292   58.702
  236.250   24.975    0.227    0.340   61.775
  236.500   24.524    0.269    0.401   66.072
  236.750   23.638    0.323    0.413   66.081
