~VERSION INFORMATION
 VERS.                 2.0:   CWLS LOG ASCII STANDARD -VERSION 2.0
 WRAP.                  NO:   ONE LINE PER DEPTH STEP
~WELL INFORMATION BLOCK
#MNEM.UNIT           DATA                    DESCRIPTION OF MNEMONIC
#---------    -------------------            -------------------------------
# Generated from Intellog Unique Number	CS_71_72/WELL/778
WELL.         PEX PHILLIPS AEC GRIST         : Well_name    - WELL
LOC .         00/06-27-071-08W4/0            : Location     - LOCATION
UWI .         00/06-27-071-08W4/0            : Uwi          - UNIQUE WELL ID
ENTR.         SP                             : Entered      - ENTERED BY
SRVC.         SCHLUMBERGER                   : Scn          - SERVICE COMPANY
STRT.M        295                            : top_depth    - START DEPTH
STOP.M        520                            : bot_depth    - STOP DEPTH
STEP.M        0.25                           : increment    - STEP LENGTH
 NULL. -999.2500:NULL Value
~CURVE INFORMATION BLOCK
#MNEM UNIT       ERCB CURVE CODE    CURVE DESCRIPTION
#-----------   ------------------   ----------------------------------
DEPT.M        00 001 00 00         : DEPTH        - DEPTH
ILD .OHMM     00 120 00 00         : RESD         - DEEP RESISTIVITY (DIL)
DPHI.V/V      00 890 00 00         : PHID         - DENSITY POROSITY (LIMESTONE)
NPHI.V/V      00 330 00 00         : PHIN         - NEUTRON POROSITY (LIMESTONE)
GR  .API      00 310 00 00         : GR           - GAMMA RAY
~PARAMETER INFORMATION
#MNEM.UNIT           DATA             DESCRIPTION OF MNEMONIC
#---------         -----------     ------------------------------
GL  .M        653.4                : gl           - GROUND LEVEL ELEVATION
EREF.M        657.2                : kb           - ELEVATION OF DEPTH REFERENCE
DATM.M        653.4                : datum        - DATUM ELEVATION
TDD .M        532                  : tdd          - TOTAL DEPTH DRILLER
RUN .         ONE                  : Run          - RUN NUMBER
ENG .         BILL                 : Engineer     - RECORDING ENGINEER
WIT .         JIM                  : Witness      - WITNESSED BY
MUD .         GEL                  : Mud_type     - MUD TYPE
MATR.         LIMESTONE            : Logunit      - NEUTRON MATRIX
TMAX.C        23                   : BHT          - MAXIMUM RECORDED TEMPERATURE
BHTD.M        532                  : BHTDEP       - MAXIMUM RECORDED TEMPERATURE
MATR.         1                    : LOGUNIT      - NEUTRON MATRIX
RMT .C        25                   : MDTP         - TEMPERATURE OF MUD
NEUT.         1                    : NEUTRON      - NEUTRON TYPE
RESI.         0                    : RESIST       - RESISTIVITY TYPE
RMC .OHMM     0.25                 : RMC          - RESISTIVITY OF MUD CAKE
RMF .OHMM     0.25                 : RMF          - RESISTIVITY OF MUD FILTRATE
SUFT.C        15                   : SUFT         - SURFACE TEMPERATURE
~A  DEPTH     RESD     PHID     PHIN       GR
# ...
  469.000   14.244    0.288    0.360   70.802
  469.250   14.374    0.264    0.358   70.507
  469.500   13.741    0.246    0.350  110.061
  469.750   11.545    0.236    0.341  113.907
  470.000    9.433    0.227    0.360  117.083
  470.250    8.075    0.220    0.351  117.096
  470.500    7.464    0.210    0.337  122.463
  470.750    7.055    0.204    0.329  127.586
  471.000    6.731    0.201    0.334  133.320
  471.250    6.555    0.195    0.333  135.521
  471.500    6.456    0.186    0.345  129.939
  471.750    6.491    0.180    0.357  125.936
  472.000    6.737    0.178    0.336  121.752
  472.250    7.394    0.191    0.321  108.138
  472.500    7.617    0.205    0.350   95.073
  472.750    8.115    0.221    0.358   86.631
  473.000    8.565    0.223    0.339   86.644
  473.250    9.244    0.245    0.329   87.144
  473.500   10.223    0.272    0.363   75.600
  473.750   11.780    0.261    0.387   67.704
  474.000   12.859    0.241    0.373   57.863
  474.250   14.010    0.267    0.359   50.941
  474.500   15.149    0.294    0.352   47.852
  474.750   15.989    0.309    0.355   51.395
  475.000   16.750    0.315    0.368   55.665
  475.250   17.062    0.294    0.358   61.336
  475.500   15.858    0.258    0.335   68.102
  475.750   12.716    0.221    0.323   79.673
  476.000   10.907    0.171    0.314   93.800
  476.250    9.585    0.172    0.315  104.824
  476.500    8.859    0.202    0.336  109.643
  476.750    8.990    0.237    0.350  101.809
  477.000   10.092    0.266    0.363   81.687
  477.250   12.462    0.289    0.388   65.214
  477.500   17.054    0.308    0.404   55.859
  477.750   23.078    0.319    0.406   50.215
  478.000   30.997    0.315    0.396   52.420
  478.250   37.992    0.311    0.388   54.137
  478.500   43.779    0.310    0.385   54.941
  478.750   46.378    0.312    0.385   56.536
  479.000   47.684    0.320    0.380   62.023
  479.250   47.226    0.327    0.381   72.744
  479.500   45.145    0.328    0.386   76.163
  479.750   38.360    0.315    0.383   72.710
  480.000   32.474    0.305    0.380   70.656
  480.250   24.852    0.299    0.379   70.545
  480.500   19.966    0.293    0.381   73.663
  480.750   16.011    0.292    0.384   77.391
  481.000   11.737    0.296    0.386   78.981
  481.250    7.663    0.300    0.378   80.393
  481.500    6.320    0.299    0.368   79.556
  481.750    5.797    0.293    0.360   80.420
  482.000    5.449    0.288    0.352   85.179
  482.250    5.238    0.282    0.349   88.659
  482.500    5.102    0.283    0.347   86.239
  482.750    5.081    0.290    0.350   83.576
  483.000    5.127    0.270    0.361   86.814
  483.250    5.165    0.255    0.355   92.423
  483.500    5.270    0.271    0.351   95.903
  483.750    5.349    0.286    0.369   96.344
  484.000    5.519    0.289    0.364   95.870
  484.250    5.550    0.280    0.358  100.689
  484.500    5.823    0.266    0.354  108.976
  484.750    5.955    0.247    0.352  116.472
  485.000    6.169    0.230    0.351  123.177
  485.250    6.402    0.196    0.363  128.848
  485.500    6.570    0.195    0.389  132.936
  485.750    6.556    0.229    0.408  139.702
  486.000    6.208    0.254    0.410  145.495
  486.250    5.957    0.251    0.383  145.994
  486.500    5.845    0.219    0.378  137.552
  486.750    5.921    0.210    0.395  129.292
  487.000    6.156    0.220    0.414  120.424
  487.250    6.401    0.075    0.327  108.271
  487.500    6.568    0.082    0.321  116.071
  487.750    6.604    0.122    0.361  125.939
  488.000    6.444    0.162    0.385  131.854
  488.250    6.148    0.177    0.401  128.948
  488.500    5.977    0.185    0.414  123.973
  488.750    5.908    0.196    0.406  119.727
  489.000    5.985    0.200    0.354  116.275
  489.250    6.107    0.183    0.346  115.008
  489.500    6.186    0.183    0.340  115.812
  489.750    6.289    0.171    0.331  121.424
  490.000    6.394    0.176    0.389  123.688
  490.250    6.465    0.193    0.418  121.754
  490.500    6.597    0.213    0.392  119.637
  490.750    6.645    0.182    0.354  118.678
  491.000    6.669    0.169    0.360  118.509
  491.250    6.678    0.181    0.363  115.724
  491.500    6.653    0.186    0.361  117.683
  491.750    6.601    0.149    0.351  121.836
  492.000    6.551    0.122    0.348  124.219
  492.250    6.525    0.151    0.366  126.788
  492.500    6.523    0.165    0.388  130.207
  492.750    6.546    0.163    0.379  128.580
  493.000    6.643    0.174    0.372  123.483
  493.250    6.855    0.171    0.383  119.968
  493.500    7.235    0.155    0.394  116.818
  493.750    7.985    0.173    0.390  105.941
  494.000    8.335    0.190    0.378  100.115
  494.250    9.339    0.202    0.389   95.809
  494.500    9.987    0.253    0.422   81.770
  494.750   10.698    0.282    0.439   79.290
  495.000   11.061    0.297    0.397   83.926
  495.250   11.100    0.263    0.361   90.815
  495.500   10.952    0.245    0.363   90.097
  495.750   10.910    0.253    0.365   82.384
  496.000   11.113    0.262    0.378   72.726
  496.250   11.110    0.274    0.390   63.614
  496.500   10.699    0.290    0.392   69.954
  496.750    9.852    0.269    0.372   78.058
  497.000    8.739    0.242    0.355   84.215
  497.250    7.595    0.229    0.348   89.704
  497.500    6.699    0.238    0.347   95.678
  497.750    5.953    0.222    0.351  103.478
  498.000    5.451    0.207    0.361   99.720
  498.250    5.133    0.216    0.382   89.940
  498.500    4.898    0.247    0.350   80.158
  498.750    4.726    0.263    0.332   87.473
  499.000    4.611    0.235    0.338   99.773
  499.250    4.567    0.221    0.352  107.208
  499.500    4.592    0.214    0.347  106.553
  499.750    4.591    0.215    0.355  103.769
  500.000    4.564    0.224    0.363  101.287
  500.250    4.445    0.227    0.360   98.989
  500.500    4.193    0.237    0.366   94.683
  500.750    4.016    0.243    0.379   97.313
  501.000    3.860    0.230    0.390   97.933
  501.250    3.738    0.220    0.395   90.464
  501.500    3.696    0.244    0.349   81.901
  501.750    3.661    0.269    0.340   85.320
  502.000    3.708    0.255    0.349   81.501
  502.250    3.749    0.247    0.367   74.762
  502.500    3.748    0.275    0.388   77.148
  502.750    3.705    0.289    0.369   85.192
  503.000    3.588    0.268    0.352   90.558
  503.250    3.482    0.253    0.373   81.691
  503.500    3.410    0.276    0.396   72.882
  503.750    3.365    0.300    0.386   63.529
  504.000    3.327    0.296    0.377   69.930
  504.250    3.282    0.292    0.374   76.573
  504.500    3.275    0.292    0.377   77.681
  504.750    3.275    0.301    0.372   75.566
  505.000    3.310    0.303    0.368   74.544
  505.250    3.340    0.289    0.367   73.158
  505.500    3.371    0.277    0.366   69.522
  505.750    3.402    0.283    0.363   74.100
  506.000    3.446    0.285    0.358   76.058
  506.250    3.576    0.272    0.356   76.618
  506.500    3.636    0.267    0.361   81.559
  506.750    3.766    0.252    0.365   89.299
  507.000    3.931    0.236    0.360   88.947
  507.250    4.034    0.230    0.362   89.995
  507.500    4.202    0.241    0.370   93.965
  507.750    4.337    0.243    0.372   95.863
  508.000    4.426    0.241    0.359   97.456
  508.250    4.466    0.234    0.347  100.694
  508.500    4.490    0.201    0.342  102.593
  508.750    4.548    0.183    0.346  102.732
  509.000    4.573    0.198    0.346  101.282
  509.250    4.453    0.222    0.345   86.937
  509.500    4.116    0.290    0.351   78.434
  509.750    3.769    0.297    0.374  102.355
  510.000    3.387    0.282    0.358  117.516
  510.250    3.280    0.256    0.359   88.755
  510.500    3.237    0.272    0.389   66.930
  510.750    3.242    0.289    0.396   64.692
  511.000    3.315    0.258    0.362   86.727
  511.250    3.505    0.222    0.347  101.948
  511.500    3.624    0.197    0.355   92.654
  511.750    3.789    0.215    0.375   81.598
  512.000    3.867    0.239    0.390   77.169
  512.250    3.874    0.257    0.405   71.586
