~VERSION INFORMATION
 VERS.                 2.0:   CWLS LOG ASCII STANDARD -VERSION 2.0
 WRAP.                  NO:   ONE LINE PER DEPTH STEP
~WELL INFORMATION BLOCK
#MNEM.UNIT           DATA                    DESCRIPTION OF MNEMONIC
#---------    -------------------            -------------------------------
# Generated from Intellog Unique Number	CS_77_79/WELL/902
WELL.         ICGR GRAHAM                    : Well_name    - WELL
LOC .         00/07-20-079-04W4/0            : Location     - LOCATION
UWI .         00/07-20-079-04W4/0            : Uwi          - UNIQUE WELL ID
ENTR.         JHS                            : Entered      - ENTERED BY
SRVC.         SCHLUMBERGER                   : Scn          - SERVICE COMPANY
STRT.M        130                            : top_depth    - START DEPTH
STOP.M        355                            : bot_depth    - STOP DEPTH
STEP.M        0.25                           : increment    - STEP LENGTH
 NULL. -999.2500:NULL Value
~CURVE INFORMATION BLOCK
#MNEM UNIT       ERCB CURVE CODE    CURVE DESCRIPTION
#-----------   ------------------   ----------------------------------
DEPT.M        00 001 00 00         : DEPTH        - DEPTH
DPHI.V/V      00 890 00 00         : PHID         - DENSITY POROSITY (LIMESTONE)
NPHI.V/V      00 330 00 00         : PHIN         - NEUTRON POROSITY (LIMESTONE)
GR  .API      00 310 00 00         : GR           - GAMMA RAY
ILD .OHMM     00 120 00 00         : RESD         - DEEP RESISTIVITY (DIL)
RHOB.KG/M3    00 350 00 00         : DENS         - BULK DENSITY
~PARAMETER INFORMATION
#MNEM.UNIT           DATA             DESCRIPTION OF MNEMONIC
#---------         -----------     ------------------------------
GL  .M        503                  : gl           - GROUND LEVEL ELEVATION
EREF.M        506.6                : kb           - ELEVATION OF DEPTH REFERENCE
DATM.M        506.6                : datum        - DATUM ELEVATION
TDD .M        355                  : tdd          - TOTAL DEPTH DRILLER
RUN .         ONE                  : Run          - RUN NUMBER
ENG .         BILL                 : Engineer     - RECORDING ENGINEER
WIT .         JIM                  : Witness      - WITNESSED BY
MUD .         GEL                  : Mud_type     - MUD TYPE
MATR.         LIMESTONE            : Logunit      - NEUTRON MATRIX
TMAX.C        19                   : BHT          - MAXIMUM RECORDED TEMPERATURE
BHTD.M        355                  : BHTDEP       - MAXIMUM RECORDED TEMPERATURE
MATR.         1                    : LOGUNIT      - NEUTRON MATRIX
RMT .C        25                   : MDTP         - TEMPERATURE OF MUD
NEUT.         1                    : NEUTRON      - NEUTRON TYPE
RESI.         0                    : RESIST       - RESISTIVITY TYPE
RMC .OHMM     0.25                 : RMC          - RESISTIVITY OF MUD CAKE
RMF .OHMM     0.25                 : RMF          - RESISTIVITY OF MUD FILTRATE
SUFT.C        15                   : SUFT         - SURFACE TEMPERATURE
~A  DEPTH     PHID     PHIN       GR     RESD     DENS
# ...
  312.500    0.329    0.387   48.279    1.821 2147.190
  312.750    0.323    0.377   58.013    1.822 2157.770
  313.000    0.327    0.376   61.072    1.824 2151.520
  313.250    0.338    0.381   55.624    1.827 2132.670
  313.500    0.335    0.390   52.606    1.794 2136.940
  313.750    0.339    0.395   58.699    1.796 2130.710
  314.000    0.345    0.394   70.256    1.798 2120.270
  314.250    0.353    0.398   73.920    1.799 2105.620
  314.500    0.357    0.421   64.223    1.801 2099.370
  314.750    0.336    0.422   55.744    1.737 2135.190
  315.000    0.343    0.431   48.473    1.706 2122.640
  315.250    0.359    0.417   52.743    1.645 2095.410
  315.500    0.356    0.404   69.159    1.677 2101.760
  315.750    0.347    0.395   77.073    1.743 2116.560
  316.000    0.348    0.394   61.306    1.812 2114.530
  316.250    0.358    0.401   55.858    1.883 2097.770
  316.500    0.342    0.410   68.027    1.850 2125.180
  316.750    0.332    0.400   86.871    1.817 2142.060
  317.000    0.331    0.384  111.787    1.819 2144.250
  317.250    0.337    0.389  123.348    1.821 2133.790
  317.500    0.355    0.384   94.216    1.857 2102.320
  317.750    0.384    0.369   92.416    1.931 2054.030
  318.000    0.406    0.409   87.575    1.969 2016.250
  318.250    0.347    0.427   74.841    1.971 2117.240
  318.500    0.305    0.411   52.999    1.936 2188.800
  318.750    0.301    0.388   41.478    1.902 2195.180
  319.000    0.319    0.361   32.390    1.940 2163.730
  319.250    0.310    0.348   31.804    1.906 2180.620
  319.500    0.307    0.344   33.039    1.944 2184.880
  319.750    0.316    0.356   31.235    1.983 2170.230
  320.000    0.339    0.388   30.038    1.985 2130.350
  320.250    0.350    0.414   31.272    1.987 2111.500
  320.500    0.336    0.402   29.472    2.026 2134.700
  320.750    0.328    0.375   33.742    1.954 2149.490
  321.000    0.313    0.351   35.581    1.849 2174.790
  321.250    0.301    0.355   27.707    1.749 2195.880
  321.500    0.317    0.362   21.047    1.624 2168.620
  321.750    0.357    0.361   18.637    1.537 2099.300
  322.000    0.361    0.364   22.298    1.454 2093.060
  322.250    0.346    0.363   22.318    1.455 2118.380
  322.500    0.347    0.372   18.699    1.457 2116.330
  322.750    0.361    0.378   17.500    1.486 2093.270
  323.000    0.362    0.353   16.913    1.516 2091.250
  323.250    0.356    0.361   20.579    1.546 2101.830
  323.500    0.346    0.359   24.239    1.577 2118.720
  323.750    0.338    0.354   27.297    1.608 2131.400
  324.000    0.333    0.356   24.887    1.641 2139.880
  324.250    0.332    0.357   19.439    1.642 2142.050
  324.500    0.336    0.354   15.816    1.614 2135.820
  324.750    0.348    0.355   16.448    1.585 2114.870
  325.000    0.348    0.347   15.859    1.557 2114.950
  325.250    0.343    0.347   14.664    1.558 2123.430
  325.500    0.345    0.360   14.074    1.531 2119.290
  325.750    0.355    0.379   13.491    1.504 2102.540
  326.000    0.353    0.380   14.719    1.506 2106.820
  326.250    0.355    0.385   15.951    1.535 2102.660
  326.500    0.358    0.392   15.972    1.566 2098.530
  326.750    0.349    0.380   14.779    1.658 2113.310
  327.000    0.334    0.361   14.797    1.757 2138.620
  327.250    0.314    0.348   17.246    1.825 2172.320
  327.500    0.275    0.357   20.304    1.897 2239.690
  327.750    0.307    0.350   24.571    2.047 2185.090
  328.000    0.279    0.329   40.987    2.381 2233.510
  328.250    0.229    0.319   82.909    2.930 2317.680
  328.500    0.211    0.435  118.761    3.539 2349.290
  328.750    0.207    0.505  121.820    3.748 2355.670
  329.000    0.200    0.497  121.836    3.896 2368.370
  329.250    0.201    0.490  114.570    3.973 2366.320
  329.500    0.270    0.505  107.911    3.976 2248.660
  329.750    0.294    0.551  107.323    4.055 2206.660
  330.000    0.298    0.577  105.516    4.215 2200.440
  330.250    0.248    0.532  106.145    4.299 2286.700
  330.500    0.179    0.487  111.629    4.385 2404.520
  330.750    0.158    0.470  114.082    4.558 2440.330
  331.000    0.196    0.459  111.667    4.920 2375.220
  331.250    0.254    0.491  105.007    5.017 2276.470
  331.500    0.246    0.472   97.131    5.021 2289.160
  331.750    0.210    0.415   84.400    4.932 2350.200
  332.000    0.191    0.360   87.457    4.755 2383.910
  332.250    0.208    0.359  102.048    4.586 2354.550
  332.500    0.253    0.546  116.036    4.589 2276.830
  332.750    0.207    0.529  123.951    4.509 2356.790
  333.000    0.188    0.487  128.225    4.601 2388.400
  333.250    0.184    0.459  126.419    4.604 2394.780
  333.500    0.176    0.450  120.972    4.607 2409.560
  333.750    0.165    0.468  115.530    4.700 2428.570
  334.000    0.162    0.492  122.836    4.884 2432.840
  334.250    0.171    0.465  123.462    5.078 2418.180
  334.500    0.176    0.455  119.232    5.082 2409.850
  334.750    0.173    0.456  122.287    5.086 2414.140
  335.000    0.173    0.445  122.309    5.092 2414.180
  335.250    0.177    0.426  121.717    5.003 2407.970
  335.500    0.179    0.403  126.599    5.101 2403.840
  335.750    0.180    0.392  128.445    5.204 2401.790
  336.000    0.179    0.458  127.848    5.616 2403.950
  336.250    0.181    0.476  110.866    5.837 2399.820
  336.500    0.133    0.499  100.559    5.841 2481.890
  336.750    0.083    0.464   91.474    5.739 2568.160
  337.000    0.000    0.380   98.169    5.637 2710.000
  337.250    0.096    0.369  117.621    5.436 2545.180
  337.500    0.130    0.395  123.715    5.339 2488.480
  337.750    0.160    0.422  115.839    5.245 2435.980
  338.000    0.155    0.441  117.074    5.251 2444.470
  338.250    0.169    0.438  119.525    5.257 2421.410
  338.500    0.177    0.422  118.331    5.362 2406.770
  338.750    0.180    0.412  115.919    5.468 2402.640
  339.000    0.201    0.488  112.294    5.684 2366.960
  339.250    0.258    0.526  112.312    5.905 2268.190
  339.500    0.213    0.544  108.688    6.023 2346.060
  339.750    0.157    0.433   99.599    6.381 2440.750
  340.000    0.141    0.353  101.440    6.507 2468.150
  340.250    0.135    0.328  105.711    6.636 2478.740
  340.500    0.134    0.365  108.768    6.521 2480.920
  340.750    0.149    0.395  112.436    6.527 2455.750
  341.000    0.161    0.383  114.879    6.532 2434.790
  341.250    0.157    0.366  119.759    6.539 2441.180
  341.500    0.160    0.364  114.310    6.426 2437.030
  341.750    0.156    0.387  109.471    6.311 2443.420
  342.000    0.153    0.397  114.351    6.319 2447.680
  342.250    0.155    0.424  115.587    6.569 2445.650
  342.500    0.177    0.480   89.490    6.698 2407.880
  342.750    0.189    0.408   74.328    6.960    0.000
  343.000    0.150    0.243   84.671    6.966    0.000
  343.250    0.145    0.228  111.410    7.107    0.000
  343.500    0.168    0.281  124.792    7.114    0.000
  343.750    0.153    0.287  128.460    6.990    0.000
  344.000    0.148    0.301  128.478    6.738    0.000
  344.250    0.157    0.363  124.242    6.375    0.000
  344.500    0.173    0.439  118.805    4.470    0.000
  344.750    0.189    0.462  118.212    4.389    0.000
  345.000    0.206    0.491  122.478    4.231    0.000
  345.250    0.251    0.564  138.292    4.003    0.000
  345.500    0.257    0.587  140.744    3.788    0.000
  345.750    0.233    0.586  140.151    3.722    0.000
  346.000    0.219    0.514  135.920    3.941    0.000
  346.250    0.209    0.488  135.329    5.035    0.000
  346.500    0.196    0.466  137.174    5.748    0.000
  346.750    0.180    0.469  139.620    6.812    0.000
  347.000    0.095    0.462  130.532    8.382    0.000
  347.250    0.129    0.440  114.762   10.511    0.000
  347.500    0.113    0.301  103.847   12.455    0.000
  347.750    0.096    0.242   99.010   19.936    0.000
  348.000    0.076    0.215   99.028   25.954    0.000
  348.250    0.065    0.183   99.055   32.539    0.000
  348.500    0.085    0.151   99.071   46.535    0.000
  348.750    0.074    0.140   99.697   50.207    0.000
