~VERSION INFORMATION
 VERS.                 2.0:   CWLS LOG ASCII STANDARD -VERSION 2.0
 WRAP.                  NO:   ONE LINE PER DEPTH STEP
~WELL INFORMATION BLOCK
#MNEM.UNIT           DATA                    DESCRIPTION OF MNEMONIC
#---------    -------------------            -------------------------------
# Generated from Intellog Unique Number	CX_WELLS/WELL/2849
WELL.         CMME THORNBURY                 : Well_name    - WELL
LOC .         00/09-14-081-14W4/0            : Location     - LOCATION
UWI .         00/09-14-081-14W400            : Uwi          - UNIQUE WELL ID
ENTR.         T                              : Entered      - ENTERED BY
SRVC.         SCHLUMBERGER                   : Scn          - SERVICE COMPANY
STRT.M        215                            : top_depth    - START DEPTH
STOP.M        425                            : bot_depth    - STOP DEPTH
STEP.M        0.25                           : increment    - STEP LENGTH
 NULL. -999.2500:NULL Value
~CURVE INFORMATION BLOCK
#MNEM UNIT       ERCB CURVE CODE    CURVE DESCRIPTION
#-----------   ------------------   ----------------------------------
DEPT.M        00 001 00 00         : DEPTH        - DEPTH
GR  .API      00 310 00 00         : GR           - GAMMA RAY
NPHI.V/V      00 330 00 00         : PHIN         - NEUTRON POROSITY (SANDSTONE)
DPHI.V/V      00 890 00 00         : PHID         - DENSITY POROSITY (SANDSTONE)
ILD .OHMM     00 120 00 00         : RESD         - DEEP RESISTIVITY (OTHER)
~PARAMETER INFORMATION
#MNEM.UNIT           DATA             DESCRIPTION OF MNEMONIC
#---------         -----------     ------------------------------
GL  .M        643.4                : gl           - GROUND LEVEL ELEVATION
EREF.M        647.8                : kb           - ELEVATION OF DEPTH REFERENCE
DATM.M        647.8                : datum        - DATUM ELEVATION
TDD .M        432                  : tdd          - TOTAL DEPTH DRILLER
RUN .         ONE                  : Run          - RUN NUMBER
ENG .         BILL                 : Engineer     - RECORDING ENGINEER
WIT .         JIM                  : Witness      - WITNESSED BY
MUD .         GEL                  : Mud_type     - MUD TYPE
MATR.         SANDSTONE            : Logunit      - NEUTRON MATRIX
TMAX.C        20                   : BHT          - MAXIMUM RECORDED TEMPERATURE
BHTD.M        432                  : BHTDEP       - MAXIMUM RECORDED TEMPERATURE
MATR.         1                    : LOGUNIT      - NEUTRON MATRIX
RMT .C        17                   : MDTP         - TEMPERATURE OF MUD
NEUT.         1                    : NEUTRON      - NEUTRON TYPE
RESI.         8.6                  : RESIST       - RESISTIVITY TYPE
RMC .OHMM     7.8                  : RMC          - RESISTIVITY OF MUD CAKE
RMF .OHMM     7.8                  : RMF          - RESISTIVITY OF MUD FILTRATE
SUFT.C        4                    : SUFT         - SURFACE TEMPERATURE
~A  DEPTH       GR     PHIN     PHID     RESD
# ...
  302.000   59.937    0.447    0.279    9.547
  302.250   58.728    0.437    0.289    9.731
  302.500   56.913    0.425    0.295   10.109
  302.750   58.757    0.439    0.297   10.304
  303.000   62.430    0.449    0.295   10.302
  303.250   64.883    0.451    0.291   10.301
  303.500   63.678    0.445    0.292   10.300
  303.750   60.646    0.435    0.301   10.498
  304.000   58.218    0.430    0.313   10.699
  304.250   58.845    0.455    0.318   10.905
  304.500   60.689    0.462    0.318   11.114
  304.750   61.313    0.488    0.315   10.902
  305.000   60.717    0.505    0.308   10.097
  305.250   61.344    0.480    0.298    9.352
  305.500   64.411    0.463    0.278    8.178
  305.750   65.638    0.451    0.255    7.721
  306.000   69.921    0.453    0.240    7.720
  306.250   75.427    0.462    0.226    7.573
  306.500   77.877    0.471    0.219    7.287
  306.750   79.720    0.480    0.271    6.373
  307.000   74.860    0.487    0.301    6.372
  307.250   71.218    0.482    0.328    7.011
  307.500   68.183    0.475    0.342    7.568
  307.750   66.368    0.468    0.351    8.015
  308.000   64.553    0.460    0.353    8.819
  308.250   63.344    0.453    0.353   10.082
  308.500   62.138    0.447    0.353   10.677
  308.750   61.546    0.447    0.353   11.092
  309.000   62.167    0.452    0.353   11.523
  309.250   62.791    0.461    0.352   11.523
  309.500   64.028    0.466    0.352   11.088
  309.750   65.265    0.471    0.352   10.468
  310.000   65.889    0.466    0.352   10.073
  310.250   65.907    0.453    0.349    9.882
  310.500   65.914    0.443    0.346    9.880
  310.750   65.928    0.447    0.334   10.265
  311.000   66.552    0.449    0.308   10.462
  311.250   65.960    0.422    0.278   10.869
  311.500   63.531    0.408    0.213   11.078
  311.750   59.280    0.356    0.197   11.076
  312.000   58.688    0.408    0.223   11.289
  312.250   58.695    0.446    0.302   11.507
  312.500   58.709    0.459    0.343   11.505
  312.750   59.950    0.464    0.357   11.504
  313.000   60.571    0.459    0.358   11.502
  313.250   62.414    0.454    0.358   11.500
  313.500   65.478    0.447    0.337   11.499
  313.750   67.321    0.439    0.332   11.498
  314.000   67.335    0.448    0.333   11.497
  314.250   66.740    0.455    0.335   11.064
  314.500   65.538    0.454    0.328   10.445
  314.750   64.332    0.424    0.297   10.245
  315.000   63.127    0.422    0.284    9.859
  315.250   63.751    0.429    0.297    9.858
  315.500   65.598    0.438    0.317    9.857
  315.750   68.055    0.444    0.324    9.856
  316.000   69.282    0.454    0.333    9.668
  316.250   71.739    0.463    0.336    9.304
  316.500   71.753    0.478    0.336    8.953
  316.750   71.767    0.484    0.336    8.616
  317.000   71.778    0.500    0.334    8.291
  317.250   71.795    0.517    0.328    7.979
  317.500   71.200    0.496    0.325    7.533
  317.750   71.214    0.489    0.323    7.111
  318.000   70.622    0.485    0.320    6.844
  318.250   70.632    0.479    0.319    6.461
  318.500   71.260    0.473    0.313    6.337
  318.750   71.884    0.464    0.304    6.217
  319.000   72.504    0.458    0.296    6.216
  319.250   73.741    0.460    0.285    6.097
  319.500   75.589    0.468    0.279    6.097
  319.750   76.206    0.481    0.284    5.980
  320.000   77.443    0.488    0.285    5.980
  320.250   79.293    0.488    0.286    5.866
  320.500   79.914    0.485    0.280    5.865
  320.750   81.761    0.484    0.266    5.864
  321.000   82.378    0.481    0.259    5.863
  321.250   83.612    0.476    0.251    5.863
  321.500   85.455    0.470    0.251    5.862
  321.750   87.299    0.466    0.255    5.861
  322.000   91.585    0.466    0.259    5.974
  322.250   91.600    0.466    0.266    5.973
  322.500   85.516    0.465    0.274    6.205
  322.750   78.822    0.461    0.280    6.325
  323.000   73.957    0.460    0.281    6.447
  323.250   73.972    0.460    0.282    6.570
  323.500   77.038    0.470    0.285    6.570
  323.750   80.708    0.485    0.284    5.745
  324.000   85.600    0.507    0.248    3.917
  324.250   92.323    0.527    0.246    1.856
  324.500   97.219    0.531    0.252    1.393
  324.750   96.013    0.530    0.258    0.914
  325.000   94.202    0.539    0.258    0.950
  325.250   92.993    0.557    0.258    1.218
  325.500   91.791    0.501    0.257    1.654
  325.750   90.585    0.489    0.251    2.246
  326.000   89.380    0.476    0.247    3.232
  326.250   88.781    0.468    0.243    3.989
  326.500   87.575    0.455    0.238    5.115
  326.750   85.763    0.458    0.233    5.961
  327.000   85.164    0.476    0.231    5.847
  327.250   83.962    0.497    0.231    5.627
  327.500   83.980    0.510    0.231    5.312
  327.750   83.990    0.505    0.231    5.112
  328.000   84.618    0.500    0.234    5.111
  328.250   84.026    0.495    0.236    5.111
  328.500   84.033    0.491    0.238    5.110
  328.750   82.835    0.491    0.243    5.208
  329.000   82.845    0.491    0.246    5.308
  329.250   82.856    0.490    0.252    5.308
  329.500   83.480    0.490    0.248    5.307
  329.750   84.111    0.495    0.238    5.206
  330.000   84.731    0.505    0.237    5.106
  330.250   84.752    0.507    0.237    5.009
  330.500   84.760    0.504    0.237    4.914
  330.750   85.387    0.497    0.238    5.105
  331.000   85.398    0.483    0.241    5.203
  331.250   84.802    0.486    0.242    5.405
  331.500   82.990    0.497    0.239    5.509
  331.750   81.785    0.498    0.239    5.615
  332.000   81.799    0.471    0.246    5.722
  332.250   82.419    0.463    0.246    5.722
  332.500   83.660    0.461    0.238    5.832
  332.750   84.891    0.461    0.232    5.944
  333.000   86.738    0.464    0.228    5.943
  333.250   89.195    0.468    0.227    5.943
  333.500   90.425    0.468    0.225    6.056
  333.750   92.272    0.466    0.227    6.056
  334.000   92.896    0.464    0.227    6.055
  334.250   92.903    0.472    0.228    6.055
  334.500   92.311    0.479    0.229    5.939
  334.750   92.322    0.500    0.229    5.826
  335.000   92.336    0.505    0.227    5.714
  335.250   92.357    0.515    0.225    5.499
  335.500   92.368    0.518    0.228    5.394
  335.750   92.995    0.465    0.232    5.191
  336.000   93.615    0.450    0.237    4.996
  336.250   93.630    0.453    0.240    4.807
  336.500   93.647    0.458    0.234    4.807
  336.750   93.055    0.462    0.238    4.715
  337.000   92.453    0.477    0.243    4.806
  337.250   91.251    0.490    0.253    4.993
  337.500   90.049    0.497    0.263    5.389
  337.750   89.446    0.482    0.270    5.599
  338.000   88.251    0.463    0.280    6.401
  338.250   88.258    0.453    0.275    7.043
  338.500   88.882    0.454    0.253    7.179
  338.750   89.510    0.459    0.250    7.316
  339.000   90.130    0.464    0.244    7.315
  339.250   90.148    0.475    0.239    7.176
  339.500   88.946    0.483    0.240    7.175
  339.750   87.737    0.481    0.253    7.038
  340.000   86.528    0.471    0.256    6.904
  340.250   84.103    0.448    0.255    6.903
  340.500   83.507    0.440    0.253    6.902
  340.750   88.403    0.435    0.245    7.035
  341.000   90.250    0.441    0.236    7.034
  341.250   89.655    0.453    0.231    7.033
  341.500   89.665    0.458    0.227    7.032
  341.750   89.683    0.468    0.231    7.031
  342.000   89.694    0.469    0.237    6.897
  342.250   88.488    0.449    0.241    6.897
  342.500   86.063    0.454    0.264    6.765
  342.750   83.035    0.469    0.266    6.510
  343.000   82.432    0.481    0.270    6.510
  343.250   82.447    0.481    0.274    6.385
  343.500   83.684    0.474    0.257    6.263
  343.750   87.364    0.480    0.246    6.144
  344.000   88.594    0.487    0.244    5.913
  344.250   91.657    0.494    0.241    5.476
  344.500   92.888    0.499    0.240    5.072
  344.750   95.341    0.501    0.240    4.608
  345.000   95.355    0.487    0.240    4.350
  345.250   91.711    0.476    0.242    4.519
