~VERSION INFORMATION
 VERS.                 2.0:   CWLS LOG ASCII STANDARD -VERSION 2.0
 WRAP.                  NO:   ONE LINE PER DEPTH STEP
~WELL INFORMATION BLOCK
#MNEM.UNIT           DATA                    DESCRIPTION OF MNEMONIC
#---------    -------------------            -------------------------------
# Generated from Intellog Unique Number	CS_69_70/WELL/737
NULL.         -999.25                        : NULL_VALUE
WELL.         HB CS PITLOCHRIE               : Well_name    - WELL              
LOC .         00/06-07-070-11W4/0            : Location     - LOCATION          
UWI .         00/06-07-070-11W4/0            : Uwi          - UNIQUE WELL ID    
ENTR.         SP                             : Entered      - ENTERED BY        
SRVC.         SCHLUMBERGER                   : Scn          - SERVICE COMPANY   
STRT.M        274.32                         : top_depth    - START DEPTH       
STOP.M        457.32                         : bot_depth    - STOP DEPTH        
STEP.M        0.25                           : increment    - STEP LENGTH       
~CURVE INFORMATION BLOCK
#MNEM UNIT       ERCB CURVE CODE    CURVE DESCRIPTION
#-----------   ------------------   ----------------------------------
DEPT.M        00 001 00 00         : DEPTH        - DEPTH                       
GR  .API      00 310 00 00         : GR           - GAMMA RAY                   
DPHI.V/V      00 890 00 00         : PHID         - DENSITY POROSITY (SANDSTONE)
NPHI.V/V      00 330 00 00         : PHIN         - NEUTRON POROSITY (SANDSTONE)
ILD .OHMM     00 120 00 00         : RESD         - DEEP RESISTIVITY (DIL)      
~PARAMETER INFORMATION       
#MNEM.UNIT           DATA             DESCRIPTION OF MNEMONIC
#---------         -----------     ------------------------------
GL  .M        600.669              : gl           - GROUND LEVEL ELEVATION      
EREF.M        603.717              : kb           - ELEVATION OF DEPTH REFERENCE
DATM.M        600.669              : datum        - DATUM ELEVATION             
TDD .M        478.536              : tdd          - TOTAL DEPTH DRILLER         
RUN .         ONE                  : Run          - RUN NUMBER                  
ENG .         BILL                 : Engineer     - RECORDING ENGINEER          
WIT .         JIM                  : Witness      - WITNESSED BY                
MUD .         GEL                  : Mud_type     - MUD TYPE                    
MATR.         SANDSTONE            : Logunit      - NEUTRON MATRIX              
TMAX.C        26.1111              : BHT          - MAXIMUM RECORDED TEMPERATURE
BHTD.M        478.536              : BHTDEP       - MAXIMUM RECORDED TEMPERATURE
MATR.         1                    : LOGUNIT      - NEUTRON MATRIX              
RMT .C        25                   : MDTP         - TEMPERATURE OF MUD          
NEUT.         1                    : NEUTRON      - NEUTRON TYPE                
RESI.         0                    : RESIST       - RESISTIVITY TYPE            
RMC .OHMM     0.25                 : RMC          - RESISTIVITY OF MUD CAKE     
RMF .OHMM     0.25                 : RMF          - RESISTIVITY OF MUD FILTRATE 
SUFT.C        15                   : SUFT         - SURFACE TEMPERATURE         
~A  DEPTH       GR     PHID     PHIN     RESD
# ...
  361.320   89.715    0.256    0.502    6.478
  361.570   90.314    0.258    0.493    6.415
  361.820   90.023    0.264    0.501    6.369
  362.070   88.806    0.260    0.512    6.343
  362.320   89.070    0.258    0.508    6.304
  362.570   89.197    0.264    0.509    6.280
  362.820   88.867    0.264    0.508    6.304
  363.070   86.773    0.287    0.500    6.340
  363.320   82.905    0.306    0.481    6.398
  363.570   78.830    0.307    0.475    6.560
  363.820   74.710    0.285    0.461    7.068
  364.070   71.341    0.247    0.366    8.356
  364.320   70.101    0.202    0.305   10.891
  364.570   70.826    0.130    0.286   11.434
  364.820   71.722    0.164    0.380   11.253
  365.070   72.387    0.219    0.458   10.489
  365.320   72.922    0.302    0.500    9.435
  365.570   73.567    0.321    0.532    8.440
  365.820   74.790    0.303    0.512    7.814
  366.070   76.088    0.290    0.478    7.327
  366.320   76.743    0.276    0.450    7.188
  366.570   77.332    0.247    0.434    7.906
  366.820   77.996    0.221    0.431    8.531
  367.070   77.881    0.303    0.474    8.550
  367.320   74.759    0.329    0.492    8.175
  367.570   74.031    0.320    0.506    7.869
  367.820   75.198    0.316    0.515    7.456
  368.070   75.071    0.319    0.523    7.129
  368.320   73.924    0.320    0.530    6.899
  368.570   73.356    0.319    0.521    6.897
  368.820   73.879    0.305    0.508    6.984
  369.070   76.428    0.280    0.495    7.106
  369.320   78.724    0.270    0.499    7.223
  369.570   79.791    0.289    0.511    7.035
  369.820   79.688    0.294    0.507    7.136
  370.070   79.670    0.281    0.495    7.259
  370.320   80.273    0.269    0.486    7.297
  370.570   82.234    0.260    0.484    7.356
  370.820   83.828    0.268    0.483    7.292
  371.070   85.020    0.260    0.482    7.171
  371.320   83.987    0.258    0.485    7.058
  371.570   82.410    0.265    0.494    6.994
  371.820   81.296    0.276    0.498    6.975
  372.070   80.808    0.289    0.503    6.975
  372.320   81.964    0.282    0.489    7.635
  372.570   84.214    0.263    0.485    7.419
  372.820   86.103    0.254    0.490    7.144
  373.070   85.984    0.255    0.498    6.894
  373.320   84.750    0.264    0.503    6.714
  373.570   82.853    0.272    0.504    6.628
  373.820   81.086    0.283    0.500    6.629
  374.070   80.788    0.284    0.495    6.556
  374.320   82.643    0.269    0.487    6.570
  374.570   86.045    0.242    0.494    6.534
  374.820   88.678    0.229    0.505    6.519
  375.070   91.088    0.226    0.517    6.507
  375.320   92.068    0.227    0.518    6.469
  375.570   91.842    0.260    0.511    6.386
  375.820   92.282    0.256    0.508    6.222
  376.070   93.735    0.244    0.508    6.007
  376.320   95.012    0.245    0.514    5.780
  376.570   95.721    0.246    0.515    5.696
  376.820   95.544    0.244    0.507    5.831
  377.070   94.670    0.235    0.500    5.915
  377.320   95.501    0.227    0.497    5.986
  377.570   95.906    0.228    0.499    6.073
  377.820   95.310    0.243    0.509    6.190
  378.070   95.059    0.250    0.516    6.248
  378.320   94.858    0.246    0.529    6.247
  378.570   95.152    0.241    0.543    6.222
  378.820   95.429    0.235    0.556    6.177
  379.070   93.828    0.232    0.544    6.117
  379.320   91.074    0.230    0.537    6.084
  379.570   89.988    0.232    0.532    5.770
  379.820   91.180    0.239    0.525    5.170
  380.070   93.404    0.266    0.522    4.102
  380.320   94.574    0.296    0.546    3.322
  380.570   94.737    0.317    0.592    2.672
  380.820   93.899    0.344    0.620    2.372
  381.070   92.983    0.365    0.617    2.165
  381.320   91.448    0.353    0.605    2.126
  381.570   90.101    0.344    0.590    2.162
  381.820   88.663    0.337    0.576    2.429
  382.070   87.535    0.335    0.568    3.051
  382.320   86.359    0.332    0.573    3.827
  382.570   85.239    0.353    0.565    4.394
  382.820   83.788    0.383    0.539    4.933
  383.070   82.641    0.307    0.512    5.409
  383.320   82.022    0.276    0.494    5.804
  383.570   83.341    0.264    0.498    5.862
  383.820   85.906    0.258    0.504    5.829
  384.070   88.335    0.249    0.508    5.660
  384.320   89.600    0.235    0.515    5.517
  384.570   87.170    0.233    0.526    5.459
  384.820   83.961    0.262    0.533    5.463
  385.070   81.304    0.279    0.524    5.450
  385.320   80.984    0.288    0.519    5.448
  385.570   80.735    0.285    0.525    5.466
  385.820   78.409    0.282    0.540    5.471
  386.070   74.659    0.270    0.537    5.504
  386.320   70.267    0.263    0.514    5.528
  386.570   68.079    0.286    0.491    5.584
  386.820   66.907    0.298    0.468    5.641
  387.070   66.666    0.306    0.464    5.721
  387.320   67.230    0.309    0.474    5.758
  387.570   67.891    0.313    0.480    5.696
  387.820   67.902    0.299    0.482    5.625
  388.070   65.787    0.287    0.494    5.496
  388.320   63.262    0.291    0.487    5.339
  388.570   60.985    0.310    0.469    5.303
  388.820   59.966    0.318    0.465    5.199
  389.070   60.516    0.326    0.468    5.172
  389.320   62.299    0.333    0.476    5.144
  389.570   64.606    0.335    0.471    5.147
  389.820   68.885    0.337    0.463    4.775
  390.070   71.855    0.338    0.460    4.729
  390.320   74.969    0.337    0.485    4.754
  390.570   78.060    0.323    0.498    4.956
  390.820   80.183    0.309    0.505    5.392
  391.070   81.290    0.280    0.489    6.072
  391.320   78.385    0.189    0.470    7.513
  391.570   72.029    0.169    0.431    9.855
  391.820   65.840    0.144    0.388   11.388
  392.070   61.175    0.096    0.300   11.605
  392.320   62.826    0.053    0.246   10.657
  392.570   67.499    0.057    0.322    8.488
  392.820   72.368    0.121    0.435    7.020
  393.070   76.997    0.206    0.478    5.799
  393.320   78.481    0.250    0.484    5.109
  393.570   76.980    0.258    0.462    4.775
  393.820   76.492    0.224    0.409    4.635
  394.070   78.091    0.170    0.395    4.592
  394.320   80.323    0.207    0.447    4.698
  394.570   81.899    0.247    0.484    4.775
  394.820   82.686    0.245    0.477    4.890
  395.070   83.365    0.247    0.467    4.947
  395.320   83.689    0.250    0.472    4.990
  395.570   83.578    0.251    0.479    5.012
  395.820   83.201    0.263    0.482    5.012
  396.070   83.239    0.256    0.482    5.004
  396.320   83.922    0.247    0.483    4.990
  396.570   84.827    0.261    0.483    4.987
  396.820   83.812    0.261    0.481    4.988
  397.070   84.279    0.252    0.479    4.989
  397.320   86.581    0.248    0.479    4.990
  397.570   87.918    0.241    0.482    4.983
  397.820   87.644    0.235    0.485    4.992
  398.070   87.723    0.231    0.483    5.002
  398.320   88.358    0.229    0.480    5.013
  398.570   89.407    0.230    0.485    4.997
  398.820   90.412    0.236    0.490    4.935
  399.070   91.238    0.243    0.491    4.898
  399.320   92.829    0.249    0.492    4.827
  399.570   94.102    0.251    0.493    4.734
  399.820   94.692    0.248    0.495    4.642
  400.070   93.635    0.243    0.502    4.542
  400.320   92.208    0.237    0.508    4.494
  400.570   92.218    0.232    0.505    4.520
  400.820   92.900    0.226    0.497    4.576
  401.070   93.426    0.226    0.491    4.648
  401.320   92.351    0.230    0.498    4.688
  401.570   90.606    0.239    0.488    4.697
  401.820   89.711    0.240    0.487    4.648
  402.070   90.064    0.240    0.499    4.473
  402.320   90.582    0.244    0.516    4.197
  402.570   91.832    0.252    0.529    4.073
  402.820   92.624    0.257    0.556    3.949
  403.070   93.141    0.255    0.574    3.847
  403.320   93.391    0.288    0.586    3.809
  403.570   93.547    0.303    0.592    3.783
  403.820   93.480    0.301    0.591    3.735
  404.070   93.381    0.296    0.585    3.688
  404.320   92.934    0.286    0.588    3.558
  404.570   92.055    0.283    0.580    3.289
