~VERSION INFORMATION
 VERS.                 2.0:   CWLS LOG ASCII STANDARD -VERSION 2.0
 WRAP.                  NO:   ONE LINE PER DEPTH STEP
~WELL INFORMATION BLOCK
#MNEM.UNIT           DATA                    DESCRIPTION OF MNEMONIC
#---------    -------------------            -------------------------------
# Generated from Intellog Unique Number	CS_69_70/WELL/701
NULL.         -999.25                        : NULL_VALUE
WELL.         HUSKY OIL OPERATION            : Well_name    - WELL              
LOC .         00/05-19-070-05W4/0            : Location     - LOCATION          
UWI .         00/05-19-070-05W4/0            : Uwi          - UNIQUE WELL ID    
ENTR.         SP                             : Entered      - ENTERED BY        
SRVC.         SCHLUMBERGER                   : Scn          - SERVICE COMPANY   
STRT.M        305                            : top_depth    - START DEPTH       
STOP.M        550                            : bot_depth    - STOP DEPTH        
STEP.M        0.25                           : increment    - STEP LENGTH       
~CURVE INFORMATION BLOCK
#MNEM UNIT       ERCB CURVE CODE    CURVE DESCRIPTION
#-----------   ------------------   ----------------------------------
DEPT.M        00 001 00 00         : DEPTH        - DEPTH                       
ILD .OHMM     00 120 00 00         : RESD         - DEEP RESISTIVITY (DIL)      
DPHI.V/V      00 890 00 00         : PHID         - DENSITY POROSITY (LIMESTONE)
NPHI.V/V      00 330 00 00         : PHIN         - NEUTRON POROSITY (LIMESTONE)
GR  .API      00 310 00 00         : GR           - GAMMA RAY                   
~PARAMETER INFORMATION       
#MNEM.UNIT           DATA             DESCRIPTION OF MNEMONIC
#---------         -----------     ------------------------------
GL  .M        667.3                : gl           - GROUND LEVEL ELEVATION      
EREF.M        671                  : kb           - ELEVATION OF DEPTH REFERENCE
DATM.M        667                  : datum        - DATUM ELEVATION             
TDD .M        555                  : tdd          - TOTAL DEPTH DRILLER         
RUN .         ONE                  : Run          - RUN NUMBER                  
ENG .         BILL                 : Engineer     - RECORDING ENGINEER          
WIT .         JIM                  : Witness      - WITNESSED BY                
MUD .         GEL                  : Mud_type     - MUD TYPE                    
MATR.         LIMESTONE            : Logunit      - NEUTRON MATRIX              
TMAX.C        26                   : BHT          - MAXIMUM RECORDED TEMPERATURE
BHTD.M        555                  : BHTDEP       - MAXIMUM RECORDED TEMPERATURE
MATR.         1                    : LOGUNIT      - NEUTRON MATRIX              
RMT .C        25                   : MDTP         - TEMPERATURE OF MUD          
NEUT.         1                    : NEUTRON      - NEUTRON TYPE                
RESI.         0                    : RESIST       - RESISTIVITY TYPE            
RMC .OHMM     0.25                 : RMC          - RESISTIVITY OF MUD CAKE     
RMF .OHMM     0.25                 : RMF          - RESISTIVITY OF MUD FILTRATE 
SUFT.C        15                   : SUFT         - SURFACE TEMPERATURE         
~A  DEPTH     RESD     PHID     PHIN       GR
# ...
  348.500    8.197    0.262    0.474   97.723
  348.750    8.674    0.280    0.463   95.317
  349.000    9.008    0.300    0.450   95.334
  349.250    9.183    0.307    0.438   95.342
  349.500    9.360    0.296    0.433   94.748
  349.750    9.364    0.283    0.448   90.527
  350.000    9.196    0.280    0.450   88.728
  350.250    9.201    0.274    0.437   91.160
  350.500    9.206    0.274    0.426   94.195
  350.750    9.040    0.272    0.418   94.809
  351.000    8.714    0.266    0.424   93.007
  351.250    8.398    0.261    0.431   91.208
  351.500    8.094    0.263    0.420   94.847
  351.750    7.801    0.269    0.421  101.512
  352.000    7.518    0.254    0.438  105.155
  352.250    7.523    0.238    0.464  107.588
  352.500    7.669    0.231    0.471  106.993
  352.750    7.817    0.235    0.463   97.935
  353.000    8.271    0.238    0.460   93.106
  353.250    8.752    0.244    0.458   88.884
  353.500    9.435    0.260    0.460   85.269
  353.750    9.799    0.256    0.471   87.096
  354.000   10.178    0.265    0.490   84.688
  354.250   10.375    0.257    0.471   72.603
  354.500   10.380    0.194    0.292   60.522
  354.750   10.386    0.056    0.236   52.065
  355.000   10.197    0.067    0.234   50.263
  355.250   10.015    0.119    0.267   50.276
  355.500    9.835    0.325    0.313   47.867
  355.750    9.840    0.346    0.390   44.252
  356.000    9.843    0.335    0.417   42.452
  356.250    9.668    0.341    0.417   41.859
  356.500    9.672    0.347    0.415   41.870
  356.750    9.677    0.348    0.414   43.092
  357.000    9.503    0.352    0.423   46.129
  357.250    9.507    0.339    0.437   50.984
  357.500    9.511    0.329    0.438   52.806
  357.750    9.516    0.320    0.423   54.631
  358.000    9.522    0.315    0.414   53.435
  358.250    9.525    0.312    0.422   52.843
  358.500    9.532    0.320    0.428   50.438
  358.750    9.536    0.327    0.409   51.656
  359.000    9.540    0.327    0.407   60.140
  359.250    9.545    0.333    0.425   65.597
  359.500    9.729    0.343    0.428   70.449
  359.750    9.734    0.331    0.430   73.484
  360.000    9.923    0.325    0.439   75.310
  360.250    9.929    0.329    0.433   77.139
  360.500    9.751    0.332    0.419   78.361
  360.750    9.755    0.327    0.413   79.582
  361.000    9.758    0.322    0.431   78.384
  361.250    9.766    0.330    0.445   74.765
  361.500    9.769    0.334    0.440   69.336
  361.750    9.594    0.332    0.431   66.927
  362.000    9.599    0.322    0.413   69.359
  362.250    9.786    0.322    0.407   73.001
  362.500    9.789    0.322    0.418   74.223
  362.750    9.795    0.322    0.414   72.423
  363.000    9.798    0.319    0.417   70.623
  363.250    9.803    0.317    0.430   71.840
  363.500    9.808    0.318    0.432   77.297
  363.750    9.632    0.320    0.442   83.361
  364.000    9.637    0.305    0.448   85.788
  364.250    9.642    0.283    0.439   88.828
  364.500    9.646    0.270    0.427   88.840
  364.750    9.651    0.261    0.422   88.244
  365.000    9.657    0.271    0.425   69.510
  365.250    9.660    0.288    0.437   64.685
  365.500    9.850    0.296    0.449   62.881
  365.750    9.853    0.309    0.449   62.892
  366.000   10.043    0.315    0.442   64.717
  366.250   10.237    0.321    0.444   66.545
  366.500   10.242    0.318    0.449   65.349
  366.750   10.441    0.319    0.457   61.127
  367.000   10.644    0.319    0.446   56.905
  367.250   10.849    0.325    0.428   56.312
  367.500   11.060    0.333    0.422   56.930
  367.750   10.861    0.336    0.431   55.132
  368.000   10.469    0.341    0.439   55.747
  368.250   10.280    0.342    0.445   56.361
  368.500   10.095    0.342    0.427   58.189
  368.750    9.912    0.340    0.416   61.232
  369.000    9.733    0.335    0.411   61.844
  369.250    9.739    0.334    0.416   63.670
  369.500    9.930    0.334    0.427   59.449
  369.750   10.122    0.332    0.436   61.275
  370.000   10.317    0.331    0.431   64.312
  370.250   10.320    0.334    0.424   60.697
  370.500   10.523    0.337    0.424   57.078
  370.750   10.725    0.334    0.419   53.462
  371.000   10.729    0.331    0.404   52.264
  371.250   10.939    0.332    0.394   54.096
  371.500   10.942    0.349    0.428   55.316
  371.750   10.746    0.374    0.469   55.931
  372.000   10.552    0.390    0.458   60.178
  372.250   10.169    0.356    0.423   62.610
  372.500    9.622    0.342    0.430   62.620
  372.750    9.274    0.338    0.457   66.268
  373.000    8.940    0.322    0.458   68.092
  373.250    8.943    0.308    0.426   68.101
  373.500    8.949    0.291    0.410   65.695
  373.750    8.951    0.276    0.402   59.662
  374.000    9.125    0.280    0.402   58.460
  374.250    9.302    0.288    0.427   62.707
  374.500    9.662    0.275    0.447   60.908
  374.750    9.664    0.275    0.447   57.895
  375.000    9.851    0.310    0.437   54.884
  375.250   10.231    0.343    0.428   53.684
  375.500   10.238    0.349    0.427   51.277
  375.750   10.243    0.354    0.427   48.870
  376.000   10.249    0.354    0.427   51.307
  376.250   10.445    0.351    0.423   52.525
  376.500   10.451    0.350    0.423   53.143
  376.750   10.456    0.349    0.423   53.159
  377.000   10.462    0.355    0.434   53.166
  377.250   10.275    0.355    0.432   54.391
  377.500   10.277    0.349    0.422   54.405
  377.750   10.284    0.341    0.424   53.814
  378.000   10.098    0.336    0.428   53.216
  378.250    9.733    0.334    0.429   52.625
  378.500    9.557    0.350    0.427   53.240
  378.750    9.212    0.344    0.435   54.467
  379.000    9.046    0.339    0.444   56.901
  379.250    8.883    0.341    0.436   58.722
  379.500    8.888    0.341    0.433   61.761
  379.750    8.892    0.334    0.444   62.980
  380.000    9.066    0.328    0.454   62.995
  380.250    9.240    0.339    0.458   62.400
  380.500    9.420    0.320    0.439   61.202
  380.750    9.423    0.248    0.410   62.427
  381.000    9.428    0.216    0.383   63.044
  381.250    9.433    0.184    0.377   63.059
  381.500    9.263    0.275    0.416   62.467
  381.750    8.928    0.331    0.476   61.268
  382.000    8.767    0.351    0.478   58.859
  382.250    8.450    0.351    0.476   56.451
  382.500    8.299    0.334    0.467   58.278
  382.750    8.150    0.329    0.454   65.550
  383.000    8.154    0.338    0.459   69.794
  383.250    8.310    0.347    0.454   70.411
  383.500    8.161    0.346    0.459   66.795
  383.750    8.014    0.349    0.476   65.597
  384.000    7.725    0.349    0.475   70.451
  384.250    7.444    0.336    0.446   74.096
  384.500    7.311    0.329    0.455   74.102
  384.750    7.315    0.324    0.483   74.720
  385.000    7.598    0.316    0.491   67.476
  385.250    7.744    0.314    0.503   60.233
  385.500    7.894    0.327    0.497   57.221
  385.750    8.046    0.345    0.463   53.604
  386.000    8.202    0.351    0.460   51.195
  386.250    8.207    0.356    0.468   51.211
  386.500    8.059    0.355    0.471   54.243
  386.750    7.913    0.355    0.459   56.673
  387.000    7.627    0.351    0.446   56.081
  387.250    7.215    0.345    0.434   56.700
  387.500    6.700    0.342    0.439   61.551
  387.750    6.220    0.342    0.444   70.639
  388.000    5.885    0.342    0.447   74.279
  388.250    5.464    0.334    0.421   77.315
  388.500    5.170    0.320    0.418   79.141
  388.750    4.982    0.309    0.459   80.361
  389.000    4.893    0.303    0.462   82.193
  389.250    4.804    0.300    0.463   82.807
  389.500    4.898    0.294    0.496   80.401
  389.750    4.992    0.295    0.525   78.596
  390.000    5.184    0.304    0.500   78.609
  390.250    5.285    0.319    0.487   78.624
  390.500    4.907    0.324    0.497   75.611
  390.750    4.229    0.334    0.511   70.179
  391.000    3.854    0.330    0.519   77.449
  391.250    3.512    0.280    0.525   88.349
  391.500    3.385    0.268    0.528   94.411
  391.750    3.582    0.266    0.522   87.771
