~VERSION INFORMATION
 VERS.                 2.0:   CWLS LOG ASCII STANDARD -VERSION 2.0
 WRAP.                  NO:   ONE LINE PER DEPTH STEP
~WELL INFORMATION BLOCK
#MNEM.UNIT           DATA                    DESCRIPTION OF MNEMONIC
#---------    -------------------            -------------------------------
# Generated from Intellog Unique Number	CX_WELLS/WELL/3065
WELL.         AMOCO A-1 HOUSE                : Well_name    - WELL
LOC .         00/06-27-082-14W4/0            : Location     - LOCATION
UWI .         00/06-27-082-14W400            : Uwi          - UNIQUE WELL ID
ENTR.         TIM                            : Entered      - ENTERED BY
SRVC.         SCHLUMBERGER                   : Scn          - SERVICE COMPANY
DATE.         03/04/92                       : Date         - LOG DATE
STRT.F        450                            : top_depth    - START DEPTH
STOP.F        1189.83                        : bot_depth    - STOP DEPTH
STEP.F        0.82                           : increment    - STEP LENGTH
 NULL. -999.2500:NULL Value
~CURVE INFORMATION BLOCK
#MNEM UNIT       ERCB CURVE CODE    CURVE DESCRIPTION
#-----------   ------------------   ----------------------------------
DEPT.F        00 001 00 00         : DEPTH        - DEPTH
GR  .API      00 310 00 00         : GR           - GAMMA RAY
NPHI.V/V      00 330 00 00         : PHIN         - NEUTRON POROSITY (SANDSTONE)
DPHI.V/V      00 890 00 00         : PHID         - DENSITY POROSITY (SANDSTONE)
ILD .OHMM     00 120 00 00         : RESD         - DEEP RESISTIVITY (OTHER)
~PARAMETER INFORMATION
#MNEM.UNIT           DATA             DESCRIPTION OF MNEMONIC
#---------         -----------     ------------------------------
GL  .F        1905.3               : gl           - GROUND LEVEL ELEVATION
EREF.F        1919                 : kb           - ELEVATION OF DEPTH REFERENCE
DATM.F        1919                 : datum        - DATUM ELEVATION
TDD .F        1224                 : tdd          - TOTAL DEPTH DRILLER
RUN .         ONE                  : Run          - RUN NUMBER
ENG .         JO                   : Engineer     - RECORDING ENGINEER
WIT .         TIM                  : Witness      - WITNESSED BY
MUD .         GEL                  : Mud_type     - MUD TYPE
MATR.         SANDSTONE            : Logunit      - NEUTRON MATRIX
TMAX.F        72                   : BHT          - MAXIMUM RECORDED TEMPERATURE
BHTD.F        1224                 : BHTDEP       - MAXIMUM RECORDED TEMPERATURE
RMT .F        72                   : MDTP         - TEMPERATURE OF MUD
MUDD.LB/G     1                    : MWT          - MUD DENSITY
NEUT.         1                    : NEUTRON      - NEUTRON TYPE
RESI.         1.9                  : RESIST       - RESISTIVITY TYPE
RM  .OHMM     1.9                  : RM           - RESISTIVITY OF MUD
RMC .OHMM     1.9                  : RMC          - RESISTIVITY OF MUD CAKE
RMF .OHMM     1.84                 : RMF          - RESISTIVITY OF MUD FILTRATE
SUFT.F        32                   : SUFT         - SURFACE TEMPERATURE
~A  DEPTH       GR     PHIN     PHID     RESD
# ...
  735.433   66.980    0.524    0.320   11.363
  736.253   68.253    0.506    0.306   10.779
  737.073   70.799    0.503    0.299   10.225
  737.894   72.072    0.502    0.301   10.048
  738.714   74.586    0.495    0.299    9.363
  739.534   76.487    0.489    0.288    8.876
  740.354   77.165    0.490    0.279    8.122
  741.175   77.877    0.500    0.274    7.696
  741.995   77.927    0.512    0.278    7.169
  742.815   78.638    0.518    0.282    6.920
  743.635   79.283    0.506    0.286    6.446
  744.455   78.755    0.505    0.286    6.003
  745.276   78.805    0.508    0.282    5.692
  746.096   78.260    0.519    0.277    5.596
  746.916   77.103    0.528    0.270    5.505
  747.736   74.723    0.511    0.261    5.515
  748.556   70.509    0.493    0.261    5.833
  749.377   66.294    0.481    0.263    6.281
  750.197   63.914    0.484    0.303    6.889
  751.017   64.592    0.490    0.319    7.843
  751.837   65.899    0.496    0.331    8.146
  752.657   67.205    0.496    0.340    8.305
  753.478   67.883    0.485    0.331    8.470
  754.298   68.562    0.481    0.316    8.332
  755.118   69.240    0.488    0.311    8.345
  755.938   70.546    0.496    0.310    8.213
  756.759   71.225    0.499    0.310    8.222
  757.579   71.291    0.491    0.310    8.082
  758.399   70.763    0.482    0.307    7.951
  759.219   70.201    0.473    0.302    7.817
  760.039   69.045    0.478    0.299    7.687
  760.860   67.260    0.478    0.296    7.295
  761.680   64.913    0.476    0.305    7.042
  762.500   63.740    0.483    0.311    6.803
  763.320   61.971    0.494    0.320    6.690
  764.140   60.815    0.507    0.332    7.338
  764.961   60.286    0.498    0.342    7.759
  765.781   60.353    0.491    0.346    8.670
  766.601   60.403    0.492    0.350    9.339
  767.421   61.115    0.492    0.351    9.877
  768.241   61.181    0.488    0.354   10.074
  769.062   61.264    0.486    0.353   10.467
  769.882   61.315    0.488    0.353   10.478
  770.702   61.398    0.494    0.353   10.502
  771.522   61.448    0.496    0.353   10.513
  772.343   61.498    0.491    0.353   10.156
  773.163   62.209    0.479    0.350    9.992
  773.983   62.259    0.478    0.350    9.999
  774.803   62.326    0.484    0.349    9.660
  775.623   63.004    0.489    0.349    9.500
  776.444   63.716    0.493    0.348    9.177
  777.264   63.766    0.495    0.348    9.187
  778.084   63.865    0.501    0.347    8.872
  778.904   64.510    0.508    0.346    8.568
  779.724   65.205    0.519    0.344    8.429
  780.545   65.255    0.517    0.343    8.139
  781.365   65.934    0.502    0.342    7.863
  782.185   67.257    0.489    0.341    7.588
  783.005   67.918    0.488    0.343    7.068
  783.825   69.208    0.487    0.346    6.236
  784.646   72.333    0.491    0.346    5.912
  785.466   74.863    0.494    0.340    5.407
  786.286   77.393    0.501    0.328    5.220
  787.106   78.088    0.508    0.321    5.043
  787.927   78.121    0.512    0.325    4.957
  788.747   78.188    0.520    0.326    4.875
  789.567   77.659    0.517    0.321    5.063
  790.387   77.097    0.520    0.317    5.554
  791.207   75.957    0.529    0.310    6.204
  792.028   74.222    0.537    0.307    7.057
  792.848   73.032    0.544    0.305    7.330
  793.668   71.281    0.510    0.307    8.043
  794.488   70.736    0.499    0.316    8.510
  795.308   70.174    0.488    0.326    8.839
  796.129   70.274    0.492    0.328    8.852
  796.949   70.936    0.499    0.326    8.709
  797.769   71.647    0.499    0.324    8.561
  798.589   72.904    0.496    0.324    8.419
  799.409   74.210    0.502    0.324    8.133
  800.230   75.517    0.505    0.314    7.995
  801.050   76.162    0.510    0.306    7.721
  801.870   75.650    0.510    0.308    7.456
  802.690   76.940    0.505    0.313    6.948
  803.510   78.842    0.502    0.285    6.707
  804.331   80.115    0.501    0.276    6.475
  805.151   81.405    0.497    0.263    6.142
  805.971   81.488    0.491    0.253    6.042
  806.791   81.555    0.481    0.253    6.165
  807.612   81.621    0.478    0.254    6.285
  808.432   81.076    0.484    0.255    6.525
  809.252   79.325    0.487    0.261    7.034
  810.072   76.333    0.486    0.286    7.303
  810.892   72.730    0.484    0.292    7.730
  811.713   70.945    0.481    0.305    7.880
  812.533   69.193    0.483    0.304    8.034
  813.353   74.153    0.485    0.301    7.901
  814.173   76.054    0.479    0.299    7.498
  814.993   75.543    0.476    0.297    7.235
  815.814   74.353    0.479    0.296    6.868
  816.634   68.931    0.483    0.292    7.128
  817.454   65.940    0.492    0.287    7.825
  818.274   62.948    0.496    0.277    8.121
  819.094   60.568    0.444    0.266    8.589
  819.915   58.783    0.391    0.246    9.255
  820.735   60.702    0.325    0.105    9.973
  821.555   64.455    0.301    0.140   10.167
  822.375   63.315    0.314    0.193   10.568
  823.196   62.141    0.327    0.249   10.579
  824.016   60.985    0.373    0.297   10.595
  824.836   62.275    0.436    0.238   10.235
  825.656   66.011    0.389    0.178    9.880
  826.476   69.136    0.359    0.192    9.204
  827.297   72.261    0.436    0.233    8.724
  828.117   76.030    0.511    0.262    7.977
  828.937   78.543    0.516    0.301    7.036
  829.757   81.040    0.525    0.307    6.431
  830.577   83.553    0.536    0.297    5.775
  831.398   83.041    0.543    0.284    4.909
  832.218   81.868    0.545    0.285    4.828
  833.038   80.711    0.550    0.292    4.926
  833.858   80.778    0.556    0.293    5.214
  834.678   80.250    0.561    0.295    5.316
  835.499   80.316    0.557    0.302    5.519
  836.319   80.400    0.548    0.307    5.949
  837.139   79.855    0.515    0.311    6.063
  837.959   79.309    0.502    0.293    6.299
  838.780   79.359    0.505    0.287    6.665
  839.600   78.814    0.507    0.286    6.922
  840.420   78.269    0.494    0.293    7.057
  841.240   78.369    0.484    0.302    7.332
  842.060   78.403    0.479    0.300    7.475
  842.881   80.338    0.475    0.286    7.630
  843.701   81.611    0.470    0.275    7.781
  844.521   82.901    0.480    0.267    7.793
  845.341   84.835    0.493    0.256    7.804
  846.161   84.885    0.497    0.250    7.813
  846.982   84.969    0.490    0.237    7.830
  847.802   85.019    0.483    0.219    7.701
  848.622   84.490    0.474    0.210    7.715
  849.442   84.573    0.468    0.226    7.724
  850.262   85.235    0.474    0.234    7.735
  851.083   85.285    0.478    0.237    7.607
  851.903   86.592    0.482    0.237    7.618
  852.723   87.303    0.484    0.235    7.629
  853.543   87.337    0.491    0.234    7.506
  854.364   87.436    0.491    0.230    7.517
  855.184   87.486    0.490    0.228    7.392
  856.004   87.536    0.487    0.226    7.403
  856.824   87.008    0.482    0.226    7.281
  857.644   87.075    0.476    0.226    7.160
  858.465   87.141    0.473    0.228    7.039
  859.285   87.820    0.475    0.229    6.930
  860.105   88.514    0.478    0.231    6.810
  860.925   88.564    0.485    0.233    6.697
  861.745   89.888    0.493    0.234    6.472
  862.566   89.971    0.500    0.235    6.247
  863.386   89.392    0.514    0.235    6.035
  864.206   87.013    0.525    0.232    5.931
  865.026   84.633    0.537    0.229    5.837
  865.846   83.476    0.541    0.229    5.848
  866.667   81.096    0.532    0.262    6.069
  867.487   79.344    0.520    0.277    6.542
  868.307   78.799    0.504    0.295    6.917
  869.127   78.254    0.493    0.301    7.181
  869.948   78.338    0.482    0.294    7.601
  870.768   79.033    0.476    0.280    7.618
  871.588   79.066    0.482    0.276    7.621
  872.408   78.538    0.490    0.289    7.632
  873.228   77.976    0.497    0.303    7.646
  874.049   76.836    0.496    0.300    7.661
  874.869   76.936    0.490    0.294    7.675
  875.689   76.969    0.485    0.291    7.680
  876.509   77.052    0.479    0.290    7.695
  877.329   77.731    0.476    0.290    7.703
