~VERSION INFORMATION
 VERS.                 2.0:   CWLS LOG ASCII STANDARD -VERSION 2.0
 WRAP.                  NO:   ONE LINE PER DEPTH STEP
~WELL INFORMATION BLOCK
#MNEM.UNIT           DATA                    DESCRIPTION OF MNEMONIC
#---------    -------------------            -------------------------------
# Generated from Intellog Unique Number	CS_71_72/WELL/662
WELL.         BOW VALLEY EXPLORATION         : Well_name    - WELL
LOC .         00/05-13-071-10W4/0            : Location     - LOCATION
UWI .         00/05-13-071-10W4/0            : Uwi          - UNIQUE WELL ID
ENTR.         SP                             : Entered      - ENTERED BY
SRVC.         SCHLUMBERGER                   : Scn          - SERVICE COMPANY
STRT.M        325                            : top_depth    - START DEPTH
STOP.M        535                            : bot_depth    - STOP DEPTH
STEP.M        0.25                           : increment    - STEP LENGTH
 NULL. -999.2500:NULL Value
~CURVE INFORMATION BLOCK
#MNEM UNIT       ERCB CURVE CODE    CURVE DESCRIPTION
#-----------   ------------------   ----------------------------------
DEPT.M        00 001 00 00         : DEPTH        - DEPTH
ILD .OHMM     00 120 00 00         : RESD         - DEEP RESISTIVITY (DIL)
DPHI.V/V      00 890 00 00         : PHID         - DENSITY POROSITY (LIMESTONE)
NPHI.V/V      00 330 00 00         : PHIN         - NEUTRON POROSITY (LIMESTONE)
GR  .API      00 310 00 00         : GR           - GAMMA RAY
~PARAMETER INFORMATION
#MNEM.UNIT           DATA             DESCRIPTION OF MNEMONIC
#---------         -----------     ------------------------------
GL  .M        679.68               : gl           - GROUND LEVEL ELEVATION
EREF.M        684.3                : kb           - ELEVATION OF DEPTH REFERENCE
DATM.M        679.68               : datum        - DATUM ELEVATION
TDD .M        535                  : tdd          - TOTAL DEPTH DRILLER
RUN .         ONE                  : Run          - RUN NUMBER
ENG .         BILL                 : Engineer     - RECORDING ENGINEER
WIT .         JIM                  : Witness      - WITNESSED BY
MUD .         GEL                  : Mud_type     - MUD TYPE
MATR.         LIMESTONE            : Logunit      - NEUTRON MATRIX
TMAX.C        21                   : BHT          - MAXIMUM RECORDED TEMPERATURE
BHTD.M        535                  : BHTDEP       - MAXIMUM RECORDED TEMPERATURE
MATR.         1                    : LOGUNIT      - NEUTRON MATRIX
RMT .C        25                   : MDTP         - TEMPERATURE OF MUD
NEUT.         1                    : NEUTRON      - NEUTRON TYPE
RESI.         0                    : RESIST       - RESISTIVITY TYPE
RMC .OHMM     0.25                 : RMC          - RESISTIVITY OF MUD CAKE
RMF .OHMM     0.25                 : RMF          - RESISTIVITY OF MUD FILTRATE
SUFT.C        15                   : SUFT         - SURFACE TEMPERATURE
~A  DEPTH     RESD     PHID     PHIN       GR
# ...
  499.000    6.990    0.136    0.417   63.914
  499.250    7.368    0.058    0.431   59.526
  499.500    7.738    0.067    0.291   61.051
  499.750    7.885    0.156    0.302   65.257
  500.000    7.708    0.205    0.322   70.438
  500.250    7.326    0.214    0.344   74.584
  500.500    6.781    0.208    0.365   78.058
  500.750    6.217    0.215    0.379   77.084
  501.000    6.090    0.233    0.385   77.938
  501.250    6.311    0.246    0.377   76.658
  501.500    6.529    0.230    0.363   80.925
  501.750    6.653    0.198    0.348   85.254
  502.000    6.653    0.182    0.359   87.875
  502.250    6.516    0.174    0.362   89.582
  502.500    6.251    0.168    0.348   88.546
  502.750    6.020    0.162    0.352   90.437
  503.000    5.852    0.158    0.355   91.839
  503.250    5.808    0.156    0.349   92.388
  503.500    6.008    0.155    0.361   91.413
  503.750    6.429    0.178    0.382   76.908
  504.000    6.867    0.215    0.399   67.217
  504.250    7.321    0.208    0.350   66.974
  504.500    7.645    0.193    0.331   71.546
  504.750    7.909    0.229    0.344   75.691
  505.000    8.013    0.259    0.356   81.787
  505.250    7.968    0.240    0.355   93.368
  505.500    7.501    0.217    0.332  105.132
  505.750    7.306    0.199    0.343  113.605
  506.000    6.839    0.208    0.365  118.177
  506.250    6.524    0.201    0.383   99.526
  506.500    6.271    0.219    0.393   86.666
  506.750    6.247    0.241    0.390   78.073
  507.000    6.294    0.261    0.379   71.369
  507.250    6.389    0.235    0.336   75.758
  507.500    6.462    0.197    0.322   82.768
  507.750    6.523    0.173    0.326   87.827
  508.000    6.609    0.160    0.332   90.936
  508.250    6.609    0.162    0.345   83.562
  508.500    6.461    0.190    0.350   78.564
  508.750    6.412    0.213    0.345   81.734
  509.000    6.448    0.206    0.332   89.476
  509.250    6.683    0.195    0.326   93.377
  509.500    6.823    0.185    0.334   98.132
  509.750    7.111    0.180    0.340  101.241
  510.000    7.454    0.191    0.349   93.379
  510.250    7.798    0.225    0.371   71.803
  510.500    7.902    0.252    0.394   60.223
  510.750    7.754    0.279    0.362   52.056
  511.000    7.537    0.269    0.340   57.603
  511.250    6.950    0.245    0.328   62.419
  511.500    6.693    0.226    0.323   66.442
  511.750    6.325    0.205    0.320   69.490
  512.000    6.207    0.201    0.313   69.430
  512.250    6.207    0.187    0.307   76.074
  512.500    6.253    0.173    0.308   81.195
  512.750    6.277    0.208    0.328   79.976
  513.000    6.218    0.238    0.351   79.977
  513.250    6.067    0.236    0.350   90.766
  513.500    5.744    0.200    0.341  101.555
  513.750    5.531    0.175    0.364  107.650
  514.000    5.307    0.157    0.432  111.430
  514.250    5.053    0.144    0.457  112.588
  514.500    4.847    0.133    0.457  114.661
  514.750    4.712    0.156    0.482  103.934
  515.000    4.902    0.230    0.511   83.151
  515.250    5.530    0.254    0.418   63.769
  515.500    6.765    0.275    0.399   55.297
  515.750    8.323    0.283    0.382   54.932
  516.000   10.067    0.291    0.386   55.055
  516.250   11.683    0.303    0.387   52.861
  516.500   12.246    0.321    0.376   48.351
  516.750   11.061    0.344    0.366   45.670
  517.000    8.400    0.340    0.360   43.720
  517.250    6.892    0.316    0.360   43.050
  517.500    5.697    0.300    0.367   44.148
  517.750    4.800    0.293    0.372   45.733
  518.000    4.183    0.302    0.378   46.709
  518.250    3.821    0.307    0.382   46.344
  518.500    3.617    0.311    0.378   47.442
  518.750    3.510    0.317    0.373   48.478
  519.000    3.510    0.311    0.371   47.138
  519.250    3.523    0.305    0.363   49.211
  519.500    3.556    0.310    0.348   50.492
  519.750    3.610    0.315    0.343   49.761
  520.000    3.630    0.307    0.377   50.919
  520.250    3.678    0.297    0.383   53.846
  520.500    3.713    0.298    0.376   56.406
  520.750    4.026    0.302    0.371   58.784
  521.000    4.064    0.288    0.370   62.441
  521.250    4.110    0.273    0.370   65.916
  521.500    4.300    0.258    0.366   69.330
  521.750    4.542    0.251    0.358   75.365
  522.000    4.842    0.242    0.353   82.131
  522.250    5.181    0.214    0.349   88.836
  522.500    5.576    0.182    0.356   94.017
  522.750    5.945    0.162    0.353   98.163
  523.000    6.495    0.170    0.340  101.638
  523.250    6.569    0.183    0.325  105.539
  523.500    6.808    0.186    0.329  110.537
  523.750    6.885    0.177    0.359  115.048
  524.000    6.963    0.173    0.389  118.828
  524.250    7.203    0.169    0.407  114.257
  524.500    7.494    0.175    0.379  101.641
  524.750    7.914    0.183    0.357   92.194
  525.000    8.630    0.186    0.351   87.075
  525.250    8.928    0.178    0.360   88.234
  525.500    9.097    0.170    0.368   87.442
  525.750    9.218    0.200    0.375   81.043
  526.000    9.166    0.214    0.334   84.030
  526.250    8.994    0.201    0.329   91.771
  526.500    8.727    0.186    0.353   98.598
  526.750    8.372    0.177    0.373   89.334
  527.000    7.941    0.177    0.357   85.312
  527.250    7.882    0.185    0.358   85.495
  527.500    7.633    0.179    0.351   89.153
  527.750    7.476    0.165    0.344   93.603
  528.000    7.490    0.154    0.351   97.017
  528.250    7.603    0.143    0.357   91.837
  528.500    7.733    0.127    0.347   83.365
  528.750    7.939    0.150    0.339   78.063
  529.000    8.060    0.198    0.341   77.454
  529.250    8.369    0.214    0.353   79.222
  529.500    8.592    0.224    0.365   80.564
  529.750    8.657    0.241    0.369   80.930
  530.000    8.495    0.277    0.360   80.260
  530.250    7.775    0.300    0.351   79.651
  530.500    7.089    0.287    0.343   79.408
  530.750    6.439    0.264    0.330   80.384
  531.000    5.686    0.255    0.339   81.664
  531.250    4.908    0.273    0.359   83.067
  531.500    4.221    0.290    0.336   83.555
  531.750    3.735    0.308    0.330   83.494
  532.000    3.329    0.318    0.340   83.556
  532.250    3.064    0.328    0.354   83.556
  532.500    2.863    0.316    0.356   83.618
  532.750    2.752    0.313    0.351   83.741
  533.000    2.660    0.321    0.349   84.046
  533.250    2.645    0.318    0.352   84.352
  533.500    2.680    0.308    0.359   84.474
  533.750    2.852    0.304    0.366   84.474
  534.000    3.417    0.298    0.369   84.597
  534.250    4.602    0.253    0.371   84.658
  534.500    6.013    0.121    0.372   84.781
  534.750    7.843    0.090    0.373   84.964
  535.000   11.051    0.065    0.374   85.148
