~VERSION INFORMATION
 VERS.                 2.0:   CWLS LOG ASCII STANDARD -VERSION 2.0
 WRAP.                  NO:   ONE LINE PER DEPTH STEP
~WELL INFORMATION BLOCK
#MNEM.UNIT           DATA                    DESCRIPTION OF MNEMONIC
#---------    -------------------            -------------------------------
# Generated from Intellog Unique Number	CS_67_68/WELL/737
WELL.         BRASCAN RESOURCES              : Well_name    - WELL
LOC .         00/06-31-068-18W4/0            : Location     - LOCATION
UWI .         00/06-31-068-18W4/0            : Uwi          - UNIQUE WELL ID
ENTR.         SP                             : Entered      - ENTERED BY
SRVC.         SCHLUMBERGER                   : Scn          - SERVICE COMPANY
STRT.M        274.32                         : top_depth    - START DEPTH
STOP.M        517.82                         : bot_depth    - STOP DEPTH
STEP.M        0.25                           : increment    - STEP LENGTH
 NULL. -999.2500:NULL Value
~CURVE INFORMATION BLOCK
#MNEM UNIT       ERCB CURVE CODE    CURVE DESCRIPTION
#-----------   ------------------   ----------------------------------
DEPT.M        00 001 00 00         : DEPTH        - DEPTH
GR  .API      00 310 00 00         : GR           - GAMMA RAY
DPHI.V/V      00 890 00 00         : PHID         - DENSITY POROSITY (SANDSTONE)
NPHI.V/V      00 330 00 00         : PHIN         - NEUTRON POROSITY (SANDSTONE)
ILD .OHMM     00 120 00 00         : RESD         - DEEP RESISTIVITY (DIL)
~PARAMETER INFORMATION
#MNEM.UNIT           DATA             DESCRIPTION OF MNEMONIC
#---------         -----------     ------------------------------
GL  .M        551.993              : gl           - GROUND LEVEL ELEVATION
EREF.M        554.431              : kb           - ELEVATION OF DEPTH REFERENCE
DATM.M        551.993              : datum        - DATUM ELEVATION
TDD .M        525.78               : tdd          - TOTAL DEPTH DRILLER
RUN .         ONE                  : Run          - RUN NUMBER
ENG .         BILL                 : Engineer     - RECORDING ENGINEER
WIT .         JIM                  : Witness      - WITNESSED BY
MUD .         GEL                  : Mud_type     - MUD TYPE
MATR.         SANDSTONE            : Logunit      - NEUTRON MATRIX
TMAX.C        15                   : BHT          - MAXIMUM RECORDED TEMPERATURE
BHTD.M        526.085              : BHTDEP       - MAXIMUM RECORDED TEMPERATURE
MATR.         1                    : LOGUNIT      - NEUTRON MATRIX
RMT .C        25                   : MDTP         - TEMPERATURE OF MUD
NEUT.         1                    : NEUTRON      - NEUTRON TYPE
RESI.         0                    : RESIST       - RESISTIVITY TYPE
RMC .OHMM     0.25                 : RMC          - RESISTIVITY OF MUD CAKE
RMF .OHMM     0.25                 : RMF          - RESISTIVITY OF MUD FILTRATE
SUFT.C        15                   : SUFT         - SURFACE TEMPERATURE
~A  DEPTH       GR     PHID     PHIN     RESD
  274.320  115.065    0.176    0.491    3.694
  274.570  117.844    0.175    0.499    3.608
  274.820  120.431    0.168    0.506    3.612
  275.070  122.484    0.170    0.512    3.733
  275.320  124.207    0.180    0.516    3.873
  275.570  123.909    0.188    0.497    3.982
  275.820  119.077    0.178    0.476    4.059
  276.070  113.739    0.160    0.463    4.117
  276.320  113.763    0.141    0.463    4.147
  276.570  118.343    0.146    0.479    4.109
  276.820  121.400    0.176    0.491    3.982
  277.070  127.734    0.174    0.494    3.836
  277.320  130.334    0.186    0.497    3.648
  277.570  132.188    0.180    0.502    3.558
  277.820  133.078    0.189    0.505    3.493
  278.070  132.931    0.179    0.506    3.465
  278.320  131.957    0.175    0.498    3.453
  278.570  129.648    0.196    0.505    3.443
  278.820  127.708    0.200    0.501    3.449
  279.070  125.540    0.201    0.488    3.463
  279.320  124.367    0.193    0.487    3.474
  279.570  126.513    0.183    0.500    3.476
  279.820  124.904    0.196    0.505    3.454
  280.070  124.039    0.206    0.496    3.397
  280.320  123.035    0.191    0.498    3.361
  280.570  122.022    0.199    0.502    3.356
  280.820  121.070    0.196    0.506    3.402
  281.070  121.316    0.199    0.502    3.506
  281.320  122.254    0.205    0.484    3.650
  281.570  121.581    0.199    0.482    3.765
  281.820  119.145    0.188    0.491    4.057
  282.070  112.359    0.175    0.471    4.223
  282.320  107.138    0.169    0.430    4.395
  282.570  100.430    0.179    0.391    4.437
  282.820   90.083    0.191    0.378    4.388
  283.070   78.185    0.194    0.374    4.358
  283.320   65.513    0.201    0.366    4.345
  283.570   56.687    0.205    0.352    4.369
  283.820   52.172    0.138    0.340    4.423
  284.070   58.081    0.100    0.340    4.458
  284.320   65.028    0.067    0.365    4.403
  284.570   74.917    0.140    0.404    4.205
  284.820   81.307    0.161    0.432    3.979
  285.070   84.108    0.180    0.431    3.796
  285.320   75.204    0.197    0.412    3.644
  285.570   79.208    0.185    0.403    3.610
  285.820   78.014    0.177    0.424    3.597
  286.070   74.052    0.198    0.424    3.621
  286.320   69.677    0.208    0.417    3.617
  286.570   69.707    0.191    0.416    3.577
  286.820   74.714    0.180    0.423    3.528
  287.070   81.185    0.204    0.439    3.438
  287.320   87.118    0.210    0.455    3.378
  287.570   88.811    0.205    0.470    3.360
  287.820   88.020    0.201    0.451    3.381
  288.070   86.603    0.200    0.431    3.393
  288.320   75.617    0.212    0.416    3.392
  288.570   70.590    0.203    0.405    3.389
  288.820   69.901    0.194    0.406    3.301
  289.070   74.876    0.198    0.414    3.252
  289.320   75.351    0.214    0.424    3.158
  289.570   70.598    0.224    0.406    3.070
  289.820   78.927    0.222    0.427    2.992
  290.070   84.420    0.203    0.460    2.924
  290.320   86.139    0.208    0.460    2.888
  290.570   77.548    0.222    0.421    2.966
  290.820   72.995    0.223    0.410    3.138
  291.070   70.443    0.211    0.416    3.276
  291.320   67.940    0.197    0.404    3.358
  291.570   68.666    0.206    0.408    3.429
  291.820   70.785    0.215    0.414    3.484
  292.070   69.843    0.237    0.419    3.445
  292.320   76.346    0.238    0.424    3.336
  292.570   83.676    0.219    0.427    3.188
  292.820   87.350    0.202    0.446    3.087
  293.070   85.442    0.188    0.444    2.963
  293.320   86.170    0.216    0.433    2.833
  293.570   91.113    0.200    0.439    2.765
  293.820   96.796    0.207    0.508    2.751
  294.070   99.750    0.214    0.527    2.777
  294.320  101.188    0.196    0.531    2.814
  294.570   93.720    0.226    0.484    2.845
  294.820   84.108    0.194    0.452    2.874
  295.070   77.397    0.206    0.446    2.903
  295.320   72.827    0.235    0.450    2.912
  295.570   76.979    0.228    0.457    2.916
  295.820   84.809    0.234    0.480    2.962
  296.070   88.097    0.218    0.499    3.022
  296.320   81.152    0.237    0.478    3.106
  296.570   76.352    0.229    0.456    3.220
  296.820   71.872    0.221    0.442    3.313
  297.070   70.398    0.223    0.430    3.384
  297.320   72.481    0.206    0.443    3.357
  297.570   70.651    0.187    0.448    3.297
  297.820   67.324    0.175    0.427    3.236
  298.070   65.849    0.206    0.417    3.182
  298.320   68.976    0.236    0.408    3.177
  298.570   70.827    0.230    0.418    3.234
  298.820   72.851    0.219    0.428    3.333
  299.070   75.969    0.215    0.448    3.409
  299.320   76.329    0.199    0.462    3.461
  299.570   72.495    0.204    0.464    3.452
  299.820   69.678    0.224    0.438    3.375
  300.070   72.797    0.232    0.428    3.272
  300.320   82.336    0.216    0.437    3.216
  300.570   89.424    0.197    0.466    3.209
  300.820   95.585    0.198    0.487    3.236
  301.070  100.005    0.196    0.504    3.308
  301.320   99.570    0.179    0.508    3.373
  301.570   98.396    0.175    0.504    3.399
  301.820   99.107    0.172    0.506    3.389
  302.070  101.836    0.179    0.511    3.286
  302.320  105.311    0.184    0.503    3.232
  302.570  108.291    0.181    0.490    3.191
  302.820  109.275    0.201    0.484    3.154
  303.070  108.601    0.189    0.494    3.154
  303.320  106.969    0.191    0.498    3.184
  303.570  105.078    0.190    0.498    3.206
  303.820  102.593    0.195    0.485    3.232
  304.070  102.731    0.202    0.466    3.188
  304.320  105.071    0.197    0.473    3.123
  304.570  106.796    0.185    0.504    3.036
  304.820  106.525    0.175    0.530    2.950
  305.070  105.752    0.205    0.544    2.860
  305.320  105.607    0.216    0.550    2.747
  305.570  104.438    0.246    0.555    2.639
  305.820  101.189    0.239    0.560    2.518
  306.070   99.603    0.255    0.570    2.432
  306.320  100.435    0.251    0.583    2.357
  306.570  104.014    0.248    0.598    2.276
  306.820  105.574    0.237    0.609    2.200
  307.070  105.029    0.230    0.618    2.149
  307.320  103.200    0.217    0.623    2.127
  307.570  102.240    0.249    0.624    2.144
  307.820  102.344    0.219    0.624    2.179
  308.070  103.236    0.225    0.623    2.238
  308.320  104.128    0.238    0.608    2.300
  308.570  104.992    0.245    0.599    2.358
  308.820  104.021    0.256    0.581    2.422
  309.070  101.344    0.254    0.559    2.458
  309.320   98.529    0.247    0.572    2.484
  309.570   98.721    0.228    0.557    2.501
  309.820  101.770    0.211    0.549    2.491
  310.070  104.858    0.220    0.541    2.457
  310.320  104.828    0.224    0.556    2.414
  310.570  103.767    0.214    0.556    2.390
  310.820  101.833    0.210    0.553    2.391
  311.070   99.292    0.209    0.568    2.446
  311.320   97.933    0.197    0.580    2.511
  311.570   97.086    0.186    0.589    2.569
  311.820   98.033    0.199    0.595    2.623
  312.070  100.947    0.202    0.589    2.641
  312.320  101.332    0.193    0.570    2.640
  312.570  100.046    0.222    0.548    2.622
  312.820  100.543    0.218    0.541    2.565
  313.070  102.577    0.207    0.548    2.593
  313.320  104.840    0.202    0.556    2.543
  313.570  106.438    0.194    0.561    2.544
  313.820  106.063    0.199    0.550    2.557
  314.070  104.675    0.217    0.535    2.576
  314.320  105.751    0.212    0.530    2.617
  314.570  106.635    0.194    0.544    2.659
  314.820  106.898    0.181    0.570    2.708
  315.070  106.036    0.204    0.577    2.833
  315.320  105.464    0.216    0.547    2.922
  315.570  106.556    0.190    0.520    2.995
  315.820  108.080    0.146    0.509    3.061
  316.070  109.697    0.157    0.495    3.135
  316.320  111.147    0.176    0.508    3.212
  316.570  111.629    0.158    0.529    3.252
  316.820  108.317    0.162    0.547    3.271
  317.070  103.782    0.170    0.523    3.279
  317.320  103.902    0.183    0.504    3.280
  317.570  105.369    0.165    0.510    3.261
