~VERSION INFORMATION
 VERS.                 2.0:   CWLS LOG ASCII STANDARD -VERSION 2.0
 WRAP.                  NO:   ONE LINE PER DEPTH STEP
~WELL INFORMATION BLOCK
#MNEM.UNIT           DATA                    DESCRIPTION OF MNEMONIC
#---------    -------------------            -------------------------------
# Generated from Intellog Unique Number	CC_88_90/WELL/1069
WELL.         COSEKA BCRIC MCKAY R           : Well_name    - WELL
LOC .         00/07-17-090-17W4/0            : Location     - LOCATION
UWI .         00/07-17-090-17W400            : Uwi          - UNIQUE WELL ID
ENTR.         RJA                            : Entered      - ENTERED BY
SRVC.         SCHLUMBERGER                   : Scn          - SERVICE COMPANY
STRT.M        90.000                         : top_depth    - START DEPTH
STOP.M        223.750                        : bot_depth    - STOP DEPTH
STEP.M        0.25                           : increment    - STEP LENGTH
 NULL. -999.2500:NULL Value
~CURVE INFORMATION BLOCK
#MNEM UNIT       ERCB CURVE CODE    CURVE DESCRIPTION
#-----------   ------------------   ----------------------------------
DEPT.M        00 001 00 00         : DEPTH        - DEPTH
GR  .API      00 310 00 00         : GR           - GAMMA RAY
DPHI.V/V      00 890 00 00         : PHID         - DENSITY POROSITY (SANDSTONE)
NPHI.V/V      00 330 00 00         : PHIN         - NEUTRON POROSITY (SANDSTONE)
ILD .OHMM     00 120 00 00         : RESD         - DEEP RESISTIVITY (DIL)
~PARAMETER INFORMATION
#MNEM.UNIT           DATA             DESCRIPTION OF MNEMONIC
#---------         -----------     ------------------------------
GL  .M        480.575              : gl           - GROUND LEVEL ELEVATION
EREF.M        483.475              : kb           - ELEVATION OF DEPTH REFERENCE
DATM.M        483.475              : datum        - DATUM ELEVATION
TDD .M        225                  : tdd          - TOTAL DEPTH DRILLER
RUN .         ONE                  : Run          - RUN NUMBER
ENG .         BILL                 : Engineer     - RECORDING ENGINEER
WIT .         JIM                  : Witness      - WITNESSED BY
MUD .         GEL                  : Mud_type     - MUD TYPE
MATR.         SANDSTONE            : Logunit      - NEUTRON MATRIX
TMAX.C        16.7                 : BHT          - MAXIMUM RECORDED TEMPERATURE
BHTD.M        225                  : BHTDEP       - MAXIMUM RECORDED TEMPERATURE
MATR.         1                    : LOGUNIT      - NEUTRON MATRIX
RMT .C        25                   : MDTP         - TEMPERATURE OF MUD
NEUT.         1                    : NEUTRON      - NEUTRON TYPE
RESI.         0                    : RESIST       - RESISTIVITY TYPE
RMC .OHMM     0.25                 : RMC          - RESISTIVITY OF MUD CAKE
RMF .OHMM     0.25                 : RMF          - RESISTIVITY OF MUD FILTRATE
SUFT.C        15                   : SUFT         - SURFACE TEMPERATURE
~A  DEPTH       GR     PHID     PHIN     RESD
   90.000   92.801    0.305    0.599    3.827
   90.250   95.125    0.292    0.617    3.887
   90.500   96.597    0.278    0.586    3.870
   90.750   96.545    0.286    0.564    3.851
   91.000   95.044    0.285    0.562    3.839
   91.250   93.179    0.278    0.562    3.812
   91.500   91.930    0.303    0.560    3.812
   91.750   91.194    0.288    0.557    3.895
   92.000   91.081    0.282    0.570    4.030
   92.250   88.226    0.282    0.553    4.380
   92.500   84.563    0.287    0.528    4.841
   92.750   82.869    0.289    0.532    5.205
   93.000   80.989    0.269    0.528    5.646
   93.250   78.638    0.269    0.510    6.489
   93.500   75.312    0.234    0.472    7.486
   93.750   72.803    0.207    0.436    8.595
   94.000   70.733    0.201    0.432   10.452
   94.250   70.788    0.213    0.445   12.084
   94.500   73.907    0.259    0.439   11.942
   94.750   71.085    0.265    0.437   12.087
   95.000   70.048    0.266    0.429   11.945
   95.250   71.995    0.278    0.444   11.591
   95.500   73.535    0.279    0.453   11.432
   95.750   72.748    0.264    0.442   11.702
   96.000   69.737    0.251    0.449   12.479
   96.250   66.750    0.240    0.435   13.366
   96.500   67.240    0.284    0.439   14.392
   96.750   66.657    0.286    0.459   15.652
   97.000   62.806    0.257    0.466   17.015
   97.250   58.411    0.254    0.442   19.512
   97.500   54.948    0.207    0.397   24.682
   97.750   51.906    0.106    0.342   30.970
   98.000   52.200    0.077    0.265   34.962
   98.250   54.667    0.110    0.287   35.304
   98.500   57.654    0.187    0.387   31.555
   98.750   59.108    0.270    0.446   23.521
   99.000   57.309    0.278    0.455   15.113
   99.250   55.442    0.257    0.455   14.209
   99.500   53.480    0.236    0.474   14.666
   99.750   53.481    0.263    0.459   15.334
  100.000   55.524    0.298    0.454   16.682
  100.250   57.452    0.302    0.469   17.855
  100.500   57.997    0.306    0.426   18.872
  100.750   57.398    0.299    0.426   19.658
  101.000   58.595    0.293    0.445   18.817
  101.250   62.181    0.282    0.447   16.665
  101.500   65.668    0.278    0.436   15.071
  101.750   66.927    0.283    0.438   14.767
  102.000   67.198    0.279    0.454   14.680
  102.250   69.439    0.287    0.462   14.550
  102.500   72.700    0.288    0.472   14.540
  102.750   73.703    0.281    0.473   11.684
  103.000   76.002    0.265    0.454    8.248
  103.250   82.439    0.257    0.444    7.080
  103.500   87.829    0.268    0.481    6.101
  103.750   88.709    0.238    0.533    5.445
  104.000   86.540    0.218    0.551    5.008
  104.250   89.144    0.185    0.526    4.657
  104.500   94.577    0.177    0.514    4.420
  104.750   97.887    0.225    0.538    4.283
  105.000  100.446    0.263    0.548    4.174
  105.250  100.117    0.278    0.536    4.212
  105.500   97.550    0.281    0.515    4.361
  105.750   93.323    0.258    0.518    4.812
  106.000   87.454    0.240    0.511    5.528
  106.250   80.473    0.250    0.475    6.317
  106.500   74.100    0.255    0.469    6.935
  106.750   71.035    0.264    0.483    6.944
  107.000   73.127    0.276    0.489    6.796
  107.250   73.567    0.272    0.498    6.637
  107.500   69.655    0.250    0.508    7.013
  107.750   62.650    0.232    0.496    8.799
  108.000   53.652    0.245    0.466   11.656
  108.250   47.768    0.279    0.444   14.768
  108.500   42.924    0.208    0.371   22.192
  108.750   40.173    0.133    0.300   27.727
  109.000   40.245    0.116    0.280   31.913
  109.250   41.789    0.117    0.285   36.732
  109.500   43.700    0.118    0.288   37.517
  109.750   45.605    0.128    0.301   36.879
  110.000   47.960    0.163    0.317   35.391
  110.250   50.067    0.159    0.341   30.942
  110.500   53.109    0.179    0.369   22.119
  110.750   59.229    0.257    0.396   13.011
  111.000   68.571    0.276    0.427    9.118
  111.250   77.301    0.257    0.465    7.494
  111.500   74.590    0.271    0.499    7.009
  111.750   66.175    0.296    0.501    7.363
  112.000   60.342    0.309    0.470    8.827
  112.250   57.639    0.312    0.453   11.019
  112.500   55.578    0.313    0.468   12.873
  112.750   54.397    0.327    0.448   14.552
  113.000   55.926    0.287    0.433   15.133
  113.250   60.475    0.262    0.455   14.584
  113.500   64.667    0.249    0.469   13.658
  113.750   68.570    0.215    0.451   12.545
  114.000   75.033    0.210    0.450   10.770
  114.250   79.247    0.240    0.479    8.699
  114.500   83.519    0.263    0.511    7.521
  114.750   84.536    0.282    0.505    7.110
  115.000   81.264    0.283    0.488    7.133
  115.250   77.817    0.256    0.496    7.379
  115.500   77.274    0.241    0.503    7.496
  115.750   78.644    0.260    0.487    7.458
  116.000   80.329    0.262    0.487    7.098
  116.250   82.096    0.255    0.497    6.698
  116.500   83.276    0.266    0.491    6.235
  116.750   81.335    0.273    0.477    5.895
  117.000   76.032    0.248    0.478    6.259
  117.250   73.062    0.235    0.481    7.376
  117.500   71.055    0.217    0.467   10.207
  117.750   70.002    0.211    0.452   12.673
  118.000   70.142    0.221    0.451   14.605
  118.250   71.093    0.231    0.461   14.650
  118.500   72.547    0.229    0.469   10.460
  118.750   74.262    0.215    0.489    7.208
  119.000   79.493    0.164    0.505    5.738
  119.250   87.056    0.152    0.502    4.805
  119.500   92.828    0.168    0.515    4.007
  119.750   94.388    0.153    0.551    3.828
  120.000   94.870    0.133    0.544    4.290
  120.250  100.587    0.144    0.486    4.614
  120.500  106.052    0.198    0.492    4.667
  120.750  107.082    0.219    0.491    4.633
  121.000  105.509    0.219    0.481    4.587
  121.250  102.846    0.233    0.507    4.520
  121.500   97.044    0.225    0.523    4.552
  121.750   87.878    0.221    0.526    4.877
  122.000   76.391    0.211    0.503    5.489
  122.250   70.052    0.226    0.480    6.755
  122.500   68.019    0.253    0.471    8.166
  122.750   65.404    0.270    0.466    9.544
  123.000   62.612    0.285    0.453   11.552
  123.250   59.174    0.273    0.427   13.476
  123.500   56.613    0.268    0.421   14.956
  123.750   55.004    0.285    0.415   16.096
  124.000   53.041    0.294    0.413   17.019
  124.250   50.750    0.272    0.416   17.668
  124.500   49.680    0.256    0.400   17.982
  124.750   49.908    0.296    0.404   18.133
  125.000   51.281    0.306    0.419   18.278
  125.250   53.886    0.273    0.395   18.206
  125.500   56.601    0.251    0.376   19.051
  125.750   57.598    0.258    0.403   23.177
  126.000   55.590    0.237    0.417   30.053
  126.250   51.466    0.142    0.376   33.567
  126.500   53.300    0.070    0.291   31.660
  126.750   65.860    0.062    0.288   27.639
  127.000   77.902    0.132    0.362   22.346
  127.250   81.560    0.220    0.415   17.009
  127.500   83.250    0.237    0.427   14.785
  127.750   82.051    0.241    0.419   13.115
  128.000   80.006    0.224    0.418   12.072
  128.250   79.888    0.219    0.413   11.830
  128.500   78.954    0.221    0.423   12.078
  128.750   75.236    0.205    0.447   12.852
  129.000   73.055    0.189    0.439   14.066
  129.250   75.306    0.174    0.420   14.668
  129.500   79.686    0.166    0.414   15.402
  129.750   81.981    0.187    0.420   15.452
  130.000   83.852    0.222    0.432   14.703
  130.250   86.856    0.231    0.448   13.949
  130.500   88.221    0.212    0.462   13.456
  130.750   89.049    0.211    0.445   13.326
  131.000   88.967    0.212    0.407   13.468
  131.250   87.434    0.216    0.392   13.961
  131.500   84.231    0.227    0.407   14.300
  131.750   78.493    0.240    0.423   14.197
  132.000   71.691    0.256    0.437   14.444
  132.250   69.502    0.272    0.455   15.547
  132.500   67.066    0.250    0.435   16.256
  132.750   65.505    0.224    0.421   16.751
  133.000   65.481    0.221    0.417   17.014
  133.250   67.144    0.228    0.414   16.546
