~VERSION INFORMATION
 VERS.                 2.0:   CWLS LOG ASCII STANDARD -VERSION 2.0
 WRAP.                  NO:   ONE LINE PER DEPTH STEP
~WELL INFORMATION BLOCK
#MNEM.UNIT           DATA                    DESCRIPTION OF MNEMONIC
#---------    -------------------            -------------------------------
# Generated from Intellog Unique Number	CS_77_79/WELL/897
WELL.         KANDEX CAN-SUP THORNBURY       : Well_name    - WELL
LOC .         00/07-14-078-13W4/0            : Location     - LOCATION
UWI .         00/07-14-078-13W4/0            : Uwi          - UNIQUE WELL ID
ENTR.         JHS                            : Entered      - ENTERED BY
SRVC.         SCHLUMBERGER                   : Scn          - SERVICE COMPANY
STRT.M        259.080                        : top_depth    - START DEPTH
STOP.M        487.330                        : bot_depth    - STOP DEPTH
STEP.M        0.25                           : increment    - STEP LENGTH
 NULL. -999.2500:NULL Value
~CURVE INFORMATION BLOCK
#MNEM UNIT       ERCB CURVE CODE    CURVE DESCRIPTION
#-----------   ------------------   ----------------------------------
DEPT.M        00 001 00 00         : DEPTH        - DEPTH
RHOB.KG/M3    00 350 00 00         : DENS         - BULK DENSITY
GR  .API      00 310 00 00         : GR           - GAMMA RAY
DPHI.V/V      00 890 00 00         : PHID         - DENSITY POROSITY (SANDSTONE)
NPHI.V/V      00 330 00 00         : PHIN         - NEUTRON POROSITY (SANDSTONE)
ILD .OHMM     00 120 00 00         : RESD         - DEEP RESISTIVITY (DIL)
~PARAMETER INFORMATION
#MNEM.UNIT           DATA             DESCRIPTION OF MNEMONIC
#---------         -----------     ------------------------------
GL  .M        681.533              : gl           - GROUND LEVEL ELEVATION
EREF.M        684.886              : kb           - ELEVATION OF DEPTH REFERENCE
DATM.M        684.886              : datum        - DATUM ELEVATION
TDD .M        492.252              : tdd          - TOTAL DEPTH DRILLER
RUN .         ONE                  : Run          - RUN NUMBER
ENG .         BILL                 : Engineer     - RECORDING ENGINEER
WIT .         JIM                  : Witness      - WITNESSED BY
MUD .         GEL                  : Mud_type     - MUD TYPE
MATR.         SANDSTONE            : Logunit      - NEUTRON MATRIX
TMAX.C        21.1111              : BHT          - MAXIMUM RECORDED TEMPERATURE
BHTD.M        492.252              : BHTDEP       - MAXIMUM RECORDED TEMPERATURE
MATR.         1                    : LOGUNIT      - NEUTRON MATRIX
RMT .C        25                   : MDTP         - TEMPERATURE OF MUD
NEUT.         1                    : NEUTRON      - NEUTRON TYPE
RESI.         0                    : RESIST       - RESISTIVITY TYPE
RMC .OHMM     0.25                 : RMC          - RESISTIVITY OF MUD CAKE
RMF .OHMM     0.25                 : RMF          - RESISTIVITY OF MUD FILTRATE
SUFT.C        15                   : SUFT         - SURFACE TEMPERATURE
~A  DEPTH     DENS       GR     PHID     PHIN     RESD
# ...
  441.580 2377.530  104.866    0.194    0.479    4.430
  441.830 2412.570  106.293    0.174    0.470    4.424
  442.080 2422.600  106.381    0.168    0.474    4.423
  442.330 2365.100  107.436    0.202    0.460    4.559
  442.580 2345.260  108.160    0.213    0.467    4.708
  442.830 2362.340  106.320    0.203    0.501    4.923
  443.080 2375.090  104.960    0.196    0.480    5.248
  443.330 2402.140  105.763    0.180    0.450    5.593
  443.580 2450.100  109.912    0.152    0.438    6.003
  443.830 2426.900  112.266    0.166    0.443    6.737
  444.080 2354.710  109.002    0.208    0.434    7.260
  444.330 2336.020  100.356    0.220    0.413    8.489
  444.580 2331.540   91.555    0.225    0.394    9.707
  444.830 2236.790   88.978    0.238    0.391   10.994
  445.080 1109.580   96.231    0.266    0.417   12.109
  445.330 2351.720   93.062    0.276    0.410   12.049
  445.580 2181.910   86.263    0.282    0.405   11.533
  445.830 2229.110   85.409    0.278    0.407   11.162
  446.080 2223.360   91.639    0.285    0.404   10.837
  446.330 2287.850   93.995    0.247    0.419   10.711
  446.580 2310.010   92.829    0.234    0.431   10.949
  446.830 2302.890   89.874    0.238    0.435   11.275
  447.080 2265.060   94.280    0.260    0.422   12.333
  447.330 2290.850   97.833    0.245    0.422   13.753
  447.580 2301.610  104.535    0.239    0.410   12.874
  447.830 2310.740  113.910    0.233    0.407   11.435
  448.080 2336.800  122.527    0.218    0.422    9.663
  448.330 2355.960  127.587    0.207    0.442    7.840
  448.580 2363.060  130.896    0.203    0.442    7.376
  448.830 2339.080  130.037    0.217    0.436    7.477
  449.080 2340.960  125.205    0.216    0.435    8.568
  449.330 2349.600  115.586    0.211    0.436   10.250
  449.580 2330.070  107.752    0.222    0.430   11.944
  449.830 2340.260  100.619    0.216    0.387   13.412
  450.080 2361.050   93.744    0.204    0.351   13.759
  450.330 2384.610   95.835    0.190    0.339   13.766
  450.580 2360.480   99.565    0.204    0.360   13.900
  450.830 2347.710   98.540    0.212    0.380   14.391
  451.080 2338.500   95.709    0.217    0.380   14.843
  451.330 2343.810   85.732    0.214    0.366   15.794
  451.580 2296.290   81.913    0.242    0.357   16.842
  451.830 2271.480   86.644    0.256    0.375   19.247
  452.080 2311.150   87.580    0.233    0.370   20.416
  452.330 2335.800   84.192    0.219    0.370   22.340
  452.580 2321.540   77.016    0.227    0.380   24.558
  452.830 2218.930   70.847    0.287    0.392   26.962
  453.080 2212.140   70.847    0.291    0.406   29.708
  453.330 2227.190   72.867    0.282    0.413   29.826
  453.580 2215.970   80.218    0.289    0.421   28.997
  453.830 2206.640   87.830    0.294    0.414   25.170
  454.080 2311.250   96.103    0.233    0.407   21.442
  454.330 2336.500  102.645    0.218    0.411   18.230
  454.580 2360.450  105.225    0.204    0.403   16.266
  454.830 2380.390  103.367    0.193    0.405   16.114
  455.080 2396.330   96.820    0.183    0.399   16.291
  455.330 2423.030   91.714    0.168    0.386   16.834
  455.580 2448.820   86.975    0.153    0.361   17.468
  455.830 2456.090   81.213    0.148    0.347   18.652
  456.080 2300.820   77.776    0.239    0.362   19.655
  456.330 2178.180   71.933    0.311    0.364   22.298
  456.580 2135.710   63.015    0.336    0.303   25.573
  456.830 2093.470   49.927    0.361    0.261   30.646
  457.080 2062.890   50.501    0.378    0.259   43.748
  457.330 2110.980   55.993    0.350    0.327   60.560
  457.580 2169.230   60.419    0.316    0.394   74.167
  457.830 2197.330   62.015    0.300    0.402   72.172
  458.080 2175.920   64.092    0.312    0.413   43.027
  458.330 2187.930   71.786    0.305    0.407   33.090
  458.580 2222.950   80.499    0.285    0.397   29.324
  458.830 2247.190   83.855    0.271    0.394   27.048
  459.080 2265.400   84.062    0.260    0.407   28.466
  459.330 2245.720   79.566    0.272    0.427   31.697
  459.580 2248.820   72.567    0.270    0.454   34.534
  459.830 2243.000   70.582    0.273    0.433   38.443
  460.080 2208.080   75.728    0.294    0.436   42.279
  460.330 2187.330   82.141    0.306    0.430   43.199
  460.580 2182.520   85.266    0.308    0.414   40.033
  460.830 2182.800   85.660    0.308    0.408   36.626
  461.080 2177.530   87.342    0.311    0.407   34.078
  461.330 2203.080   89.004    0.296    0.412   30.375
  461.580 2241.030   91.628    0.274    0.418   26.207
  461.830 2256.770   94.637    0.265    0.425   24.023
  462.080 2266.690   95.769    0.259    0.425   19.638
  462.330 2261.150   95.750    0.262    0.426   17.438
  462.580 2298.220   97.692    0.241    0.435   14.601
  462.830 2322.700  101.201    0.226    0.421   12.703
  463.080 2332.560  106.702    0.221    0.412   10.867
  463.330 2356.350  118.405    0.207    0.411    9.761
  463.580 2390.400  121.542    0.187    0.403    8.730
  463.830 2385.500  123.456    0.190    0.399    8.721
  464.080 2353.970  119.157    0.208    0.415    9.881
  464.330 2353.170  113.613    0.209    0.425   13.093
  464.580 2349.870  104.999    0.211    0.444   16.997
  464.830 2294.630   92.189    0.243    0.438   21.628
  465.080 2290.990   72.365    0.245    0.385   23.920
  465.330 2358.540   71.963    0.206    0.344   24.485
  465.580 2410.150   76.002    0.175    0.350   23.442
  465.830 2373.280   83.064    0.197    0.383   21.274
  466.080 2267.570   90.164    0.259    0.402   18.683
  466.330 2267.220   98.459    0.259    0.400   15.792
  466.580 2302.810  102.265    0.238    0.385   13.617
  466.830 2341.200  107.621    0.216    0.375   12.627
  467.080 2372.430  115.305    0.197    0.378   11.504
  467.330 2368.870  122.090    0.199    0.394   10.887
  467.580 2385.890  131.287    0.190    0.401   10.597
  467.830 2360.190  135.292    0.205    0.387   10.494
  468.080 2344.680  138.610    0.214    0.384   10.191
  468.330 2374.470  143.392    0.196    0.394    9.710
  468.580 2417.220  147.676    0.171    0.405    9.417
  468.830 2443.950  148.462    0.156    0.424    9.389
  469.080 2427.000  140.479    0.165    0.424    9.402
  469.330 2383.400  131.093    0.191    0.405    9.405
  469.580 2393.290  120.625    0.185    0.406    9.663
  469.830 2396.350  111.993    0.183    0.427    9.803
  470.080 2382.430  108.028    0.192    0.426   10.027
  470.330 2376.680  108.308    0.195    0.412   10.243
  470.580 2353.050  109.107    0.209    0.399   10.229
  470.830 2352.970  104.853    0.209    0.401   10.490
  471.080 2353.750  103.551    0.208    0.414   10.489
  471.330 2369.080  104.861    0.199    0.423   10.508
  471.580 2349.940  107.597    0.211    0.407   10.525
  471.830 2353.460  107.968    0.209    0.389   10.549
  472.080 2362.250  108.037    0.203    0.395   10.574
  472.330 2356.430  108.391    0.207    0.401   10.626
  472.580 2360.660  106.450    0.204    0.403   10.820
  472.830 2354.880  102.656    0.208    0.396   10.940
  473.080 2344.080  102.041    0.214    0.388   11.088
  473.330 2355.200  102.597    0.207    0.383   11.277
  473.580 2385.120  102.762    0.190    0.387   11.532
  473.830 2379.100  102.119    0.194    0.399   11.788
  474.080 2334.070  101.169    0.220    0.405   12.169
  474.330 2319.750  100.185    0.228    0.409   12.584
  474.580 2299.390   99.249    0.240    0.427   12.754
  474.830 2303.310   95.460    0.238    0.433   12.023
  475.080 2292.460   95.162    0.244    0.416   11.420
  475.330 2328.720  100.284    0.223    0.405   11.259
  475.580 2347.750  105.462    0.212    0.400   11.282
  475.830 2370.300  107.842    0.199    0.413   11.328
  476.080 2385.080  105.175    0.190    0.425   11.538
  476.330 2395.870  104.626    0.184    0.420   11.569
  476.580 2392.660  101.791    0.186    0.404   11.329
  476.830 2368.970  101.533    0.199    0.384   10.996
  477.080 2403.180  106.902    0.179    0.381   10.970
  477.330 2414.150  110.811    0.173    0.396   11.222
  477.580 2432.340  115.450    0.162    0.410   11.765
  477.830 2344.980  118.167    0.213    0.399   12.334
