~VERSION INFORMATION
 VERS.                 2.0:   CWLS LOG ASCII STANDARD -VERSION 2.0
 WRAP.                  NO:   ONE LINE PER DEPTH STEP
~WELL INFORMATION BLOCK
#MNEM.UNIT           DATA                    DESCRIPTION OF MNEMONIC
#---------    -------------------            -------------------------------
# Generated from Intellog Unique Number	CS_77_79/WELL/886
WELL.         PEX LOUGHERY                   : Well_name    - WELL
LOC .         00/06-30-078-05W4/0            : Location     - LOCATION
UWI .         00/06-30-078-05W4/0            : Uwi          - UNIQUE WELL ID
ENTR.         JHS                            : Entered      - ENTERED BY
SRVC.         SCHLUMBERGER                   : Scn          - SERVICE COMPANY
STRT.M        115                            : top_depth    - START DEPTH
STOP.M        390                            : bot_depth    - STOP DEPTH
STEP.M        0.25                           : increment    - STEP LENGTH
 NULL. -999.2500:NULL Value
~CURVE INFORMATION BLOCK
#MNEM UNIT       ERCB CURVE CODE    CURVE DESCRIPTION
#-----------   ------------------   ----------------------------------
DEPT.M        00 001 00 00         : DEPTH        - DEPTH
DPHI.V/V      00 890 00 00         : PHID         - DENSITY POROSITY (LIMESTONE)
NPHI.V/V      00 330 00 00         : PHIN         - NEUTRON POROSITY (LIMESTONE)
GR  .API      00 310 00 00         : GR           - GAMMA RAY
ILD .OHMM     00 120 00 00         : RESD         - DEEP RESISTIVITY (DIL)
RHOB.KG/M3    00 350 00 00         : DENS         - BULK DENSITY
~PARAMETER INFORMATION
#MNEM.UNIT           DATA             DESCRIPTION OF MNEMONIC
#---------         -----------     ------------------------------
GL  .M        552.72               : gl           - GROUND LEVEL ELEVATION
EREF.M        555.82               : kb           - ELEVATION OF DEPTH REFERENCE
DATM.M        555.82               : datum        - DATUM ELEVATION
TDD .M        398                  : tdd          - TOTAL DEPTH DRILLER
RUN .         ONE                  : Run          - RUN NUMBER
ENG .         BILL                 : Engineer     - RECORDING ENGINEER
WIT .         JIM                  : Witness      - WITNESSED BY
MUD .         GEL                  : Mud_type     - MUD TYPE
MATR.         LIMESTONE            : Logunit      - NEUTRON MATRIX
TMAX.C        18.5                 : BHT          - MAXIMUM RECORDED TEMPERATURE
BHTD.M        398                  : BHTDEP       - MAXIMUM RECORDED TEMPERATURE
MATR.         1                    : LOGUNIT      - NEUTRON MATRIX
RMT .C        25                   : MDTP         - TEMPERATURE OF MUD
NEUT.         1                    : NEUTRON      - NEUTRON TYPE
RESI.         0                    : RESIST       - RESISTIVITY TYPE
RMC .OHMM     0.25                 : RMC          - RESISTIVITY OF MUD CAKE
RMF .OHMM     0.25                 : RMF          - RESISTIVITY OF MUD FILTRATE
SUFT.C        15                   : SUFT         - SURFACE TEMPERATURE
~A  DEPTH     PHID     PHIN       GR     RESD     DENS
# ...
  370.500    0.273    0.412   75.524    6.303 2242.960
  370.750    0.242    0.433   80.403    6.302 2295.520
  371.000    0.265    0.423   77.965    6.419 2257.680
  371.250    0.244    0.410   87.112    6.664 2293.430
  371.500    0.225    0.413   95.040    7.050 2324.970
  371.750    0.240    0.429   95.041    7.745 2299.740
  372.000    0.245    0.419   82.847    8.038 2291.340
  372.250    0.244    0.417   74.312    8.035 2293.440
  372.500    0.246    0.411   69.435    8.032 2289.240
  372.750    0.249    0.395   70.655    7.880 2285.040
  373.000    0.245    0.381   76.754    7.444 2291.350
  373.250    0.235    0.396   79.194    7.165 2308.180
  373.500    0.221    0.386   87.122    7.028 2331.310
  373.750    0.225    0.378   90.172    6.894 2325.000
  374.000    0.273    0.445   73.709    6.637 2243.010
  374.250    0.310    0.426   59.077    6.037 2179.940
  374.500    0.299    0.410   64.566    5.491 2198.870
  374.750    0.282    0.406   67.006    5.286 2228.300
  375.000    0.268    0.437   65.177    5.284 2251.430
  375.250    0.274    0.406   56.032    5.282 2240.930
  375.500    0.294    0.386   47.496    5.380 2207.290
  375.750    0.321    0.370   39.571    5.379 2161.040
  376.000    0.320    0.354   47.498    5.276 2163.150
  376.250    0.274    0.386   61.524    5.079 2240.940
  376.500    0.240    0.443   64.574    4.889 2299.810
  376.750    0.284    0.389   43.233    4.887 2224.130
  377.000    0.294    0.360   30.430    4.978 2207.310
  377.250    0.285    0.348   32.260    5.071 2222.030
  377.500    0.277    0.386   57.261    5.165 2236.750
  377.750    0.271    0.445   97.506    5.067 2247.270
  378.000    0.331    0.512  111.532    4.971 2144.250
  378.250    0.386    0.547  115.802    4.785 2049.650
  378.500    0.412    0.595  111.534    4.694 2005.500
  378.750    0.470    0.622   89.584    4.966 1906.690
  379.000    0.481    0.631   96.902    5.773 1887.770
  379.250    0.472    0.646  107.269    6.463 1902.490
  379.500    0.433    0.647  113.368    6.966 1969.770
  379.750    0.381    0.595  111.540    6.834 2058.080
  380.000    0.189    0.444  105.443    6.455 2386.070
  380.250    0.177    0.408  105.444    6.332    0.000
  380.500    0.178    0.391  106.665    6.574    0.000
  380.750    0.224    0.394  103.617    6.824    0.000
  381.000    0.237    0.417  103.008    7.219    0.000
  381.250    0.196    0.441   99.351    7.353    0.000
  381.500    0.172    0.454   88.376    7.633    0.000
  381.750    0.129    0.454   74.353    7.924    0.000
  382.000    0.100    0.439   65.208    8.225    0.000
  382.250    0.074    0.432   67.038    8.539    0.000
  382.500    0.043    0.454   84.722    8.864    0.000
  382.750    0.037    0.430   91.430    9.202    0.000
  383.000    0.108    0.423   95.700    9.552    0.000
  383.250    0.199    0.411   99.969   10.493    0.000
  383.500    0.161    0.385  104.239   11.528    0.000
  383.750    0.118    0.293   70.093   12.428    0.000
  384.000    0.074    0.236   45.704   13.398    0.000
  384.250    0.046    0.212   28.632   16.174    0.000
  384.500    0.031    0.192   17.657   19.524    0.000
  384.750    0.017    0.177   15.829   21.450    0.000
  385.000    0.007    0.170   17.050   24.013    0.000
  385.250    0.001    0.181   21.319   26.381    0.000
  385.500    0.017    0.184   20.710   25.877    0.000
  385.750    0.032    0.175   18.272   25.384    0.000
  386.000    0.033    0.160   15.225   28.415    0.000
  386.250    0.032    0.151   13.396   33.035    0.000
  386.500    0.036    0.145   12.178   39.884    0.000
  386.750    0.030    0.145   11.569   49.070    0.000
  387.000    0.020    0.150   12.180   61.519    0.000
  387.250    0.009    0.156   12.791   68.867    0.000
  387.500    0.017    0.162   14.011   67.549    0.000
  387.750    0.048    0.164   15.232   63.814    0.000
  388.000    0.149    0.181   18.892   50.860    0.000
  388.250    0.188    0.239   23.161   36.890    0.000
  388.500    0.160    0.240   24.382   32.928    0.000
  388.750    0.060    0.214   24.383   34.833    0.000
  389.000    0.032    0.189   23.774   36.846    0.000
  389.250    0.023    0.168   24.995   38.978    0.000
  389.500    0.018    0.161   24.996   42.021    0.000
  389.750    0.015    0.155   24.387   46.162    0.000
  390.000    0.011    0.151   26.218   45.281    0.000
