~VERSION INFORMATION
 VERS.                 2.0:   CWLS LOG ASCII STANDARD -VERSION 2.0
 WRAP.                  NO:   ONE LINE PER DEPTH STEP
~WELL INFORMATION BLOCK
#MNEM.UNIT           DATA                    DESCRIPTION OF MNEMONIC
#---------    -------------------            -------------------------------
# Generated from Intellog Unique Number	CS_73_76/WELL/2388
WELL.         07-24-075-13W4                 : Well_name    - WELL
LOC .         00/07-24-075-13W4/0            : Location     - LOCATION
UWI .         00/07-24-075-13W4/0            : Uwi          - UNIQUE WELL ID
ENTR.         SP                             : Entered      - ENTERED BY
SRVC.         SCHLUMBERGER                   : Scn          - SERVICE COMPANY
STRT.M        323.088                        : top_depth    - START DEPTH
STOP.M        548.338                        : bot_depth    - STOP DEPTH
STEP.M        0.25                           : increment    - STEP LENGTH
 NULL. -999.2500:NULL Value
~CURVE INFORMATION BLOCK
#MNEM UNIT       ERCB CURVE CODE    CURVE DESCRIPTION
#-----------   ------------------   ----------------------------------
DEPT.M        00 001 00 00         : DEPTH        - DEPTH
GR  .API      00 310 00 00         : GR           - GAMMA RAY
DPHI.V/V      00 890 00 00         : PHID         - DENSITY POROSITY (SANDSTONE)
NPHI.V/V      00 330 00 00         : PHIN         - NEUTRON POROSITY (SANDSTONE)
ILD .OHMM     00 120 00 00         : RESD         - DEEP RESISTIVITY (DIL)
~PARAMETER INFORMATION
#MNEM.UNIT           DATA             DESCRIPTION OF MNEMONIC
#---------         -----------     ------------------------------
GL  .M        698.602              : gl           - GROUND LEVEL ELEVATION
EREF.M        702.869              : kb           - ELEVATION OF DEPTH REFERENCE
DATM.M        698.602              : datum        - DATUM ELEVATION
TDD .M        554.126              : tdd          - TOTAL DEPTH DRILLER
RUN .         ONE                  : Run          - RUN NUMBER
ENG .         BILL                 : Engineer     - RECORDING ENGINEER
WIT .         JIM                  : Witness      - WITNESSED BY
MUD .         GEL                  : Mud_type     - MUD TYPE
MATR.         SANDSTONE            : Logunit      - NEUTRON MATRIX
TMAX.C        18.8889              : BHT          - MAXIMUM RECORDED TEMPERATURE
BHTD.M        554.126              : BHTDEP       - MAXIMUM RECORDED TEMPERATURE
MATR.         1                    : LOGUNIT      - NEUTRON MATRIX
RMT .C        25                   : MDTP         - TEMPERATURE OF MUD
NEUT.         1                    : NEUTRON      - NEUTRON TYPE
RESI.         0                    : RESIST       - RESISTIVITY TYPE
RMC .OHMM     0.25                 : RMC          - RESISTIVITY OF MUD CAKE
RMF .OHMM     0.25                 : RMF          - RESISTIVITY OF MUD FILTRATE
SUFT.C        15                   : SUFT         - SURFACE TEMPERATURE
~A  DEPTH       GR     PHID     PHIN     RESD
# ...
  366.588   75.835    0.277    0.489    8.675
  366.838   69.953    0.284    0.487    9.038
  367.088   65.781    0.288    0.490    9.486
  367.338   63.156    0.302    0.517    9.758
  367.588   68.876    0.324    0.529   10.056
  367.838   72.104    0.319    0.520   10.118
  368.088   74.082    0.299    0.504    9.192
  368.338   79.861    0.287    0.492    8.115
  368.588   82.935    0.271    0.474    7.431
  368.838   88.940    0.254    0.455    6.534
  369.088   92.504    0.252    0.458    6.050
  369.338   87.816    0.263    0.467    6.056
  369.588   83.447    0.268    0.470    6.242
  369.838   78.605    0.288    0.490    6.731
  370.088   73.613    0.311    0.517    7.156
  370.338   68.682    0.313    0.521    7.757
  370.588   62.817    0.321    0.535    8.409
  370.838   55.390    0.373    0.556    9.413
  371.088   48.631    0.408    0.580   10.160
  371.338   41.600    0.457    0.657   10.925
  371.588   42.502    0.474    0.650   11.385
  371.838   46.882    0.438    0.626   11.947
  372.088   47.683    0.316    0.555   12.346
  372.338   44.552    0.317    0.531   12.458
  372.588   42.730    0.315    0.523   12.647
  372.838   48.415    0.313    0.521   12.917
  373.088   50.749    0.316    0.519   12.892
  373.338   50.393    0.324    0.531   13.133
  373.588   55.086    0.327    0.533   13.189
  373.838   58.426    0.330    0.538   13.344
  374.088   57.332    0.334    0.542   13.314
  374.338   54.152    0.329    0.535   13.604
  374.588   51.861    0.332    0.540   13.573
  374.838   50.498    0.333    0.541   13.569
  375.088   49.999    0.333    0.538   13.566
  375.338   48.436    0.338    0.544   13.536
  375.588   46.440    0.341    0.548   13.827
  375.838   44.422    0.343    0.551   13.796
  376.088   45.143    0.342    0.549   13.791
  376.338   48.448    0.341    0.547   13.807
  376.588   51.088    0.344    0.551   13.522
  376.838   46.374    0.347    0.554   13.528
  377.088   43.235    0.349    0.556   13.518
  377.338   39.841    0.354    0.554   13.512
  377.588   38.003    0.356    0.563   13.509
  377.838   39.195    0.353    0.563   13.514
  378.088   37.994    0.355    0.562   13.272
  378.338   38.111    0.357    0.562   13.252
  378.588   40.579    0.353    0.561   13.239
  378.838   41.911    0.355    0.560   13.234
  379.088   43.303    0.352    0.558   13.229
  379.338   43.840    0.351    0.556   13.223
  379.588   42.830    0.357    0.563   13.219
  379.838   40.992    0.368    0.573   13.211
  380.088   39.030    0.371    0.575   13.207
  380.338   38.298    0.370    0.573   13.202
  380.588   39.921    0.367    0.571   13.196
  380.838   42.452    0.362    0.566   13.190
  381.088   44.773    0.360    0.566   13.185
  381.338   46.090    0.363    0.568   13.170
  381.588   43.968    0.364    0.569   13.369
  381.838   41.897    0.360    0.566   13.679
  382.088   40.635    0.360    0.563   13.655
  382.338   40.019    0.361    0.565   13.650
  382.588   40.832    0.358    0.564   13.649
  382.838   43.108    0.357    0.564   13.645
  383.088   45.910    0.360    0.567   13.901
  383.338   48.343    0.361    0.564   13.881
  383.588   46.123    0.357    0.562   13.873
  383.838   42.651    0.360    0.564   13.867
  384.088   47.242    0.355    0.563   13.861
  384.338   49.999    0.352    0.560   13.857
  384.588   50.528    0.350    0.557   13.877
  384.838   48.804    0.354    0.556   13.573
  385.088   48.883    0.359    0.564   13.591
  385.338   48.858    0.366    0.573   13.582
  385.588   48.844    0.363    0.573   13.576
  385.838   48.848    0.362    0.567   13.573
  386.088   49.096    0.364    0.568   13.585
  386.338   51.792    0.363    0.569   13.311
  386.588   50.719    0.364    0.569   13.306
  386.838   46.851    0.363    0.571   13.238
  387.088   43.492    0.364    0.572   13.053
  387.338   41.469    0.363    0.573   13.046
  387.588   41.336    0.367    0.575   13.033
  387.838   45.538    0.371    0.576   13.258
  388.088   47.486    0.366    0.570   13.396
  388.338   49.409    0.360    0.571   13.531
  388.588   50.515    0.360    0.567   13.959
  388.838   50.448    0.356    0.561   14.371
  389.088   50.423    0.351    0.556   14.798
  389.338   50.897    0.349    0.553   14.985
  389.588   50.146    0.347    0.553   15.061
  389.838   49.225    0.346    0.553   14.781
  390.088   46.804    0.346    0.552   14.484
  390.338   42.793    0.346    0.552   14.492
  390.588   39.867    0.346    0.553   14.492
  390.838   38.644    0.348    0.555   14.627
  391.088   39.671    0.344    0.551   14.729
  391.338   41.591    0.344    0.550   14.973
  391.588   43.865    0.351    0.556   14.997
  391.838   43.686    0.353    0.562   14.999
  392.088   43.081    0.347    0.555   14.992
  392.338   43.095    0.347    0.555   14.986
  392.588   43.088    0.352    0.558   14.979
  392.838   43.072    0.350    0.558   15.002
  393.088   43.019    0.350    0.557   14.663
  393.338   43.627    0.355    0.563   14.699
  393.588   42.048    0.353    0.561   14.393
  393.838   39.080    0.350    0.562   14.408
  394.088   35.974    0.345    0.551   14.405
  394.338   36.646    0.350    0.558   14.399
  394.588   39.735    0.353    0.560   14.393
  394.838   42.140    0.355    0.562   14.381
  395.088   44.333    0.355    0.560   14.274
  395.338   45.916    0.353    0.558   14.120
  395.588   45.847    0.350    0.558   13.944
  395.838   45.293    0.354    0.560   13.570
  396.088   40.550    0.350    0.558   13.592
  396.338   40.375    0.349    0.555   13.317
  396.588   43.703    0.349    0.556   13.326
  396.838   46.840    0.350    0.556   13.338
  397.088   47.457    0.360    0.562   13.056
  397.338   44.056    0.369    0.575   13.073
  397.588   42.119    0.370    0.577   13.063
  397.838   43.193    0.364    0.573   12.954
  398.088   41.967    0.361    0.568   12.828
  398.338   39.944    0.360    0.565   12.648
  398.588   38.240    0.365    0.568   12.245
  398.838   37.979    0.367    0.571   12.119
  399.088   37.899    0.366    0.574   12.270
  399.338   38.648    0.362    0.571   12.325
  399.588   40.858    0.357    0.563   12.329
  399.838   41.217    0.353    0.561   12.474
  400.088   41.443    0.352    0.558   12.621
  400.338   41.930    0.354    0.557   13.243
  400.588   43.443    0.350    0.561   13.374
  400.838   46.572    0.345    0.552   13.511
  401.088   48.466    0.348    0.551   13.714
  401.338   49.311    0.358    0.556   13.979
  401.588   52.388    0.351    0.563   14.236
  401.838   56.951    0.342    0.545   14.422
  402.088   61.584    0.332    0.535   14.563
  402.338   65.147    0.325    0.527   14.741
  402.588   67.116    0.319    0.525   15.215
  402.838   66.338    0.323    0.529   15.286
  403.088   65.197    0.325    0.531   15.022
  403.338   63.576    0.334    0.541   14.575
  403.588   60.375    0.343    0.549   14.174
  403.838   56.803    0.350    0.556   13.947
  404.088   56.610    0.346    0.553   13.801
  404.338   53.339    0.343    0.551   13.664
  404.588   48.149    0.341    0.549   13.451
  404.838   48.416    0.342    0.551   13.424
  405.088   50.772    0.346    0.554   13.142
  405.338   53.660    0.352    0.558   12.995
  405.588   57.356    0.357    0.565   12.590
  405.838   58.977    0.367    0.574   12.209
  406.088   58.419    0.364    0.572   11.820
  406.338   54.650    0.364    0.572   11.722
  406.588   54.806    0.366    0.573   11.344
  406.838   54.636    0.364    0.572   11.562
  407.088   52.156    0.368    0.575   11.472
  407.338   50.093    0.365    0.572   11.320
  407.588   50.484    0.364    0.570   11.002
  407.838   49.402    0.364    0.572   10.672
  408.088   51.887    0.363    0.568   10.026
  408.338   52.575    0.357    0.562    9.331
  408.588   51.113    0.351    0.554    8.573
  408.838   51.438    0.347    0.555    7.878
  409.088   52.329    0.357    0.564    8.044
  409.338   52.246    0.364    0.573    8.542
  409.588   53.301    0.369    0.574    9.001
  409.838   51.711    0.367    0.575    9.055
