~VERSION INFORMATION
 VERS.                 2.0:   CWLS LOG ASCII STANDARD -VERSION 2.0
 WRAP.                  NO:   ONE LINE PER DEPTH STEP
~WELL INFORMATION BLOCK
#MNEM.UNIT           DATA                    DESCRIPTION OF MNEMONIC
#---------    -------------------            -------------------------------
# Generated from Intellog Unique Number	CW_79_81/WELL/2463
WELL.         HB GODIN                       : Well_name    - WELL
LOC .         00/07-36-081-02W5/0            : Location     - LOCATION
UWI .         00/07-36-081-02W5/0            : Uwi          - UNIQUE WELL ID
ENTR.         MAX                            : Entered      - ENTERED BY
SRVC.         SCHLUMBERGER                   : Scn          - SERVICE COMPANY
STRT.M        243.84                         : top_depth    - START DEPTH
STOP.M        463.09                         : bot_depth    - STOP DEPTH
STEP.M        0.25                           : increment    - STEP LENGTH
 NULL. -999.2500:NULL Value
~CURVE INFORMATION BLOCK
#MNEM UNIT       ERCB CURVE CODE    CURVE DESCRIPTION
#-----------   ------------------   ----------------------------------
DEPT.M        00 001 00 00         : DEPTH        - DEPTH
ILD .OHMM     00 120 00 00         : RESD         - DEEP RESISTIVITY (DIL)
NPHI.V/V      00 330 00 00         : PHIN         - NEUTRON POROSITY (SANDSTONE)
DPHI.V/V      00 890 00 00         : PHID         - DENSITY POROSITY (SANDSTONE)
GR  .API      00 310 00 00         : GR           - GAMMA RAY
CALI.MM       00 280 01 00         : CAL          - CALIPER
~PARAMETER INFORMATION
#MNEM.UNIT           DATA             DESCRIPTION OF MNEMONIC
#---------         -----------     ------------------------------
GL  .M        578.206              : gl           - GROUND LEVEL ELEVATION
EREF.M        581.863              : kb           - ELEVATION OF DEPTH REFERENCE
DATM.M        578.206              : datum        - DATUM ELEVATION
TDD .M        457.81               : tdd          - TOTAL DEPTH DRILLER
RUN .         ONE                  : Run          - RUN NUMBER
ENG .         BILL                 : Engineer     - RECORDING ENGINEER
WIT .         JIM                  : Witness      - WITNESSED BY
MUD .         GEL                  : Mud_type     - MUD TYPE
MATR.         SANDSTONE            : Logunit      - NEUTRON MATRIX
TMAX.C        23.3333              : BHT          - MAXIMUM RECORDED TEMPERATURE
BHTD.M        457.81               : BHTDEP       - MAXIMUM RECORDED TEMPERATURE
MATR.         1                    : LOGUNIT      - NEUTRON MATRIX
RMT .C        15.5556              : MDTP         - TEMPERATURE OF MUD
NEUT.         1                    : NEUTRON      - NEUTRON TYPE
RESI.         0                    : RESIST       - RESISTIVITY TYPE
RMC .OHMM     6.42                 : RMC          - RESISTIVITY OF MUD CAKE
RMF .OHMM     6.17                 : RMF          - RESISTIVITY OF MUD FILTRATE
SUFT.C        -15                  : SUFT         - SURFACE TEMPERATURE
~A  DEPTH     RESD     PHIN     PHID       GR      CAL
# ...
  280.340   20.526    0.505    0.348   58.980  196.093
  280.590   24.146    0.496    0.345   60.075  195.934
  280.840   27.990    0.489    0.341   59.920  195.974
  281.090   30.708    0.485    0.344   58.886  195.929
  281.340   31.190    0.499    0.341   57.170  195.545
  281.590   32.126    0.500    0.338   58.144  195.588
  281.840   31.661    0.495    0.339   59.658  195.628
  282.090   29.933    0.494    0.341   61.113  195.463
  282.340   27.731    0.498    0.342   62.387  194.994
  282.590   25.605    0.498    0.342   63.945  194.145
  282.840   23.913    0.500    0.344   64.466  193.766
  283.090   22.204    0.505    0.340   63.771  193.805
  283.340   20.272    0.502    0.332   63.794  194.146
  283.590   17.765    0.494    0.317   65.246  194.993
  283.840   14.868    0.485    0.296   68.604  196.445
  284.090   11.307    0.491    0.266   76.350  198.678
  284.340    8.776    0.525    0.241   87.549  199.560
  284.590    5.840    0.509    0.241   93.057  199.191
  284.840    4.921    0.487    0.243   89.444  198.226
  285.090    4.687    0.475    0.243   84.223  197.460
  285.340    4.808    0.478    0.239   81.209  197.393
  285.590    5.208    0.490    0.234   80.269  198.325
  285.840    5.807    0.494    0.242   79.049  198.790
  286.090    6.617    0.499    0.257   77.165  199.632
  286.340    7.471    0.492    0.273   74.565  199.872
  286.590    8.322    0.485    0.285   72.323  199.707
  286.840    9.008    0.481    0.292   71.393  199.341
  287.090    9.170    0.476    0.298   72.811  198.987
  287.340    8.964    0.469    0.299   73.829  199.024
  287.590    8.512    0.479    0.296   72.419  199.063
  287.840    8.315    0.494    0.292   70.831  199.099
  288.090    8.407    0.508    0.297   68.710  198.936
  288.340    8.740    0.517    0.308   66.291  198.575
  288.590    9.182    0.522    0.317   64.606  198.222
  288.840    9.399    0.521    0.321   65.626  198.259
  289.090    9.263    0.517    0.308   66.598  198.298
  289.340    8.676    0.509    0.297   68.289  198.633
  289.590    7.592    0.499    0.283   71.649  199.276
  289.840    6.444    0.489    0.263   76.857  200.024
  290.090    5.283    0.492    0.245   84.911  200.559
  290.340    4.071    0.535    0.243   92.885  201.021
  290.590    3.374    0.548    0.247   92.192  201.056
  290.840    3.076    0.555    0.251   88.996  200.488
  291.090    3.033    0.555    0.255   84.487  200.124
  291.340    3.176    0.549    0.263   79.920  200.163
  291.590    3.478    0.542    0.280   76.512  200.213
  291.840    3.787    0.544    0.273   76.037  200.245
  292.090    4.194    0.533    0.280   74.392  199.473
  292.340    4.672    0.523    0.306   71.493  198.707
  292.590    5.595    0.507    0.329   66.271  198.142
  292.840    7.156    0.491    0.340   59.737  197.980
  293.090    8.310    0.486    0.347   54.997  198.434
  293.340    9.790    0.483    0.337   55.024  198.471
  293.590   10.918    0.481    0.334   56.236  198.506
  293.840   11.306    0.481    0.331   56.914  198.544
  294.090   11.309    0.483    0.336   57.771  198.583
  294.340   11.270    0.486    0.344   58.984  198.723
  294.590   11.408    0.487    0.345   60.155  199.173
  294.840   11.677    0.487    0.345   59.933  199.210
  295.090   11.594    0.499    0.342   61.146  198.845
  295.340   11.511    0.509    0.337   62.002  198.480
  295.590   11.471    0.520    0.331   62.266  198.319
  295.840   11.557    0.529    0.325   61.933  198.360
  296.090   11.907    0.521    0.323   60.939  198.402
  296.340   11.909    0.487    0.336   59.478  198.435
  296.590   11.825    0.482    0.345   60.452  198.481
  296.840   11.676    0.481    0.352   59.996  198.217
  297.090   11.550    0.480    0.355   58.350  197.648
  297.340   11.489    0.474    0.347   56.289  197.081
  297.590   11.662    0.451    0.302   55.075  197.125
  297.840   12.603    0.410    0.260   54.845  197.169
  298.090   14.462    0.343    0.108   50.098  197.604
  298.340   17.132    0.265    0.059   47.498  198.653
  298.590   20.473    0.221    0.055   47.284  199.702
  298.840   23.875    0.221    0.056   49.096  200.446
  299.090   26.153    0.247    0.060   52.827  200.820
  299.340   26.362    0.286    0.126   57.075  200.436
  299.590   25.221    0.317    0.160   60.195  200.064
  299.840   22.519    0.369    0.235   63.320  199.397
  300.090   18.194    0.426    0.290   65.249  198.631
  300.340   14.210    0.476    0.303   65.983  197.861
  300.590   11.426    0.517    0.291   66.728  197.013
  300.840   10.511    0.532    0.291   66.749  196.633
  301.090   10.209    0.536    0.307   66.772  196.672
  301.340   10.025    0.528    0.306   67.512  196.711
  301.590    9.916    0.513    0.305   68.611  196.952
  301.840    9.845    0.500    0.310   69.647  197.394
  302.090    9.730    0.507    0.315   70.244  197.926
  302.340    9.511    0.506    0.312   70.767  198.391
  302.590    9.305    0.514    0.306   71.742  198.826
  302.840    9.103    0.495    0.296   74.328  199.272
  303.090    9.006    0.479    0.292   76.260  199.517
  303.340    9.024    0.479    0.296   76.520  199.656
  303.590    9.079    0.497    0.297   75.352  200.103
  303.840    9.012    0.512    0.283   75.378  200.144
  304.090    8.882    0.510    0.280   76.593  200.175
  304.340    8.802    0.506    0.275   77.270  199.909
  304.590    8.740    0.496    0.273   78.962  199.746
  304.840    8.645    0.486    0.272   81.490  199.785
  305.090    8.433    0.484    0.266   82.948  199.828
  305.340    8.306    0.479    0.260   82.969  199.868
  305.590    8.186    0.475    0.249   82.990  199.907
  305.840    8.023    0.469    0.235   83.193  200.555
  306.090    7.850    0.461    0.223   83.694  201.201
  306.340    7.636    0.457    0.217   84.552  201.542
  306.590    7.230    0.476    0.218   85.773  201.501
  306.840    6.855    0.493    0.215   85.789  201.121
  307.090    6.177    0.503    0.211   86.532  199.946
  307.340    5.504    0.503    0.210   87.983  199.381
  307.590    4.735    0.503    0.206   90.031  199.216
  307.840    3.976    0.508    0.199   92.678  199.350
  308.090    3.288    0.519    0.195   96.392  199.886
  308.340    3.025    0.523    0.191   98.157  200.351
  308.590    2.916    0.523    0.204   98.652  199.983
  308.840    2.970    0.530    0.216   97.004  199.923
  309.090    3.159    0.535    0.228   92.855  199.962
  309.340    3.476    0.535    0.241   87.933  199.999
  309.590    3.965    0.524    0.257   85.906  200.049
  309.840    4.219    0.526    0.275   85.181  200.086
  310.090    4.377    0.531    0.271   84.010  200.121
  310.340    4.666    0.535    0.271   82.125  200.156
  310.590    5.024    0.534    0.277   79.763  200.193
  310.840    5.429    0.526    0.287   76.924  200.232
  311.090    6.035    0.506    0.293   72.931  200.196
  311.340    6.573    0.498    0.301   70.717  199.820
  311.590    6.870    0.497    0.316   69.546  200.263
  311.840    6.758    0.497    0.310   68.557  200.400
  312.090    6.539    0.501    0.301   68.224  200.235
  312.340    6.422    0.508    0.299   68.127  199.870
  312.590    6.617    0.519    0.306   66.565  199.261
  312.840    7.150    0.525    0.301   64.598  198.041
  313.090    7.861    0.504    0.296   62.713  196.053
  313.340    8.467    0.488    0.296   61.902  194.378
  313.590    9.238    0.484    0.302   61.092  193.206
  313.840   10.223    0.490    0.312   59.983  192.537
  314.090   10.983    0.489    0.324   58.805  192.187
  314.340   11.242    0.480    0.329   57.587  192.219
  314.590   11.495    0.475    0.324   57.376  192.658
  314.840   11.498    0.474    0.328   57.518  193.406
  315.090   11.331    0.474    0.332   57.777  194.454
  315.340   11.044    0.474    0.335   58.216  195.500
  315.590   10.550    0.483    0.337   59.597  195.787
  315.840   10.079    0.508    0.330   61.605  194.986
  316.090    9.715    0.501    0.322   62.343  194.210
  316.340    9.630    0.483    0.314   61.828  194.051
  316.590    9.738    0.470    0.308   60.421  194.092
