~VERSION INFORMATION
 VERS.                 2.0:   CWLS LOG ASCII STANDARD -VERSION 2.0
 WRAP.                  NO:   ONE LINE PER DEPTH STEP
~WELL INFORMATION BLOCK
#MNEM.UNIT           DATA                    DESCRIPTION OF MNEMONIC
#---------    -------------------            -------------------------------
# Generated from Intellog Unique Number	CW_76_78/WELL/773
WELL.         GULF ET AL MANNY 08-26         : Well_name    - WELL
LOC .         00/08-26-076-21W4/0            : Location     - LOCATION
UWI .         00/08-26-076-21W4/0            : Uwi          - UNIQUE WELL ID
ENTR.         JAYE                           : Entered      - ENTERED BY
SRVC.         SCHLUMBERGER                   : Scn          - SERVICE COMPANY
DATE.         5 MAR 81                       : Date         - LOG DATE
STRT.M        395                            : top_depth    - START DEPTH
STOP.M        587                            : bot_depth    - STOP DEPTH
STEP.M        0.25                           : increment    - STEP LENGTH
 NULL. -999.2500:NULL Value
~CURVE INFORMATION BLOCK
#MNEM UNIT       ERCB CURVE CODE    CURVE DESCRIPTION
#-----------   ------------------   ----------------------------------
DEPT.M        00 001 00 00         : DEPTH        - DEPTH
ILD .OHMM     00 120 00 00         : RESD         - DEEP RESISTIVITY (DIL)
NPHI.V/V      00 330 00 00         : PHIN         - NEUTRON POROSITY (SANDSTONE)
DPHI.V/V      00 890 00 00         : PHID         - DENSITY POROSITY (SANDSTONE)
GR  .API      00 310 00 00         : GR           - GAMMA RAY
CALI.MM       00 280 01 00         : CAL          - CALIPER
~PARAMETER INFORMATION
#MNEM.UNIT           DATA             DESCRIPTION OF MNEMONIC
#---------         -----------     ------------------------------
GL  .M        723.85               : gl           - GROUND LEVEL ELEVATION
EREF.M        728.35               : kb           - ELEVATION OF DEPTH REFERENCE
DATM.M        723.85               : datum        - DATUM ELEVATION
TDD .M        612                  : tdd          - TOTAL DEPTH DRILLER
RUN .         ONE                  : Run          - RUN NUMBER
ENG .         MCEWAN               : Engineer     - RECORDING ENGINEER
WIT .         WOOD                 : Witness      - WITNESSED BY
BASE.         EDM                  : Branch       - HOME BASE OF LOGGING UNIT
MUD .         GEL                  : Mud_type     - MUD TYPE
MATR.         SANDSTONE            : Logunit      - NEUTRON MATRIX
TMAX.C        22.2                 : BHT          - MAXIMUM RECORDED TEMPERATURE
BHTD.M        609                  : BHTDEP       - MAXIMUM RECORDED TEMPERATURE
RMT .C        14.4                 : MDTP         - TEMPERATURE OF MUD
MUDD.KG/M     9.5                  : MWT          - MUD DENSITY
NEUT.         1                    : NEUTRON      - NEUTRON TYPE
RESI.         0                    : RESIST       - RESISTIVITY TYPE
RM  .OHMM     6.35                 : RM           - RESISTIVITY OF MUD
RMC .OHMM     0                    : RMC          - RESISTIVITY OF MUD CAKE
RMF .OHMM     8.17                 : RMF          - RESISTIVITY OF MUD FILTRATE
SUFT.C        0                    : SUFT         - SURFACE TEMPERATURE
~A  DEPTH     RESD     PHIN     PHID       GR      CAL
# ...
  541.000    5.897    0.411    0.229   84.098  160.288
  541.250    5.972    0.417    0.225   95.847  160.941
  541.500    6.220    0.421    0.215   85.690  161.176
  541.750    6.528    0.410    0.193   79.132  160.694
  542.000    6.762    0.383    0.178   79.398  159.279
  542.250    6.823    0.397    0.209   92.141  158.277
  542.500    6.806    0.420    0.229   89.430  158.620
  542.750    6.702    0.434    0.222   82.251  160.205
  543.000    6.636    0.408    0.196   87.546  163.032
  543.250    6.581    0.392    0.193   83.035  165.237
  543.500    6.505    0.382    0.207   78.029  165.891
  543.750    6.454    0.371    0.204   76.931  165.510
  544.000    6.389    0.412    0.180   79.371  164.925
  544.250    6.278    0.417    0.186   88.204  164.436
  544.500    6.193    0.424    0.196   90.148  164.366
  544.750    6.167    0.434    0.185   80.610  164.295
  545.000    6.118    0.443    0.173   80.382  164.020
  545.250    6.058    0.435    0.170   80.650  165.916
  545.500    5.996    0.417    0.191   85.821  168.120
  545.750    5.927    0.400    0.198   87.702  167.842
  546.000    5.859    0.412    0.172   83.254  166.947
  546.250    5.842    0.434    0.172   83.832  166.771
  546.500    5.873    0.446    0.164   89.315  167.115
  546.750    5.958    0.427    0.163   88.715  167.250
  547.000    6.160    0.397    0.179   84.450  166.559
  547.250    6.405    0.384    0.175   88.752  163.489
  547.500    6.584    0.376    0.172   86.477  160.836
  547.750    6.744    0.371    0.185   90.469  160.351
  548.000    6.855    0.362    0.200  103.705  161.521
  548.250    6.852    0.352    0.205  108.132  163.623
  548.500    6.835    0.365    0.194  106.786  165.620
  548.750    6.832    0.408    0.182   92.720  168.136
  549.000    6.790    0.420    0.174   89.201  170.859
  549.250    6.799    0.430    0.163   94.187  166.651
  549.500    7.016    0.393    0.141   93.275  163.273
  549.750    7.351    0.304    0.119   96.522  161.131
  550.000    7.935    0.291    0.083   91.080  161.378
  550.250    8.646    0.320    0.133   90.543  161.512
  550.500    9.126    0.379    0.152   93.046  162.476
  550.750    8.737    0.368    0.185   94.492  162.817
  551.000    8.008    0.355    0.171   95.815  163.263
  551.250    7.607    0.348    0.158   90.994  163.712
  551.500    7.094    0.368    0.170   85.864  162.919
  551.750    7.184    0.382    0.178   85.386  162.021
  552.000    7.454    0.384    0.164   89.379  161.534
  552.250    7.839    0.383    0.138   81.580  160.948
  552.500    8.258    0.348    0.114   68.070  160.567
  552.750    8.618    0.335    0.117   61.139  159.981
  553.000    8.910    0.344    0.135   69.291  159.185
  553.250    9.040    0.366    0.154   77.500  158.081
  553.500    9.105    0.363    0.165   74.231  157.702
  553.750    9.081    0.346    0.136   77.789  157.425
  554.000    9.078    0.350    0.147   82.648  157.455
  554.250    9.158    0.370    0.172   82.794  158.529
  554.500    9.187    0.327    0.129   77.662  159.592
  554.750    9.114    0.302    0.087   88.356  160.867
  555.000    8.873    0.287    0.098   83.785  161.517
  555.250    8.476    0.315    0.162   78.963  160.931
  555.500    7.741    0.355    0.182   82.893  160.448
  555.750    7.163    0.377    0.177   85.705  160.996
  556.000    6.641    0.395    0.165   88.581  163.514
  556.250    6.216    0.419    0.176   90.523  165.615
  556.500    6.050    0.444    0.174   90.728  166.686
  556.750    6.058    0.443    0.154   87.583  167.027
  557.000    6.205    0.419    0.138   91.514  166.023
  557.250    6.428    0.404    0.129   89.052  163.782
  557.500    6.621    0.400    0.126   85.596  162.780
  557.750    6.668    0.411    0.147   88.656  163.332
  558.000    6.675    0.387    0.151   93.393  164.190
  558.250    6.624    0.381    0.143   93.102  165.051
  558.500    6.569    0.410    0.147   90.081  165.808
  558.750    6.469    0.413    0.143   87.807  166.876
  559.000    6.368    0.410    0.172   86.832  167.426
  559.250    6.257    0.407    0.168   79.715  165.910
  559.500    6.059    0.416    0.160   75.330  163.872
  559.750    5.887    0.394    0.193   83.665  162.252
  560.000    5.774    0.369    0.189   89.953  161.456
  560.250    5.674    0.391    0.193   93.633  160.875
  560.500    5.607    0.412    0.197  101.784  160.699
  560.750    5.347    0.404    0.191   99.941  160.633
  561.000    5.013    0.400    0.179   94.066  160.350
  561.250    4.360    0.394    0.163   93.900  159.867
  561.500    3.451    0.379    0.174   97.954  159.276
  561.750    2.738    0.444    0.215  108.958  158.586
  562.000    2.293    0.519    0.274   95.946  158.210
  562.250    1.906    0.531    0.275   88.828  158.241
  562.500    1.718    0.516    0.268   83.946  158.275
  562.750    1.672    0.540    0.258   78.194  158.101
  563.000    1.851    0.580    0.249   60.651  157.925
  563.250    2.066    0.543    0.237   62.098  157.958
  563.500    2.530    0.443    0.204   72.109  158.617
  563.750    3.520    0.360    0.152   86.031  159.266
  564.000    5.010    0.318    0.031   93.560  160.127
  564.250    6.764    0.304    0.080   91.097  161.091
  564.500    7.193    0.326    0.117   85.966  161.537
  564.750    6.925    0.358    0.154   89.400  161.883
  565.000    6.335    0.354    0.157   91.157  162.332
  565.250    5.317    0.344    0.119   76.283  162.258
  565.500    4.580    0.354    0.139   77.791  162.393
  565.750    4.067    0.376    0.156   85.819  162.426
  566.000    3.915    0.395    0.168   83.109  162.459
  566.250    3.905    0.405    0.170   82.880  162.804
  566.500    3.955    0.391    0.185   85.629  162.424
  566.750    4.222    0.404    0.180   92.227  161.937
  567.000    4.523    0.375    0.176   88.771  161.976
  567.250    4.856    0.359    0.177   86.805  161.800
  567.500    5.087    0.370    0.167   88.128  161.624
  567.750    5.250    0.385    0.167   88.894  161.658
  568.000    5.437    0.381    0.179   99.279  161.689
  568.250    5.815    0.383    0.175  107.116  162.136
  568.500    6.313    0.367    0.150   96.648  164.551
  568.750    6.713    0.372    0.104   99.461  165.929
  569.000    7.033    0.357    0.107  107.797  166.063
  569.250    7.162    0.325    0.121   89.385  162.787
  569.500    6.371    0.355    0.140   79.599  160.337
  569.750    6.749    0.407    0.167   68.760  158.819
  570.000    7.637    0.376    0.182   69.028  158.439
  570.250    8.261    0.311    0.146   71.406  159.613
  570.500    9.053    0.272    0.103   78.189  160.883
  570.750    9.809    0.278    0.079   91.429  161.640
  571.000   10.873    0.298    0.091   99.081  162.707
  571.250   10.310    0.318    0.119   91.902  163.570
  571.500    9.630    0.308    0.140   80.814  164.018
  571.750    8.928    0.309    0.149   83.317  164.358
  572.000    8.386    0.317    0.172   90.537  165.011
  572.250    8.073    0.349    0.163   96.203  165.667
  572.500    7.873    0.365    0.155  102.117  165.805
  572.750    7.680    0.362    0.149  106.482  166.147
  573.000    7.591    0.349    0.148   92.600  168.663
  573.250    7.444    0.401    0.155   91.689  170.249
  573.500    7.166    0.383    0.149   99.219  169.350
  573.750    7.029    0.361    0.151   95.080  163.798
  574.000    6.805    0.343    0.151   86.910  161.350
  574.250    6.711    0.358    0.174   79.171  160.037
  574.500    6.848    0.383    0.194   70.191  158.727
  574.750    7.435    0.386    0.211   64.813  157.621
  575.000    8.718    0.290    0.252   66.446  157.137
  575.250   10.457    0.260    0.282   70.004  156.757
  575.500   12.033    0.218    0.310   61.771  156.788
  575.750   14.005    0.197    0.326   53.225  156.821
  576.000   16.734    0.202    0.319   46.480  157.061
  576.250   20.841    0.222    0.310   50.844  157.198
  576.500   22.502    0.196    0.349   48.071  157.334
  576.750   22.193    0.150    0.373   44.368  157.370
  577.000   18.869    0.163    0.379   61.454  157.504
  577.250   15.539    0.196    0.365   61.165  157.541
