~VERSION INFORMATION
 VERS.                 2.0:   CWLS LOG ASCII STANDARD -VERSION 2.0
 WRAP.                  NO:   ONE LINE PER DEPTH STEP
~WELL INFORMATION BLOCK
#MNEM.UNIT           DATA                    DESCRIPTION OF MNEMONIC
#---------    -------------------            -------------------------------
# Generated from Intellog Unique Number	CS_73_76/WELL/768
WELL.         MAYNARD EXPLORATION            : Well_name    - WELL
LOC .         00/07-11-073-12W4/0            : Location     - LOCATION
UWI .         00/07-11-073-12W4/0            : Uwi          - UNIQUE WELL ID
ENTR.         SP                             : Entered      - ENTERED BY
SRVC.         SCHLUMBERGER                   : Scn          - SERVICE COMPANY
STRT.M        300                            : top_depth    - START DEPTH
STOP.M        545                            : bot_depth    - STOP DEPTH
STEP.M        0.25                           : increment    - STEP LENGTH
 NULL. -999.2500:NULL Value
~CURVE INFORMATION BLOCK
#MNEM UNIT       ERCB CURVE CODE    CURVE DESCRIPTION
#-----------   ------------------   ----------------------------------
DEPT.M        00 001 00 00         : DEPTH        - DEPTH
ILD .OHMM     00 120 00 00         : RESD         - DEEP RESISTIVITY (DIL)
DPHI.V/V      00 890 00 00         : PHID         - DENSITY POROSITY (LIMESTONE)
NPHI.V/V      00 330 00 00         : PHIN         - NEUTRON POROSITY (LIMESTONE)
GR  .API      00 310 00 00         : GR           - GAMMA RAY
~PARAMETER INFORMATION
#MNEM.UNIT           DATA             DESCRIPTION OF MNEMONIC
#---------         -----------     ------------------------------
GL  .M        661.5                : gl           - GROUND LEVEL ELEVATION
EREF.M        665                  : kb           - ELEVATION OF DEPTH REFERENCE
DATM.M        661.5                : datum        - DATUM ELEVATION
TDD .M        562                  : tdd          - TOTAL DEPTH DRILLER
RUN .         ONE                  : Run          - RUN NUMBER
ENG .         BILL                 : Engineer     - RECORDING ENGINEER
WIT .         JIM                  : Witness      - WITNESSED BY
MUD .         GEL                  : Mud_type     - MUD TYPE
MATR.         LIMESTONE            : Logunit      - NEUTRON MATRIX
TMAX.C        21                   : BHT          - MAXIMUM RECORDED TEMPERATURE
BHTD.M        562                  : BHTDEP       - MAXIMUM RECORDED TEMPERATURE
MATR.         1                    : LOGUNIT      - NEUTRON MATRIX
RMT .C        25                   : MDTP         - TEMPERATURE OF MUD
NEUT.         1                    : NEUTRON      - NEUTRON TYPE
RESI.         0                    : RESIST       - RESISTIVITY TYPE
RMC .OHMM     0.25                 : RMC          - RESISTIVITY OF MUD CAKE
RMF .OHMM     0.25                 : RMF          - RESISTIVITY OF MUD FILTRATE
SUFT.C        15                   : SUFT         - SURFACE TEMPERATURE
~A  DEPTH     RESD     PHID     PHIN       GR
# ...
  387.000    9.161    0.315    0.457   60.191
  387.250    8.692    0.304    0.474   61.385
  387.500    8.379    0.291    0.473   64.960
  387.750    8.066    0.282    0.469   66.746
  388.000    7.753    0.291    0.467   69.724
  388.250    7.597    0.305    0.471   71.512
  388.500    7.518    0.315    0.478   73.895
  388.750    7.361    0.319    0.487   74.497
  389.000    7.361    0.317    0.494   75.694
  389.250    7.361    0.313    0.489   73.925
  389.500    7.282    0.313    0.484   72.160
  389.750    7.204    0.302    0.482   71.576
  390.000    7.203    0.296    0.472   72.772
  390.250    7.125    0.292    0.470   73.378
  390.500    7.124    0.299    0.477   72.205
  390.750    7.046    0.306    0.491   71.030
  391.000    7.045    0.314    0.501   70.446
  391.250    6.967    0.316    0.509   69.866
  391.500    6.810    0.310    0.491   70.473
  391.750    6.732    0.316    0.484   71.071
  392.000    6.653    0.301    0.482   71.675
  392.250    6.653    0.305    0.484   74.061
  392.500    6.574    0.308    0.490   75.847
  392.750    6.574    0.310    0.496   78.826
  393.000    6.495    0.313    0.498   80.617
  393.250    6.339    0.311    0.506   81.219
  393.500    6.260    0.307    0.504   81.228
  393.750    6.182    0.301    0.499   79.464
  394.000    6.259    0.296    0.490   76.510
  394.250    6.337    0.288    0.477   73.557
  394.500    6.649    0.296    0.459   72.379
  394.750    6.883    0.307    0.446   70.612
  395.000    7.117    0.320    0.459   70.030
  395.250    7.273    0.318    0.464   70.045
  395.500    7.038    0.310    0.471   70.647
  395.750    6.882    0.307    0.471   70.659
  396.000    6.881    0.319    0.468   69.484
  396.250    6.959    0.325    0.461   68.308
  396.500    7.193    0.334    0.457   65.946
  396.750    7.505    0.346    0.452   61.217
  397.000    7.661    0.353    0.446   58.854
  397.250    7.895    0.353    0.443   55.903
  397.500    7.973    0.352    0.440   53.542
  397.750    7.894    0.354    0.438   52.366
  398.000    7.113    0.351    0.460   51.193
  398.250    4.925    0.336    0.479   56.539
  398.500    3.987    0.327    0.496   66.630
  398.750    3.361    0.317    0.515   74.347
  399.000    2.970    0.302    0.529   82.067
  399.250    3.204    0.314    0.528   86.227
  399.500    3.438    0.329    0.503   87.424
  399.750    4.297    0.328    0.475   83.285
  400.000    6.328    0.339    0.442   76.778
  400.250    7.812    0.329    0.420   74.414
  400.500    9.218    0.322    0.410   70.274
  400.750    8.671    0.313    0.415   67.321
  401.000    8.436    0.303    0.423   65.554
  401.250    8.279    0.296    0.427   64.380
  401.500    8.201    0.289    0.430   64.984
  401.750    8.200    0.304    0.425   69.149
  402.000    8.200    0.317    0.423   70.936
  402.250    8.590    0.325    0.414   74.503
  402.500    8.981    0.300    0.402   76.292
  402.750    9.761    0.231    0.378   74.526
  403.000   10.699    0.118    0.337   71.574
  403.250   13.042    0.090    0.221   69.212
  403.500   14.838    0.062    0.076   67.444
  403.750   16.479    0.042    0.043   64.490
  404.000   22.745    0.029    0.029   59.758
  404.250   25.882    0.021    0.023   56.211
  404.500   25.098    0.017    0.021   48.517
  404.750   22.745    0.016    0.025   46.158
  405.000   18.820    0.018    0.047   46.759
  405.250   13.742    0.034    0.069   49.144
  405.500   12.492    0.091    0.095   52.119
  405.750   12.257    0.168    0.130   55.688
  406.000   11.631    0.236    0.180   58.662
  406.250   10.537    0.296    0.307   61.636
  406.500   10.303    0.318    0.342   65.798
  406.750    9.755    0.334    0.419   69.961
  407.000    8.583    0.325    0.428   71.749
  407.250    8.192    0.328    0.443   71.762
  407.500    7.567    0.335    0.452   72.367
  407.750    7.176    0.332    0.458   74.157
  408.000    7.019    0.342    0.455   75.350
  408.250    6.862    0.348    0.451   76.549
  408.500    6.784    0.341    0.452   76.560
  408.750    6.783    0.354    0.452   75.976
  409.000    6.939    0.358    0.451   75.396
  409.250    6.548    0.347    0.467   74.820
  409.500    6.157    0.327    0.479   75.420
  409.750    6.079    0.308    0.491   76.615
  410.000    5.844    0.296    0.491   78.404
  410.250    5.765    0.293    0.484   80.789
  410.500    5.765    0.301    0.473   80.797
  410.750    5.843    0.307    0.462   80.810
  411.000    5.920    0.310    0.455   82.006
  411.250    5.998    0.303    0.452   83.797
  411.500    6.232    0.291    0.450   84.400
  411.750    6.388    0.282    0.453   84.411
  412.000    6.388    0.263    0.463   83.831
  412.250    6.387    0.251    0.467   82.655
  412.500    6.309    0.242    0.473   82.074
  412.750    6.152    0.238    0.476   81.490
  413.000    6.074    0.237    0.474   82.097
  413.250    6.073    0.240    0.479   84.478
  413.500    6.073    0.242    0.484   87.456
  413.750    6.229    0.256    0.488   89.834
  414.000    6.306    0.282    0.490   87.480
  414.250    6.384    0.297    0.474   86.303
  414.500    6.384    0.306    0.452   85.127
  414.750    6.462    0.258    0.434   85.137
  415.000    6.461    0.214    0.419   84.556
  415.250    6.460    0.194    0.405   83.380
  415.500    6.460    0.185    0.399   80.431
  415.750    6.460    0.220    0.405   79.847
  416.000    6.460    0.250    0.458   81.044
  416.250    6.381    0.271    0.465   82.832
  416.500    6.224    0.281    0.470   84.622
  416.750    6.068    0.294    0.476   84.039
  417.000    6.145    0.285    0.469   82.865
  417.250    6.223    0.275    0.460   82.288
  417.500    6.379    0.271    0.456   82.303
  417.750    6.379    0.268    0.452   81.715
  418.000    6.456    0.264    0.451   82.318
  418.250    6.300    0.261    0.460   84.108
  418.500    6.221    0.261    0.469   86.492
  418.750    6.221    0.267    0.484   88.873
  419.000    6.299    0.253    0.497   91.847
  419.250    6.454    0.250    0.509   93.043
  419.500    6.532    0.260    0.500   93.647
  419.750    6.532    0.255    0.489   94.251
  420.000    6.531    0.259    0.478   93.673
  420.250    6.453    0.248    0.465   92.499
  420.500    6.374    0.242    0.460   91.916
  420.750    6.218    0.240    0.454   91.927
  421.000    6.217    0.238    0.459   91.937
  421.250    6.139    0.237    0.491   92.541
  421.500    6.060    0.247    0.507   92.553
  421.750    6.060    0.247    0.511   92.566
  422.000    5.981    0.238    0.501   92.579
  422.250    5.981    0.231    0.492   93.179
  422.500    5.981    0.224    0.486   93.784
  422.750    5.980    0.221    0.482   93.795
  423.000    5.980    0.227    0.478   94.403
  423.250    5.980    0.225    0.485   94.408
  423.500    5.979    0.230    0.487   93.825
  423.750    5.979    0.228    0.493   92.652
  424.000    5.900    0.230    0.495   90.292
  424.250    5.900    0.238    0.489   87.932
  424.500    5.977    0.248    0.481   86.164
  424.750    5.977    0.258    0.473   84.989
  425.000    5.977    0.270    0.472   85.001
  425.250    6.054    0.256    0.477   85.016
  425.500    5.585    0.251    0.486   85.614
  425.750    4.179    0.249    0.507   86.220
  426.000    3.631    0.259    0.532   85.043
  426.250    2.850    0.271    0.554   86.241
  426.500    2.303    0.283    0.588   89.218
  426.750    1.833    0.291    0.599   92.787
  427.000    1.677    0.290    0.615   95.763
  427.250    1.676    0.277    0.632   98.144
  427.500    1.989    0.270    0.612   99.932
  427.750    2.457    0.260    0.569   98.760
  428.000    2.769    0.256    0.535   98.771
  428.250    3.237    0.252    0.516   99.965
  428.500    3.862    0.248    0.496   98.199
  428.750    4.408    0.257    0.488   96.431
  429.000    4.642    0.270    0.484   94.662
  429.250    4.798    0.280    0.484   91.714
  429.500    4.798    0.288    0.486   90.534
  429.750    4.875    0.305    0.489   88.177
  430.000    4.797    0.307    0.493   86.406
  430.250    4.797    0.305    0.498   85.233
