~VERSION INFORMATION
 VERS.                 2.0:   CWLS LOG ASCII STANDARD -VERSION 2.0
 WRAP.                  NO:   ONE LINE PER DEPTH STEP
~WELL INFORMATION BLOCK
#MNEM.UNIT           DATA                    DESCRIPTION OF MNEMONIC
#---------    -------------------            -------------------------------
# Generated from Intellog Unique Number	CW_82_90/WELL/532
WELL.         06-26-082-20W4                 : Well_name    - WELL
LOC .         00/06-26-082-20W4/0            : Location     - LOCATION
UWI .         00/06-26-082-20W4/0            : Uwi          - UNIQUE WELL ID
ENTR.         JAYE                           : Entered      - ENTERED BY
SRVC.         SCHLUMBERGER                   : Scn          - SERVICE COMPANY
DATE.         22 JAN 75                      : Date         - LOG DATE
STRT.M        179.832                        : top_depth    - START DEPTH
STOP.M        365.832                        : bot_depth    - STOP DEPTH
STEP.M        0.25                           : increment    - STEP LENGTH
 NULL. -999.2500:NULL Value
~CURVE INFORMATION BLOCK
#MNEM UNIT       ERCB CURVE CODE    CURVE DESCRIPTION
#-----------   ------------------   ----------------------------------
DEPT.M        00 001 00 00         : DEPTH        - DEPTH
CALI.MM       00 280 01 00         : CAL          - CALIPER
GR  .API      00 310 00 00         : GR           - GAMMA RAY
NPHI.V/V      00 330 00 00         : PHIN         - NEUTRON POROSITY (SANDSTONE)
DPHI.V/V      00 890 00 00         : PHID         - DENSITY POROSITY (SANDSTONE)
ILD .OHMM     00 120 00 00         : RESD         - DEEP RESISTIVITY (DIL)
~PARAMETER INFORMATION
#MNEM.UNIT           DATA             DESCRIPTION OF MNEMONIC
#---------         -----------     ------------------------------
GL  .M        594.36               : gl           - GROUND LEVEL ELEVATION
EREF.M        596.798              : kb           - ELEVATION OF DEPTH REFERENCE
DATM.M        594.36               : datum        - DATUM ELEVATION
TDD .M        369.418              : tdd          - TOTAL DEPTH DRILLER
RUN .         ONE                  : Run          - RUN NUMBER
ENG .         CURRIE               : Engineer     - RECORDING ENGINEER
WIT .         CUMMINS              : Witness      - WITNESSED BY
BASE.         EDMONTON             : Branch       - HOME BASE OF LOGGING UNIT
MUD .         GEL CHEM             : Mud_type     - MUD TYPE
MATR.         SANDSTONE            : Logunit      - NEUTRON MATRIX
TMAX.C        20                   : BHT          - MAXIMUM RECORDED TEMPERATURE
BHTD.M        369.418              : BHTDEP       - MAXIMUM RECORDED TEMPERATURE
RMT .C        21.1111              : MDTP         - TEMPERATURE OF MUD
MUDD.KG/M     9100                 : MWT          - MUD DENSITY
NEUT.         1                    : NEUTRON      - NEUTRON TYPE
RESI.         0                    : RESIST       - RESISTIVITY TYPE
RM  .OHMM     4.62                 : RM           - RESISTIVITY OF MUD
RMC .OHMM     0.25                 : RMC          - RESISTIVITY OF MUD CAKE
RMF .OHMM     5.52                 : RMF          - RESISTIVITY OF MUD FILTRATE
SUFT.C        4                    : SUFT         - SURFACE TEMPERATURE
~A  DEPTH      CAL       GR     PHIN     PHID     RESD
# ...
  325.832  186.989   94.003    0.448    0.205   13.745
  326.082  187.015   98.025    0.458    0.192   13.350
  326.332  187.255   98.404    0.471    0.200   13.021
  326.582  187.284   94.904    0.481    0.226   12.927
  326.832  187.111   93.891    0.481    0.219   12.781
  327.082  186.930   92.636    0.492    0.205   12.590
  327.332  184.053   90.474    0.485    0.194   12.425
  327.582  178.990   91.400    0.489    0.187   12.334
  327.832  168.530   96.142    0.495    0.206   12.223
  328.082  171.788   96.405    0.496    0.211   12.182
  328.332  174.307   95.995    0.492    0.215   12.193
  328.582  180.151   95.588    0.484    0.216   12.251
  328.832  183.608   94.941    0.471    0.197   12.260
  329.082  185.619   96.474    0.458    0.192   12.124
  329.332  186.165   99.946    0.452    0.188   11.800
  329.582  186.717  101.964    0.463    0.183   11.392
  329.832  186.433  104.710    0.467    0.213   10.955
  330.082  186.255  105.272    0.461    0.215   10.598
  330.332  186.393  103.049    0.475    0.206   10.627
  330.582  186.731   92.452    0.506    0.192   11.362
  330.832  186.865   85.803    0.485    0.211   12.365
  331.082  186.480   85.091    0.465    0.209   13.403
  331.332  186.405   91.473    0.451    0.206   14.327
  331.582  186.229   97.070    0.447    0.223   14.600
  331.832  186.465   99.876    0.444    0.219   14.067
  332.082  183.900  101.529    0.439    0.210   12.265
  332.332  181.747  101.732    0.434    0.202   12.350
  332.582  179.912  100.472    0.434    0.202   13.095
  332.832  177.756   95.823    0.430    0.211   14.368
  333.082  174.465   91.959    0.428    0.228   15.327
  333.332  171.688   89.612    0.428    0.246   16.852
  333.582  169.019   86.416    0.429    0.239   17.341
  333.832  167.289   87.466    0.427    0.244   17.390
  334.082  166.276   88.815    0.431    0.239   17.059
  334.332  165.895   87.197    0.441    0.222   17.629
  334.582  166.231   83.454    0.452    0.218   18.958
  334.832  166.160   78.620    0.438    0.189   20.673
  335.082  165.461   74.093    0.417    0.123   22.231
  335.332  165.180   71.742    0.397    0.181   24.098
  335.582  165.214   71.103    0.378    0.158   27.134
  335.832  164.826   72.020    0.370    0.135   30.007
  336.082  164.438   76.160    0.380    0.161   32.269
  336.332  164.473   77.513    0.388    0.172   34.018
  336.582  164.915   76.316    0.360    0.129   35.080
  336.832  164.746   68.087    0.335    0.133   36.028
  337.082  165.186   65.080    0.339    0.137   35.274
  337.332  165.738   64.242    0.345    0.131   32.984
  337.582  166.388   64.077    0.349    0.113   29.285
  337.832  167.040   67.793    0.351    0.133   25.283
  338.082  168.216   71.268    0.359    0.156   23.127
  338.332  169.610   73.407    0.409    0.195   23.055
  338.582  169.939   73.969    0.435    0.236   22.437
  338.832  170.383   73.867    0.391    0.169   21.360
  339.082  171.036   74.611    0.355    0.139   20.013
  339.332  171.896   77.657    0.377    0.169   18.603
  339.582  174.116   83.314    0.393    0.208   18.398
  339.832  174.557   83.755    0.445    0.242   18.193
  340.082  174.599   83.894    0.440    0.218   19.293
  340.332  174.096   74.695    0.414    0.201   22.116
  340.582  171.222   72.774    0.390    0.179   24.953
  340.832  172.497   71.578    0.363    0.156   25.069
  341.082  175.141   70.745    0.350    0.143   23.965
  341.332  176.307   74.100    0.351    0.150   21.531
  341.582  177.480   77.147    0.398    0.200   18.588
  341.832  177.816   79.165    0.443    0.229   17.278
  342.082  178.568   79.363    0.441    0.232   16.255
  342.332  179.330   80.352    0.436    0.239   15.692
  342.582  179.773   81.340    0.446    0.231   15.241
  342.832  180.324   82.024    0.446    0.235   14.921
  343.082  180.879   81.859    0.449    0.243   14.581
  343.332  180.902   81.390    0.448    0.233   14.332
  343.582  179.580   80.988    0.449    0.235   14.144
  343.832  179.611   80.638    0.454    0.231   14.100
  344.082  180.056   78.593    0.462    0.230   14.084
  344.332  172.503   78.550    0.454    0.188   14.182
  344.582  174.402   77.965    0.436    0.176   14.190
  344.832  171.629   78.159    0.426    0.201   14.174
  345.082  180.387   81.637    0.427    0.210   14.183
  345.332  189.559   84.681    0.436    0.213   14.141
  345.582  191.666   88.215    0.450    0.218   13.843
  345.832  190.660   89.383    0.476    0.230   13.498
  346.082  190.169   87.825    0.482    0.215   13.163
  346.332  189.886   85.963    0.471    0.200   12.887
  346.582  190.125   87.741    0.461    0.203   12.644
  346.832  191.402   87.150    0.460    0.195   12.603
  347.082  189.875   88.379    0.459    0.186   12.437
  347.332  189.076   87.547    0.465    0.170   12.152
  347.582  188.169   90.172    0.483    0.150   11.827
  347.832  186.954   92.312    0.490    0.172   11.126
  348.082  183.657   91.479    0.490    0.195   10.571
  348.332  182.129   90.106    0.490    0.161   10.206
  348.582  188.600   93.514    0.481    0.167    9.755
  348.832  174.814   91.412    0.460    0.136    9.513
  349.082  180.246   94.824    0.434    0.105    9.445
  349.332  186.512   99.388    0.447    0.187    9.285
  349.582  187.275  103.164    0.465    0.205    9.274
  349.832  192.908  104.153    0.460    0.205    9.374
  350.082  196.055  104.047    0.461    0.189   10.121
  350.332  196.293  102.669    0.460    0.186   11.282
  350.582  189.154   94.865    0.458    0.179   13.064
  350.832  186.691   85.304    0.441    0.167   15.185
  351.082  173.324   81.079    0.388    0.154   18.742
  351.332  169.716   84.974    0.378    0.106   25.410
  351.582  171.411   89.115    0.395    0.123   33.036
  351.832  177.257   89.010    0.406    0.203   32.867
  352.082  183.831   89.575    0.420    0.200   30.980
  352.332  191.444   91.109    0.432    0.182   29.085
  352.582  193.969   94.156    0.446    0.236   28.248
  352.832  185.687   91.991    0.437    0.229   29.130
  353.082  165.669   86.248    0.422    0.230   31.514
  353.332  161.756   83.172    0.418    0.210   35.555
  353.582  160.333   71.246    0.367    0.230   40.432
  353.832  159.429   63.745    0.342    0.256   46.630
  354.082  159.458   52.183    0.295    0.274   56.303
  354.332  159.487   41.894    0.314    0.215   71.321
  354.582  159.306   40.153    0.335    0.174   86.982
  354.832  159.026   37.382    0.347    0.212  110.627
  355.082  159.264   38.793    0.335    0.243  121.120
  355.332  159.398   40.750    0.324    0.276  117.179
  355.582  159.427   41.860    0.328    0.296   99.356
  355.832  159.252   42.362    0.330    0.305   91.804
  356.082  159.180   44.439    0.402    0.305   85.673
  356.332  159.206   44.881    0.416    0.296   77.284
  356.582  159.550   43.746    0.408    0.291   70.556
  356.832  160.307   43.036    0.412    0.285   66.904
  357.082  160.343   44.811    0.412    0.292   62.569
  357.332  160.159   49.861    0.413    0.299   59.327
  357.582  159.362   50.969    0.426    0.289   54.600
  357.832  159.078   53.533    0.442    0.282   49.747
  358.082  158.902   59.613    0.442    0.285   43.203
  358.332  159.348   66.603    0.429    0.285   33.220
  358.582  160.414   76.382    0.419    0.274   26.742
  358.832  163.251   92.586    0.408    0.225   18.869
  359.082  168.687  105.518    0.416    0.172   13.183
  359.332  170.686  115.781    0.422    0.168   10.959
  359.582  169.884  122.650    0.427    0.205    9.845
  359.832  170.957  132.246    0.434    0.198    8.449
  360.082  172.961  141.478    0.452    0.202    7.308
  360.332  173.510  147.134    0.473    0.218    6.160
  360.582  171.773  148.668    0.490    0.208    5.307
  360.832  169.000  147.169    0.509    0.216    4.788
  361.082  167.992  141.366    0.497    0.202    4.678
  361.332  168.749  114.949    0.475    0.191    4.952
  361.582  168.465   80.105    0.458    0.177    5.476
  361.832  167.463  116.743    0.435    0.159    6.215
  362.082  166.449  120.944    0.426    0.136    7.109
