~VERSION INFORMATION
 VERS.                 2.0:   CWLS LOG ASCII STANDARD -VERSION 2.0
 WRAP.                  NO:   ONE LINE PER DEPTH STEP
~WELL INFORMATION BLOCK
#MNEM.UNIT           DATA                    DESCRIPTION OF MNEMONIC
#---------    -------------------            -------------------------------
# Generated from Intellog Unique Number	CW_79_81/WELL/3693
WELL.         06-32-079-02W5                 : Well_name    - WELL
LOC .         00/06-32-079-02W5/0            : Location     - LOCATION
UWI .         00/06-32-079-02W5/0            : Uwi          - UNIQUE WELL ID
ENTR.         JOETTE                         : Entered      - ENTERED BY
SRVC.         SCHLUMBERGER                   : Scn          - SERVICE COMPANY
DATE.         08/26/92                       : Date         - LOG DATE
STRT.M        300                            : top_depth    - START DEPTH
STOP.M        520                            : bot_depth    - STOP DEPTH
STEP.M        0.25                           : increment    - STEP LENGTH
 NULL. -999.2500:NULL Value
~CURVE INFORMATION BLOCK
#MNEM UNIT       ERCB CURVE CODE    CURVE DESCRIPTION
#-----------   ------------------   ----------------------------------
DEPT.M        00 001 00 00         : DEPTH        - DEPTH
ILD .OHMM     00 120 00 00         : RESD         - DEEP RESISTIVITY (DIL)
GR  .API      00 310 00 00         : GR           - GAMMA RAY
NPHI.V/V      00 330 00 00         : PHIN         - NEUTRON POROSITY (SANDSTONE)
DPHI.V/V      00 890 00 00         : PHID         - DENSITY POROSITY (SANDSTONE)
~PARAMETER INFORMATION
#MNEM.UNIT           DATA             DESCRIPTION OF MNEMONIC
#---------         -----------     ------------------------------
GL  .M        617.8                : gl           - GROUND LEVEL ELEVATION
EREF.M        621.9                : kb           - ELEVATION OF DEPTH REFERENCE
DATM.M        621.9                : datum        - DATUM ELEVATION
TDD .M        521                  : tdd          - TOTAL DEPTH DRILLER
RUN .         ONE                  : Run          - RUN NUMBER
ENG .         BILL                 : Engineer     - RECORDING ENGINEER
WIT .         JIM                  : Witness      - WITNESSED BY
MUD .         GEL                  : Mud_type     - MUD TYPE
MATR.         SANDSTONE            : Logunit      - NEUTRON MATRIX
TMAX.C        18                   : BHT          - MAXIMUM RECORDED TEMPERATURE
BHTD.M        521                  : BHTDEP       - MAXIMUM RECORDED TEMPERATURE
MATR.         1                    : LOGUNIT      - NEUTRON MATRIX
RMT .C        16                   : MDTP         - TEMPERATURE OF MUD
NEUT.         1                    : NEUTRON      - NEUTRON TYPE
RESI.         0                    : RESIST       - RESISTIVITY TYPE
RMC .OHMM     4.35                 : RMC          - RESISTIVITY OF MUD CAKE
RMF .OHMM     4.35                 : RMF          - RESISTIVITY OF MUD FILTRATE
SUFT.C        5                    : SUFT         - SURFACE TEMPERATURE
~A  DEPTH     RESD       GR     PHIN     PHID
  300.000    3.600   73.799    0.503    0.278
  300.250    3.884   72.088    0.481    0.293
  300.500    3.964   72.737    0.472    0.319
  300.750    3.895   75.746    0.475    0.319
  301.000    3.757   80.524    0.490    0.326
  301.250    3.557   86.497    0.514    0.290
  301.500    3.244   87.736    0.529    0.280
  301.750    3.014   87.204    0.546    0.288
  302.000    2.698   89.033    0.566    0.298
  302.250    2.372   96.171    0.584    0.328
  302.500    2.164   96.820    0.610    0.349
  302.750    2.087   95.699    0.616    0.341
  303.000    2.012   99.297    0.612    0.350
  303.250    1.942  103.500    0.617    0.347
  303.500    1.944  100.020    0.619    0.331
  303.750    1.910   95.949    0.629    0.320
  304.000    1.949   96.008    0.638    0.314
  304.250    2.025   98.441    0.628    0.299
  304.500    2.065   99.695    0.620    0.303
  304.750    2.147   99.724    0.605    0.255
  305.000    2.233   95.653    0.583    0.232
  305.250    2.235   92.763    0.584    0.289
  305.500    2.238   92.822    0.596    0.319
  305.750    2.240   95.240    0.611    0.287
  306.000    2.285   97.069    0.613    0.281
  306.250    2.331   97.127    0.615    0.275
  306.500    2.377   97.776    0.611    0.283
  306.750    2.426  101.389    0.593    0.282
  307.000    2.475  100.268    0.561    0.264
  307.250    2.524   99.133    0.592    0.267
  307.500    2.527   99.192    0.600    0.265
  307.750    2.579   99.265    0.605    0.263
  308.000    2.581  100.504    0.573    0.268
  308.250    2.585  101.167    0.545    0.266
  308.500    2.588   98.867    0.542    0.263
  308.750    2.590   98.335    0.575    0.263
  309.000    2.546   98.380    0.582    0.255
  309.250    2.503   96.683    0.597    0.263
  309.500    2.458   94.368    0.608    0.278
  309.750    2.372   92.067    0.605    0.272
  310.000    2.511   91.536    0.598    0.271
  310.250    3.583   91.595    0.583    0.266
  310.500    5.410   86.344    0.541    0.274
  310.750    5.833   77.540    0.527    0.279
  311.000   10.031   66.980    0.436    0.261
  311.250   13.283   58.190    0.375    0.236
  311.500   16.030   47.615    0.320    0.226
  311.750   18.982   32.336    0.327    0.236
  312.000   22.069   25.891    0.317    0.247
  312.250   24.247   27.159    0.309    0.244
  312.500   26.649   29.563    0.308    0.245
  312.750   28.225   29.047    0.318    0.245
  313.000   29.334   27.926    0.311    0.206
  313.250   31.059   28.589    0.300    0.181
  313.500   32.887   29.223    0.287    0.189
  313.750   34.178   31.657    0.287    0.207
  314.000   35.509   33.456    0.294    0.209
  314.250   36.938   35.299    0.289    0.217
  314.500   37.668   35.343    0.287    0.226
  314.750   37.715   36.021    0.288    0.227
  315.000   37.761   36.670    0.304    0.228
  315.250   37.808   37.319    0.317    0.249
  315.500   37.167   37.363    0.306    0.269
  315.750   37.190   35.652    0.283    0.246
  316.000   36.548   33.941    0.281    0.238
  316.250   40.937   32.820    0.296    0.236
  316.500   44.991   33.469    0.309    0.241
  316.750   47.653   35.902    0.281    0.199
  317.000   47.682   37.126    0.267    0.160
  317.250   45.144   37.185    0.266    0.164
  317.500   40.429   34.884    0.259    0.204
  317.750   38.266   32.598    0.303    0.210
  318.000   34.925   33.837    0.317    0.228
  318.250   34.301   36.241    0.341    0.247
  318.500   36.330   39.264    0.354    0.280
  318.750   39.191   38.748    0.297    0.225
  319.000   42.291   34.662    0.271    0.214
  319.250   43.113   32.347    0.272    0.209
  319.500   42.382   34.234    0.320    0.241
  319.750   40.882   36.048    0.340    0.260
  320.000   37.991   37.287    0.364    0.271
  320.250   34.663   36.726    0.305    0.237
  320.500   34.055   34.455    0.286    0.205
  320.750   37.428   33.895    0.270    0.177
  321.000   40.375   33.393    0.278    0.166
  321.250   39.678   33.422    0.327    0.243
  321.500   36.203   37.035    0.354    0.257
  321.750   32.412   36.504    0.382    0.258
  322.000   30.111   35.383    0.357    0.226
  322.250   26.468   36.622    0.358    0.221
  322.500   23.252   44.940    0.410    0.306
  322.750   21.601   58.006    0.458    0.342
  323.000   20.451   59.230    0.492    0.360
  323.250   20.868   61.059    0.478    0.354
  323.500   22.935   63.478    0.479    0.346
  323.750   24.749   65.896    0.474    0.344
  324.000   24.772   64.790    0.480    0.343
  324.250   24.344   68.963    0.498    0.342
  324.500   23.924   71.972    0.496    0.349
  324.750   23.512   66.722    0.493    0.355
  325.000   22.267   65.025    0.487    0.347
  325.250   21.479   73.933    0.491    0.322
  325.500   21.499   79.891    0.510    0.323
  325.750   23.199   74.641    0.509    0.334
  326.000   25.033   67.620    0.505    0.346
  326.250   25.520   65.909    0.503    0.341
  326.500   27.030   65.968    0.507    0.332
  326.750   27.572   64.847    0.507    0.322
  327.000   28.117   61.957    0.508    0.316
  327.250   28.682   58.461    0.509    0.327
  327.500   28.196   57.355    0.520    0.330
  327.750   27.197   59.788    0.514    0.335
  328.000   25.274   60.422    0.503    0.334
  328.250   23.487   61.661    0.494    0.331
  328.500   21.820   60.540    0.490    0.343
  328.750   20.283   57.664    0.502    0.338
  329.000   20.308   54.773    0.492    0.324
  329.250   21.907   56.602    0.495    0.327
  329.500   24.538   59.625    0.499    0.338
  329.750   26.470   60.244    0.502    0.349
  330.000   27.501   59.123    0.494    0.344
  330.250   28.053   58.002    0.491    0.342
  330.500   28.626   58.666    0.487    0.340
  330.750   28.661   60.480    0.482    0.331
  331.000   28.688   64.093    0.476    0.329
  331.250   28.723   70.641    0.485    0.297
  331.500   27.715   78.369    0.490    0.300
  331.750   26.248   83.177    0.500    0.287
  332.000   25.779   82.055    0.516    0.263
  332.250   24.874   79.165    0.514    0.256
  332.500   23.986   76.274    0.479    0.260
  332.750   24.467   71.584    0.453    0.257
  333.000   27.921   66.938    0.408    0.252
  333.250   31.273   64.623    0.381    0.255
  333.500   33.747   62.322    0.360    0.167
  333.750   35.050   62.971    0.335    0.035
  334.000   35.754   64.209    0.294    0.008
  334.250   35.148   64.873    0.269    0.045
  334.500   33.893   61.967    0.264    0.112
  334.750   30.924   58.487    0.316    0.140
  335.000   28.729   56.776    0.386    0.183
  335.250   25.728   59.194    0.466    0.235
  335.500   23.916   64.577    0.513    0.279
  335.750   23.489   66.996    0.529    0.332
  336.000   23.968   70.034    0.525    0.325
  336.250   25.386   72.437    0.529    0.310
  336.500   25.880   76.036    0.552    0.296
  336.750   25.912   90.872    0.561    0.288
  337.000   25.002   93.851    0.546    0.293
  337.250   23.241  115.752    0.543    0.287
  337.500   22.405  113.451    0.557    0.261
  337.750   22.032  104.071    0.566    0.268
  338.000   22.460   95.871    0.554    0.303
  338.250   23.342   88.261    0.540    0.314
  338.500   25.188   87.155    0.550    0.299
  338.750   26.678   85.414    0.562    0.301
  339.000   27.205   81.344    0.569    0.327
  339.250   27.743   77.273    0.563    0.329
  339.500   28.308   70.282    0.554    0.335
  339.750   28.343   70.902    0.533    0.345
  340.000   27.863   72.140    0.513    0.341
  340.250   27.391   72.789    0.501    0.329
  340.500   26.404   70.488    0.495    0.328
  340.750   25.477   65.828    0.501    0.335
  341.000   24.122   57.628    0.487    0.329
  341.250   23.267   50.608    0.483    0.336
  341.500   21.629   47.112    0.487    0.360
  341.750   21.243   47.776    0.483    0.363
  342.000   20.112   51.389    0.488    0.363
  342.250   18.696   53.203    0.496    0.361
  342.500   18.034   54.441    0.503    0.339
  342.750   17.395   52.730    0.500    0.346
  343.000   16.779   52.199    0.486    0.369
  343.250   16.180   53.438    0.484    0.366
