~VERSION INFORMATION
 VERS.                 2.0:   CWLS LOG ASCII STANDARD -VERSION 2.0
 WRAP.                  NO:   ONE LINE PER DEPTH STEP
~WELL INFORMATION BLOCK
#MNEM.UNIT           DATA                    DESCRIPTION OF MNEMONIC
#---------    -------------------            -------------------------------
# Generated from Intellog Unique Number	CW_70_72/WELL/416
NULL.         -999.25                        : NULL_VALUE
WELL.         RAVENNA ET AL CALL             : Well_name    - WELL              
LOC .         04-36-071-19W4                 : Location     - LOCATION          
UWI .         00/04-36-071-19W4/0            : Uwi          - UNIQUE WELL ID    
ENTR.         JAYE                           : Entered      - ENTERED BY        
SRVC.         SCHLUMBERGER                   : Scn          - SERVICE COMPANY   
DATE.         29 MAR 80                      : Date         - LOG DATE          
STRT.M        300                            : top_depth    - START DEPTH       
STOP.M        485                            : bot_depth    - STOP DEPTH        
STEP.M        0.25                           : increment    - STEP LENGTH       
~CURVE INFORMATION BLOCK
#MNEM UNIT       ERCB CURVE CODE    CURVE DESCRIPTION
#-----------   ------------------   ----------------------------------
DEPT.M        00 001 00 00         : DEPTH        - DEPTH                       
DPHI.V/V      00 890 00 00         : PHID         - DENSITY POROSITY (SANDSTONE)
NPHI.V/V      00 330 00 00         : PHIN         - NEUTRON POROSITY (SANDSTONE)
GR  .API      00 310 00 00         : GR           - GAMMA RAY                   
CALI.MM       00 280 01 00         : CAL          - CALIPER                     
ILD .OHMM     00 120 00 00         : RESD         - DEEP RESISTIVITY (DIL)      
~PARAMETER INFORMATION       
#MNEM.UNIT           DATA             DESCRIPTION OF MNEMONIC
#---------         -----------     ------------------------------
GL  .M        587.3                : gl           - GROUND LEVEL ELEVATION      
EREF.M        591                  : kb           - ELEVATION OF DEPTH REFERENCE
DATM.M        587.3                : datum        - DATUM ELEVATION             
TDD .M        509                  : tdd          - TOTAL DEPTH DRILLER         
RUN .         ONE                  : Run          - RUN NUMBER                  
MATR.         SANDSTONE            : Logunit      - NEUTRON MATRIX              
TMAX.C        0                    : BHT          - MAXIMUM RECORDED TEMPERATURE
BHTD.M        507.5                : BHTDEP       - MAXIMUM RECORDED TEMPERATURE
RMT .C        18                   : MDTP         - TEMPERATURE OF MUD          
MUDD.KG/M     0                    : MWT          - MUD DENSITY                 
NEUT.         1                    : NEUTRON      - NEUTRON TYPE                
RESI.         0                    : RESIST       - RESISTIVITY TYPE            
RM  .OHMM     5.73                 : RM           - RESISTIVITY OF MUD          
RMC .OHMM     0                    : RMC          - RESISTIVITY OF MUD CAKE     
RMF .OHMM     4.55                 : RMF          - RESISTIVITY OF MUD FILTRATE 
SUFT.C        0                    : SUFT         - SURFACE TEMPERATURE         
~A  DEPTH     PHID     PHIN       GR      CAL     RESD
# ...
  446.000    0.113    0.323   91.649  185.474   10.167
  446.250    0.117    0.381   95.132  187.552    8.621
  446.500    0.141    0.411   97.684  189.318    7.201
  446.750    0.163    0.432   98.681  189.945    6.473
  447.000    0.175    0.431   99.928  187.674    6.088
  447.250    0.161    0.428  101.609  188.302    5.934
  447.500    0.154    0.431  100.494  189.343    5.904
  447.750    0.150    0.418   99.193  189.866    5.942
  448.000    0.145    0.411   99.942  190.805    6.013
  448.250    0.161    0.410  102.183  191.846    6.224
  448.500    0.175    0.417  104.796  192.370    6.578
  448.750    0.157    0.429  102.190  192.893    6.809
  449.000    0.148    0.422   99.087  193.417    6.904
  449.250    0.139    0.400   97.599  194.044    6.948
  449.500    0.125    0.389  100.026  194.465    6.836
  449.750    0.114    0.387  103.136  195.196    6.502
  450.000    0.173    0.398  106.309  195.927    6.302
  450.250    0.167    0.410  110.165  196.347    6.176
  450.500    0.169    0.420  112.033  196.664    6.180
  450.750    0.178    0.395  107.687  196.359    6.338
  451.000    0.165    0.387  103.776  195.951    6.573
  451.250    0.162    0.401   99.616  195.543    6.766
  451.500    0.146    0.380   97.135  195.342    6.847
  451.750    0.127    0.380   97.449  195.244    6.814
  452.000    0.100    0.393  100.062  195.251    6.780
  452.250    0.115    0.396  102.427  195.256    6.759
  452.500    0.169    0.393   98.516  195.263    6.650
  452.750    0.148    0.383   94.730  195.165    6.518
  453.000    0.140    0.372   92.496  194.549    6.305
  453.250    0.122    0.367   90.325  193.830    5.743
  453.500    0.107    0.387   93.186  193.422    4.646
  453.750    0.185    0.407   96.732  192.910    3.888
  454.000    0.177    0.424  101.023  191.673    3.341
  454.250    0.175    0.477  104.382  195.822    2.908
  454.500    0.207    0.488  108.611  202.456    2.624
  454.750    0.190    0.493  112.716  183.821    2.328
  455.000    0.197    0.485  111.911  182.687    2.428
  455.250    0.192    0.481  106.075  182.797    2.746
  455.500    0.191    0.508  101.977  183.115    3.380
  455.750    0.166    0.505   93.902  182.396    4.271
  456.000    0.142    0.475   83.281  180.952    5.407
  456.250    0.111    0.364   85.894  180.128    6.397
  456.500    0.084    0.381   89.067  179.513    7.034
  456.750    0.125    0.406   93.047  179.623    7.104
  457.000    0.141    0.400   92.926  180.147    6.859
  457.250    0.093    0.382   95.975  180.981    6.463
  457.500    0.126    0.394   98.837  183.576    5.876
  457.750    0.155    0.404  101.512  188.243    5.262
  458.000    0.164    0.415  103.939  187.835    5.024
  458.250    0.150    0.429  104.626  185.459    5.113
  458.500    0.146    0.425  102.144  185.464    5.632
  458.750    0.131    0.413   95.499  185.160    6.539
  459.000    0.115    0.387   83.573  184.027    7.298
  459.250    0.073    0.322   76.430  182.583    7.845
  459.500    0.032    0.329   85.071  179.897    7.704
  459.750    0.080    0.354   95.825  177.935    6.606
  460.000    0.108    0.363  103.595  177.114    5.354
  460.250    0.123    0.389  108.756  177.222    4.048
  460.500    0.166    0.435  113.545  177.849    3.598
  460.750    0.176    0.470  117.028  179.513    3.222
  461.000    0.184    0.475  112.371  180.658    3.117
  461.250    0.185    0.467  112.810  182.527    3.178
  461.500    0.180    0.486  112.938  183.672    3.410
  461.750    0.162    0.490  112.382  183.265    3.651
  462.000    0.154    0.481  110.832  182.752    4.022
  462.250    0.132    0.472  105.989  182.137    4.258
  462.500    0.111    0.455  101.270  182.972    4.560
  462.750    0.089    0.428  103.635  185.152    4.702
  463.000    0.069    0.412  106.683  180.705    4.831
  463.250    0.153    0.437  107.370  180.815    4.908
  463.500    0.093    0.457  101.657  181.443    4.957
  463.750    0.077    0.452   97.995  181.138    4.980
  464.000    0.057    0.437  100.981  180.729    5.012
  464.250    0.133    0.456  106.018  181.150    5.043
  464.500    0.172    0.443  110.123  183.228    5.094
  464.750    0.170    0.415  106.087  187.065    5.175
  465.000    0.144    0.392  107.893  191.317    5.278
  465.250    0.123    0.413  109.636  195.362    5.330
  465.500    0.176    0.431  111.504  190.708    5.415
  465.750    0.153    0.458  104.238  192.267    5.480
  466.000    0.125    0.411   97.841  191.548    5.453
  466.250    0.116    0.392  100.392  183.787    5.426
  466.500    0.139    0.409  105.367  185.243    5.389
  466.750    0.153    0.428  110.404  185.974    5.372
  467.000    0.149    0.464  114.198  185.980    5.509
  467.250    0.130    0.428  116.935  188.160    5.801
  467.500    0.161    0.420  111.595  195.623    6.176
  467.750    0.187    0.410  114.458  196.665    6.906
  468.000    0.136    0.398  116.635  187.868    7.650
  468.250    0.094    0.364  122.045  184.872    8.347
  468.500    0.068    0.313  126.150  184.464    8.788
  468.750    0.093    0.348  108.941  184.365    9.131
  469.000    0.042    0.340   93.845  184.061    9.399
  469.250    0.008    0.310   86.703  184.067    9.640
  469.500   -0.009    0.267   84.843  184.073    9.754
  469.750    0.023    0.272   89.072  184.079    9.890
  470.000    0.058    0.274   96.594  183.981    9.732
  470.250    0.068    0.274  104.116  184.091    9.291
  470.500    0.060    0.301  112.322  184.822    8.542
  470.750    0.066    0.327  117.172  185.863    8.436
  471.000    0.080    0.347  112.391  185.558    8.490
  471.250    0.065    0.332   88.907  181.733    8.640
  471.500    0.042    0.292   74.494  184.327    8.894
  471.750    0.096    0.262   74.622  187.959    8.983
  472.000    0.123    0.283   81.834  189.829    9.024
  472.250    0.138    0.315   87.678  189.006    9.014
  472.500    0.156    0.338   90.851  186.941    9.138
  472.750    0.145    0.365   84.330  184.461    9.514
  473.000    0.119    0.357   69.545  181.672    9.904
  473.250    0.094    0.354   59.296  180.227   11.850
  473.500    0.093    0.381   53.769  179.508   13.326
  473.750    0.124    0.385   54.830  178.996   14.541
  474.000    0.122    0.373   70.367  178.796   15.688
  474.250    0.145    0.362   94.232  179.215   16.270
  474.500    0.219    0.347  112.628  180.155   13.039
  474.750    0.263    0.402  122.449  180.988    9.494
  475.000    0.237    0.414  128.854  182.547    7.191
  475.250    0.213    0.404  134.201  184.832    5.730
  475.500    0.185    0.393  141.164  188.773    5.200
  475.750    0.171    0.374  147.505  190.644    5.059
  476.000    0.163    0.373  142.351  190.029    5.100
  476.250    0.166    0.404  132.040  188.792    5.240
  476.500    0.141    0.407  122.164  187.555    5.466
  476.750    0.159    0.393  114.711  186.629    5.852
  477.000    0.164    0.383  111.111  185.495    6.471
  477.250    0.153    0.370  106.081  184.259    6.968
  477.500    0.142    0.357   99.747  183.230    7.025
  477.750    0.187    0.364  102.484  182.717    6.707
  478.000    0.221    0.398  108.578  184.588    6.661
  478.250    0.213    0.440  110.632  189.254    6.948
  478.500    0.196    0.443  100.693  195.370    7.370
  478.750    0.234    0.413   91.252  180.670    8.335
  479.000    0.247    0.403   88.957  178.917    9.285
  479.250    0.274    0.398   93.434  177.990   10.150
  479.500    0.265    0.411   99.590  176.650    9.986
  479.750    0.274    0.399  107.547  175.930    9.660
  480.000    0.219    0.392  115.566  174.590    9.703
  480.250    0.184    0.398  119.360  173.251    9.932
  480.500    0.188    0.401  104.886  172.325   10.340
  480.750    0.174    0.388   98.302  171.812   10.844
  481.000    0.141    0.365   91.285  171.093   11.418
  481.250    0.146    0.336   85.696  170.271   12.066
  481.500    0.163    0.383   91.043  169.552   12.872
  481.750    0.209    0.405   90.053  169.040   14.313
  482.000    0.191    0.434   76.510  168.735   16.837
  482.250    0.158    0.430   64.584  167.810   22.302
