~VERSION INFORMATION
 VERS.                 2.0:   CWLS LOG ASCII STANDARD -VERSION 2.0
 WRAP.                  NO:   ONE LINE PER DEPTH STEP
~WELL INFORMATION BLOCK
#MNEM.UNIT           DATA                    DESCRIPTION OF MNEMONIC
#---------    -------------------            -------------------------------
# Generated from Intellog Unique Number	CX_WELLS/WELL/3124
WELL.         UNIVERSAL                      : Well_name    - WELL
LOC .         00/06-09-083-03W4/0            : Location     - LOCATION
UWI .         00/06-09-083-03W400            : Uwi          - UNIQUE WELL ID
ENTR.         TIM                            : Entered      - ENTERED BY
SRVC.         SCHLUMBERGER                   : Scn          - SERVICE COMPANY
STRT.F        300                            : top_depth    - START DEPTH
STOP.F        979.954                        : bot_depth    - STOP DEPTH
STEP.F        0.82                           : increment    - STEP LENGTH
 NULL. -999.2500:NULL Value
~CURVE INFORMATION BLOCK
#MNEM UNIT       ERCB CURVE CODE    CURVE DESCRIPTION
#-----------   ------------------   ----------------------------------
DEPT.F        00 001 00 00         : DEPTH        - DEPTH
GR  .API      00 310 00 00         : GR           - GAMMA RAY
NPHI.V/V      00 330 00 00         : PHIN         - NEUTRON POROSITY (SANDSTONE)
DPHI.V/V      00 890 00 00         : PHID         - DENSITY POROSITY (SANDSTONE)
ILD .OHMM     00 120 00 00         : RESD         - DEEP RESISTIVITY (OTHER)
~PARAMETER INFORMATION
#MNEM.UNIT           DATA             DESCRIPTION OF MNEMONIC
#---------         -----------     ------------------------------
GL  .F        1568                 : gl           - GROUND LEVEL ELEVATION
EREF.F        1578.5               : kb           - ELEVATION OF DEPTH REFERENCE
DATM.F        1578.5               : datum        - DATUM ELEVATION
TDD .F        1000                 : tdd          - TOTAL DEPTH DRILLER
RUN .         ONE                  : Run          - RUN NUMBER
ENG .         BILL                 : Engineer     - RECORDING ENGINEER
WIT .         JIM                  : Witness      - WITNESSED BY
MUD .         GEL                  : Mud_type     - MUD TYPE
MATR.         SANDSTONE            : Logunit      - NEUTRON MATRIX
TMAX.F        68                   : BHT          - MAXIMUM RECORDED TEMPERATURE
BHTD.F        1000                 : BHTDEP       - MAXIMUM RECORDED TEMPERATURE
MATR.         1                    : LOGUNIT      - NEUTRON MATRIX
RMT .F        68                   : MDTP         - TEMPERATURE OF MUD
NEUT.         1                    : NEUTRON      - NEUTRON TYPE
RESI.         5.65                 : RESIST       - RESISTIVITY TYPE
RMC .OHMM     6.4                  : RMC          - RESISTIVITY OF MUD CAKE
RMF .OHMM     5.2                  : RMF          - RESISTIVITY OF MUD FILTRATE
SUFT.F        37.4                 : SUFT         - SURFACE TEMPERATURE
~A  DEPTH       GR     PHIN     PHID     RESD
# ...
  870.866   24.032    0.382    0.319    1.769
  871.686   24.077    0.377    0.319    1.740
  872.507   23.453    0.375    0.319    1.743
  873.327   22.845    0.378    0.319    1.714
  874.147   22.206    0.376    0.319    1.716
  874.967   21.582    0.374    0.319    1.719
  875.787   21.658    0.379    0.317    1.754
  876.608   21.703    0.381    0.317    1.790
  877.428   21.080    0.386    0.317    1.828
  878.248   20.471    0.387    0.317    1.830
  879.068   20.517    0.368    0.314    1.834
  879.888   20.607    0.355    0.313    1.802
  880.709   20.683    0.353    0.309    1.804
  881.529   20.728    0.353    0.302    1.774
  882.349   20.789    0.353    0.297    1.778
  883.169   21.519    0.355    0.299    1.781
  883.990   21.594    0.360    0.303    1.784
  884.810   22.339    0.369    0.305    1.786
  885.630   23.084    0.377    0.305    1.791
  886.450   24.513    0.377    0.302    1.793
  887.270   27.310    0.374    0.296    1.795
  888.091   29.424    0.368    0.291    1.833
  888.911   34.958    0.367    0.276    1.869
  889.731   40.493    0.370    0.260    1.907
  890.551   67.938    0.376    0.289    2.137
  891.371   86.504    0.382    0.306    2.220
  892.192   87.933    0.399    0.321    2.351
  893.012   91.414    0.416    0.328    2.489
  893.832   92.828    0.430    0.337    2.586
  894.652   98.378    0.439    0.343    2.791
  895.472  105.281    0.439    0.330    2.955
  896.293  112.868    0.443    0.319    3.130
  897.113  111.590    0.497    0.259    3.378
  897.933  108.230    0.526    0.229    3.576
  898.753  104.869    0.523    0.218    3.858
  899.573  100.794    0.491    0.211    4.085
  900.394   95.380    0.453    0.195    4.326
  901.214   88.598    0.427    0.184    4.414
  902.034   81.817    0.417    0.179    4.338
  902.854   73.666    0.417    0.175    3.962
  903.675   67.568    0.416    0.167    3.755
  904.495   60.786    0.412    0.161    3.689
  905.315   54.020    0.381    0.149    3.562
  906.135   48.591    0.378    0.158    3.501
  906.955   45.215    0.380    0.201    3.320
  907.776   39.118    0.382    0.232    3.263
  908.596   39.178    0.374    0.244    3.148
  909.416   42.006    0.369    0.239    2.982
  910.236   45.488    0.371    0.234    2.828
  911.056   51.691    0.378    0.229    2.729
  911.877   61.346    0.388    0.225    2.683
  912.697   73.039    0.399    0.222    2.639
  913.517   85.431    0.418    0.221    2.644
  914.337   90.281    0.449    0.220    2.648
  915.157   95.132    0.472    0.246    2.701
  915.978  107.524    0.497    0.251    2.756
  916.798  104.847    0.560    0.258    2.865
  917.618   97.366    0.580    0.324    2.922
  918.438   92.652    0.595    0.377    3.098
  919.259   98.871    0.587    0.354    3.157
  920.079  104.405    0.557    0.315    3.282
  920.899  108.586    0.512    0.277    3.475
  921.719  106.594    0.457    0.226    3.614
  922.539  108.692    0.414    0.201    3.755
  923.360  125.190    0.435    0.203    3.904
  924.180  131.409    0.457    0.201    3.839
  925.000  143.116    0.500    0.211    3.638
  925.820  147.967    0.522    0.219    3.446
  926.640  143.253    0.535    0.230    3.207
  927.461  139.877    0.549    0.259    3.093
  928.281  138.569    0.569    0.275    2.986
  929.101  140.682    0.572    0.283    2.936
  929.921  142.795    0.560    0.278    2.940
  930.741  144.224    0.560    0.267    2.944
  931.562  144.315    0.555    0.246    2.949
  932.382  144.361    0.541    0.236    3.010
  933.202  144.421    0.536    0.234    3.016
  934.022  143.128    0.536    0.234    3.020
  934.843  141.805    0.534    0.226    3.083
  935.663  137.076    0.531    0.220    3.205
  936.483  122.068    0.527    0.210    3.329
  937.303  105.707    0.520    0.201    3.527
  938.123   98.925    0.496    0.185    3.532
  938.944   85.300    0.417    0.194    3.348
  939.764   79.188    0.414    0.221    3.230
  940.584   67.616    0.410    0.250    3.004
  941.404   58.097    0.404    0.267    2.692
  942.224   48.593    0.399    0.280    2.413
  943.045   47.970    0.394    0.286    2.163
  943.865   50.083    0.394    0.288    2.011
  944.685   52.181    0.414    0.285    2.091
  945.505   57.031    0.398    0.276    2.174
  946.325   63.949    0.386    0.268    2.177
  947.146   70.852    0.383    0.259    2.221
  947.966   79.808    0.386    0.238    2.310
  948.786   84.689    0.395    0.224    2.355
  949.606   82.681    0.410    0.228    2.449
  950.427   78.651    0.425    0.229    2.545
  951.247   73.907    0.435    0.241    2.695
  952.067   55.478    0.440    0.253    2.750
  952.887   49.380    0.443    0.264    2.333
  953.707   42.598    0.440    0.275    2.129
  954.528   35.132    0.436    0.281    1.979
  955.348   29.035    0.430    0.282    1.843
  956.168   22.952    0.427    0.287    1.811
  956.988   18.223    0.424    0.299    1.780
  957.808   13.463    0.421    0.315    1.718
  958.629    7.381    0.422    0.325    1.689
  959.449    6.757    0.424    0.334    1.601
  960.269    6.818    0.430    0.345    1.573
  961.089    8.262    0.435    0.349    1.547
  961.909    9.706    0.434    0.354    1.466
  962.730   10.420    0.428    0.352    1.390
  963.550   13.917    0.427    0.344    1.392
  964.370   18.752    0.422    0.329    1.369
  965.190   26.355    0.416    0.313    1.370
  966.010   38.047    0.408    0.286    1.451
  966.831   53.177    0.393    0.224    1.508
  967.651   55.989    0.385    0.189    1.658
  968.471   54.666    0.330    0.136    1.926
  969.291   51.305    0.248    0.068    2.500
  970.112   47.945    0.238    0.044    4.209
  970.932   47.321    0.227    0.026    6.456
  971.752   48.081    0.222    0.017    7.643
  972.572   48.126    0.217    0.010    8.556
  973.392   47.518    0.209    0.005    9.578
  974.213   46.210    0.203    0.002   10.141
  975.033   44.917    0.199    0.001   11.795
  975.853   43.609    0.199    0.001   12.718
  976.673   43.670    0.199    0.002   13.461
  977.493   43.715    0.200    0.003   14.526
  978.314   44.490    0.201    0.004   15.381
  979.134   45.220    0.202    0.005   15.988
  979.954   46.649    0.205    0.006   16.026
