~VERSION INFORMATION
 VERS.                 2.0:   CWLS LOG ASCII STANDARD -VERSION 2.0
 WRAP.                  NO:   ONE LINE PER DEPTH STEP
~WELL INFORMATION BLOCK
#MNEM.UNIT           DATA                    DESCRIPTION OF MNEMONIC
#---------    -------------------            -------------------------------
# Generated from Intellog Unique Number	CW_79_81/WELL/532
WELL.         HB AMOCO PELICAN               : Well_name    - WELL
LOC .         00/07-01-079-24W4/0            : Location     - LOCATION
UWI .         00/07-01-079-24W4/0            : Uwi          - UNIQUE WELL ID
ENTR.         MAX                            : Entered      - ENTERED BY
SRVC.         WESTERN ATLAS                  : Scn          - SERVICE COMPANY
STRT.M        304.8                          : top_depth    - START DEPTH
STOP.M        524.3                          : bot_depth    - STOP DEPTH
STEP.M        0.25                           : increment    - STEP LENGTH
 NULL. -999.2500:NULL Value
~CURVE INFORMATION BLOCK
#MNEM UNIT       ERCB CURVE CODE    CURVE DESCRIPTION
#-----------   ------------------   ----------------------------------
DEPT.M        00 001 00 00         : DEPTH        - DEPTH
ILD .OHMM     00 120 00 00         : RESD         - DEEP RESISTIVITY (DIL)
NPHI.V/V      00 330 00 00         : PHIN         - NEUTRON POROSITY (SANDSTONE)
DPHI.V/V      00 890 00 00         : PHID         - DENSITY POROSITY (SANDSTONE)
CALI.MM       00 280 01 00         : CAL          - CALIPER
GR  .API      00 310 00 00         : GR           - GAMMA RAY
~PARAMETER INFORMATION
#MNEM.UNIT           DATA             DESCRIPTION OF MNEMONIC
#---------         -----------     ------------------------------
GL  .M        583.387              : gl           - GROUND LEVEL ELEVATION
EREF.M        587.045              : kb           - ELEVATION OF DEPTH REFERENCE
DATM.M        583.387              : datum        - DATUM ELEVATION
TDD .M        484.937              : tdd          - TOTAL DEPTH DRILLER
RUN .         ONE                  : Run          - RUN NUMBER
ENG .         BILL                 : Engineer     - RECORDING ENGINEER
WIT .         JIM                  : Witness      - WITNESSED BY
MUD .         GEL                  : Mud_type     - MUD TYPE
MATR.         SANDSTONE            : Logunit      - NEUTRON MATRIX
TMAX.C        43.3333              : BHT          - MAXIMUM RECORDED TEMPERATURE
BHTD.M        484.937              : BHTDEP       - MAXIMUM RECORDED TEMPERATURE
RMT .C        20                   : MDTP         - TEMPERATURE OF MUD
MUDD.KG/M     9200                 : MWT          - MUD DENSITY
NEUT.         1                    : NEUTRON      - NEUTRON TYPE
RESI.         0                    : RESIST       - RESISTIVITY TYPE
RM  .OHMM     1.6                  : RM           - RESISTIVITY OF MUD
RMC .OHMM     0.25                 : RMC          - RESISTIVITY OF MUD CAKE
RMF .OHMM     1.6                  : RMF          - RESISTIVITY OF MUD FILTRATE
SUFT.C        -20.5556             : SUFT         - SURFACE TEMPERATURE
~A  DEPTH     RESD     PHIN     PHID      CAL       GR
# ...
  341.300   17.762    0.270    0.156  176.781   46.567
  341.550   18.763    0.270    0.154  176.201   47.755
  341.800   18.765    0.294    0.263  174.669   51.342
  342.050   18.766    0.324    0.315  172.613   53.735
  342.300   18.259    0.339    0.279  171.070   57.327
  342.550   17.445    0.352    0.264  170.032   57.007
  342.800   16.667    0.345    0.308  169.490   59.396
  343.050   15.924    0.371    0.318  169.460   60.584
  343.300   15.495    0.411    0.317  169.427   59.662
  343.550   15.496    0.405    0.314  169.427   57.541
  343.800   15.639    0.398    0.312  169.372   56.023
  344.050   15.639    0.398    0.308  169.372   56.004
  344.300   15.641    0.393    0.308  169.298   55.389
  344.550   15.499    0.391    0.310  168.781   54.771
  344.800   15.360    0.380    0.309  168.781   51.748
  345.050   15.360    0.383    0.307  168.704   49.326
  345.300   15.222    0.383    0.305  168.689   50.809
  345.550   15.362    0.386    0.310  168.689   51.095
  345.800   15.364    0.397    0.315  168.619   50.778
  346.050   15.364    0.392    0.313  168.600   48.356
  346.300   15.365    0.381    0.310  168.571   51.346
  346.550   15.366    0.375    0.306  168.538   52.227
  346.800   15.227    0.366    0.303  168.508   52.514
  347.050   15.228    0.376    0.309  168.479   52.800
  347.300   15.228    0.377    0.312  168.449   53.084
  347.550   15.091    0.381    0.320  168.420   53.065
  347.800   14.955    0.374    0.324  168.383   53.352
  348.050   14.956    0.380    0.325  168.361   53.331
  348.300   14.957    0.397    0.323  168.324   53.315
  348.550   14.958    0.412    0.315  168.324   52.997
  348.800   14.959    0.412    0.304  168.265   53.582
  349.050   15.097    0.417    0.299  167.737   53.265
  349.300   15.098    0.410    0.303  167.700   52.048
  349.550   15.237    0.418    0.305  167.700   50.827
  349.800   15.378    0.399    0.304  167.626   52.915
  350.050   15.379    0.381    0.310  167.626   53.502
  350.300   15.379    0.380    0.303  167.062   54.087
  350.550   15.522    0.384    0.306  166.545   53.469
  350.800   15.523    0.376    0.310  166.545   52.245
  351.050   15.666    0.375    0.303  165.459   51.928
  351.300   15.956    0.378    0.288  164.939   53.114
  351.550   16.104    0.372    0.277  163.890   55.804
  351.800   16.552    0.374    0.251  163.359   56.088
  352.050   17.169    0.373    0.229  162.314   53.969
  352.300   18.304    0.355    0.212  161.779   51.543
  352.550   19.160    0.353    0.176  161.753   50.927
  352.800   19.875    0.348    0.169  162.222   51.815
  353.050   19.163    0.344    0.184  162.705   55.406
  353.300   17.651    0.344    0.246  163.160   56.891
  353.550   16.711    0.346    0.272  163.658   58.077
  353.800   16.113    0.354    0.292  165.652   59.261
  354.050   15.967    0.372    0.311  167.136   59.846
  354.300   16.114    0.380    0.314  168.114   59.531
  354.550   16.715    0.369    0.309  169.096   58.610
  354.800   17.497    0.358    0.285  169.573   58.894
  355.050   17.821    0.346    0.167  170.559   63.390
  355.300   17.027    0.348    0.139  171.541   67.883
  355.550   15.260    0.343    0.282  172.017   73.278
  355.800   13.928    0.358    0.313  172.493   81.680
  356.050   12.948    0.381    0.304  171.448   89.481
  356.300   12.484    0.366    0.279  169.396   89.462
  356.550   12.599    0.334    0.197  166.830   82.531
  356.800   13.310    0.289    0.040  165.796   75.601
  357.050   16.423    0.257    0.017  164.755   64.759
  357.300   20.263    0.231   -0.006  164.718   56.324
  357.550   29.470    0.216   -0.016  165.700   56.909
  357.800   24.328    0.208   -0.004  166.177   63.808
  358.050   19.186    0.226    0.077  167.162   68.902
  358.300   15.694    0.349    0.195  168.145   73.997
  358.550   12.153    0.370    0.225  169.123   79.092
  358.800   10.695    0.384    0.225  170.105   83.282
  359.050   10.312    0.385    0.218  170.076   83.266
  359.300   10.034    0.365    0.207  170.552   83.850
  359.550    9.763    0.361    0.201  171.028   84.736
  359.800    9.243    0.375    0.199  171.002   84.719
  360.050    8.912    0.388    0.204  170.463   84.402
  360.300    8.360    0.390    0.212  169.928   83.784
  360.550    8.135    0.389    0.221  169.393   83.467
  360.800    8.136    0.399    0.228  168.858   83.146
  361.050    8.439    0.409    0.237  168.322   82.528
  361.300    9.417    0.409    0.246  167.281   81.614
  361.550   10.039    0.411    0.247  166.236   77.987
  361.800    9.949    0.397    0.235  165.188   78.272
  362.050    9.592    0.373    0.232  164.660   80.360
  362.300    9.334    0.382    0.231  164.627   80.642
  362.550    8.999    0.378    0.219  164.597   80.924
  362.800    8.677    0.378    0.203  164.568   81.814
  363.050    8.520    0.378    0.207  164.535   82.695
  363.300    8.599    0.380    0.218  164.505   84.785
  363.550    8.838    0.386    0.230  164.483   85.668
  363.800    9.337    0.383    0.250  164.959   85.055
  364.050    9.510    0.380    0.255  165.436   82.631
  364.300    9.597    0.388    0.258  165.908   81.712
  364.550    9.511    0.386    0.245  166.388   81.999
  364.800    9.425    0.382    0.227  166.857   83.481
  365.050    9.171    0.386    0.227  167.333   85.269
  365.300    9.255    0.385    0.228  167.810   86.455
  365.550    9.172    0.389    0.220  168.286   86.741
  365.800    9.006    0.385    0.204  168.759   87.622
  366.050    8.605    0.382    0.196  169.242   87.911
  366.300    8.146    0.377    0.197  170.221   87.890
  366.550    7.927    0.366    0.198  170.701   88.176
  366.800    7.784    0.356    0.196  171.683   88.463
  367.050    7.784    0.360    0.190  172.159   89.346
  367.300    7.856    0.366    0.183  172.628   90.833
  367.550    7.929    0.366    0.180  172.599   92.622
  367.800    7.929    0.383    0.179  172.573   93.506
  368.050    7.786    0.398    0.180  172.540   92.886
  368.300    7.646    0.401    0.188  172.008   91.667
  368.550    7.508    0.392    0.196  170.960   91.352
  368.800    7.508    0.405    0.196  170.432   90.132
  369.050    7.577    0.387    0.208  169.889   87.709
  369.300    7.647    0.388    0.211  168.848   87.089
  369.550    7.648    0.388    0.211  168.826   85.272
  369.800    7.648    0.386    0.213  168.279   83.452
  370.050    7.510    0.377    0.217  168.254   82.832
  370.300    7.375    0.367    0.224  168.254   81.012
  370.550    7.375    0.382    0.236  168.191   77.387
  370.800    7.863    0.394    0.240  168.671   77.970
  371.050    8.231    0.390    0.224  169.144   81.563
  371.300    8.082    0.387    0.209  169.627   84.852
  371.550    7.445    0.363    0.192  170.606   86.339
  371.800    6.795    0.367    0.174  172.090   87.224
  372.050    6.921    0.378    0.175  172.570   87.811
  372.300    7.311    0.377    0.176  173.548   89.294
  372.550    7.584    0.383    0.172  174.534   90.484
  372.800    7.584    0.399    0.170  175.505   91.971
  373.050    7.516    0.403    0.168  174.981   94.057
  373.300    7.116    0.396    0.166  174.442   92.237
  373.550    6.923    0.386    0.178  173.910   87.109
  373.800    6.924    0.386    0.212  172.869   83.184
  374.050    7.382    0.386    0.252  170.809   76.252
  374.300    8.162    0.382    0.255  169.270   71.724
  374.550    9.361    0.371    0.241  167.715   69.901
  374.800    9.889    0.392    0.237  166.671   71.989
  375.050    9.981    0.405    0.250  166.139   73.775
  375.300    9.981    0.397    0.251  166.113   74.364
  375.550    9.891    0.394    0.246  166.586   75.249
  375.800    9.892    0.409    0.246  167.062   76.435
  376.050    9.713    0.403    0.249  167.036   78.221
  376.300    9.626    0.394    0.257  167.505   78.505
  376.550    9.539    0.401    0.262  167.479   77.588
  376.800    9.452    0.393    0.263  166.944   74.563
  377.050    9.540    0.390    0.261  166.907   73.346
  377.300    9.540    0.382    0.256  166.878   75.432
  377.550    9.454    0.372    0.235  166.848   78.422
