~VERSION INFORMATION
 VERS.                 2.0:   CWLS LOG ASCII STANDARD -VERSION 2.0
 WRAP.                  NO:   ONE LINE PER DEPTH STEP
~WELL INFORMATION BLOCK
#MNEM.UNIT           DATA                    DESCRIPTION OF MNEMONIC
#---------    -------------------            -------------------------------
# Generated from Intellog Unique Number	CN_94_101/WELL/2640
WELL.         07-28-094-19W4                 : Well_name    - WELL
LOC .         00/07-28-094-19W4/0            : Location     - LOCATION
UWI .         00/07-28-094-19W4/0            : Uwi          - UNIQUE WELL ID
ENTR.         JOETTE                         : Entered      - ENTERED BY
SRVC.         SCHLUMBERGER                   : Scn          - SERVICE COMPANY
DATE.         07\03\92                       : Date         - LOG DATE
STRT.F        500                            : top_depth    - START DEPTH
STOP.F        1195.54                        : bot_depth    - STOP DEPTH
STEP.F        0.82                           : increment    - STEP LENGTH
 NULL. -999.2500:NULL Value
~CURVE INFORMATION BLOCK
#MNEM UNIT       ERCB CURVE CODE    CURVE DESCRIPTION
#-----------   ------------------   ----------------------------------
DEPT.F        00 001 00 00         : DEPTH        - DEPTH
CALI.IN       00 280 01 00         : CAL          - CALIPER
GR  .API      00 310 00 00         : GR           - GAMMA RAY
NPHI.V/V      00 330 00 00         : PHIN         - NEUTRON POROSITY (SANDSTONE)
ILD .OHMM     00 120 00 00         : RESD         - DEEP RESISTIVITY (DIL)
~PARAMETER INFORMATION
#MNEM.UNIT           DATA             DESCRIPTION OF MNEMONIC
#---------         -----------     ------------------------------
GL  .M        639.775              : gl           - GROUND LEVEL ELEVATION
EREF.M        641.909              : kb           - ELEVATION OF DEPTH REFERENCE
DATM.M        641.909              : datum        - DATUM ELEVATION
TDD .M        368.198              : tdd          - TOTAL DEPTH DRILLER
RUN .         ONE                  : Run          - RUN NUMBER
ENG .         JO                   : Engineer     - RECORDING ENGINEER
WIT .         TIM                  : Witness      - WITNESSED BY
MUD .         GEL                  : Mud_type     - MUD TYPE
MATR.         SANDSTONE            : Logunit      - NEUTRON MATRIX
TMAX.F        60                   : BHT          - MAXIMUM RECORDED TEMPERATURE
BHTD.F        1208                 : BHTDEP       - MAXIMUM RECORDED TEMPERATURE
RMT .F        60                   : MDTP         - TEMPERATURE OF MUD
MUDD.LB/G     1.06                 : MWT          - MUD DENSITY
NEUT.         1                    : NEUTRON      - NEUTRON TYPE
RESI.         0                    : RESIST       - RESISTIVITY TYPE
RM  .OHMM     5.7                  : RM           - RESISTIVITY OF MUD
RMC .OHMM     5.7                  : RMC          - RESISTIVITY OF MUD CAKE
RMF .OHMM     5.7                  : RMF          - RESISTIVITY OF MUD FILTRATE
SUFT.F        39.2                 : SUFT         - SURFACE TEMPERATURE
~A  DEPTH      CAL       GR     PHIN     RESD
# ...
 1070.870    6.539   94.091    0.283    7.463
 1071.690    6.539   95.301    0.292    7.459
 1072.510    6.578   97.739    0.300    7.451
 1073.330    6.577   99.558    0.293    7.310
 1074.150    6.535   95.263    0.288    7.306
 1074.970    6.534   94.634    0.310    7.298
 1075.790    6.533   97.680    0.310    7.431
 1076.610    6.533   99.506    0.309    7.562
 1077.430    6.532   95.816    0.315    7.558
 1078.250    6.572   92.130    0.302    7.838
 1079.070    6.530   92.116    0.297    7.829
 1079.890    6.488   89.038    0.303    7.826
 1080.710    6.446   87.189    0.314    7.816
 1081.530    6.446   89.011    0.307    7.670
 1082.350    6.404   91.445    0.299    7.522
 1083.170    6.362   93.880    0.298    7.518
 1083.990    6.361   96.311    0.298    7.375
 1084.810    6.360   98.749    0.294    7.507
 1085.630    6.359   93.838    0.301    7.641
 1086.450    6.399   88.928    0.312    7.778
 1087.270    6.438   87.686    0.306    8.062
 1088.090    6.438   85.224    0.294    8.059
 1088.910    6.396   81.538    0.294    8.355
 1089.730    6.313   81.524    0.299    8.507
 1090.550    6.230   82.734    0.309    8.659
 1091.370    6.189   82.721    0.300    8.650
 1092.190    6.188   81.483    0.294    8.487
 1093.010    6.187   82.693    0.312    8.172
 1093.830    6.186   83.288    0.318    7.868
 1094.650    6.185   83.274    0.310    7.438
 1095.470    6.184   82.648    0.313    7.162
 1096.290    6.183   82.634    0.311    7.425
 1097.110    6.182   82.620    0.302    7.701
 1097.930    6.222   83.219    0.328    8.136
 1098.750    6.221   81.368    0.323    8.282
 1099.570    6.261   80.130    0.316    8.275
 1100.390    6.260   82.558    0.310    8.267
 1101.210    6.259   82.548    0.313    8.110
 1102.030    6.299   79.466    0.315    7.809
 1102.850    6.339   78.235    0.298    7.382
 1103.670    6.379   75.770    0.281    7.514
 1104.490    6.378   75.144    0.267    7.792
 1105.310    6.418   78.191    0.255    7.644
 1106.140    6.457   81.849    0.253    6.709
 1106.960    6.498   85.508    0.374    6.110
 1107.780    6.619   88.554    0.371    5.886
 1108.600    6.781   92.822    0.403    5.462
 1109.420    7.147   92.808    0.396    4.975
 1110.240    7.146   89.733    0.381    5.065
 1111.060    7.064   89.111    0.384    5.155
 1111.880    6.900   92.766    0.394    5.150
 1112.700    6.899   92.749    0.391    5.147
 1113.520    6.898   92.126    0.366    5.143
 1114.340    6.897   92.113    0.375    5.139
 1115.160    6.896   92.707    0.372    5.136
 1115.980    6.854   90.861    0.357    5.131
 1116.800    6.812   91.456    0.350    5.127
 1117.620    6.893   93.890    0.361    5.125
 1118.440    7.015   93.876    0.356    5.119
 1119.260    6.973   94.474    0.371    5.115
 1120.080    6.849   93.236    0.372    5.112
 1120.900    6.808   96.276    0.367    5.108
 1121.720    6.807   97.490    0.365    4.919
 1122.540    6.847   99.312    0.373    4.914
 1123.360    6.846   99.295    0.383    4.912
 1124.180    6.804   98.672    0.367    4.999
 1125.000    6.762   98.046    0.366    5.088
 1125.820    6.720   98.645    0.362    5.180
 1126.640    6.719   98.019    0.355    5.272
 1127.460    6.759   99.226    0.348    5.467
 1128.280    6.921  101.048    0.334    5.565
 1129.100    6.961  103.483    0.322    5.665
 1129.920    6.797  102.245    0.304    5.768
 1130.740    6.592   99.174    0.301    5.979
 1131.560    6.714   99.765    0.307    5.975
 1132.380    6.835  100.979    0.347    5.862
 1133.200    6.916  104.025    0.363    5.540
 1134.020    6.874  104.620    0.371    5.047
 1134.840    6.710  102.162    0.395    4.770
 1135.660    6.627  100.312    0.396    4.768
 1136.480    6.585  100.298    0.393    5.035
 1137.300    6.584   99.668    0.383    5.317
 1138.120    6.584  102.099    0.372    5.414
 1138.940    6.583  105.761    0.356    5.511
 1139.760    6.582  102.684    0.351    5.306
 1140.580    6.581  100.834    0.360    4.924
 1141.400    6.580   99.596    0.356    4.655
 1142.220    6.579   97.133    0.355    4.651
 1143.040    6.578   87.939    0.357    4.734
 1143.860    6.577   83.640    0.346    4.908
 1144.690    6.576   90.968    0.333    4.998
 1145.510    6.575   94.630    0.322    4.903
 1146.330    6.574   97.676    0.309    4.634
 1147.150    6.573  100.104    0.386    4.545
 1147.970    6.490  100.706    0.374    4.543
 1148.790    6.490  101.307    0.369    4.539
 1149.610    6.488   93.333    0.356    4.620
 1150.430    6.488   91.480    0.385    4.702
 1151.250    6.487   93.918    0.385    4.787
 1152.070    6.486   98.188    0.390    4.872
 1152.890    6.525   92.666    0.380    4.961
 1153.710    6.606   86.528    0.371    4.957
 1154.530    6.646   90.795    0.361    4.772
 1155.350    6.809   93.229    0.348    3.963
 1156.170    6.930   90.767    0.416    3.478
 1156.990    6.929   88.305    0.426    3.228
 1157.810    6.887   89.515    0.418    3.166
 1158.630    6.805   90.114    0.412    3.224
 1159.450    6.559   91.939    0.406    3.469
 1160.270    6.313   90.086    0.390    3.733
 1161.090    6.312   87.012    0.389    4.246
 1161.910    6.352   82.101    0.372    5.105
 1162.730    6.188   75.967    0.353    7.252
 1163.550    5.983   67.992    0.329    7.949
 1164.370    5.900   62.470    0.308    9.383
 1165.190    5.899   59.396    0.311   15.450
 1166.010    5.898   56.934    0.330   16.939
 1166.830    5.897   56.916    0.338   17.887
 1167.650    5.937   55.682    0.339   17.874
 1168.470    5.936   56.889    0.331   17.861
 1169.290    5.976   55.654    0.327   17.851
 1170.110    5.975   52.573    0.329   17.511
 1170.930    6.015   53.175    0.327   16.862
 1171.750    6.014   54.385    0.329   16.850
 1172.570    6.054   55.595    0.329   16.837
 1173.390    6.094   57.411    0.327   17.779
 1174.210    6.093   57.404    0.322   18.095
 1175.030    6.092   59.226    0.359   18.426
 1175.850    6.091   58.600    0.351   18.756
 1176.670    6.090   53.679    0.341   19.813
 1177.490    6.089   51.836    0.327   21.718
 1178.310    6.088   45.090    0.316   24.251
 1179.130    6.087   34.055    0.317   25.616
 1179.950    6.086   35.269    0.305   23.335
 1180.770    6.085   38.924    0.302   19.375
 1181.590    6.084   42.579    0.285   15.794
 1182.410    6.083   47.465    0.303   13.116
 1183.230    6.123   54.184    0.322    7.951
 1184.060    6.163   60.900    0.343    7.108
 1184.880    6.162   65.786    0.366    6.720
 1185.700    6.202   69.445    0.375    6.236
 1186.520    6.200   73.715    0.379    5.786
 1187.340    6.200   73.086    0.366    5.783
 1188.160    6.199   69.400    0.343    5.887
 1188.980    6.116   51.023    0.327    6.332
 1189.800    6.075   43.053    0.318    7.071
 1190.620    6.033   60.789    0.306    7.609
 1191.440    6.032   69.344    0.294    7.746
 1192.260    6.031   79.124    0.278    8.033
 1193.080    6.030   67.480    0.253    8.177
 1193.900    6.029   30.738    0.239    8.019
 1194.720    6.069   19.095    0.219    7.582
 1195.540    6.068   10.512    0.244    6.779
