~VERSION INFORMATION
 VERS.                 2.0:   CWLS LOG ASCII STANDARD -VERSION 2.0
 WRAP.                  NO:   ONE LINE PER DEPTH STEP
~WELL INFORMATION BLOCK
#MNEM.UNIT           DATA                    DESCRIPTION OF MNEMONIC
#---------    -------------------            -------------------------------
# Generated from Intellog Unique Number	CS_73_76/WELL/737
WELL.         MAYNARD EXPLORATION            : Well_name    - WELL
LOC .         00/07-10-073-12W4/0            : Location     - LOCATION
UWI .         00/07-10-073-12W4/0            : Uwi          - UNIQUE WELL ID
ENTR.         SP                             : Entered      - ENTERED BY
SRVC.         SCHLUMBERGER                   : Scn          - SERVICE COMPANY
STRT.M        285                            : top_depth    - START DEPTH
STOP.M        520                            : bot_depth    - STOP DEPTH
STEP.M        0.25                           : increment    - STEP LENGTH
 NULL. -999.2500:NULL Value
~CURVE INFORMATION BLOCK
#MNEM UNIT       ERCB CURVE CODE    CURVE DESCRIPTION
#-----------   ------------------   ----------------------------------
DEPT.M        00 001 00 00         : DEPTH        - DEPTH
ILD .OHMM     00 120 00 00         : RESD         - DEEP RESISTIVITY (DIL)
DPHI.V/V      00 890 00 00         : PHID         - DENSITY POROSITY (LIMESTONE)
NPHI.V/V      00 330 00 00         : PHIN         - NEUTRON POROSITY (LIMESTONE)
GR  .API      00 310 00 00         : GR           - GAMMA RAY
~PARAMETER INFORMATION
#MNEM.UNIT           DATA             DESCRIPTION OF MNEMONIC
#---------         -----------     ------------------------------
GL  .M        638.29               : gl           - GROUND LEVEL ELEVATION
EREF.M        641.49               : kb           - ELEVATION OF DEPTH REFERENCE
DATM.M        638.29               : datum        - DATUM ELEVATION
TDD .M        535                  : tdd          - TOTAL DEPTH DRILLER
RUN .         ONE                  : Run          - RUN NUMBER
ENG .         BILL                 : Engineer     - RECORDING ENGINEER
WIT .         JIM                  : Witness      - WITNESSED BY
MUD .         GEL                  : Mud_type     - MUD TYPE
MATR.         LIMESTONE            : Logunit      - NEUTRON MATRIX
TMAX.C        23                   : BHT          - MAXIMUM RECORDED TEMPERATURE
BHTD.M        535                  : BHTDEP       - MAXIMUM RECORDED TEMPERATURE
MATR.         1                    : LOGUNIT      - NEUTRON MATRIX
RMT .C        25                   : MDTP         - TEMPERATURE OF MUD
NEUT.         1                    : NEUTRON      - NEUTRON TYPE
RESI.         0                    : RESIST       - RESISTIVITY TYPE
RMC .OHMM     0.25                 : RMC          - RESISTIVITY OF MUD CAKE
RMF .OHMM     0.25                 : RMF          - RESISTIVITY OF MUD FILTRATE
SUFT.C        15                   : SUFT         - SURFACE TEMPERATURE
~A  DEPTH     RESD     PHID     PHIN       GR
# ...
  415.500    5.267    0.230    0.396   87.733
  415.750    5.268    0.222    0.418   90.793
  416.000    5.512    0.236    0.425   93.851
  416.250    5.675    0.258    0.428   95.688
  416.500    5.920    0.268    0.424   93.867
  416.750    6.083    0.273    0.419   87.779
  417.000    6.246    0.269    0.416   82.303
  417.250    6.409    0.272    0.418   81.702
  417.500    6.490    0.274    0.424   80.490
  417.750    6.491    0.282    0.414   79.281
  418.000    6.572    0.284    0.406   81.731
  418.250    6.492    0.290    0.422   83.571
  418.500    6.492    0.297    0.411   84.186
  418.750    6.493    0.299    0.399   83.589
  419.000    6.412    0.289    0.406   82.984
  419.250    6.412    0.285    0.406   82.387
  419.500    6.413    0.285    0.418   81.783
  419.750    6.413    0.284    0.422   80.574
  420.000    6.495    0.290    0.418   81.194
  420.250    6.495    0.292    0.416   82.421
  420.500    6.496    0.292    0.412   80.604
  420.750    6.496    0.289    0.407   80.004
  421.000    6.497    0.285    0.402   79.399
  421.250    6.497    0.283    0.399   78.799
  421.500    6.497    0.289    0.405   78.811
  421.750    6.417    0.287    0.412   81.259
  422.000    6.417    0.279    0.392   83.095
  422.250    6.336    0.276    0.388   84.933
  422.500    6.337    0.273    0.396   83.726
  422.750    6.256    0.274    0.419   82.514
  423.000    6.175    0.275    0.416   81.305
  423.250    6.175    0.267    0.407   81.923
  423.500    5.932    0.257    0.404   83.153
  423.750    5.851    0.255    0.394   84.381
  424.000    5.770    0.263    0.390   84.999
  424.250    5.689    0.262    0.389   83.791
  424.500    5.608    0.255    0.394   81.969
  424.750    5.446    0.252    0.397   81.978
  425.000    5.203    0.253    0.406   85.649
  425.250    5.203    0.254    0.408   87.485
  425.500    4.960    0.260    0.416   89.934
  425.750    4.879    0.254    0.421   91.160
  426.000    4.798    0.248    0.427   91.172
  426.250    4.717    0.237    0.430   90.570
  426.500    4.636    0.231    0.429   89.968
  426.750    4.555    0.226    0.421   91.199
  427.000    4.474    0.218    0.418   93.036
  427.250    4.394    0.228    0.418   94.875
  427.500    4.475    0.236    0.423   93.665
  427.750    4.557    0.250    0.427   89.406
  428.000    4.964    0.255    0.422   85.146
  428.250    5.452    0.259    0.417   82.716
  428.500    5.778    0.260    0.427   82.118
  428.750    6.266    0.261    0.433   82.125
  429.000    6.754    0.249    0.415   83.354
  429.250    6.917    0.217    0.402   85.802
  429.500    6.918    0.199    0.398   83.374
  429.750    6.837    0.180    0.394   80.944
  430.000    6.512    0.164    0.388   79.732
  430.250    6.106    0.170    0.378   82.793
  430.500    5.944    0.205    0.378   85.848
  430.750    5.700    0.233    0.411   90.128
  431.000    5.538    0.228    0.417   91.354
  431.250    5.295    0.217    0.421   91.973
  431.500    5.214    0.211    0.422   91.372
  431.750    5.214    0.224    0.418   89.553
  432.000    5.134    0.246    0.416   90.170
  432.250    5.215    0.268    0.417   92.011
  432.500    5.216    0.283    0.427   92.627
  432.750    5.379    0.295    0.438   90.808
  433.000    5.542    0.307    0.427   90.208
  433.250    5.623    0.298    0.415   91.437
  433.500    5.868    0.213    0.410   91.445
  433.750    5.950    0.136    0.403   93.285
  434.000    5.869    0.168    0.406   94.512
  434.250    5.788    0.209    0.401   95.131
  434.500    5.626    0.234    0.392   95.144
  434.750    5.545    0.233    0.390   95.150
  435.000    5.464    0.235    0.405   95.159
  435.250    5.383    0.237    0.415   93.339
  435.500    5.302    0.241    0.420   89.083
  435.750    5.303    0.250    0.415   86.044
  436.000    5.384    0.255    0.414   84.832
  436.250    5.466    0.268    0.414   82.404
  436.500    5.548    0.277    0.411   81.193
  436.750    5.874    0.283    0.409   79.980
  437.000    5.955    0.259    0.419   80.599
  437.250    6.118    0.205    0.412   82.437
  437.500    6.119    0.160    0.405   82.447
  437.750    6.119    0.130    0.386   81.239
  438.000    5.957    0.118    0.377   81.855
  438.250    5.632    0.156    0.366   84.304
  438.500    5.145    0.227    0.380   86.144
  438.750    4.495    0.234    0.411   86.761
  439.000    4.007    0.240    0.422   86.160
  439.250    3.439    0.263    0.426   84.953
  439.500    3.114    0.316    0.433   84.349
  439.750    2.952    0.334    0.437   83.750
  440.000    2.708    0.355    0.431   83.150
  440.250    2.546    0.334    0.444   83.767
  440.500    2.384    0.328    0.474   86.826
  440.750    2.384    0.288    0.493   94.153
  441.000    2.385    0.268    0.514   99.038
  441.250    2.467    0.270    0.497  100.878
  441.500    2.548    0.279    0.496   97.840
  441.750    2.630    0.281    0.497   95.407
  442.000    2.956    0.271    0.497   91.149
  442.250    3.200    0.260    0.492   87.499
  442.500    3.688    0.255    0.487   84.461
  442.750    4.177    0.259    0.476   82.643
  443.000    4.584    0.270    0.460   82.039
  443.250    4.828    0.277    0.440   81.439
  443.500    4.910    0.288    0.410   78.402
  443.750    4.992    0.303    0.425   77.190
  444.000    5.155    0.296    0.429   78.417
  444.250    5.236    0.272    0.429   81.477
  444.500    5.399    0.259    0.429   83.925
  444.750    5.481    0.273    0.425   84.543
  445.000    5.563    0.221    0.413   80.894
  445.250    5.563    0.183    0.398   77.854
  445.500    5.319    0.152    0.388   80.305
  445.750    5.076    0.189    0.392   83.970
  446.000    4.995    0.244    0.402   87.637
  446.250    4.914    0.260    0.416   88.257
  446.500    4.996    0.246    0.412   84.000
  446.750    5.078    0.265    0.404   80.350
  447.000    5.160    0.289    0.396   77.919
  447.250    5.323    0.286    0.392   74.881
  447.500    5.404    0.273    0.404   73.669
  447.750    5.568    0.284    0.413   71.244
  448.000    5.568    0.297    0.403   71.249
  448.250    5.568    0.289    0.398   71.262
  448.500    5.406    0.272    0.393   71.878
  448.750    5.406    0.263    0.390   74.325
  449.000    5.163    0.269    0.388   77.383
  449.250    5.001    0.258    0.386   83.492
  449.500    4.676    0.251    0.404   87.158
  449.750    4.351    0.243    0.412   91.435
  450.000    4.108    0.235    0.420   96.323
  450.250    3.783    0.229    0.426   97.549
  450.500    3.702    0.229    0.430   95.121
  450.750    3.540    0.233    0.428   92.690
  451.000    3.459    0.234    0.437   94.534
  451.250    3.378    0.239    0.447   96.371
  451.500    3.379    0.246    0.450   97.598
  451.750    3.298    0.251    0.457   98.215
  452.000    3.298    0.258    0.461   95.786
  452.250    3.218    0.261    0.464   92.746
  452.500    3.218    0.264    0.467   95.808
  452.750    3.218    0.272    0.458   98.253
  453.000    3.219    0.264    0.454  100.092
  453.250    3.219    0.251    0.451  100.709
  453.500    3.220    0.252    0.447  100.720
  453.750    3.220    0.256    0.452  100.121
  454.000    3.302    0.258    0.456   98.302
  454.250    3.302    0.259    0.451   96.481
  454.500    3.384    0.257    0.450   95.270
  454.750    3.384    0.262    0.455   95.278
  455.000    3.385    0.257    0.456   95.287
  455.250    3.385    0.249    0.453   98.347
  455.500    3.467    0.249    0.450   99.574
  455.750    3.549    0.251    0.446   97.754
  456.000    3.630    0.260    0.442   93.495
  456.250    3.875    0.267    0.453   90.454
  456.500    4.282    0.257    0.462   88.025
  456.750    4.933    0.231    0.439   86.205
  457.000    5.665    0.206    0.412   84.384
  457.250    6.316    0.166    0.382   85.005
  457.500    6.641    0.139    0.364   85.624
  457.750    7.129    0.204    0.354   85.633
  458.000    8.268    0.241    0.389   85.644
  458.250    9.732    0.235    0.414   84.431
  458.500   11.684    0.197    0.379   81.393
  458.750   13.554    0.163    0.337   75.913
