~VERSION INFORMATION
 VERS.                 2.0:   CWLS LOG ASCII STANDARD -VERSION 2.0
 WRAP.                  NO:   ONE LINE PER DEPTH STEP
~WELL INFORMATION BLOCK
#MNEM.UNIT           DATA                    DESCRIPTION OF MNEMONIC
#---------    -------------------            -------------------------------
# Generated from Intellog Unique Number	CS_69_70/WELL/770
NULL.         -999.25                        : NULL_VALUE
WELL.         ET AL TWEEDIE                  : Well_name    - WELL              
LOC .         00/06-11-070-13W4/0            : Location     - LOCATION          
UWI .         00/06-11-070-13W4/0            : Uwi          - UNIQUE WELL ID    
ENTR.         SP                             : Entered      - ENTERED BY        
SRVC.         SCHLUMBERGER                   : Scn          - SERVICE COMPANY   
STRT.M        265                            : top_depth    - START DEPTH       
STOP.M        500                            : bot_depth    - STOP DEPTH        
STEP.M        0.25                           : increment    - STEP LENGTH       
~CURVE INFORMATION BLOCK
#MNEM UNIT       ERCB CURVE CODE    CURVE DESCRIPTION
#-----------   ------------------   ----------------------------------
DEPT.M        00 001 00 00         : DEPTH        - DEPTH                       
ILD .OHMM     00 120 00 00         : RESD         - DEEP RESISTIVITY (DIL)      
DPHI.V/V      00 890 00 00         : PHID         - DENSITY POROSITY (LIMESTONE)
NPHI.V/V      00 330 00 00         : PHIN         - NEUTRON POROSITY (LIMESTONE)
GR  .API      00 310 00 00         : GR           - GAMMA RAY                   
~PARAMETER INFORMATION       
#MNEM.UNIT           DATA             DESCRIPTION OF MNEMONIC
#---------         -----------     ------------------------------
GL  .M        579.7                : gl           - GROUND LEVEL ELEVATION      
EREF.M        583.3                : kb           - ELEVATION OF DEPTH REFERENCE
DATM.M        579.7                : datum        - DATUM ELEVATION             
TDD .M        511                  : tdd          - TOTAL DEPTH DRILLER         
RUN .         ONE                  : Run          - RUN NUMBER                  
ENG .         BILL                 : Engineer     - RECORDING ENGINEER          
WIT .         JIM                  : Witness      - WITNESSED BY                
MUD .         GEL                  : Mud_type     - MUD TYPE                    
MATR.         LIMESTONE            : Logunit      - NEUTRON MATRIX              
TMAX.C        26                   : BHT          - MAXIMUM RECORDED TEMPERATURE
BHTD.M        511                  : BHTDEP       - MAXIMUM RECORDED TEMPERATURE
MATR.         1                    : LOGUNIT      - NEUTRON MATRIX              
RMT .C        25                   : MDTP         - TEMPERATURE OF MUD          
NEUT.         1                    : NEUTRON      - NEUTRON TYPE                
RESI.         0                    : RESIST       - RESISTIVITY TYPE            
RMC .OHMM     0.25                 : RMC          - RESISTIVITY OF MUD CAKE     
RMF .OHMM     0.25                 : RMF          - RESISTIVITY OF MUD FILTRATE 
SUFT.C        15                   : SUFT         - SURFACE TEMPERATURE         
~A  DEPTH     RESD     PHID     PHIN       GR
# ...
  439.000    6.339    0.327    0.302   62.146
  439.250    6.388    0.327    0.305   58.709
  439.500    6.294    0.319    0.319   62.050
  439.750    5.909    0.301    0.333   71.138
  440.000    5.405    0.264    0.344   80.348
  440.250    4.632    0.233    0.349   87.680
  440.500    4.373    0.216    0.350   96.344
  440.750    3.992    0.202    0.352   93.210
  441.000    3.847    0.190    0.356   92.254
  441.250    3.812    0.174    0.354  103.883
  441.500    3.884    0.161    0.352  112.366
  441.750    4.040    0.185    0.356  118.429
  442.000    4.155    0.183    0.356  109.971
  442.250    4.241    0.208    0.352  104.297
  442.500    4.338    0.159    0.349  100.919
  442.750    4.487    0.135    0.348   99.056
  443.000    4.675    0.147    0.349   90.898
  443.250    5.601    0.215    0.352   70.761
  443.500    8.549    0.256    0.340   43.606
  443.750    9.850    0.267    0.327   29.399
  444.000    9.815    0.225    0.332   63.658
  444.250    8.210    0.196    0.330   99.309
  444.500    7.115    0.188    0.328   94.421
  444.750    6.177    0.187    0.327   87.473
  445.000    5.745    0.084    0.328   83.311
  445.250    5.465    0.156    0.327   76.485
  445.500    5.305    0.233    0.331   70.628
  445.750    5.286    0.218    0.340   77.902
  446.000    5.307    0.191    0.333   83.359
  446.250    5.367    0.167    0.335   87.002
  446.500    5.479    0.219    0.342   70.496
  446.750    5.625    0.253    0.340   60.645
  447.000    5.839    0.221    0.334   57.571
  447.250    6.017    0.195    0.329   66.842
  447.500    6.052    0.216    0.324   75.021
  447.750    6.121    0.202    0.323   84.109
  448.000    6.031    0.178    0.326   91.261
  448.250    5.790    0.164    0.332   80.503
  448.500    5.813    0.188    0.334   69.987
  448.750    6.148    0.225    0.331   58.805
  449.000    6.358    0.215    0.328   58.757
  449.250    6.336    0.180    0.324   76.679
  449.500    6.174    0.148    0.321   88.127
  449.750    5.983    0.200    0.324   79.184
  450.000    5.786    0.242    0.342   75.144
  450.250    5.586    0.256    0.350   72.674
  450.500    5.264    0.253    0.355   74.440
  450.750    5.158    0.264    0.356   71.185
  451.000    5.035    0.283    0.356   69.442
  451.250    4.980    0.283    0.356   68.546
  451.500    4.898    0.276    0.355   68.923
  451.750    4.729    0.269    0.355   72.504
  452.000    4.582    0.261    0.353   71.609
  452.250    4.541    0.251    0.350   68.960
  452.500    4.635    0.205    0.344   71.754
  452.750    4.732    0.173    0.335   83.747
  453.000    4.698    0.149    0.332   93.621
  453.250    4.621    0.132    0.364  105.432
  453.500    4.511    0.107    0.396  109.136
  453.750    4.274    0.075    0.423  107.634
  454.000    4.188    0.051    0.432  113.213
  454.250    4.236    0.114    0.439  118.731
  454.500    4.301    0.139    0.457  117.594
  454.750    4.277    0.151    0.437  108.166
  455.000    4.191    0.164    0.383  107.818
  455.250    4.069    0.181    0.356   99.902
  455.500    3.749    0.196    0.347   82.548
  455.750    3.481    0.217    0.346   63.864
  456.000    3.220    0.242    0.350   54.739
  456.250    3.045    0.214    0.353   56.566
  456.500    2.907    0.245    0.353   65.594
  456.750    2.807    0.262    0.348   67.239
  457.000    2.818    0.252    0.341   67.312
  457.250    2.860    0.239    0.339   71.743
  457.500    2.893    0.217    0.346   76.231
  457.750    2.975    0.201    0.347   75.516
  458.000    3.170    0.198    0.343   72.565
  458.250    3.304    0.222    0.342   72.578
  458.500    3.527    0.238    0.344   77.308
  458.750    3.661    0.228    0.340   81.678
  459.000    3.908    0.196    0.338   84.533
  459.250    4.172    0.177    0.340   90.172
  459.500    4.454    0.157    0.337   98.959
  459.750    4.513    0.183    0.334  103.991
  460.000    4.590    0.169    0.344  108.178
  460.250    4.574    0.148    0.350  110.793
  460.500    4.254    0.157    0.346  112.620
  460.750    3.905    0.202    0.336  102.406
  461.000    3.467    0.217    0.336   68.474
  461.250    3.201    0.265    0.342   62.314
  461.500    3.056    0.293    0.345   65.898
  461.750    3.143    0.247    0.344   67.058
  462.000    3.615    0.211    0.342   74.270
  462.250    3.998    0.186    0.340   85.659
  462.500    4.324    0.166    0.338   94.566
  462.750    4.702    0.151    0.334  102.745
  463.000    4.964    0.167    0.332   92.350
  463.250    5.163    0.227    0.329   69.127
  463.500    5.280    0.125    0.327   62.302
  463.750    5.311    0.063    0.329   60.862
  464.000    5.032    0.167    0.327   70.919
  464.250    4.394    0.216    0.327   94.044
  464.500    3.822    0.219    0.338   98.715
  464.750    3.239    0.229    0.350   90.922
  465.000    2.664    0.301    0.362   47.671
  465.250    2.300    0.361    0.379   40.120
  465.500    1.989    0.332    0.378   31.116
  465.750    1.882    0.310    0.347   24.715
  466.000    1.783    0.296    0.341   28.116
  466.250    1.820    0.295    0.340   35.146
  466.500    1.883    0.300    0.342   47.925
  466.750    1.973    0.301    0.348   77.888
  467.000    2.141    0.299    0.353   73.302
  467.250    2.346    0.294    0.358   74.344
  467.500    2.561    0.283    0.359   84.944
  467.750    2.699    0.252    0.353   91.309
  468.000    2.823    0.227    0.345   95.133
  468.250    2.844    0.187    0.341  101.137
  468.500    2.741    0.211    0.339  106.593
  468.750    2.554    0.300    0.349   88.090
  469.000    2.314    0.322    0.348   43.206
  469.250    2.121    0.309    0.347   43.339
  469.500    2.032    0.298    0.347   46.981
  469.750    1.995    0.312    0.350   54.618
  470.000    1.981    0.320    0.351   63.826
  470.250    1.977    0.310    0.350   72.371
  470.500    1.996    0.310    0.349   80.066
  470.750    2.034    0.314    0.348   86.432
  471.000    2.115    0.315    0.343   87.413
  471.250    2.263    0.292    0.340   85.912
  471.500    2.318    0.279    0.348   58.393
  471.750    2.452    0.289    0.356   45.880
  472.000    2.503    0.352    0.373   37.785
  472.250    2.443    0.401    0.419   39.249
  472.500    2.341    0.357    0.404   40.894
  472.750    2.231    0.321    0.377   46.777
  473.000    2.068    0.315    0.348   43.581
  473.250    2.011    0.305    0.351   44.379
  473.500    2.080    0.295    0.352   51.108
  473.750    2.179    0.295    0.345   61.890
  474.000    2.492    0.293    0.340   73.944
  474.250    3.020    0.279    0.339   85.996
  474.500    3.585    0.216    0.343  108.456
  474.750    4.123    0.171    0.341  113.732
  475.000    5.096    0.179    0.331  110.195
  475.250    4.981    0.185    0.342   96.120
  475.500    4.690    0.204    0.347   78.526
  475.750    4.350    0.241    0.348   72.521
  476.000    3.873    0.277    0.354   75.194
  476.250    3.573    0.274    0.360   77.806
  476.500    3.402    0.258    0.360   81.876
  476.750    3.484    0.238    0.355   86.550
  477.000    3.744    0.213    0.356   93.653
  477.250    4.001    0.201    0.354   96.447
  477.500    4.144    0.193    0.346   85.407
  477.750    3.872    0.219    0.340   74.123
  478.000    3.078    0.303    0.338   53.373
  478.250    2.374    0.329    0.355   53.801
  478.500    1.947    0.331    0.364   62.664
  478.750    1.865    0.342    0.372   73.771
  479.000    1.776    0.349    0.366   62.912
  479.250    1.735    0.353    0.356   57.636
  479.500    1.777    0.340    0.352   53.088
  479.750    1.857    0.327    0.358   48.722
  480.000    1.977    0.325    0.364   49.636
  480.250    2.161    0.327    0.357   49.699
  480.500    2.297    0.269    0.351   53.100
  480.750    2.483    0.251    0.349   60.324
  481.000    2.754    0.242    0.341   67.306
  481.250    2.794    0.227    0.336   71.313
  481.500    2.741    0.254    0.342   64.763
  481.750    2.528    0.328    0.355   56.453
  482.000    2.141    0.367    0.366   51.662
  482.250    2.001    0.320    0.372   60.706
