~VERSION INFORMATION
 VERS.                 2.0:   CWLS LOG ASCII STANDARD -VERSION 2.0
 WRAP.                  NO:   ONE LINE PER DEPTH STEP
~WELL INFORMATION BLOCK
#MNEM.UNIT           DATA                    DESCRIPTION OF MNEMONIC
#---------    -------------------            -------------------------------
# Generated from Intellog Unique Number	CW_82_90/WELL/3424
WELL.         PARA ET AL LIEGE               : Well_name    - WELL
LOC .         00/06-35-090-19W4/0            : Location     - LOCATION
UWI .         00/06-35-090-19W4/0            : Uwi          - UNIQUE WELL ID
ENTR.         MAX                            : Entered      - ENTERED BY
SRVC.         WESTERN ATLAS                  : Scn          - SERVICE COMPANY
STRT.M        70                             : top_depth    - START DEPTH
STOP.M        227                            : bot_depth    - STOP DEPTH
STEP.M        0.25                           : increment    - STEP LENGTH
 NULL. -999.2500:NULL Value
~CURVE INFORMATION BLOCK
#MNEM UNIT       ERCB CURVE CODE    CURVE DESCRIPTION
#-----------   ------------------   ----------------------------------
DEPT.M        00 001 00 00         : DEPTH        - DEPTH
ILD .OHMM     00 120 00 00         : RESD         - DEEP RESISTIVITY (DIL)
CALI.MM       00 280 01 00         : CAL          - CALIPER
DPHI.V/V      00 890 00 00         : PHID         - DENSITY POROSITY (SANDSTONE)
NPHI.V/V      00 330 00 00         : PHIN         - NEUTRON POROSITY (SANDSTONE)
GR  .API      00 310 00 00         : GR           - GAMMA RAY
~PARAMETER INFORMATION
#MNEM.UNIT           DATA             DESCRIPTION OF MNEMONIC
#---------         -----------     ------------------------------
GL  .M        515.5                : gl           - GROUND LEVEL ELEVATION
EREF.M        519.3                : kb           - ELEVATION OF DEPTH REFERENCE
DATM.M        515.5                : datum        - DATUM ELEVATION
TDD .M        227                  : tdd          - TOTAL DEPTH DRILLER
RUN .         ONE                  : Run          - RUN NUMBER
ENG .         BILL                 : Engineer     - RECORDING ENGINEER
WIT .         JIM                  : Witness      - WITNESSED BY
MUD .         GEL                  : Mud_type     - MUD TYPE
MATR.         SANDSTONE            : Logunit      - NEUTRON MATRIX
TMAX.C        20                   : BHT          - MAXIMUM RECORDED TEMPERATURE
BHTD.M        226                  : BHTDEP       - MAXIMUM RECORDED TEMPERATURE
MATR.         1                    : LOGUNIT      - NEUTRON MATRIX
RMT .C        17                   : MDTP         - TEMPERATURE OF MUD
NEUT.         1                    : NEUTRON      - NEUTRON TYPE
RESI.         0                    : RESIST       - RESISTIVITY TYPE
RMC .OHMM     3                    : RMC          - RESISTIVITY OF MUD CAKE
RMF .OHMM     3                    : RMF          - RESISTIVITY OF MUD FILTRATE
SUFT.C        -15                  : SUFT         - SURFACE TEMPERATURE
~A  DEPTH     RESD      CAL     PHID     PHIN       GR
# ...
  143.000   13.545  167.435    0.220    0.382   69.096
  143.250   13.415  167.348    0.242    0.392   71.750
  143.500   12.924  167.763    0.252    0.406   81.320
  143.750   11.778  167.687    0.267    0.413   83.373
  144.000   11.665  167.589    0.244    0.403   71.286
  144.250   13.273  167.502    0.210    0.401   54.689
  144.500   17.032  167.426    0.213    0.378   51.623
  144.750   20.486  167.818    0.201    0.366   51.878
  145.000   23.966  167.753    0.186    0.344   55.735
  145.250   27.523  168.146    0.196    0.358   66.508
  145.500   25.789  168.037    0.245    0.378   73.078
  145.750   22.029  167.972    0.250    0.387   78.439
  146.000   14.932  167.896    0.246    0.405   83.793
  146.250   10.699  167.286    0.241    0.421   87.656
  146.500    8.332  167.221    0.250    0.432   91.219
  146.750    8.484  167.123    0.264    0.435   83.342
  147.000    9.654  167.047    0.281    0.439   62.528
  147.250   11.611  166.949    0.284    0.440   59.169
  147.500   14.096  166.863    0.291    0.424   61.823
  147.750   16.490  166.776    0.253    0.409   56.652
  148.000   16.331  166.667    0.202    0.398   58.110
  148.250   15.303  166.591    0.232    0.412   71.890
  148.500   13.316  167.005    0.244    0.432   82.970
  148.750   11.374  167.910    0.248    0.439   80.813
  149.000    9.897  167.823    0.231    0.436   77.153
  149.250    8.453  167.758    0.217    0.428   73.185
  149.500    8.529  167.649    0.198    0.435   72.826
  149.750    9.097  167.573    0.206    0.435   76.088
  150.000    9.178  166.985    0.196    0.426   83.246
  150.250    8.520  166.397    0.195    0.426   88.319
  150.500    8.057  166.288    0.230    0.439   86.462
  150.750    7.980  166.724    0.206    0.419   79.180
  151.000    8.832  166.616    0.188    0.396   75.226
  151.250   10.428  166.550    0.217    0.393   71.251
  151.500   12.659  166.464    0.214    0.399   69.101
  151.750   14.673  166.366    0.201    0.388   67.839
  152.000   17.166  165.778    0.188    0.341   65.682
  152.250   20.647  165.179    0.123    0.311   64.427
  152.500   25.064  165.081    0.069    0.285   60.466
  152.750   28.785  165.517    0.031    0.271   57.695
  153.000   32.451  166.422    0.012    0.264   56.145
  153.250   36.924  168.328    0.020    0.265   51.870
  153.500   37.950  169.266    0.004    0.267   52.733
  153.750   34.585  169.680    0.026    0.255   47.857
  154.000   29.817  169.582    0.031    0.253   51.413
  154.250   24.094  169.506    0.068    0.244   54.081
  154.500   20.018  169.397    0.125    0.274   60.036
  154.750   17.743  169.321    0.226    0.381   64.501
  155.000   16.021  169.736    0.220    0.415   69.561
  155.250   12.592  169.638    0.225    0.426   72.208
  155.500    9.989  169.551    0.222    0.434   79.687
  155.750    8.072  169.965    0.215    0.438   86.851
  156.000    7.089  169.878    0.205    0.440   94.624
  156.250    6.766  169.802    0.200    0.441   96.376
  156.500    6.578  170.707    0.200    0.437   92.709
  156.750    6.576  171.132    0.203    0.433   92.650
  157.000    6.574  171.514    0.206    0.428   99.828
  157.250    6.694  171.448    0.206    0.427  104.581
  157.500    6.880  171.863    0.198    0.466  101.829
  157.750    7.270  171.776    0.197    0.512   90.638
  158.000    7.898  171.177    0.216    0.499   80.061
  158.250    8.660  170.589    0.241    0.479   68.275
  158.500    9.764  170.491    0.240    0.448   63.405
  158.750   11.744  170.415    0.215    0.404   57.639
  159.000   14.522  170.328    0.175    0.369   62.398
  159.250   15.489  170.241    0.188    0.357   69.570
  159.500   15.059  170.143    0.207    0.380   80.343
  159.750   13.598  170.569    0.222    0.409   84.801
  160.000   12.978  170.482    0.219    0.396   90.770
  160.250   12.854  170.395    0.214    0.400   83.194
  160.500   13.457  170.297    0.232    0.417   76.219
  160.750   14.620  170.221    0.243    0.419   73.159
  161.000   15.449  169.633    0.218    0.400   61.975
  161.250   16.324  169.535    0.134    0.298   54.706
  161.500   17.092  169.437    0.120    0.284   56.151
  161.750   17.405  169.361    0.079    0.280   60.315
  162.000   16.922  170.255    0.159    0.281   65.976
  162.250   15.139  170.179    0.223    0.298   78.560
  162.500   14.185  170.092    0.225    0.335   89.333
  162.750   13.169  170.506    0.236    0.368  104.930
  163.000   12.113  170.931    0.231    0.381  114.801
  163.250   11.349  170.845    0.220    0.393   94.295
  163.500   10.634  170.246    0.223    0.393   89.726
  163.750   10.532  169.647    0.225    0.390   94.184
  164.000   10.626  169.560    0.219    0.390   90.524
  164.250   11.023  169.484    0.216    0.390   85.961
  164.500   11.866  169.397    0.207    0.396   85.301
  164.750   12.891  169.299    0.128    0.397   87.654
  165.000   13.875  169.702    0.147    0.400   88.504
  165.250   14.394  169.616    0.173    0.399   91.760
  165.500   14.255  169.540    0.204    0.379   95.918
  165.750   14.251  168.450    0.215    0.377   91.956
  166.000   14.246  168.363    0.210    0.384   93.107
  166.250   14.507  168.276    0.205    0.376   92.754
  166.500   15.188  168.680    0.213    0.372   84.577
  166.750   16.500  169.083    0.230    0.377   76.406
  167.000   17.274  169.007    0.173    0.368   79.962
  167.250   17.429  168.931    0.176    0.342   84.120
  167.500   16.331  169.345    0.204    0.339   83.152
  167.750   16.026  169.259    0.195    0.339   81.610
  168.000   16.020  169.673    0.214    0.342   80.041
  168.250   15.721  169.564    0.245    0.349   78.485
  168.500   15.428  169.968    0.252    0.357   74.825
  168.750   14.861  170.404    0.258    0.361   74.773
  169.000   14.317  169.815    0.260    0.367   80.440
  169.250   13.791  170.720    0.255    0.370   90.017
  169.500   13.659  170.644    0.242    0.374   92.972
  169.750   13.530  171.047    0.239    0.370   89.305
  170.000   13.525  171.473    0.239    0.389   88.945
  170.250   13.520  171.865    0.242    0.410   87.691
  170.500   13.641  171.789    0.249    0.395   86.135
  170.750   13.762  172.203    0.262    0.385   80.664
  171.000   13.757  172.106    0.266    0.379   81.219
  171.250   13.625  172.019    0.192    0.368   86.279
  171.500   13.621  171.441    0.162    0.355   85.325
  171.750   13.491  170.842    0.185    0.358   89.483
  172.000   13.362  170.745    0.213    0.380   97.857
  172.250   13.234  171.181    0.221    0.403   98.105
  172.500   13.107  169.590    0.159    0.400   89.627
  172.750   13.103  164.971    0.126    0.381   84.757
  173.000   13.098  163.871    0.143    0.364   86.816
  173.250   13.094  163.305    0.195    0.378   87.660
  173.500   13.088  163.218    0.249    0.391   83.398
  173.750   12.493  163.632    0.161    0.401   73.115
  174.000   10.871  164.035    0.118    0.390   73.665
  174.250    8.008  164.450    0.146    0.378   81.136
  174.500    6.904  164.363    0.185    0.363   85.595
  174.750    6.120  164.276    0.206    0.360   93.969
  175.000    5.908  164.690    0.234    0.447  108.166
  175.250    6.724  164.592    0.219    0.486  100.530
  175.500    7.724  165.018    0.214    0.444   81.999
  175.750    9.122  164.429    0.193    0.399   78.196
  176.000   10.874  162.839    0.161    0.370   82.063
  176.250   12.492  160.747    0.187    0.375   85.042
  176.500   12.606  159.636    0.206    0.395   79.770
  176.750   12.147  159.539    0.198    0.411   84.811
  177.000   11.280  159.474    0.148    0.405   96.634
  177.250   10.474  159.376    0.168    0.411  104.036
  177.500   10.570  160.291    0.195    0.425  104.658
  177.750   11.172  161.207    0.215    0.433   97.025
  178.000   12.483  161.621    0.225    0.438   86.744
  178.250   13.691  161.534    0.232    0.446   79.701
  178.500   14.605  160.946    0.232    0.411   73.255
  178.750   15.015  160.870    0.192    0.373   75.349
  179.000   15.153  160.750    0.174    0.343   76.851
  179.250   15.151  160.663    0.231    0.351   81.307
