~VERSION INFORMATION
 VERS.                 2.0:   CWLS LOG ASCII STANDARD -VERSION 2.0
 WRAP.                  NO:   ONE LINE PER DEPTH STEP
~WELL INFORMATION BLOCK
#MNEM.UNIT           DATA                    DESCRIPTION OF MNEMONIC
#---------    -------------------            -------------------------------
# Generated from Intellog Unique Number	CS_69_70/WELL/641
NULL.         -999.25                        : NULL_VALUE
WELL.         CHIEFCO TWEEDIE                : Well_name    - WELL              
LOC .         00/05-22-070-13W4/0            : Location     - LOCATION          
UWI .         00/05-22-070-13W4/0            : Uwi          - UNIQUE WELL ID    
ENTR.         SP                             : Entered      - ENTERED BY        
SRVC.         SCHLUMBERGER                   : Scn          - SERVICE COMPANY   
STRT.M        260                            : top_depth    - START DEPTH       
STOP.M        492                            : bot_depth    - STOP DEPTH        
STEP.M        0.25                           : increment    - STEP LENGTH       
~CURVE INFORMATION BLOCK
#MNEM UNIT       ERCB CURVE CODE    CURVE DESCRIPTION
#-----------   ------------------   ----------------------------------
DEPT.M        00 001 00 00         : DEPTH        - DEPTH                       
ILD .OHMM     00 120 00 00         : RESD         - DEEP RESISTIVITY (DIL)      
DPHI.V/V      00 890 00 00         : PHID         - DENSITY POROSITY (LIMESTONE)
NPHI.V/V      00 330 00 00         : PHIN         - NEUTRON POROSITY (LIMESTONE)
GR  .API      00 310 00 00         : GR           - GAMMA RAY                   
~PARAMETER INFORMATION       
#MNEM.UNIT           DATA             DESCRIPTION OF MNEMONIC
#---------         -----------     ------------------------------
GL  .M        581.6                : gl           - GROUND LEVEL ELEVATION      
EREF.M        584.7                : kb           - ELEVATION OF DEPTH REFERENCE
DATM.M        581.6                : datum        - DATUM ELEVATION             
TDD .M        493                  : tdd          - TOTAL DEPTH DRILLER         
RUN .         ONE                  : Run          - RUN NUMBER                  
ENG .         BILL                 : Engineer     - RECORDING ENGINEER          
WIT .         JIM                  : Witness      - WITNESSED BY                
MUD .         GEL                  : Mud_type     - MUD TYPE                    
MATR.         LIMESTONE            : Logunit      - NEUTRON MATRIX              
TMAX.C        33                   : BHT          - MAXIMUM RECORDED TEMPERATURE
BHTD.M        493                  : BHTDEP       - MAXIMUM RECORDED TEMPERATURE
MATR.         1                    : LOGUNIT      - NEUTRON MATRIX              
RMT .C        25                   : MDTP         - TEMPERATURE OF MUD          
NEUT.         1                    : NEUTRON      - NEUTRON TYPE                
RESI.         0                    : RESIST       - RESISTIVITY TYPE            
RMC .OHMM     0.25                 : RMC          - RESISTIVITY OF MUD CAKE     
RMF .OHMM     0.25                 : RMF          - RESISTIVITY OF MUD FILTRATE 
SUFT.C        15                   : SUFT         - SURFACE TEMPERATURE         
~A  DEPTH     RESD     PHID     PHIN       GR
  260.000    2.255    0.254    0.517   98.820
  260.250    2.286    0.256    0.507   97.534
  260.500    2.326    0.257    0.504   96.492
  260.750    2.349    0.257    0.521   95.267
  261.000    2.324    0.266    0.536   92.331
  261.250    2.304    0.266    0.533   93.427
  261.500    2.284    0.264    0.533   96.966
  261.750    2.302    0.268    0.537   94.886
  262.000    2.351    0.260    0.541   90.057
  262.250    2.388    0.250    0.485   87.000
  262.500    2.435    0.240    0.482   85.225
  262.750    2.496    0.259    0.500   89.741
  263.000    2.474    0.270    0.520   94.074
  263.250    2.394    0.266    0.539   96.208
  263.500    2.338    0.253    0.553   96.998
  263.750    2.366    0.241    0.562   97.666
  264.000    2.439    0.235    0.552   99.983
  264.250    2.566    0.243    0.541  100.346
  264.500    2.705    0.248    0.545   97.961
  264.750    2.794    0.254    0.493   96.735
  265.000    2.801    0.242    0.475   98.259
  265.250    2.788    0.231    0.485   99.110
  265.500    2.768    0.234    0.507   97.458
  265.750    2.708    0.249    0.529  100.264
  266.000    2.670    0.254    0.500  103.314
  266.250    2.651    0.241    0.524  103.921
  266.500    2.638    0.227    0.554  101.780
  266.750    2.650    0.217    0.533  100.432
  267.000    2.706    0.222    0.522  100.184
  267.250    2.769    0.230    0.530   99.998
  267.500    2.849    0.226    0.526   99.749
  267.750    2.926    0.222    0.491   97.608
  268.000    3.017    0.220    0.493   95.711
  268.250    3.121    0.214    0.527   94.486
  268.500    3.272    0.204    0.532   94.360
  268.750    3.437    0.208    0.516   98.204
  269.000    3.664    0.216    0.523  101.927
  269.250    3.884    0.108    0.503  100.213
  269.500    3.909    0.078    0.408   93.002
  269.750    3.882    0.187    0.393   87.502
  270.000    3.728    0.214    0.460   93.239
  270.250    3.527    0.228    0.487  101.053
  270.500    3.234    0.220    0.507  105.874
  270.750    3.083    0.219    0.528  107.092
  271.000    3.096    0.225    0.546  106.723
  271.250    3.126    0.235    0.541  106.169
  271.500    3.122    0.240    0.525  101.280
  271.750    3.089    0.245    0.509   96.817
  272.000    3.051    0.239    0.498   93.699
  272.250    3.002    0.231    0.499   92.291
  272.500    3.026    0.225    0.503   93.142
  272.750    3.184    0.221    0.483   95.215
  273.000    3.320    0.227    0.464   95.211
  273.250    3.353    0.240    0.454   93.864
  273.500    3.262    0.227    0.475   92.517
  273.750    3.104    0.211    0.491   92.147
  274.000    2.942    0.206    0.504   95.441
  274.250    2.906    0.233    0.509   89.330
  274.500    3.388    0.287    0.495   78.089
  274.750    4.434    0.378    0.474   66.969
  275.000    5.685    0.453    0.560   55.361
  275.250    9.135    0.451    0.459   43.509
  275.500   15.667    0.377    0.239   35.199
  275.750   21.087    0.364    0.205   30.614
  276.000   26.145    0.364    0.184   31.833
  276.250   25.157    0.373    0.169   33.967
  276.500   19.208    0.377    0.159   34.635
  276.750   13.286    0.368    0.194   35.975
  277.000    9.345    0.340    0.248   43.361
  277.250    5.801    0.309    0.312   49.221
  277.500    4.471    0.293    0.347   55.142
  277.750    3.658    0.292    0.369   57.092
  278.000    3.526    0.296    0.367   50.065
  278.250    3.172    0.303    0.351   41.877
  278.500    3.192    0.299    0.338   47.310
  278.750    3.397    0.272    0.346   65.201
  279.000    3.669    0.246    0.402   76.680
  279.250    4.105    0.214    0.422   90.357
  279.500    4.409    0.218    0.423   94.384
  279.750    4.798    0.224    0.412   95.663
  280.000    5.154    0.212    0.405   96.942
  280.250    5.403    0.220    0.401  101.031
  280.500    5.508    0.228    0.392  104.692
  280.750    5.429    0.213    0.397  107.192
  281.000    5.166    0.203    0.384  106.578
  281.250    4.906    0.200    0.391  105.841
  281.500    4.633    0.202    0.411  105.654
  281.750    4.400    0.209    0.428  103.207
  282.000    4.179    0.218    0.437   99.906
  282.250    4.212    0.217    0.435   96.299
  282.500    4.359    0.231    0.432   92.998
  282.750    4.502    0.254    0.430   89.207
  283.000    4.693    0.269    0.427   87.799
  283.250    4.820    0.271    0.420   90.299
  283.500    4.850    0.276    0.422   91.090
  283.750    4.701    0.281    0.433   90.353
  284.000    4.643    0.285    0.442   88.823
  284.250    4.725    0.271    0.433   89.429
  284.500    4.771    0.254    0.419   89.731
  284.750    4.855    0.243    0.406   90.094
  285.000    4.849    0.238    0.406   87.770
  285.250    4.861    0.246    0.399   83.063
  285.500    4.864    0.247    0.387   82.388
  285.750    4.940    0.238    0.396   89.652
  286.000    4.989    0.237    0.407   95.268
  286.250    5.029    0.252    0.416   95.752
  286.500    4.857    0.260    0.416   90.558
  286.750    4.179    0.265    0.396   87.805
  287.000    3.535    0.248    0.378   92.566
  287.250    2.947    0.231    0.410   97.509
  287.500    2.661    0.234    0.467  101.659
  287.750    2.579    0.289    0.505  103.610
  288.000    2.634    0.319    0.550   94.872
  288.250    2.793    0.339    0.494   86.623
  288.500    2.961    0.296    0.457   80.817
  288.750    3.228    0.280    0.438   83.013
  289.000    3.467    0.292    0.434   84.964
  289.250    4.027    0.304    0.448   81.234
  289.500    4.175    0.294    0.452   77.871
  289.750    4.706    0.282    0.436   80.127
  290.000    5.066    0.276    0.421   83.850
  290.250    4.910    0.284    0.416   85.251
  290.500    4.715    0.294    0.438   82.804
  290.750    4.727    0.297    0.482   79.991
  291.000    4.774    0.294    0.519   78.949
  291.250    4.785    0.287    0.480   75.220
  291.500    4.761    0.279    0.445   71.918
  291.750    4.773    0.278    0.422   70.082
  292.000    4.723    0.284    0.415   71.666
  292.250    4.656    0.288    0.432   74.839
  292.500    4.538    0.284    0.443   77.462
  292.750    4.399    0.274    0.434   78.985
  293.000    4.394    0.281    0.428   80.630
  293.250    4.471    0.284    0.441   83.680
  293.500    4.558    0.277    0.449   87.647
  293.750    4.629    0.267    0.442   91.674
  294.000    4.623    0.260    0.450   93.869
  294.250    4.482    0.252    0.467   91.178
  294.500    4.336    0.226    0.458   94.900
  294.750    4.172    0.204    0.449  101.248
  295.000    4.030    0.201    0.460  107.657
  295.250    3.935    0.215    0.469  111.746
  295.500    3.779    0.230    0.475  114.674
  295.750    3.698    0.194    0.477  115.770
  296.000    3.707    0.172    0.483  112.773
  296.250    3.702    0.182    0.485  110.510
  296.500    3.991    0.203    0.473  113.927
  296.750    4.302    0.223    0.457  116.366
  297.000    4.544    0.237    0.444  114.714
  297.250    4.845    0.227    0.436  112.450
  297.500    5.022    0.217    0.425  112.263
  297.750    5.139    0.242    0.416  110.244
  298.000    5.161    0.260    0.412  102.606
  298.250    5.145    0.260    0.428   94.296
  298.500    5.100    0.238    0.431   89.528
  298.750    4.926    0.242    0.427   84.516
  299.000    4.652    0.270    0.417   82.009
  299.250    4.459    0.304    0.413   80.112
  299.500    4.339    0.302    0.416   77.299
  299.750    4.214    0.295    0.401   80.593
  300.000    4.138    0.281    0.409   90.362
  300.250    4.195    0.257    0.445   99.398
  300.500    4.293    0.250    0.460  103.669
  300.750    4.343    0.249    0.455   95.115
  301.000    4.370    0.253    0.448   91.386
  301.250    4.308    0.272    0.460   87.168
  301.500    4.130    0.290    0.474   83.011
  301.750    3.966    0.305    0.482   78.916
  302.000    3.888    0.308    0.437   75.736
  302.250    3.934    0.292    0.454   80.069
  302.500    4.003    0.280    0.479   81.226
  302.750    4.096    0.294    0.473   79.939
  303.000    4.207    0.301    0.425   86.837
  303.250    4.361    0.286    0.396   93.980
