~VERSION INFORMATION
 VERS.                 2.0:   CWLS LOG ASCII STANDARD -VERSION 2.0
 WRAP.                  NO:   ONE LINE PER DEPTH STEP
~WELL INFORMATION BLOCK
#MNEM.UNIT           DATA                    DESCRIPTION OF MNEMONIC
#---------    -------------------            -------------------------------
# Generated from Intellog Unique Number	CW_70_72/WELL/529
NULL.         -999.25                        : NULL_VALUE
WELL.         CHIEFCO SCEPTRE SPURFIELD 06-0 : Well_name    - WELL              
LOC .         06-02-072-02W5                 : Location     - LOCATION          
UWI .         00/06-02-072-02W5/0            : Uwi          - UNIQUE WELL ID    
ENTR.         JAYE                           : Entered      - ENTERED BY        
SRVC.         SCHLUMBERGER                   : Scn          - SERVICE COMPANY   
DATE.         21 JAN 78                      : Date         - LOG DATE          
STRT.M        387.096                        : top_depth    - START DEPTH       
STOP.M        640.096                        : bot_depth    - STOP DEPTH        
STEP.M        0.25                           : increment    - STEP LENGTH       
~CURVE INFORMATION BLOCK
#MNEM UNIT       ERCB CURVE CODE    CURVE DESCRIPTION
#-----------   ------------------   ----------------------------------
DEPT.M        00 001 00 00         : DEPTH        - DEPTH                       
DPHI.V/V      00 890 00 00         : PHID         - DENSITY POROSITY (SANDSTONE)
NPHI.V/V      00 330 00 00         : PHIN         - NEUTRON POROSITY (SANDSTONE)
GR  .API      00 310 00 00         : GR           - GAMMA RAY                   
CALI.MM       00 280 01 00         : CAL          - CALIPER                     
ILD .OHMM     00 120 00 00         : RESD         - DEEP RESISTIVITY (DIL)      
~PARAMETER INFORMATION       
#MNEM.UNIT           DATA             DESCRIPTION OF MNEMONIC
#---------         -----------     ------------------------------
GL  .M        588.416              : gl           - GROUND LEVEL ELEVATION      
EREF.M        591.312              : kb           - ELEVATION OF DEPTH REFERENCE
DATM.M        588.416              : datum        - DATUM ELEVATION             
TDD .M        659.892              : tdd          - TOTAL DEPTH DRILLER         
RUN .         ONE                  : Run          - RUN NUMBER                  
ENG .         CONQUIST/DALY        : Engineer     - RECORDING ENGINEER          
WIT .         SIFERD               : Witness      - WITNESSED BY                
BASE.         EDM                  : Branch       - HOME BASE OF LOGGING UNIT   
MUD .         GEL CHEM             : Mud_type     - MUD TYPE                    
MATR.         SANDSTONE            : Logunit      - NEUTRON MATRIX              
TMAX.C        25.5556              : BHT          - MAXIMUM RECORDED TEMPERATURE
BHTD.M        660.197              : BHTDEP       - MAXIMUM RECORDED TEMPERATURE
RMT .C        18.8889              : MDTP         - TEMPERATURE OF MUD          
MUDD.KG/M     1128                 : MWT          - MUD DENSITY                 
NEUT.         1                    : NEUTRON      - NEUTRON TYPE                
RESI.         0                    : RESIST       - RESISTIVITY TYPE            
RM  .OHMM     6.55                 : RM           - RESISTIVITY OF MUD          
RMC .OHMM     0                    : RMC          - RESISTIVITY OF MUD CAKE     
RMF .OHMM     5.8                  : RMF          - RESISTIVITY OF MUD FILTRATE 
SUFT.C        0                    : SUFT         - SURFACE TEMPERATURE         
~A  DEPTH     PHID     PHIN       GR      CAL     RESD
# ...
  533.096    0.162    0.433  102.669  176.060    4.414
  533.346    0.163    0.434  102.061  176.189    4.445
  533.596    0.159    0.425  101.949  175.896    4.587
  533.846    0.171    0.428  101.589  175.606    4.770
  534.096    0.148    0.424   99.174  175.519    4.952
  534.346    0.160    0.414  100.557  175.227    5.208
  534.596    0.176    0.405  107.230  175.141    5.457
  534.846    0.175    0.431  107.741  174.532    5.761
  535.096    0.189    0.407   97.111  174.240    6.024
  535.346    0.139    0.362   90.776  175.948    6.218
  535.596    0.109    0.340   88.673  177.762    6.321
  535.846    0.133    0.348   90.865  179.153    6.094
  536.096    0.146    0.438   96.106  180.019    5.658
  536.346    0.170    0.454   94.876  180.465    5.174
  536.596    0.181    0.471   93.767  180.909    4.696
  536.846    0.190    0.464   95.088  181.140    4.535
  537.096    0.180    0.451   98.650  181.162    4.559
  537.346    0.165    0.434   98.912  180.974    4.599
  537.596    0.158    0.423   98.675  181.003    4.649
  537.846    0.169    0.407  101.054  181.443    4.708
  538.096    0.164    0.405  103.495  181.782    4.750
  538.346    0.138    0.434  103.011  181.914    4.793
  538.596    0.149    0.428  101.717  181.932    4.835
  538.846    0.125    0.430  100.112  182.166    4.842
  539.096    0.146    0.429  101.120  182.400    4.866
  539.346    0.140    0.422  106.113  181.788    4.873
  539.596    0.142    0.424  108.802  179.811    4.898
  539.846    0.159    0.437  107.260  178.460    4.932
  540.096    0.165    0.451  103.164  178.273    5.014
  540.346    0.159    0.440   98.448  178.507    5.087
  540.596    0.148    0.426   95.722  178.631    5.201
  540.846    0.150    0.416   97.292  178.868    5.307
  541.096    0.157    0.408   96.809  178.888    5.385
  541.346    0.152    0.388   95.327  179.019    5.454
  541.596    0.142    0.368   94.344  179.249    5.492
  541.846    0.135    0.367   94.357  179.377    5.437
  542.096    0.106    0.374   96.052  181.402    5.272
  542.346    0.087    0.390  100.547  183.110    5.016
  542.596    0.106    0.423  104.854  183.976    4.736
  542.846    0.122    0.417  105.676  184.632    4.637
  543.096    0.146    0.408  105.191  184.760    4.617
  543.346    0.147    0.409  104.396  184.676    4.649
  543.596    0.116    0.431  105.467  184.490    4.690
  543.846    0.124    0.446  105.418  184.934    4.804
  544.096    0.129    0.449  104.186  185.164    4.958
  544.346    0.115    0.418  101.773  185.506    5.146
  544.596    0.125    0.404   99.980  185.632    5.251
  544.846    0.122    0.398   97.692  185.657    5.218
  545.096    0.111    0.393   97.143  185.783    5.147
  545.346    0.143    0.387  102.634  186.334    4.991
  545.596    0.147    0.383  108.872  186.779    4.677
  545.846    0.137    0.407  110.381  186.798    4.527
  546.096    0.143    0.428  108.152  187.350    4.406
  546.346    0.155    0.438  106.796  188.107    4.354
  546.596    0.163    0.426  105.751  189.715    4.351
  546.846    0.170    0.439  102.466  190.681    4.382
  547.096    0.133    0.445   98.495  191.867    4.421
  547.346    0.176    0.433   98.385  192.311    4.528
  547.596    0.188    0.424   98.148  192.965    4.656
  547.846    0.155    0.423   96.667  193.304    4.769
  548.096    0.161    0.409   94.564  193.324    4.838
  548.346    0.159    0.393   92.150  192.610    4.854
  548.596    0.163    0.388   92.848  191.261    4.806
  548.846    0.172    0.388   94.542  189.704    4.456
  549.096    0.182    0.444   87.786  191.089    4.715
  549.346    0.196    0.441   86.293  188.774    5.319
  549.596    0.216    0.424   73.454  187.406    6.267
  549.846    0.243    0.404   67.535  186.147    7.097
  550.096    0.242    0.391   67.477  186.152    7.204
  550.346    0.245    0.387   68.540  187.425    6.925
  550.596    0.252    0.417   69.604  190.704    6.681
  550.846    0.248    0.418   70.793  193.245    6.471
  551.096    0.231    0.414   71.419  193.145    6.350
  551.346    0.216    0.410   71.174  191.673    6.483
  551.596    0.209    0.410   69.930  189.569    6.706
  551.846    0.207    0.411   67.814  187.992    6.990
  552.096    0.205    0.409   68.754  186.731    7.070
  552.346    0.207    0.401   70.939  185.473    7.003
  552.596    0.214    0.392   70.631  184.528    6.808
  552.846    0.215    0.380   71.009  183.899    6.569
  553.096    0.203    0.398   72.759  182.534    6.398
  553.346    0.189    0.411   73.573  180.640    6.544
  553.596    0.170    0.409   73.514  179.062    7.369
  553.846    0.132    0.373   71.086  176.430    8.471
  554.096    0.061    0.316   67.038  174.008    9.539
  554.346   -0.005    0.201   61.493  170.846   10.925
  554.596    0.029    0.193   52.893  166.948   12.441
  554.846    0.049    0.219   54.331  165.581   13.165
  555.096    0.095    0.283   59.633  164.954   11.914
  555.346    0.126    0.360   64.625  165.277   10.640
  555.596    0.121    0.370   69.554  165.705    9.449
  555.846    0.041    0.277   72.239  166.769    8.616
  556.096    0.060    0.240   65.883  167.726    7.960
  556.346    0.117    0.263   60.338  168.576    7.709
  556.596    0.162    0.307   63.459  169.321    7.122
  556.846    0.188    0.365   69.199  170.171    6.556
  557.096    0.188    0.382   70.449  170.916    5.855
  557.346    0.177    0.393   70.017  172.612    5.170
  557.596    0.176    0.408   71.330  175.469    4.904
  557.846    0.181    0.415   74.513  178.431    4.768
  558.096    0.160    0.404   76.948  182.554    4.741
  558.346    0.165    0.375   77.638  185.940    4.786
  558.596    0.185    0.367   77.080  187.846    4.849
  558.846    0.198    0.364   78.892  189.331    4.895
  559.096    0.206    0.383   82.262  190.182    4.831
  559.346    0.174    0.421   82.079  191.349    4.723
  559.596    0.156    0.423   80.275  192.307    4.679
  559.846    0.202    0.408   80.778  192.734    4.696
  560.096    0.185    0.387   80.781  193.058    4.877
  560.346    0.174    0.373   80.037  192.430    5.141
  560.596    0.170    0.389   79.168  189.797    5.734
  560.846    0.133    0.363   74.059  186.215    6.349
  561.096    0.106    0.336   66.457  183.581    7.257
  561.346    0.092    0.294   61.598  181.265    8.454
  561.596    0.120    0.314   56.427  179.054    9.755
  561.846    0.080    0.346   54.124  177.583   10.499
  562.096    0.041    0.312   57.183  174.844    9.829
  562.346    0.111    0.263   66.164  170.944    8.550
  562.596    0.156    0.279   73.462  166.517    7.312
  562.846    0.170    0.331   78.391  164.412    6.457
  563.096    0.158    0.363   82.011  163.363    5.999
  563.346    0.126    0.362   83.324  163.369    6.113
  563.596    0.100    0.351   84.076  163.482    6.949
  563.846    0.080    0.330   83.207  163.803    7.679
  564.096    0.101    0.300   82.899  164.021    7.752
  564.346    0.088    0.283   84.585  164.345    7.708
  564.596    0.085    0.300   89.078  164.668    7.781
  564.846    0.063    0.389   96.314  164.674    7.869
  565.096    0.059    0.390  104.422  164.575    8.049
  565.346    0.072    0.345   92.955  163.948    8.079
  565.596    0.034    0.312   83.545  163.426    8.095
  565.846    0.026    0.242   75.132  163.538    7.899
  566.096    0.087    0.270   77.442  163.861    7.243
  566.346    0.128    0.352   83.556  167.352    6.806
  566.596    0.109    0.379   87.612  171.687    6.312
  566.846    0.109    0.385   89.985  174.542    5.854
  567.096    0.115    0.371   94.104  177.084    5.788
  567.346    0.114    0.362   94.918  178.356    5.965
  567.596    0.105    0.365   93.862  179.735    6.348
  567.846    0.094    0.360   93.117  181.114    6.444
  568.096    0.097    0.373   92.373  182.176    6.372
  568.346    0.130    0.379   91.130  183.131    6.312
  568.596    0.118    0.373   88.702  184.088    6.312
  568.846    0.126    0.373   87.833  184.834    6.371
  569.096    0.131    0.381   89.395  185.158    6.604
  569.346    0.095    0.405   89.898  185.480    6.975
