~VERSION INFORMATION
 VERS.                 2.0:   CWLS LOG ASCII STANDARD -VERSION 2.0
 WRAP.                  NO:   ONE LINE PER DEPTH STEP
~WELL INFORMATION BLOCK
#MNEM.UNIT           DATA                    DESCRIPTION OF MNEMONIC
#---------    -------------------            -------------------------------
# Generated from Intellog Unique Number	CS_69_70/WELL/768
WELL.         GULF OIL CANADA                : Well_name    - WELL
LOC .         00/06-08-069-15W4/0            : Location     - LOCATION
UWI .         00/06-08-069-15W4/0            : Uwi          - UNIQUE WELL ID
ENTR.         SP                             : Entered      - ENTERED BY
SRVC.         SCHLUMBERGER                   : Scn          - SERVICE COMPANY
STRT.M        259.080                        : top_depth    - START DEPTH
STOP.M        456.830                        : bot_depth    - STOP DEPTH
STEP.M        0.25                           : increment    - STEP LENGTH
 NULL. -999.2500:NULL Value
~CURVE INFORMATION BLOCK
#MNEM UNIT       ERCB CURVE CODE    CURVE DESCRIPTION
#-----------   ------------------   ----------------------------------
DEPT.M        00 001 00 00         : DEPTH        - DEPTH
GR  .API      00 310 00 00         : GR           - GAMMA RAY
DPHI.V/V      00 890 00 00         : PHID         - DENSITY POROSITY (SANDSTONE)
NPHI.V/V      00 330 00 00         : PHIN         - NEUTRON POROSITY (SANDSTONE)
ILD .OHMM     00 120 00 00         : RESD         - DEEP RESISTIVITY (DIL)
~PARAMETER INFORMATION
#MNEM.UNIT           DATA             DESCRIPTION OF MNEMONIC
#---------         -----------     ------------------------------
GL  .M        545.866              : gl           - GROUND LEVEL ELEVATION
EREF.M        549.524              : kb           - ELEVATION OF DEPTH REFERENCE
DATM.M        545.866              : datum        - DATUM ELEVATION
TDD .M        460.553              : tdd          - TOTAL DEPTH DRILLER
RUN .         ONE                  : Run          - RUN NUMBER
ENG .         BILL                 : Engineer     - RECORDING ENGINEER
WIT .         JIM                  : Witness      - WITNESSED BY
MUD .         GEL                  : Mud_type     - MUD TYPE
MATR.         SANDSTONE            : Logunit      - NEUTRON MATRIX
TMAX.C        14.4444              : BHT          - MAXIMUM RECORDED TEMPERATURE
BHTD.M        460.553              : BHTDEP       - MAXIMUM RECORDED TEMPERATURE
MATR.         1                    : LOGUNIT      - NEUTRON MATRIX
RMT .C        25                   : MDTP         - TEMPERATURE OF MUD
NEUT.         1                    : NEUTRON      - NEUTRON TYPE
RESI.         0                    : RESIST       - RESISTIVITY TYPE
RMC .OHMM     0.25                 : RMC          - RESISTIVITY OF MUD CAKE
RMF .OHMM     0.25                 : RMF          - RESISTIVITY OF MUD FILTRATE
SUFT.C        15                   : SUFT         - SURFACE TEMPERATURE
~A  DEPTH       GR     PHID     PHIN     RESD
# ...
  389.580   91.404    0.196    0.437    3.228
  389.830   94.577    0.204    0.450    3.421
  390.080   96.432    0.195    0.443    3.524
  390.330   96.987    0.191    0.429    3.615
  390.580   92.300    0.201    0.422    3.655
  390.830   91.440    0.213    0.420    3.450
  391.080   95.395    0.211    0.419    3.130
  391.330   99.920    0.193    0.418    2.893
  391.580  104.009    0.178    0.418    2.660
  391.830  107.885    0.154    0.422    2.605
  392.080  107.650    0.177    0.426    2.642
  392.330  105.011    0.200    0.418    2.771
  392.580  106.132    0.200    0.426    2.965
  392.830  107.269    0.203    0.436    3.056
  393.080  107.622    0.213    0.447    3.159
  393.330  104.945    0.235    0.461    3.149
  393.580  103.548    0.209    0.482    2.987
  393.830  105.066    0.216    0.513    2.821
  394.080  108.143    0.238    0.532    2.702
  394.330  111.155    0.230    0.511    2.657
  394.580  112.747    0.240    0.519    2.661
  394.830  112.205    0.239    0.515    2.700
  395.080  108.428    0.231    0.497    2.710
  395.330  106.701    0.226    0.485    2.662
  395.580  106.492    0.226    0.498    2.586
  395.830  107.618    0.233    0.520    2.494
  396.080  108.238    0.229    0.524    2.423
  396.330  105.694    0.225    0.509    2.384
  396.580  102.489    0.224    0.511    2.375
  396.830  103.711    0.225    0.519    2.424
  397.080  106.221    0.233    0.500    2.497
  397.330  108.647    0.229    0.484    2.632
  397.580  108.659    0.220    0.473    2.652
  397.830  106.603    0.218    0.468    2.883
  398.080  105.024    0.200    0.465    3.095
  398.330  104.040    0.186    0.469    3.364
  398.580  103.321    0.182    0.438    3.680
  398.830   97.335    0.192    0.416    4.029
  399.080   92.085    0.217    0.411    4.374
  399.330   86.871    0.206    0.409    4.806
  399.580   81.537    0.184    0.407    5.271
  399.830   79.109    0.166    0.413    5.726
  400.080   82.915    0.174    0.421    5.772
  400.330   86.243    0.208    0.427    5.556
  400.580   87.559    0.226    0.421    5.338
  400.830   87.180    0.232    0.409    5.300
  401.080   84.774    0.241    0.393    5.655
  401.330   82.004    0.220    0.379    6.305
  401.580   79.159    0.172    0.362    6.810
  401.830   77.772    0.121    0.341    7.364
  402.080   78.087    0.123    0.354    6.612
  402.330   83.885    0.159    0.395    5.918
  402.580   90.478    0.183    0.404    5.390
  402.830   94.470    0.173    0.407    4.910
  403.080   96.262    0.161    0.410    4.624
  403.330   98.261    0.179    0.414    4.352
  403.580  100.714    0.195    0.409    4.169
  403.830   99.884    0.206    0.407    4.127
  404.080   95.015    0.178    0.407    4.154
  404.330   95.938    0.170    0.405    4.225
  404.580   97.584    0.180    0.396    4.435
  404.830   96.697    0.158    0.388    4.706
  405.080   95.510    0.131    0.372    4.673
  405.330   96.405    0.107    0.364    4.523
  405.580   99.372    0.126    0.384    4.283
  405.830  102.354    0.144    0.394    4.091
  406.080  102.161    0.161    0.405    4.028
  406.330  102.440    0.170    0.405    4.032
  406.580  103.381    0.178    0.395    4.280
  406.830  102.007    0.152    0.392    4.478
  407.080   99.184    0.141    0.399    4.659
  407.330  100.547    0.134    0.390    4.828
  407.580  101.931    0.145    0.391    4.810
  407.830  102.712    0.176    0.400    4.626
  408.080  102.306    0.188    0.405    4.446
  408.330  101.538    0.192    0.404    4.297
  408.580  100.986    0.198    0.395    4.217
  408.830   99.707    0.199    0.390    4.224
  409.080   98.943    0.191    0.386    4.272
  409.330   98.403    0.206    0.395    4.347
  409.580   97.839    0.202    0.409    4.432
  409.830   98.197    0.187    0.398    4.596
  410.080   98.989    0.185    0.393    4.737
  410.330  101.110    0.160    0.400    4.815
  410.580  104.302    0.169    0.400    4.776
  410.830  107.308    0.186    0.407    4.724
  411.080  109.781    0.189    0.412    4.615
  411.330  110.967    0.176    0.397    4.541
  411.580  109.522    0.174    0.382    4.502
  411.830  108.987    0.166    0.372    4.571
  412.080  109.224    0.188    0.364    4.651
  412.330  108.095    0.180    0.379    4.708
  412.580  104.417    0.170    0.399    4.682
  412.830   99.401    0.151    0.414    4.450
  413.080   94.366    0.146    0.416    4.050
  413.330   93.448    0.157    0.409    3.588
  413.580   94.165    0.177    0.412    3.228
  413.830   95.325    0.193    0.438    2.889
  414.080   97.359    0.220    0.465    2.631
  414.330  101.257    0.222    0.475    2.388
  414.580  104.213    0.235    0.479    2.211
  414.830  106.029    0.232    0.468    2.104
  415.080  106.890    0.215    0.478    2.377
  415.330  105.253    0.204    0.464    2.868
  415.580  101.698    0.208    0.415    3.814
  415.830   96.303    0.198    0.391    4.263
  416.080   92.049    0.174    0.378    4.772
  416.330   89.074    0.156    0.364    5.299
  416.580   88.747    0.142    0.378    5.789
  416.830   90.198    0.133    0.387    6.136
  417.080   89.411    0.138    0.398    6.420
  417.330   85.102    0.148    0.402    6.562
  417.580   76.953    0.137    0.379    6.672
  417.830   70.970    0.120    0.314    6.510
  418.080   77.621    0.054    0.306    6.056
  418.330   84.196    0.148    0.370    5.648
  418.580   89.667    0.170    0.390    5.249
  418.830   92.069    0.151    0.409    4.887
  419.080   93.634    0.131    0.388    4.582
  419.330   94.991    0.111    0.378    4.395
  419.580   98.650    0.144    0.410    4.157
  419.830  102.430    0.187    0.427    3.970
  420.080  101.264    0.188    0.431    3.778
  420.330  101.991    0.170    0.434    3.576
  420.580  104.710    0.212    0.437    3.426
  420.830  106.896    0.197    0.422    3.451
  421.080  108.399    0.175    0.405    3.512
  421.330  107.528    0.168    0.422    3.539
  421.580  103.754    0.164    0.435    3.486
  421.830  103.387    0.155    0.422    3.368
  422.080  107.152    0.149    0.438    3.211
  422.330  110.797    0.148    0.451    3.121
  422.580  113.490    0.172    0.458    3.072
  422.830  113.891    0.161    0.442    3.015
  423.080  108.946    0.158    0.439    2.945
  423.330  105.478    0.177    0.431    2.870
  423.580  103.950    0.177    0.436    2.803
  423.830  106.023    0.161    0.447    2.726
  424.080  109.605    0.154    0.442    2.669
  424.330  113.411    0.174    0.443    2.630
  424.580  115.468    0.179    0.453    2.632
  424.830  118.389    0.174    0.466    2.731
  425.080  120.083    0.176    0.478    2.806
  425.330  121.151    0.186    0.493    2.963
  425.580  121.353    0.176    0.469    3.141
  425.830  115.173    0.160    0.457    3.348
  426.080  107.649    0.145    0.446    3.546
  426.330  101.088    0.128    0.412    3.587
  426.580  100.792    0.113    0.385    3.374
  426.830  107.227    0.120    0.435    3.051
  427.080  115.069    0.169    0.448    2.834
  427.330  121.750    0.197    0.465    2.619
  427.580  126.080    0.201    0.476    2.492
  427.830  123.394    0.191    0.485    2.654
  428.080  119.905    0.198    0.480    2.910
  428.330  117.138    0.202    0.482    3.174
  428.580  115.433    0.188    0.460    3.604
  428.830  112.769    0.184    0.423    4.025
  429.080  107.904    0.178    0.398    4.654
  429.330  101.878    0.162    0.384    4.941
  429.580   98.252    0.148    0.369    5.562
  429.830   94.307    0.136    0.361    6.041
  430.080   87.764    0.160    0.378    6.788
  430.330   79.411    0.165    0.373    8.291
  430.580   72.831    0.139    0.341   10.342
  430.830   69.293    0.119    0.319   12.446
  431.080   67.817    0.153    0.308   13.715
  431.330   68.441    0.176    0.334   13.142
  431.580   70.872    0.197    0.355   11.424
  431.830   72.500    0.218    0.365   10.147
  432.080   74.349    0.209    0.366    9.280
  432.330   76.058    0.205    0.356    8.674
  432.580   76.220    0.187    0.342    9.267
  432.830   74.031    0.163    0.331    9.895
