~VERSION INFORMATION
 VERS.                 2.0:   CWLS LOG ASCII STANDARD -VERSION 2.0
 WRAP.                  NO:   ONE LINE PER DEPTH STEP
~WELL INFORMATION BLOCK
#MNEM.UNIT           DATA                    DESCRIPTION OF MNEMONIC
#---------    -------------------            -------------------------------
# Generated from Intellog Unique Number	CS_77_79/WELL/904
WELL.         DOME PETROLEUM                 : Well_name    - WELL
LOC .         00/07-22-077-15W4/0            : Location     - LOCATION
UWI .         00/07-22-077-15W4/0            : Uwi          - UNIQUE WELL ID
ENTR.         SP                             : Entered      - ENTERED BY
SRVC.         SCHLUMBERGER                   : Scn          - SERVICE COMPANY
STRT.M        290.25                         : top_depth    - START DEPTH
STOP.M        546                            : bot_depth    - STOP DEPTH
STEP.M        0.25                           : increment    - STEP LENGTH
 NULL. -999.2500:NULL Value
~CURVE INFORMATION BLOCK
#MNEM UNIT       ERCB CURVE CODE    CURVE DESCRIPTION
#-----------   ------------------   ----------------------------------
DEPT.M        00 001 00 00         : DEPTH        - DEPTH
ILD .OHMM     00 120 00 00         : RESD         - DEEP RESISTIVITY (DIL)
DPHI.V/V      00 890 00 00         : PHID         - DENSITY POROSITY (LIMESTONE)
NPHI.V/V      00 330 00 00         : PHIN         - NEUTRON POROSITY (LIMESTONE)
GR  .API      00 310 00 00         : GR           - GAMMA RAY
~PARAMETER INFORMATION
#MNEM.UNIT           DATA             DESCRIPTION OF MNEMONIC
#---------         -----------     ------------------------------
GL  .M        689.6                : gl           - GROUND LEVEL ELEVATION
EREF.M        693.74               : kb           - ELEVATION OF DEPTH REFERENCE
DATM.M        689.6                : datum        - DATUM ELEVATION
TDD .M        554                  : tdd          - TOTAL DEPTH DRILLER
RUN .         ONE                  : Run          - RUN NUMBER
ENG .         BILL                 : Engineer     - RECORDING ENGINEER
WIT .         JIM                  : Witness      - WITNESSED BY
MUD .         GEL                  : Mud_type     - MUD TYPE
MATR.         LIMESTONE            : Logunit      - NEUTRON MATRIX
TMAX.C        22                   : BHT          - MAXIMUM RECORDED TEMPERATURE
BHTD.M        554                  : BHTDEP       - MAXIMUM RECORDED TEMPERATURE
MATR.         1                    : LOGUNIT      - NEUTRON MATRIX
RMT .C        25                   : MDTP         - TEMPERATURE OF MUD
NEUT.         1                    : NEUTRON      - NEUTRON TYPE
RESI.         0                    : RESIST       - RESISTIVITY TYPE
RMC .OHMM     0.25                 : RMC          - RESISTIVITY OF MUD CAKE
RMF .OHMM     0.25                 : RMF          - RESISTIVITY OF MUD FILTRATE
SUFT.C        15                   : SUFT         - SURFACE TEMPERATURE
~A  DEPTH     RESD     PHID     PHIN       GR
# ...
  507.750   11.853    0.175    0.367   68.952
  508.000   11.629    0.189    0.382   71.371
  508.250   10.778    0.189    0.386   73.186
  508.500   10.575    0.202    0.382   75.605
  508.750    9.989    0.192    0.378   77.419
  509.000    9.801    0.179    0.378   78.024
  509.250    9.433    0.173    0.376   80.444
  509.500    9.255    0.178    0.367   81.048
  509.750    9.081    0.173    0.361   81.048
  510.000    8.742    0.163    0.367   83.468
  510.250    8.257    0.152    0.378   85.282
  510.500    8.101    0.143    0.383   87.702
  510.750    7.948    0.144    0.380   90.726
  511.000    7.946    0.148    0.376   92.540
  511.250    7.505    0.148    0.375   95.564
  511.500    7.363    0.146    0.384   96.774
  511.750    7.362    0.146    0.405   97.379
  512.000    7.360    0.149    0.411   97.984
  512.250    7.499    0.152    0.404   97.984
  512.500    7.498    0.159    0.402   96.169
  512.750    7.497    0.151    0.402   93.145
  513.000    7.639    0.159    0.403   89.516
  513.250    7.782    0.152    0.399   87.702
  513.500    7.781    0.153    0.394   87.097
  513.750    7.780    0.162    0.388   85.887
  514.000    7.927    0.156    0.380   84.073
  514.250    8.388    0.168    0.378   83.468
  514.500    8.387    0.175    0.378   82.863
  514.750    8.385    0.167    0.381   82.258
  515.000    8.383    0.168    0.372   81.048
  515.250    8.225    0.168    0.372   83.468
  515.500    8.069    0.170    0.382   88.911
  515.750    7.915    0.184    0.384   92.540
  516.000    7.766    0.218    0.365   84.073
  516.250    7.619    0.233    0.354   75.000
  516.500    7.197    0.246    0.343   65.323
  516.750    7.061    0.263    0.334   54.435
  517.000    6.798    0.262    0.331   53.226
  517.250    6.300    0.247    0.333   52.621
  517.500    5.951    0.247    0.328   52.016
  517.750    5.729    0.266    0.327   44.153
  518.000    5.621    0.280    0.331   41.129
  518.250    5.411    0.298    0.321   39.919
  518.500    5.209    0.304    0.318   38.105
  518.750    5.208    0.306    0.324   38.105
  519.000    5.306    0.309    0.327   39.315
  519.250    5.306    0.294    0.332   41.734
  519.500    6.409    0.282    0.331   45.968
  519.750    7.315    0.261    0.327   54.435
  520.000    7.742    0.241    0.323   67.137
  520.250    9.005    0.228    0.322   71.371
  520.500   10.085    0.242    0.324   66.532
  520.750   10.472    0.256    0.323   62.903
  521.000   10.471    0.278    0.321   58.065
  521.250    9.705    0.285    0.318   56.250
  521.500    9.889    0.284    0.326   53.226
  521.750    9.887    0.268    0.320   50.806
  522.000   10.073    0.250    0.313   55.645
  522.250   10.071    0.234    0.306   60.484
  522.500   10.070    0.244    0.302   64.113
  522.750   10.066    0.267    0.310   65.323
  523.000   10.065    0.276    0.316   62.298
  523.250   10.064    0.277    0.326   61.089
  523.500   10.254    0.258    0.329   59.274
  523.750   10.251    0.235    0.334   64.718
  524.000   10.249    0.227    0.323   64.113
  524.250   10.443    0.212    0.311   64.113
  524.500   10.641    0.195    0.300   64.113
  524.750   10.841    0.097    0.288   65.927
  525.000   10.839    0.083    0.273   68.952
  525.250   10.634    0.083    0.279   69.556
  525.500   10.632    0.092    0.285   70.766
  525.750   10.430    0.168    0.293   71.371
  526.000   10.233    0.198    0.301   71.371
  526.250   10.038    0.180    0.310   72.581
  526.500   10.037    0.182    0.311   73.790
  526.750    9.847    0.189    0.315   75.000
  527.000    9.661    0.189    0.318   76.814
  527.250    9.659    0.184    0.323   75.000
  527.500    9.476    0.170    0.326   75.605
  527.750    9.297    0.136    0.331   78.629
  528.000    9.294    0.121    0.340   82.258
  528.250    9.119    0.114    0.349   85.887
  528.500    8.945    0.097    0.366   88.306
  528.750    8.944    0.104    0.375   88.911
  529.000    8.774    0.111    0.367   87.702
  529.250    8.608    0.115    0.360   87.097
  529.500    8.771    0.136    0.355   86.492
  529.750    8.770    0.156    0.358   81.653
  530.000    8.767    0.162    0.360   79.839
  530.250    8.765    0.170    0.360   79.234
  530.500    8.599    0.171    0.359   79.234
  530.750    8.597    0.169    0.353   79.839
  531.000    8.760    0.163    0.351   81.048
  531.250    8.759    0.160    0.349   83.468
  531.500    8.757    0.169    0.345   79.234
  531.750    8.755    0.180    0.345   76.814
  532.000    8.589    0.175    0.345   79.234
  532.250    8.588    0.171    0.337   79.839
  532.500    8.586    0.196    0.332   80.444
  532.750    8.584    0.204    0.331   78.024
  533.000    8.583    0.206    0.333   75.605
  533.250    8.745    0.200    0.338   72.581
  533.500    8.743    0.181    0.340   70.161
  533.750    8.908    0.120    0.340   69.556
  534.000    9.077    0.115    0.336   69.556
  534.250    9.247    0.119    0.332   71.976
  534.500    9.245    0.137    0.329   78.024
  534.750    9.421    0.163    0.337   83.468
  535.000    9.419    0.164    0.345   87.702
  535.250    9.597    0.160    0.358   91.936
  535.500    9.595    0.156    0.371   95.564
  535.750    9.594    0.147    0.383   99.798
  536.000    9.591    0.138    0.391  101.613
  536.250    9.410    0.133    0.382   99.798
  536.500    9.408    0.131    0.383   99.798
  536.750    9.057    0.137    0.393  101.008
  537.000    8.555    0.143    0.397  101.613
  537.250    8.392    0.140    0.391   96.774
  537.500    8.391    0.148    0.386   93.750
  537.750    8.390    0.141    0.380   91.936
  538.000    8.388    0.148    0.382   91.331
  538.250    8.710    0.141    0.383   90.726
  538.500    8.874    0.137    0.380   91.331
  538.750    9.042    0.153    0.377   91.331
  539.000    9.388    0.147    0.381   90.726
  539.250    9.387    0.149    0.377   91.936
  539.500    9.565    0.144    0.376   94.960
  539.750    9.563    0.142    0.380   97.379
  540.000    9.561    0.129    0.381   92.540
  540.250    9.380    0.132    0.372   81.653
  540.500    9.030    0.147    0.351   68.952
  540.750    8.692    0.175    0.339   57.460
  541.000    8.367    0.202    0.327   47.177
  541.250    8.366    0.234    0.309   44.153
  541.500    8.208    0.263    0.299   41.734
  541.750    8.053    0.273    0.304   34.476
  542.000    7.751    0.279    0.313   28.427
  542.250    7.605    0.285    0.328   26.008
  542.500    7.321    0.290    0.351   25.403
  542.750    6.658    0.295    0.356   27.218
  543.000    6.290    0.296    0.355   29.032
  543.250    5.942    0.287    0.348   29.032
  543.500    5.720    0.273    0.345   28.427
  543.750    5.507    0.245    0.350   35.081
  544.000    5.402    0.222    0.354   42.339
  544.250    5.401    0.208    0.339   47.177
  544.500    5.608    0.176    0.316   42.339
  544.750    6.775    0.108    0.274   39.315
  545.000    7.734    0.027    0.247   38.710
  545.250    9.343    0.001    0.209   41.129
  545.500   11.722    0.009    0.208   45.968
  545.750   13.635    0.017    0.216   64.718
  546.000   16.164    0.031    0.225   79.234
