~VERSION INFORMATION
 VERS.                 2.0:   CWLS LOG ASCII STANDARD -VERSION 2.0
 WRAP.                  NO:   ONE LINE PER DEPTH STEP
~WELL INFORMATION BLOCK
#MNEM.UNIT           DATA                    DESCRIPTION OF MNEMONIC
#---------    -------------------            -------------------------------
# Generated from Intellog Unique Number	CS_67_68/WELL/2399
WELL.         CHIEFC0 DOME TWEEDIE           : Well_name    - WELL
LOC .         00/06-23-068-12W4/0            : Location     - LOCATION
UWI .         00/06-23-068-12W4/0            : Uwi          - UNIQUE WELL ID
ENTR.         TIM                            : Entered      - ENTERED BY
SRVC.         COMPUTALOG                     : Scn          - SERVICE COMPANY
STRT.M        275                            : top_depth    - START DEPTH
STOP.M        470                            : bot_depth    - STOP DEPTH
STEP.M        0.25                           : increment    - STEP LENGTH
 NULL. -999.2500:NULL Value
~CURVE INFORMATION BLOCK
#MNEM UNIT       ERCB CURVE CODE    CURVE DESCRIPTION
#-----------   ------------------   ----------------------------------
DEPT.M        00 001 00 00         : DEPTH        - DEPTH
GR  .API      00 310 00 00         : GR           - GAMMA RAY
CALI.MM       00 280 01 00         : CAL          - CALIPER
NPHI.V/V      00 330 00 00         : PHIN         - NEUTRON POROSITY (SANDSTONE)
DPHI.V/V      00 890 00 00         : PHID         - DENSITY POROSITY (SANDSTONE)
ILD .OHMM     00 120 00 00         : RESD         - DEEP RESISTIVITY (DIL)
~PARAMETER INFORMATION
#MNEM.UNIT           DATA             DESCRIPTION OF MNEMONIC
#---------         -----------     ------------------------------
GL  .M        591.38               : gl           - GROUND LEVEL ELEVATION
EREF.M        595.2                : kb           - ELEVATION OF DEPTH REFERENCE
DATM.M        595.2                : datum        - DATUM ELEVATION
TDD .M        471                  : tdd          - TOTAL DEPTH DRILLER
RUN .         ONE                  : Run          - RUN NUMBER
ENG .         BILL                 : Engineer     - RECORDING ENGINEER
WIT .         JIM                  : Witness      - WITNESSED BY
MUD .         GEL                  : Mud_type     - MUD TYPE
MATR.         SANDSTONE            : Logunit      - NEUTRON MATRIX
TMAX.C        26                   : BHT          - MAXIMUM RECORDED TEMPERATURE
BHTD.M        471                  : BHTDEP       - MAXIMUM RECORDED TEMPERATURE
MATR.         1                    : LOGUNIT      - NEUTRON MATRIX
RMT .C        20                   : MDTP         - TEMPERATURE OF MUD
NEUT.         1                    : NEUTRON      - NEUTRON TYPE
RESI.         0                    : RESIST       - RESISTIVITY TYPE
RMC .OHMM     1.6                  : RMC          - RESISTIVITY OF MUD CAKE
RMF .OHMM     1.1                  : RMF          - RESISTIVITY OF MUD FILTRATE
SUFT.C        5                    : SUFT         - SURFACE TEMPERATURE
~A  DEPTH       GR      CAL     PHIN     PHID     RESD
# ...
  348.000   74.327  149.289    0.470    0.334    2.168
  348.250   74.412  151.440    0.456    0.330    2.174
  348.500   74.497  153.627    0.446    0.330    2.143
  348.750   74.582  154.738    0.433    0.330    2.148
  349.000   75.270  155.955    0.431    0.330    2.156
  349.250   77.206  157.031    0.428    0.329    2.166
  349.500   77.894  157.243    0.425    0.328    2.173
  349.750   77.979  157.314    0.417    0.326    2.224
  350.000   77.482  157.561    0.403    0.323    2.319
  350.250   76.921  157.667    0.398    0.319    2.505
  350.500   76.403  157.774    0.397    0.313    2.711
  350.750   72.892  157.915    0.399    0.305    2.771
  351.000   69.941  158.057    0.403    0.300    2.887
  351.250   64.599  158.198    0.408    0.295    2.952
  351.500   63.521  158.340    0.413    0.289    3.015
  351.750   64.769  158.481    0.412    0.276    3.086
  352.000   67.911  158.623    0.411    0.270    3.155
  352.250   69.159  158.764    0.407    0.263    3.228
  352.500   71.074  158.976    0.402    0.256    3.240
  352.750   73.571  159.118    0.401    0.251    3.248
  353.000   76.068  159.259    0.407    0.247    3.260
  353.250   79.791  159.365    0.411    0.242    3.274
  353.500   83.515  159.542    0.410    0.239    3.283
  353.750   86.012  159.684    0.407    0.239    3.294
  354.000   84.891  159.825    0.396    0.240    3.306
  354.250   82.543  159.931    0.386    0.245    3.320
  354.500   80.819  160.144    0.386    0.248    3.338
  354.750   79.719  160.320    0.389    0.248    3.344
  355.000   81.010  160.427    0.393    0.247    3.359
  355.250   83.506  160.533    0.405    0.242    3.368
  355.500   88.415  160.710    0.408    0.238    3.443
  355.750   92.117  159.882    0.409    0.245    3.520
  356.000   94.614  159.988    0.409    0.241    3.599
  356.250   92.287  160.094    0.403    0.235    3.683
  356.500   99.628  160.235    0.400    0.234    3.766
  356.750  106.346  160.412    0.405    0.245    3.854
  357.000  102.210  159.513    0.407    0.239    3.864
  357.250   95.684  159.655    0.409    0.236    3.877
  357.500   93.357  158.898    0.410    0.231    3.891
  357.750   95.251  158.968    0.410    0.224    3.908
  358.000   97.123  159.181    0.411    0.218    3.922
  358.250  100.244  159.287    0.411    0.217    3.939
  358.500  103.343  159.393    0.410    0.218    3.880
  358.750  103.428  159.534    0.410    0.220    3.825
  359.000   99.314  159.711    0.407    0.231    3.761
  359.250   95.157  159.853    0.403    0.230    3.705
  359.500   91.624  158.989    0.400    0.227    3.649
  359.750   89.297  159.131    0.397    0.226    3.528
  360.000   86.971  159.308    0.399    0.233    3.475
  360.250   84.644  159.414    0.405    0.241    3.426
  360.500   82.296  159.591    0.414    0.245    3.371
  360.750   79.969  159.697    0.421    0.245    3.383
  361.000   80.075  159.838    0.426    0.246    3.395
  361.250   81.366  160.015    0.431    0.248    3.407
  361.500   83.281  160.192    0.436    0.250    3.422
  361.750   83.366  160.263    0.443    0.252    3.437
  362.000   82.848  160.404    0.433    0.248    3.446
  362.250   82.933  160.581    0.428    0.245    3.465
  362.500   83.620  160.758    0.430    0.243    3.410
  362.750   83.102  160.899    0.433    0.243    3.355
  363.000   81.378  161.006    0.433    0.248    3.250
  363.250   79.676  161.147    0.429    0.250    3.195
  363.500   79.115  161.324    0.430    0.252    3.092
  363.750   78.597  161.465    0.438    0.257    3.043
  364.000   80.533  161.571    0.440    0.261    2.944
  364.250   80.037  160.708    0.435    0.271    2.897
  364.500   78.916  160.885    0.427    0.288    2.908
  364.750   78.958  161.062    0.423    0.304    2.918
  365.000   78.440  161.133    0.439    0.315    2.928
  365.250   77.943  161.345    0.443    0.316    2.884
  365.500   78.007  161.451    0.439    0.316    2.897
  365.750   78.134  161.592    0.430    0.316    2.907
  366.000   77.574  161.769    0.424    0.312    2.866
  366.250   77.098  161.875    0.421    0.298    2.874
  366.500   76.559  161.047    0.421    0.287    2.831
  366.750   76.623  161.154    0.425    0.274    2.739
  367.000   77.956  160.325    0.433    0.267    2.650
  367.250   79.849  160.432    0.445    0.260    2.560
  367.500   82.949  160.644    0.447    0.259    2.519
  367.750   86.027  159.816    0.453    0.315    2.530
  368.000   96.383  159.887    0.468    0.316    2.587
  368.250   94.659  159.059    0.469    0.312    2.850
  368.500   91.127  159.235    0.459    0.310    3.199
  368.750   87.012  159.306    0.446    0.306    3.797
  369.000   84.082  158.443    0.445    0.298    4.595
  369.250   82.940  157.579    0.447    0.293    5.454
  369.500   81.819  157.792    0.443    0.286    6.726
  369.750   80.096  156.893    0.428    0.262    7.843
  370.000   77.187  157.034    0.384    0.223    7.163
  370.250   76.045  157.140    0.354    0.144    5.860
  370.500   72.512  156.312    0.332    0.118    4.968
  370.750   68.355  156.454    0.287    0.087    3.433
  371.000   64.823  156.666    0.251    0.046    3.139
  371.250   64.907  156.772    0.228    0.048    2.867
  371.500   67.425  156.949    0.224    0.142    2.618
  371.750   70.546  157.020    0.282    0.189    2.439
  372.000   73.646  157.197    0.402    0.259    2.233
  372.250   76.121  156.333    0.429    0.331    2.196
  372.500   81.675  156.510    0.446    0.334    2.167
  372.750   80.554  156.581    0.459    0.335    2.171
  373.000   80.057  156.758    0.454    0.335    2.182
  373.250   80.099  156.935    0.434    0.330    2.188
  373.500   79.603  157.041    0.428    0.322    2.196
  373.750   79.085  157.182    0.429    0.323    2.287
  374.000   77.963  156.390    0.427    0.328    2.384
  374.250   77.445  156.460    0.425    0.329    2.531
  374.500   76.346  156.673    0.427    0.322    2.793
  374.750   73.998  156.779    0.430    0.300    2.904
  375.000   73.459  156.885    0.418    0.265    3.199
  375.250   73.565  156.057    0.404    0.237    3.398
  375.500   78.473  156.198    0.409    0.234    3.410
  375.750   83.381  156.340    0.415    0.242    3.552
  376.000   84.069  156.481    0.418    0.250    3.635
  376.250   84.154  156.658    0.422    0.253    3.720
  376.500   84.884  157.840    0.423    0.258    3.796
  376.750   86.154  157.946    0.425    0.258    3.888
  377.000   87.445  158.123    0.426    0.253    3.902
  377.250   88.757  159.199    0.426    0.248    3.986
  377.500   89.444  159.375    0.426    0.244    4.000
  377.750   90.132  159.482    0.429    0.237    4.090
  378.000   89.614  160.663    0.431    0.235    4.108
  378.250   88.514  160.840    0.430    0.233    4.122
  378.500   86.790  160.982    0.429    0.231    4.140
  378.750   88.060  161.088    0.426    0.224    4.151
  379.000   90.557  161.229    0.423    0.222    4.010
  379.250   91.847  161.371    0.423    0.228    3.805
  379.500   93.138  161.512    0.423    0.239    3.611
  379.750   92.017  161.689    0.423    0.253    3.623
  380.000   89.088  161.831    0.435    0.268    3.781
  380.250   85.555  161.972    0.435    0.266    3.942
  380.500   86.243  162.149    0.427    0.260    3.949
  380.750   88.157  162.326    0.432    0.246    4.195
  381.000   90.051  162.432    0.446    0.236    4.536
  381.250   92.590  163.543    0.439    0.229    4.637
  381.500   93.236  163.684    0.435    0.224    4.572
  381.750   93.342  163.897    0.438    0.225    4.507
  382.000   92.200  164.003    0.447    0.231    4.435
  382.250   91.100  164.109    0.439    0.236    4.451
  382.500   91.185  164.321    0.433    0.239    4.384
  382.750   91.248  164.427    0.428    0.232    4.396
  383.000   91.957  164.675    0.431    0.227    4.334
  383.250   92.042  164.746    0.438    0.220    4.349
  383.500   93.354  164.887    0.447    0.216    4.349
  383.750   94.021  164.024    0.449    0.212    3.993
  384.000   94.730  164.165    0.445    0.212    4.152
  384.250   93.609  164.271    0.440    0.213    4.171
