~VERSION INFORMATION
 VERS.                 2.0:   CWLS LOG ASCII STANDARD -VERSION 2.0
 WRAP.                  NO:   ONE LINE PER DEPTH STEP
~WELL INFORMATION BLOCK
#MNEM.UNIT           DATA                    DESCRIPTION OF MNEMONIC
#---------    -------------------            -------------------------------
# Generated from Intellog Unique Number	CW_79_81/WELL/3693
WELL.         06-32-079-02W5                 : Well_name    - WELL
LOC .         00/06-32-079-02W5/0            : Location     - LOCATION
UWI .         00/06-32-079-02W5/0            : Uwi          - UNIQUE WELL ID
ENTR.         JOETTE                         : Entered      - ENTERED BY
SRVC.         SCHLUMBERGER                   : Scn          - SERVICE COMPANY
DATE.         08/26/92                       : Date         - LOG DATE
STRT.M        300                            : top_depth    - START DEPTH
STOP.M        520                            : bot_depth    - STOP DEPTH
STEP.M        0.25                           : increment    - STEP LENGTH
 NULL. -999.2500:NULL Value
~CURVE INFORMATION BLOCK
#MNEM UNIT       ERCB CURVE CODE    CURVE DESCRIPTION
#-----------   ------------------   ----------------------------------
DEPT.M        00 001 00 00         : DEPTH        - DEPTH
ILD .OHMM     00 120 00 00         : RESD         - DEEP RESISTIVITY (DIL)
GR  .API      00 310 00 00         : GR           - GAMMA RAY
NPHI.V/V      00 330 00 00         : PHIN         - NEUTRON POROSITY (SANDSTONE)
DPHI.V/V      00 890 00 00         : PHID         - DENSITY POROSITY (SANDSTONE)
~PARAMETER INFORMATION
#MNEM.UNIT           DATA             DESCRIPTION OF MNEMONIC
#---------         -----------     ------------------------------
GL  .M        617.8                : gl           - GROUND LEVEL ELEVATION
EREF.M        621.9                : kb           - ELEVATION OF DEPTH REFERENCE
DATM.M        621.9                : datum        - DATUM ELEVATION
TDD .M        521                  : tdd          - TOTAL DEPTH DRILLER
RUN .         ONE                  : Run          - RUN NUMBER
ENG .         BILL                 : Engineer     - RECORDING ENGINEER
WIT .         JIM                  : Witness      - WITNESSED BY
MUD .         GEL                  : Mud_type     - MUD TYPE
MATR.         SANDSTONE            : Logunit      - NEUTRON MATRIX
TMAX.C        18                   : BHT          - MAXIMUM RECORDED TEMPERATURE
BHTD.M        521                  : BHTDEP       - MAXIMUM RECORDED TEMPERATURE
MATR.         1                    : LOGUNIT      - NEUTRON MATRIX
RMT .C        16                   : MDTP         - TEMPERATURE OF MUD
NEUT.         1                    : NEUTRON      - NEUTRON TYPE
RESI.         0                    : RESIST       - RESISTIVITY TYPE
RMC .OHMM     4.35                 : RMC          - RESISTIVITY OF MUD CAKE
RMF .OHMM     4.35                 : RMF          - RESISTIVITY OF MUD FILTRATE
SUFT.C        5                    : SUFT         - SURFACE TEMPERATURE
~A  DEPTH     RESD       GR     PHIN     PHID
# ...
  387.000   12.397   68.619    0.501    0.339
  387.250   12.183   68.103    0.501    0.333
  387.500   12.666   68.177    0.499    0.330
  387.750   13.415   68.206    0.503    0.328
  388.000   13.415   68.265    0.506    0.322
  388.250   13.963   66.554    0.496    0.311
  388.500   14.230   66.038    0.483    0.301
  388.750   14.798   67.866    0.468    0.243
  389.000   15.375   67.940    0.471    0.123
  389.250   15.683   67.394    0.411    0.116
  389.500   15.698   67.482    0.399    0.108
  389.750   15.427   68.692    0.373    0.114
  390.000   14.881   72.319    0.372    0.120
  390.250   13.829   73.543    0.352    0.146
  390.500   12.380   73.617    0.397    0.155
  390.750   11.293   73.661    0.453    0.194
  391.000   10.113   75.490    0.450    0.247
  391.250    9.572   76.728    0.389    0.211
  391.500    9.239   76.787    0.460    0.136
  391.750    9.077   79.206    0.472    0.212
  392.000    8.920   83.409    0.473    0.243
  392.250    8.931   85.223    0.476    0.244
  392.500    8.939   85.872    0.492    0.250
  392.750    8.950   85.945    0.523    0.266
  393.000    8.961   84.219    0.500    0.300
  393.250    8.812   84.868    0.489    0.301
  393.500    8.820   87.921    0.490    0.296
  393.750    8.668   89.130    0.500    0.298
  394.000    8.366   90.369    0.529    0.292
  394.250    8.070   92.212    0.541    0.281
  394.500    7.933   94.616    0.525    0.282
  394.750    7.792   94.085    0.525    0.272
  395.000    7.799   90.604    0.527    0.259
  395.250    7.667   87.714    0.529    0.290
  395.500    7.676   87.183    0.512    0.300
  395.750    7.683   87.241    0.492    0.294
  396.000    7.553   88.495    0.488    0.267
  396.250    7.562   90.913    0.497    0.242
  396.500    7.712   93.347    0.507    0.236
  396.750    7.724   91.636    0.500    0.246
  397.000    7.733   91.090    0.476    0.248
  397.250    7.745   91.739    0.477    0.243
  397.500    7.607   94.157    0.496    0.232
  397.750    7.621   94.806    0.493    0.225
  398.000    7.626   90.160    0.487    0.232
  398.250    7.784   90.809    0.483    0.223
  398.500    7.791   93.228    0.473    0.231
  398.750    7.945   93.862    0.484    0.245
  399.000    7.957   89.806    0.497    0.240
  399.250    7.964   88.670    0.500    0.235
  399.500    8.127   90.513    0.505    0.238
  399.750    8.137   91.752    0.501    0.241
  400.000    8.149   91.811    0.502    0.239
  400.250    8.162   91.280    0.498    0.240
  400.500    8.170   93.713    0.495    0.237
  400.750    8.180   95.527    0.490    0.229
  401.000    8.039   94.996    0.483    0.234
  401.250    8.049   93.285    0.472    0.239
  401.500    8.058   92.754    0.466    0.239
  401.750    8.066   92.223    0.469    0.237
  402.000    8.078   92.296    0.469    0.233
  402.250    8.086   91.751    0.473    0.226
  402.500    8.248   90.630    0.482    0.227
  402.750    8.414   87.164    0.505    0.227
  403.000    8.912   84.258    0.515    0.220
  403.250    9.259   77.828    0.528    0.230
  403.500    9.622   74.922    0.515    0.259
  403.750   10.191   73.212    0.533    0.251
  404.000   10.393   69.746    0.531    0.288
  404.250   10.801   66.265    0.502    0.316
  404.500   12.325   66.309    0.473    0.314
  404.750   14.595   69.937    0.468    0.309
  405.000   16.046   71.751    0.472    0.300
  405.250   16.061   75.364    0.492    0.271
  405.500   15.206   78.372    0.484    0.260
  405.750   13.362   82.546    0.481    0.278
  406.000   11.963   86.764    0.499    0.280
  406.250   10.512   85.628    0.553    0.285
  406.500   11.557   83.357    0.548    0.288
  406.750   12.233   82.796    0.524    0.293
  407.000   13.445   82.855    0.518    0.288
  407.250   13.973   86.453    0.519    0.264
  407.500   13.736   86.512    0.488    0.251
  407.750   13.245   85.406    0.477    0.235
  408.000   12.085   84.875    0.465    0.262
  408.250   10.820   86.733    0.481    0.260
  408.500    9.684   87.957    0.485    0.255
  408.750    8.836   88.576    0.485    0.248
  409.000    8.520   88.650    0.481    0.246
  409.250    8.218   88.119    0.479    0.229
  409.500    8.231   88.192    0.481    0.232
  409.750    8.239   87.632    0.483    0.239
  410.000    8.249   86.511    0.481    0.244
  410.250    8.262   89.534    0.480    0.252
  410.500    7.969   94.312    0.477    0.246
  410.750    7.685   94.371    0.471    0.238
  411.000    7.415   95.610    0.461    0.231
  411.250    7.289   97.439    0.461    0.225
  411.500    7.433   99.282    0.472    0.229
  411.750    7.442   98.161    0.490    0.237
  412.000    7.589   92.306    0.504    0.241
  412.250    7.890   88.235    0.499    0.238
  412.500    7.759   87.719    0.500    0.250
  412.750    7.622   86.598    0.515    0.242
  413.000    7.632   86.067    0.516    0.238
  413.250    7.502   86.126    0.513    0.249
  413.500    7.368   85.005    0.516    0.250
  413.750    7.380   85.064    0.516    0.246
  414.000    7.389   89.252    0.509    0.236
  414.250    7.396   89.901    0.495    0.234
  414.500    7.833   87.010    0.484    0.244
  414.750    8.609   84.119    0.490    0.252
  415.000    9.113   81.803    0.502    0.260
  415.250   10.015   76.568    0.528    0.268
  415.500   11.425   73.662    0.522    0.279
  415.750   13.042   73.146    0.519    0.297
  416.000   14.065   74.975    0.521    0.325
  416.250   15.458   75.653    0.518    0.329
  416.500   16.989   75.092    0.509    0.319
  416.750   17.656   73.971    0.504    0.306
  417.000   18.016   73.440    0.509    0.305
  417.250   18.044   74.104    0.514    0.307
  417.500   17.722   75.328    0.505    0.302
  417.750   17.416   80.121    0.519    0.279
  418.000   16.494   82.539    0.520    0.273
  418.250   15.910   83.188    0.510    0.284
  418.500   15.925   83.232    0.502    0.285
  418.750   15.950   79.162    0.502    0.308
  419.000   16.265   77.465    0.508    0.315
  419.250   16.596   76.359    0.517    0.309
  419.500   16.617   75.799    0.521    0.304
  419.750   16.638   74.678    0.476    0.301
  420.000   16.345   78.895    0.463    0.302
  420.250   15.194   81.904    0.458    0.297
  420.500   13.859   84.308    0.492    0.289
  420.750   12.404   87.921    0.495    0.277
  421.000   11.527   92.094    0.504    0.279
  421.250   10.517   89.808    0.505    0.285
  421.500   10.530   86.342    0.507    0.287
  421.750   10.547   84.602    0.510    0.281
  422.000   10.752   81.726    0.519    0.287
  422.250   11.177   78.835    0.528    0.289
  422.500   12.288   77.124    0.532    0.282
  422.750   13.252   74.823    0.515    0.306
  423.000   14.569   72.508    0.516    0.337
  423.250   16.012   70.222    0.524    0.340
  423.500   16.959   69.101    0.534    0.332
  423.750   17.294   68.555    0.534    0.332
  424.000   17.316   68.024    0.502    0.334
  424.250   17.343   67.493    0.504    0.338
  424.500   17.353   67.552    0.530    0.332
  424.750   17.702   68.820    0.526    0.329
  425.000   18.063   68.849    0.519    0.326
  425.250   18.778   70.088    0.499    0.314
  425.500   19.509   70.162    0.472    0.274
  425.750   21.448   70.220    0.387    0.228
  426.000   22.710   69.689    0.336    0.214
  426.250   24.967   69.763    0.284    0.190
  426.500   26.419   69.822    0.259    0.166
  426.750   28.509   67.506    0.246    0.138
  427.000   30.754   62.256    0.225    0.110
  427.250   31.381   55.221    0.202    0.085
  427.500   31.400   51.150    0.192    0.055
  427.750   30.288   54.159    0.200    0.018
  428.000   27.627   60.131    0.295    0.094
  428.250   22.957   64.910    0.324    0.167
  428.500   14.156   69.688    0.369    0.261
  428.750   11.333   77.430    0.449    0.297
  429.000    9.069   84.008    0.526    0.286
  429.250    7.539   84.037    0.473    0.288
  429.500    7.140   83.506    0.468    0.294
  429.750    7.281   82.385    0.488    0.298
  430.000    7.854   80.099    0.493    0.291
  430.250    8.473   80.733    0.506    0.278
