~VERSION INFORMATION
 VERS.                 2.0:   CWLS LOG ASCII STANDARD -VERSION 2.0
 WRAP.                  NO:   ONE LINE PER DEPTH STEP
~WELL INFORMATION BLOCK
#MNEM.UNIT           DATA                    DESCRIPTION OF MNEMONIC
#---------    -------------------            -------------------------------
# Generated from Intellog Unique Number	CS_77_79/WELL/849
WELL.         ICGR LOCHIEL GRAHAM            : Well_name    - WELL
LOC .         00/03-34-078-05W4/0            : Location     - LOCATION
UWI .         00/03-34-078-05W4/0            : Uwi          - UNIQUE WELL ID
ENTR.         JHS                            : Entered      - ENTERED BY
SRVC.         SCHLUMBERGER                   : Scn          - SERVICE COMPANY
STRT.M        100                            : top_depth    - START DEPTH
STOP.M        360                            : bot_depth    - STOP DEPTH
STEP.M        0.25                           : increment    - STEP LENGTH
 NULL. -999.2500:NULL Value
~CURVE INFORMATION BLOCK
#MNEM UNIT       ERCB CURVE CODE    CURVE DESCRIPTION
#-----------   ------------------   ----------------------------------
DEPT.M        00 001 00 00         : DEPTH        - DEPTH
DPHI.V/V      00 890 00 00         : PHID         - DENSITY POROSITY (LIMESTONE)
NPHI.V/V      00 330 00 00         : PHIN         - NEUTRON POROSITY (LIMESTONE)
GR  .API      00 310 00 00         : GR           - GAMMA RAY
ILD .OHMM     00 120 00 00         : RESD         - DEEP RESISTIVITY (DIL)
RHOB.KG/M3    00 350 00 00         : DENS         - BULK DENSITY
~PARAMETER INFORMATION
#MNEM.UNIT           DATA             DESCRIPTION OF MNEMONIC
#---------         -----------     ------------------------------
GL  .M        528.9                : gl           - GROUND LEVEL ELEVATION
EREF.M        532.4                : kb           - ELEVATION OF DEPTH REFERENCE
DATM.M        532.4                : datum        - DATUM ELEVATION
TDD .M        367                  : tdd          - TOTAL DEPTH DRILLER
RUN .         ONE                  : Run          - RUN NUMBER
ENG .         BILL                 : Engineer     - RECORDING ENGINEER
WIT .         JIM                  : Witness      - WITNESSED BY
MUD .         GEL                  : Mud_type     - MUD TYPE
MATR.         LIMESTONE            : Logunit      - NEUTRON MATRIX
TMAX.C        17.2                 : BHT          - MAXIMUM RECORDED TEMPERATURE
BHTD.M        367                  : BHTDEP       - MAXIMUM RECORDED TEMPERATURE
MATR.         1                    : LOGUNIT      - NEUTRON MATRIX
RMT .C        25                   : MDTP         - TEMPERATURE OF MUD
NEUT.         1                    : NEUTRON      - NEUTRON TYPE
RESI.         0                    : RESIST       - RESISTIVITY TYPE
RMC .OHMM     0.25                 : RMC          - RESISTIVITY OF MUD CAKE
RMF .OHMM     0.25                 : RMF          - RESISTIVITY OF MUD FILTRATE
SUFT.C        15                   : SUFT         - SURFACE TEMPERATURE
~A  DEPTH     PHID     PHIN       GR     RESD     DENS
# ...
  136.500    0.224    0.445   84.945   11.171    0.000
  136.750    0.210    0.434   94.729   10.983    0.000
  137.000    0.189    0.430  100.849   10.796    0.000
  137.250    0.171    0.445   94.174   10.818    0.000
  137.500    0.168    0.443   88.103   11.031    0.000
  137.750    0.204    0.443   83.856   11.050    0.000
  138.000    0.214    0.440   82.664   10.860    0.000
  138.250    0.223    0.420   87.569   10.488    0.000
  138.500    0.207    0.403   95.520   10.118    0.000
  138.750    0.187    0.443  100.431    9.765    0.000
  139.000    0.192    0.467  100.456    9.426    0.000
  139.250    0.233    0.501   98.655    9.267    0.000
  139.500    0.213    0.497   97.462    9.114    0.000
  139.750    0.197    0.462   96.266    9.128    0.000
  140.000    0.195    0.436   95.685    9.309    0.000
  140.250    0.221    0.455   96.926    9.323    0.000
  140.500    0.229    0.479   97.568    9.341    0.000
  140.750    0.231    0.481   95.761    9.348    0.000
  141.000    0.237    0.467   98.226    9.716    0.000
  141.250    0.255    0.480  100.084   10.098    0.000
  141.500    0.264    0.494   99.502   10.687    0.000
  141.750    0.255    0.476   96.476   12.185    0.000
  142.000    0.245    0.448   89.184   14.142    0.000
  142.250    0.304    0.427   71.530   16.416    0.000
  142.500    0.336    0.412   56.925   19.052    0.000
  142.750    0.342    0.399   50.244   22.540    0.000
  143.000    0.339    0.414   49.050   24.755    0.000
  143.250    0.335    0.490   52.132   25.729    0.000
  143.500    0.336    0.470   52.768   25.294    0.000
  143.750    0.343    0.438   49.135   24.862    0.000
  144.000    0.358    0.465   43.672   24.000    0.000
  144.250    0.376    0.482   42.478   23.605    0.000
  144.500    0.374    0.454   44.950   23.625    0.000
  144.750    0.354    0.437   47.405   23.229    0.000
  145.000    0.336    0.433   52.923   23.264    0.000
  145.250    0.325    0.431   57.216   22.874    0.000
  145.500    0.316    0.422   60.897   22.490    0.000
  145.750    0.317    0.419   70.076   20.922    0.000
  146.000    0.326    0.423   76.197   19.459    0.000
  146.250    0.322    0.435   82.322   16.814    0.000
  146.500    0.300    0.435   87.829   14.788    0.000
  146.750    0.267    0.436   97.612   11.868    0.000
  147.000    0.228    0.442  104.953    9.526    0.000
  147.250    0.186    0.452  109.862    8.229    0.000
  147.500    0.154    0.478  107.446    7.513    0.000
  147.750    0.130    0.470  103.814    6.736    0.000
  148.000    0.117    0.477  103.229    6.267    0.000
  148.250    0.123    0.505  113.010    5.938    0.000
  148.500    0.163    0.496  117.312    5.732    0.000
  148.750    0.148    0.488  115.505    5.532    0.000
  149.000    0.172    0.508  112.485    5.437    0.000
  149.250    0.220    0.520  112.511    5.444    0.000
  149.500    0.219    0.513  118.025    5.557    0.000
  149.750    0.226    0.514  121.095    5.666    0.000
  150.000    0.247    0.537  119.302    6.224    0.000
  150.250    0.241    0.530  112.004    8.074    0.000
  150.500    0.239    0.506   95.567   10.278    0.000
  150.750    0.251    0.485   74.259   13.086    0.000
  151.000    0.285    0.458   59.651   16.053    0.000
  151.250    0.313    0.411   44.436   20.824    0.000
  151.500    0.322    0.414   39.585   23.727    0.000
  151.750    0.327    0.434   30.464   26.070    0.000
  152.000    0.334    0.406   29.270   25.630    0.000
  152.250    0.332    0.391   36.613   23.837    0.000
  152.500    0.314    0.393   48.839   21.369    0.000
  152.750    0.303    0.428   60.445   19.513    0.000
  153.000    0.307    0.427   69.006   17.492    0.000
  153.250    0.319    0.407   75.132   15.397    0.000
  153.500    0.296    0.394   83.695   14.056    0.000
  153.750    0.261    0.388   92.866   13.073    0.000
  154.000    0.237    0.408   89.237   12.162    0.000
  154.250    0.219    0.424   82.555   11.736    0.000
  154.500    0.184    0.409   86.243   12.198    0.000
  154.750    0.149    0.414   85.043   13.150    0.000
  155.000    0.144    0.441   74.096   14.715    0.000
  155.250    0.172    0.427   68.026   16.162    0.000
  155.500    0.292    0.419   65.004   17.105    0.000
  155.750    0.287    0.424   66.258   18.787    0.000
  156.000    0.284    0.434   68.103   21.021    0.000
  156.250    0.309    0.424   75.449   23.093    0.000
  156.500    0.321    0.411   85.231   24.896    0.000
  156.750    0.322    0.420   95.010   26.361    0.000
  157.000    0.323    0.437   84.061   26.399    0.000
  157.250    0.327    0.437   57.871   25.949    0.000
  157.500    0.320    0.435   42.045   25.052    0.000
  157.750    0.320    0.432   40.243   24.631    0.000
  158.000    0.317    0.427   39.051   24.663    0.000
  158.250    0.306    0.416   42.735   24.702    0.000
  158.500    0.352    0.417   54.957   24.747    0.000
  158.750    0.348    0.430   60.473   24.771    0.000
  159.000    0.325    0.443   61.718   24.354    0.000
  159.250    0.318    0.442   59.303   24.390    0.000
  159.500    0.319    0.438   56.889   23.978    0.000
  159.750    0.311    0.448   56.917   23.149    0.000
  160.000    0.308    0.448   52.676   22.752    0.000
  160.250    0.308    0.427   47.828   21.955    0.000
  160.500    0.304    0.436   46.024   20.431    0.000
  160.750    0.296    0.425   46.658   19.350    0.000
  161.000    0.284    0.418   52.782   18.680    0.000
  161.250    0.274    0.415   73.536   18.038    0.000
  161.500    0.268    0.421   81.490   18.062    0.000
  161.750    0.270    0.434   80.300   18.424    0.000
  162.000    0.286    0.446   79.714   19.151    0.000
  162.250    0.287    0.456   84.008   19.524    0.000
  162.500    0.285    0.461   87.087   19.559    0.000
  162.750    0.287    0.458   88.328   18.534    0.000
  163.000    0.292    0.453   93.232   17.561    0.000
  163.250    0.293    0.442   98.747   17.596    0.000
  163.500    0.281    0.440   99.387   17.939    0.000
  163.750    0.274    0.454   92.093   19.350    0.000
  164.000    0.281    0.453   75.657   20.475    0.000
  164.250    0.288    0.434   62.268   22.917    0.000
  164.500    0.295    0.417   50.716   23.361    0.000
  164.750    0.301    0.410   49.519   24.728    0.000
  165.000    0.302    0.409   53.205   25.245    0.000
  165.250    0.301    0.417   61.163   25.740    0.000
  165.500    0.295    0.427   63.621   25.784    0.000
  165.750    0.274    0.426   63.037   25.827    0.000
  166.000    0.259    0.410   55.746   25.851    0.000
  166.250    0.294    0.402   46.629   25.423    0.000
  166.500    0.336    0.395   44.217   24.999    0.000
  166.750    0.339    0.390   49.120   24.129    0.000
  167.000    0.321    0.399   56.462   23.282    0.000
  167.250    0.304    0.417   58.931   22.054    0.000
  167.500    0.291    0.405   62.009   20.150    0.000
  167.750    0.273    0.408   64.467   19.809    0.000
  168.000    0.259    0.423   66.322   19.476    0.000
  168.250    0.289    0.403   66.958   19.155    0.000
  168.500    0.288    0.395   70.643   19.168    0.000
  168.750    0.288    0.400   67.621   18.502    0.000
  169.000    0.297    0.413   74.965   17.537    0.000
  169.250    0.251    0.402   87.796   16.608    0.000
  169.500    0.225    0.401   90.874   15.745    0.000
  169.750    0.224    0.422   86.023   15.481    0.000
  170.000    0.237    0.445   83.003   15.494    0.000
  170.250    0.271    0.436   81.803   15.240    0.000
  170.500    0.276    0.423   85.488   14.708    0.000
  170.750    0.274    0.415   92.234   14.197    0.000
  171.000    0.276    0.419   94.084   13.446    0.000
  171.250    0.267    0.451  100.205   12.509    0.000
  171.500    0.259    0.454  103.277   11.851    0.000
  171.750    0.249    0.439  105.741   11.232    0.000
  172.000    0.242    0.434  106.985   10.842    0.000
  172.250    0.228    0.442  107.017   10.654    0.000
  172.500    0.219    0.449  105.824   10.674    0.000
  172.750    0.210    0.450  107.070   10.892    0.000
