~VERSION INFORMATION
 VERS.                 2.0:   CWLS LOG ASCII STANDARD -VERSION 2.0
 WRAP.                  NO:   ONE LINE PER DEPTH STEP
~WELL INFORMATION BLOCK
#MNEM.UNIT           DATA                    DESCRIPTION OF MNEMONIC
#---------    -------------------            -------------------------------
# Generated from Intellog Unique Number	CS_73_76/WELL/1040
WELL.         ANDERSON EXPLORATION LTD       : Well_name    - WELL
LOC .         00/06-13-075-12W4/0            : Location     - LOCATION
UWI .         00/06-13-075-12W4/0            : Uwi          - UNIQUE WELL ID
ENTR.         SP                             : Entered      - ENTERED BY
SRVC.         SCHLUMBERGER                   : Scn          - SERVICE COMPANY
STRT.M        295                            : top_depth    - START DEPTH
STOP.M        533                            : bot_depth    - STOP DEPTH
STEP.M        0.25                           : increment    - STEP LENGTH
 NULL. -999.2500:NULL Value
~CURVE INFORMATION BLOCK
#MNEM UNIT       ERCB CURVE CODE    CURVE DESCRIPTION
#-----------   ------------------   ----------------------------------
DEPT.M        00 001 00 00         : DEPTH        - DEPTH
GR  .API      00 310 00 00         : GR           - GAMMA RAY
NPHI.V/V      00 330 00 00         : PHIN         - NEUTRON POROSITY (LIMESTONE)
DPHI.V/V      00 890 00 00         : PHID         - DENSITY POROSITY (LIMESTONE)
ILD .OHMM     00 120 00 00         : RESD         - DEEP RESISTIVITY (DIL)
~PARAMETER INFORMATION
#MNEM.UNIT           DATA             DESCRIPTION OF MNEMONIC
#---------         -----------     ------------------------------
GL  .M        672.6                : gl           - GROUND LEVEL ELEVATION
EREF.M        676.1                : kb           - ELEVATION OF DEPTH REFERENCE
DATM.M        672.6                : datum        - DATUM ELEVATION
TDD .M        533                  : tdd          - TOTAL DEPTH DRILLER
RUN .         ONE                  : Run          - RUN NUMBER
ENG .         BILL                 : Engineer     - RECORDING ENGINEER
WIT .         JIM                  : Witness      - WITNESSED BY
MUD .         GEL                  : Mud_type     - MUD TYPE
MATR.         LIMESTONE            : Logunit      - NEUTRON MATRIX
TMAX.C        23.5                 : BHT          - MAXIMUM RECORDED TEMPERATURE
BHTD.M        533                  : BHTDEP       - MAXIMUM RECORDED TEMPERATURE
MATR.         1                    : LOGUNIT      - NEUTRON MATRIX
RMT .C        25                   : MDTP         - TEMPERATURE OF MUD
NEUT.         1                    : NEUTRON      - NEUTRON TYPE
RESI.         0                    : RESIST       - RESISTIVITY TYPE
RMC .OHMM     0.25                 : RMC          - RESISTIVITY OF MUD CAKE
RMF .OHMM     0.25                 : RMF          - RESISTIVITY OF MUD FILTRATE
SUFT.C        15                   : SUFT         - SURFACE TEMPERATURE
~A  DEPTH       GR     PHIN     PHID     RESD
# ...
  382.000   87.843    0.476    0.252    6.313
  382.250   89.657    0.484    0.233    6.428
  382.500   90.867    0.482    0.265    6.547
  382.750   92.079    0.461    0.258    6.667
  383.000   90.882    0.454    0.240    6.665
  383.250   90.287    0.467    0.245    6.421
  383.500   90.291    0.475    0.235    6.301
  383.750   90.903    0.488    0.230    6.299
  384.000   91.510    0.496    0.231    6.415
  384.250   92.723    0.492    0.234    6.533
  384.500   93.934    0.478    0.232    6.777
  384.750   94.541    0.475    0.230    6.776
  385.000   92.142    0.470    0.225    6.773
  385.250   90.941    0.456    0.214    6.647
  385.500   88.541    0.441    0.203    6.171
  385.750   87.941    0.433    0.185    5.419
  386.000   87.950    0.422    0.163    4.939
  386.250   91.572    0.415    0.185    4.337
  386.500   93.386    0.474    0.219    4.026
  386.750   94.594    0.506    0.214    3.669
  387.000   96.408    0.510    0.208    3.950
  387.250   97.018    0.520    0.220    3.533
  387.500   96.421    0.531    0.231    3.342
  387.750   95.826    0.546    0.223    3.279
  388.000   93.423    0.550    0.237    3.218
  388.250   90.417    0.553    0.248    3.596
  388.500   86.206    0.565    0.264    4.406
  388.750   80.189    0.575    0.275    5.204
  389.000   75.978    0.559    0.283    6.261
  389.250   73.575    0.528    0.287    6.994
  389.500   72.980    0.484    0.292    7.529
  389.750   72.988    0.485    0.286    7.668
  390.000   72.390    0.476    0.274    7.809
  390.250   69.386    0.472    0.272    7.808
  390.500   68.187    0.480    0.284    7.950
  390.750   68.193    0.477    0.286    7.949
  391.000   72.420    0.467    0.298    7.947
  391.250   74.231    0.465    0.316    7.944
  391.500   76.648    0.466    0.297    7.239
  391.750   77.858    0.455    0.288    5.904
  392.000   78.468    0.448    0.284    4.554
  392.250   80.280    0.446    0.300    3.783
  392.500   85.712    0.451    0.305    3.261
  392.750   88.127    0.464    0.282    3.200
  393.000   89.337    0.490    0.267    3.922
  393.250   87.538    0.527    0.255    4.897
  393.500   85.736    0.557    0.261    5.677
  393.750   84.537    0.535    0.253    6.226
  394.000   85.147    0.508    0.248    6.956
  394.250   83.346    0.490    0.248    7.351
  394.500   80.943    0.483    0.245    8.062
  394.750   76.732    0.466    0.244    9.007
  395.000   69.511    0.423    0.249   11.038
  395.250   65.901    0.384    0.209   13.280
  395.500   59.885    0.342    0.081   16.889
  395.750   56.878    0.270    0.032   19.222
  396.000   57.488    0.192    0.109   18.517
  396.250   63.522    0.263    0.157   12.547
  396.500   68.347    0.310    0.187    9.860
  396.750   71.364    0.336    0.231    8.041
  397.000   76.192    0.364    0.268    7.891
  397.250   77.402    0.400    0.290    7.887
  397.500   78.613    0.441    0.298    7.885
  397.750   79.223    0.468    0.279    7.883
  398.000   80.435    0.461    0.268    7.737
  398.250   79.836    0.474    0.271    7.734
  398.500   79.241    0.462    0.273    7.590
  398.750   79.850    0.447    0.271    7.588
  399.000   83.474    0.448    0.267    7.446
  399.250   84.682    0.442    0.264    7.445
  399.500   84.690    0.441    0.260    7.443
  399.750   82.287    0.447    0.265    7.441
  400.000   79.883    0.458    0.272    7.167
  400.250   82.905    0.468    0.262    7.165
  400.500   84.719    0.476    0.250    7.163
  400.750   85.929    0.473    0.244    7.161
  401.000   86.537    0.469    0.255    7.159
  401.250   85.338    0.460    0.265    7.157
  401.500   81.732    0.464    0.265    7.154
  401.750   78.725    0.466    0.263    7.287
  402.000   76.321    0.471    0.279    7.558
  402.250   77.532    0.464    0.288    7.698
  402.500   80.556    0.471    0.279    7.986
  402.750   80.558    0.480    0.271    8.758
  403.000   80.565    0.487    0.254    9.086
  403.250   78.164    0.497    0.239    9.782
  403.500   76.360    0.483    0.258   10.148
  403.750   73.356    0.459    0.282   10.336
  404.000   76.375    0.449    0.273    9.957
  404.250   80.598    0.438    0.248    9.073
  404.500   83.014    0.437    0.235    8.268
  404.750   81.815    0.449    0.239    7.397
  405.000   82.424    0.454    0.249    6.995
  405.250   84.239    0.470    0.238    6.864
  405.500   86.053    0.475    0.230    6.736
  405.750   87.264    0.465    0.215    6.734
  406.000   88.476    0.464    0.205    6.732
  406.250   87.277    0.470    0.207    6.607
  406.500   85.476    0.474    0.232    6.606
  406.750   84.880    0.475    0.234    6.603
  407.000   86.094    0.476    0.246    6.602
  407.250   86.099    0.482    0.245    6.600
  407.500   83.696    0.486    0.262    6.598
  407.750   81.896    0.494    0.247    6.596
  408.000   81.300    0.493    0.249    6.594
  408.250   81.308    0.481    0.261    6.715
  408.500   81.314    0.466    0.267    6.713
  408.750   81.921    0.461    0.270    6.711
  409.000   81.930    0.458    0.270    6.709
  409.250   81.332    0.461    0.262    6.707
  409.500   78.328    0.466    0.269    6.705
  409.750   78.936    0.447    0.267    6.580
  410.000   80.147    0.447    0.257    6.458
  410.250   81.962    0.455    0.246    6.456
  410.500   83.776    0.467    0.238    6.336
  410.750   84.385    0.484    0.234    6.452
  411.000   84.391    0.494    0.227    6.570
  411.250   83.194    0.501    0.235    6.816
  411.500   81.995    0.498    0.246    6.942
  411.750   80.193    0.470    0.253    6.940
  412.000   78.392    0.451    0.250    6.938
  412.250   81.411    0.436    0.246    6.936
  412.500   85.636    0.439    0.239    6.439
  412.750   86.845    0.457    0.235    5.868
  413.000   84.446    0.474    0.248    5.249
  413.250   85.053    0.485    0.257    4.281
  413.500   88.071    0.494    0.262    3.364
  413.750   90.487    0.506    0.271    2.693
  414.000   92.903    0.527    0.274    2.454
  414.250   94.719    0.542    0.271    2.278
  414.500   94.121    0.562    0.286    2.194
  414.750   93.528    0.562    0.281    2.194
  415.000   93.532    0.554    0.276    2.639
  415.250   93.541    0.558    0.270    3.117
  415.500   92.341    0.559    0.257    3.614
  415.750   89.335    0.553    0.245    4.348
  416.000   86.330    0.525    0.256    4.948
  416.250   85.735    0.491    0.263    5.528
  416.500   85.740    0.459    0.262    5.735
  416.750   81.532    0.472    0.252    5.949
  417.000   79.728    0.484    0.250    6.059
  417.250   76.724    0.469    0.269    6.057
  417.500   71.912    0.471    0.276    6.055
  417.750   67.098    0.479    0.294    6.054
  418.000   62.284    0.461    0.307    6.052
  418.250   58.676    0.440    0.317    6.050
  418.500   57.478    0.428    0.333    6.047
  418.750   56.886    0.432    0.322    6.046
  419.000   56.892    0.445    0.320    6.045
  419.250   56.896    0.449    0.330    6.043
  419.500   57.506    0.447    0.322    6.040
  419.750   57.511    0.430    0.317    6.040
  420.000   53.904    0.424    0.330    6.150
  420.250   53.309    0.434    0.339    6.263
  420.500   53.918    0.437    0.330    6.261
  420.750   54.525    0.433    0.321    6.495
  421.000   57.547    0.426    0.330    6.615
  421.250   58.757    0.434    0.340    6.737
  421.500   56.955    0.436    0.317    7.119
  421.750   54.556    0.432    0.297    7.250
  422.000   53.356    0.416    0.285    7.384
  422.250   52.757    0.412    0.278    7.246
  422.500   53.368    0.424    0.266    7.244
  422.750   56.388    0.430    0.274    7.243
  423.000   58.200    0.433    0.297    7.108
  423.250   58.808    0.436    0.305    6.975
  423.500   59.417    0.440    0.305    6.719
  423.750   61.836    0.442    0.311    6.717
  424.000   63.045    0.448    0.312    6.841
  424.250   64.257    0.435    0.300    6.840
  424.500   63.660    0.419    0.284    6.836
  424.750   64.875    0.407    0.258    6.709
  425.000   66.686    0.422    0.224    6.345
  425.250   71.514    0.440    0.231    6.112
