~VERSION INFORMATION
 VERS.                 2.0:   CWLS LOG ASCII STANDARD -VERSION 2.0
 WRAP.                  NO:   ONE LINE PER DEPTH STEP
~WELL INFORMATION BLOCK
#MNEM.UNIT           DATA                    DESCRIPTION OF MNEMONIC
#---------    -------------------            -------------------------------
# Generated from Intellog Unique Number	CW_76_78/WELL/199
WELL.         SULPETRO MARTEN HILLS 04-29    : Well_name    - WELL
LOC .         00/04-29-076-23W4/0            : Location     - LOCATION
UWI .         00/04-29-076-23W4/0            : Uwi          - UNIQUE WELL ID
ENTR.         JAYE                           : Entered      - ENTERED BY
SRVC.         SCHLUMBERGER                   : Scn          - SERVICE COMPANY
DATE.         4 MAR 84                       : Date         - LOG DATE
STRT.M        640                            : top_depth    - START DEPTH
STOP.M        891                            : bot_depth    - STOP DEPTH
STEP.M        0.25                           : increment    - STEP LENGTH
 NULL. -999.2500:NULL Value
~CURVE INFORMATION BLOCK
#MNEM UNIT       ERCB CURVE CODE    CURVE DESCRIPTION
#-----------   ------------------   ----------------------------------
DEPT.M        00 001 00 00         : DEPTH        - DEPTH
ILD .OHMM     00 120 00 00         : RESD         - DEEP RESISTIVITY (DIL)
NPHI.V/V      00 330 00 00         : PHIN         - NEUTRON POROSITY (SANDSTONE)
DPHI.V/V      00 890 00 00         : PHID         - DENSITY POROSITY (SANDSTONE)
GR  .API      00 310 00 00         : GR           - GAMMA RAY
CALI.MM       00 280 01 00         : CAL          - CALIPER
~PARAMETER INFORMATION
#MNEM.UNIT           DATA             DESCRIPTION OF MNEMONIC
#---------         -----------     ------------------------------
GL  .M        935.93               : gl           - GROUND LEVEL ELEVATION
EREF.M        939.4                : kb           - ELEVATION OF DEPTH REFERENCE
DATM.M        935.93               : datum        - DATUM ELEVATION
TDD .M        896                  : tdd          - TOTAL DEPTH DRILLER
RUN .         ONE                  : Run          - RUN NUMBER
MUD .         GEL CHEM             : Mud_type     - MUD TYPE
MATR.         SANDSTONE            : Logunit      - NEUTRON MATRIX
TMAX.C        24                   : BHT          - MAXIMUM RECORDED TEMPERATURE
BHTD.M        891                  : BHTDEP       - MAXIMUM RECORDED TEMPERATURE
RMT .C        14                   : MDTP         - TEMPERATURE OF MUD
MUDD.KG/M     1170                 : MWT          - MUD DENSITY
NEUT.         1                    : NEUTRON      - NEUTRON TYPE
RESI.         0                    : RESIST       - RESISTIVITY TYPE
RM  .OHMM     1.374                : RM           - RESISTIVITY OF MUD
RMC .OHMM     0                    : RMC          - RESISTIVITY OF MUD CAKE
RMF .OHMM     1.642                : RMF          - RESISTIVITY OF MUD FILTRATE
SUFT.C        0                    : SUFT         - SURFACE TEMPERATURE
~A  DEPTH     RESD     PHIN     PHID       GR      CAL
# ...
  822.500    6.525    0.428    0.164   95.764  158.098
  822.750    6.565    0.424    0.155   95.337  156.451
  823.000    6.630    0.398    0.148   94.972  156.986
  823.250    6.729    0.383    0.153   90.431  159.286
  823.500    6.782    0.390    0.144   91.064  160.655
  823.750    6.836    0.401    0.137   90.700  160.877
  824.000    6.866    0.388    0.119   89.151  161.102
  824.250    6.907    0.385    0.110   87.291  160.906
  824.500    6.987    0.387    0.118   89.730  161.130
  824.750    7.017    0.394    0.117   98.401  160.833
  825.000    6.904    0.412    0.162  102.648  160.848
  825.250    6.668    0.412    0.177   98.794  160.862
  825.500    6.204    0.388    0.155   98.678  161.604
  825.750    5.828    0.376    0.179  102.987  162.658
  826.000    5.383    0.385    0.217  102.373  169.528
  826.250    5.029    0.397    0.257   99.827  178.893
  826.500    4.353    0.410    0.248  100.148  174.337
  826.750    3.825    0.432    0.252  100.033  172.691
  827.000    3.155    0.446    0.257   98.609  173.330
  827.250    2.711    0.493    0.300   95.377  174.591
  827.500    2.333    0.593    0.347   95.076  178.864
  827.750    2.148    0.612    0.338   94.585  196.433
  828.000    2.067    0.623    0.361   94.034  205.900
  828.250    2.252    0.578    0.382   90.179  189.193
  828.500    2.953    0.527    0.318   75.793  172.902
  828.750    3.953    0.389    0.277   63.026  158.168
  829.000    6.418    0.361    0.201   54.560  155.171
  829.250    9.322    0.361    0.205   52.824  154.253
  829.500   11.760    0.339    0.204   52.522  153.855
  829.750   12.741    0.317    0.149   49.540  153.141
  830.000   12.374    0.314    0.172   47.492  152.222
  830.250   11.199    0.338    0.211   49.309  151.301
  830.500    9.587    0.335    0.244   51.561  152.044
  830.750    7.982    0.323    0.212   55.496  155.903
  831.000    6.795    0.330    0.159   61.986  160.071
  831.250    5.960    0.420    0.204   73.463  163.721
  831.500    5.256    0.450    0.284   91.856  169.449
  831.750    4.661    0.476    0.328  101.836  179.021
  832.000    4.369    0.493    0.327  100.911  182.048
  832.250    4.387    0.502    0.361   95.685  172.715
  832.500    4.564    0.464    0.295   85.037  164.109
  832.750    5.930    0.411    0.208   72.957  152.804
  833.000    7.579    0.375    0.194   58.508  148.872
  833.250    9.386    0.362    0.224   50.790  148.681
  833.500   10.592    0.364    0.232   43.694  148.801
  833.750   10.756    0.382    0.243   42.706  149.022
  834.000   10.720    0.392    0.239   43.712  149.871
  834.250   10.411    0.355    0.205   48.209  150.298
  834.500    9.998    0.317    0.188   58.064  151.352
  834.750    9.727    0.335    0.194   73.466  153.031
  835.000    9.483    0.377    0.234   78.336  153.876
  835.250    9.057    0.398    0.268   67.502  153.060
  835.500    8.634    0.399    0.289   51.932  150.895
  835.750    8.339    0.396    0.296   45.771  149.353
  836.000    8.008    0.400    0.298   44.596  148.541
  836.250    7.749    0.396    0.294   46.475  147.933
  836.500    7.567    0.381    0.284   49.350  147.841
  836.750    7.390    0.370    0.274   52.663  147.858
  837.000    7.271    0.380    0.273   54.231  148.181
  837.250    7.208    0.387    0.275   55.112  148.509
  837.500    7.169    0.384    0.275   55.931  148.942
  837.750    7.107    0.375    0.272   54.818  149.371
  838.000    7.031    0.366    0.266   55.389  149.698
  838.250    6.982    0.376    0.259   58.264  149.611
  838.500    6.947    0.382    0.253   60.267  149.208
  838.750    6.923    0.379    0.243   60.526  148.394
  839.000    6.914    0.382    0.225   60.100  147.161
  839.250    6.955    0.384    0.228   59.860  145.410
  839.500    7.034    0.380    0.229   59.868  143.453
  839.750    7.131    0.374    0.218   59.877  141.806
  840.000    7.295    0.382    0.206   59.263  142.340
  840.250    7.393    0.376    0.224   59.273  143.394
  840.500    7.521    0.368    0.227   59.468  145.696
  840.750    7.750    0.362    0.219   59.477  147.684
  841.000    8.229    0.343    0.193   58.115  149.154
  841.250    9.082    0.308    0.128   55.632  149.794
  841.500   10.154    0.301    0.123   54.956  149.496
  841.750   11.355    0.306    0.159   55.089  148.889
  842.000   12.816    0.297    0.142   55.660  148.386
  842.250   13.456    0.281    0.107   57.289  148.608
  842.500   13.044    0.283    0.126   60.352  149.350
  842.750   11.894    0.306    0.155   68.400  151.235
  843.000   11.006    0.369    0.154   78.692  152.600
  843.250   10.473    0.457    0.133   94.094  153.551
  843.500   10.097    0.484    0.115   90.738  154.605
  843.750   10.158    0.310    0.110   74.232  155.345
  844.000   11.025    0.264    0.118   67.075  156.817
  844.250   12.306    0.245    0.118   64.653  158.598
  844.500   12.683    0.234    0.112   68.278  160.482
  844.750   10.978    0.317    0.137   76.388  161.639
  845.000    9.192    0.389    0.221   88.736  161.862
  845.250    8.120    0.414    0.278   95.788  160.943
  845.500    7.543    0.393    0.258   90.624  159.815
  845.750    7.150    0.364    0.218   87.580  155.260
  846.000    6.945    0.340    0.180   87.963  154.340
  846.250    7.144    0.368    0.173   85.479  156.225
  846.500    8.138    0.395    0.155   75.330  156.242
  846.750    9.462    0.315    0.118   55.272  152.934
  847.000   11.080    0.200    0.068   46.806  150.974
  847.250   14.057    0.129    0.039   22.386  150.159
  847.500   18.370    0.108    0.008   15.353  150.589
  847.750   23.739    0.104    0.052   20.784  151.539
  848.000   34.416    0.134    0.099   23.350  152.282
  848.250   34.946    0.207    0.120   24.604  152.920
  848.500   29.312    0.225    0.115   26.607  153.142
  848.750   21.873    0.234    0.115   31.976  153.055
  849.000   16.848    0.256    0.207   37.408  150.784
  849.250   11.826    0.367    0.309   43.150  147.372
  849.500    8.302    0.610    0.538   48.768  150.296
  849.750    5.948    0.643    0.560   56.069  155.192
  850.000    4.728    0.682    0.462   85.990  160.920
  850.250    4.123    0.534    0.389   93.665  164.259
  850.500    4.086    0.566    0.384   87.442  160.536
  850.750    4.275    0.606    0.469   79.973  157.435
  851.000    4.700    0.600    0.397   75.246  155.788
  851.250    5.055    0.585    0.333   83.419  160.063
  851.500    5.447    0.584    0.282   88.539  160.494
  851.750    6.001    0.542    0.260   84.621  159.991
  852.000    6.443    0.471    0.255   77.277  158.238
  852.250    6.902    0.417    0.248   78.595  156.904
  852.500    7.219    0.404    0.236   83.091  157.023
  852.750    7.399    0.402    0.289   88.272  157.764
  853.000    7.293    0.434    0.351   94.452  158.299
  853.250    6.602    0.498    0.380   98.387  162.367
  853.500    5.832    0.528    0.407   99.767  171.521
  853.750    5.377    0.515    0.364   99.590  184.312
  854.000    5.108    0.462    0.304   61.209  179.860
  854.250    5.205    0.426    0.292   50.126  157.856
  854.500    5.587    0.403    0.299   50.384  141.255
  854.750    5.943    0.378    0.292   54.880  141.893
  855.000    6.113    0.388    0.287   52.521  142.429
  855.250    6.138    0.387    0.289   50.786  142.962
  855.500    5.973    0.380    0.289   50.670  144.326
  855.750    5.456    0.373    0.297   52.550  146.317
  856.000    4.758    0.359    0.296   52.932  147.372
  856.250    4.378    0.359    0.291   52.318  148.321
  856.500    4.206    0.373    0.295   52.016  148.646
  856.750    4.123    0.375    0.303   52.087  149.700
  857.000    4.249    0.387    0.310   53.405  149.611
  857.250    4.707    0.415    0.322   57.901  148.588
  857.500    5.352    0.437    0.219   65.700  146.630
  857.750    6.373    0.339    0.208   56.237  145.399
  858.000    7.719    0.307    0.199   53.878  144.271
  858.250    9.994    0.276    0.182   55.758  142.936
  858.500   12.171    0.266    0.156   53.959  142.642
  858.750   13.113    0.258    0.102   56.461  143.279
