~VERSION INFORMATION
 VERS.                 2.0:   CWLS LOG ASCII STANDARD -VERSION 2.0
 WRAP.                  NO:   ONE LINE PER DEPTH STEP
~WELL INFORMATION BLOCK
#MNEM.UNIT           DATA                    DESCRIPTION OF MNEMONIC
#---------    -------------------            -------------------------------
# Generated from Intellog Unique Number	CW_73_75/WELL/2730
WELL.         MANNVILLE ET AL MITSUE 07-21   : Well_name    - WELL
LOC .         00/07-21-073-02W5/0            : Location     - LOCATION
UWI .         00/07-21-073-02W5/0            : Uwi          - UNIQUE WELL ID
ENTR.         JAYE                           : Entered      - ENTERED BY
SRVC.         SCHLUMBERGER                   : Scn          - SERVICE COMPANY
DATE.         31 JULY 77                     : Date         - LOG DATE
STRT.M        381                            : top_depth    - START DEPTH
STOP.M        603.5                          : bot_depth    - STOP DEPTH
STEP.M        0.25                           : increment    - STEP LENGTH
 NULL. -999.2500:NULL Value
~CURVE INFORMATION BLOCK
#MNEM UNIT       ERCB CURVE CODE    CURVE DESCRIPTION
#-----------   ------------------   ----------------------------------
DEPT.M        00 001 00 00         : DEPTH        - DEPTH
DPHI.V/V      00 890 00 00         : PHID         - DENSITY POROSITY (SANDSTONE)
NPHI.V/V      00 330 00 00         : PHIN         - NEUTRON POROSITY (SANDSTONE)
GR  .API      00 310 00 00         : GR           - GAMMA RAY
CALI.MM       00 280 01 00         : CAL          - CALIPER
ILD .OHMM     00 120 00 00         : RESD         - DEEP RESISTIVITY (DLL)
~PARAMETER INFORMATION
#MNEM.UNIT           DATA             DESCRIPTION OF MNEMONIC
#---------         -----------     ------------------------------
GL  .M        615.086              : gl           - GROUND LEVEL ELEVATION
EREF.M        618.134              : kb           - ELEVATION OF DEPTH REFERENCE
DATM.M        615.086              : datum        - DATUM ELEVATION
TDD .M        612.648              : tdd          - TOTAL DEPTH DRILLER
RUN .         ONE                  : Run          - RUN NUMBER
ENG .         MACKAY               : Engineer     - RECORDING ENGINEER
WIT .         SPICER               : Witness      - WITNESSED BY
BASE.         EDM                  : Branch       - HOME BASE OF LOGGING UNIT
MUD .         GEL                  : Mud_type     - MUD TYPE
MATR.         SANDSTONE            : Logunit      - NEUTRON MATRIX
TMAX.C        27.2222              : BHT          - MAXIMUM RECORDED TEMPERATURE
BHTD.M        612.953              : BHTDEP       - MAXIMUM RECORDED TEMPERATURE
RMT .C        18.8889              : MDTP         - TEMPERATURE OF MUD
MUDD.KG/M     1128                 : MWT          - MUD DENSITY
NEUT.         1                    : NEUTRON      - NEUTRON TYPE
RESI.         1                    : RESIST       - RESISTIVITY TYPE
RM  .OHMM     5.1                  : RM           - RESISTIVITY OF MUD
RMC .OHMM     0                    : RMC          - RESISTIVITY OF MUD CAKE
RMF .OHMM     6.58                 : RMF          - RESISTIVITY OF MUD FILTRATE
SUFT.C        -17.7778             : SUFT         - SURFACE TEMPERATURE
~A  DEPTH     PHID     PHIN       GR      CAL     RESD
  381.000    0.192    0.513  122.363  188.549    2.187
  381.250    0.167    0.486  120.680  187.069    2.255
  381.500    0.175    0.501  123.976  190.859    2.329
  381.750    0.172    0.527  125.156  193.173    2.410
  382.000    0.159    0.536  123.472  189.585    2.522
  382.250    0.162    0.513  121.727  181.887    2.645
  382.500    0.191    0.515  119.173  184.096    2.866
  382.750    0.176    0.523  112.884  188.413    3.064
  383.000    0.188    0.518  106.347  190.411    3.300
  383.250    0.178    0.487   98.128  188.404    3.475
  383.500    0.190    0.453   96.259  183.130    3.658
  383.750    0.200    0.434   99.741  177.856    3.757
  384.000    0.178    0.437  103.535  174.374    3.615
  384.250    0.143    0.447  106.458  173.210    3.380
  384.500    0.168    0.459  107.514  172.889    3.088
  384.750    0.161    0.484  104.772  172.569    2.833
  385.000    0.195    0.463  100.662  172.354    2.731
  385.250    0.207    0.464  100.597  172.244    2.864
  385.500    0.199    0.484   94.184  170.448    3.363
  385.750    0.205    0.490   84.223  170.127    3.793
  386.000    0.223    0.411   83.349  170.861    4.055
  386.250    0.214    0.405   85.650  172.752    3.947
  386.500    0.213    0.412   93.302  174.541    3.712
  386.750    0.214    0.439   96.536  176.644    3.346
  387.000    0.216    0.460   99.397  180.223    2.983
  387.250    0.206    0.470  104.684  183.170    2.639
  387.500    0.193    0.479  105.367  187.908    2.356
  387.750    0.208    0.501  106.111  193.384    2.207
  388.000    0.224    0.583  107.228  196.120    2.293
  388.250    0.239    0.598  106.168  192.743    2.661
  388.500    0.258    0.578   97.887  181.567    3.143
  388.750    0.275    0.514   89.918  170.391    3.711
  389.000    0.296    0.451   81.202  165.327    4.391
  389.250    0.272    0.420   73.233  164.164    4.962
  389.500    0.236    0.397   72.546  163.316    5.825
  389.750    0.209    0.390   75.966  162.996    6.508
  390.000    0.171    0.418   74.096  162.886    6.957
  390.250    0.165    0.439   64.571  162.987    7.076
  390.500    0.258    0.434   59.465  163.088    6.822
  390.750    0.296    0.429   62.699  163.190    6.564
  391.000    0.302    0.440   66.119  162.869    6.150
  391.250    0.299    0.445   67.362  162.548    5.895
  391.500    0.279    0.407   66.799  162.859    5.618
  391.750    0.189    0.379   67.854  163.382    5.344
  392.000    0.161    0.352   70.092  163.905    4.949
  392.250    0.133    0.325   74.571  164.322    4.699
  392.500    0.134    0.371   78.552  164.318    4.261
  392.750    0.168    0.440   83.155  163.681    3.849
  393.000    0.228    0.455   88.069  163.360    3.511
  393.250    0.255    0.446   92.237  163.146    3.314
  393.500    0.275    0.436   98.458  163.141    3.147
  393.750    0.239    0.455  105.426  169.987    3.080
  394.000    0.210    0.467  113.266  176.096    3.109
  394.250    0.185    0.475  114.757  178.199    3.199
  394.500    0.172    0.482  118.115  174.401    3.407
  394.750    0.203    0.480  122.221  172.289    3.635
  395.000    0.229    0.464  128.256  182.191    3.864
  395.250    0.198    0.447  125.825  177.549    4.146
  395.500    0.188    0.428  119.537  171.748    4.492
  395.750    0.163    0.424  108.393  167.633    4.711
  396.000    0.203    0.434   93.329  166.154    4.792
  396.250    0.176    0.433   83.243  164.989    4.764
  396.500    0.182    0.435   69.548  164.564    4.610
  396.750    0.204    0.438   55.977  163.611    4.462
  397.000    0.268    0.433   55.912  162.974    4.268
  397.250    0.290    0.426   58.212  162.760    4.084
  397.500    0.297    0.417   62.007  162.755    3.930
  397.750    0.262    0.403   66.299  162.855    3.774
  398.000    0.245    0.407   68.039  163.168    3.652
  398.250    0.229    0.418   61.563  163.374    3.528
  398.500    0.240    0.425   52.847  163.263    3.473
  398.750    0.282    0.413   48.425  163.155    3.440
  399.000    0.294    0.413   49.108  163.255    3.426
  399.250    0.293    0.413   51.096  163.461    3.451
  399.500    0.293    0.414   54.641  163.353    3.565
  399.750    0.279    0.414   57.129  162.821    3.731
  400.000    0.270    0.414   60.736  162.500    3.906
  400.250    0.262    0.413   62.849  162.180    4.112
  400.500    0.252    0.404   63.407  161.753    4.576
  400.750    0.235    0.384   64.463  161.538    5.073
  401.000    0.215    0.354   65.705  162.062    5.402
  401.250    0.191    0.318   61.594  161.741    5.633
  401.500    0.157    0.287   64.828  161.630    5.359
  401.750    0.158    0.291   69.369  161.310    4.982
  402.000    0.203    0.346   74.657  160.673    4.703
  402.250    0.237    0.376   78.887  160.143    4.380
  402.500    0.254    0.406   83.739  160.033    4.003
  402.750    0.239    0.413   88.840  159.606    3.771
  403.000    0.236    0.413   95.559  160.024    3.486
  403.250    0.241    0.406  110.183  161.601    3.278
  403.500    0.227    0.425  120.636  165.074    3.065
  403.750    0.203    0.483  128.663  170.866    2.866
  404.000    0.160    0.518  133.950  190.781    2.954
  404.250    0.179    0.515  137.122  182.134    3.087
  404.500    0.189    0.524  134.755  178.231    3.468
  404.750    0.156    0.530  115.395  191.190    3.911
  405.000    0.178    0.461  104.376  183.492    4.557
  405.250    0.210    0.429   90.121  174.950    4.995
  405.500    0.187    0.399   55.015  168.622    5.339
  405.750    0.262    0.381   49.162  163.243    5.643
  406.000    0.278    0.364   47.666  160.815    6.184
  406.250    0.291    0.374   46.730  160.283    6.975
  406.500    0.294    0.382   40.130  160.278    7.287
  406.750    0.277    0.362   39.754  160.169    6.905
  407.000    0.305    0.364   42.365  160.270    6.202
  407.250    0.297    0.372   46.470  160.687    5.465
  407.500    0.286    0.377   49.455  160.787    4.626
  407.750    0.272    0.366   54.121  160.784    3.931
  408.000    0.296    0.372   59.346  160.779    3.172
  408.250    0.272    0.382   65.443  160.773    3.123
  408.500    0.282    0.364   73.905  160.981    3.269
  408.750    0.267    0.361   84.981  160.872    3.455
  409.000    0.252    0.361   94.501  160.972    3.630
  409.250    0.232    0.370  105.142  160.968    3.756
  409.500    0.211    0.388  106.073  161.702    3.835
  409.750    0.194    0.403  110.053  163.804    3.894
  410.000    0.182    0.412  115.714  165.171    3.968
  410.250    0.169    0.433  120.318  166.642    4.036
  410.500    0.205    0.421  124.361  168.008    4.097
  410.750    0.188    0.431  120.375  168.952    4.160
  411.000    0.194    0.421  116.078  169.368    4.247
  411.250    0.218    0.434  111.532  169.259    4.271
  411.500    0.202    0.448  107.235  169.150    4.102
  411.750    0.202    0.439  107.170  169.356    3.909
  412.000    0.226    0.432  116.565  170.089    3.445
  412.250    0.214    0.437  126.086  171.560    2.882
  412.500    0.197    0.451  132.307  173.137    2.217
  412.750    0.183    0.469  138.279  176.821    2.217
  413.000    0.165    0.490  135.102  180.506    2.524
  413.250    0.161    0.511  129.872  181.555    2.992
  413.500    0.199    0.476  124.765  177.862    3.407
  413.750    0.217    0.442  118.974  173.010    3.977
  414.000    0.222    0.427  112.063  169.106    4.046
  414.250    0.193    0.411  106.957  166.150    3.923
  414.500    0.214    0.415  100.980  164.987    3.789
  414.750    0.210    0.431   91.392  163.507    3.667
  415.000    0.218    0.424   82.302  161.816    3.549
  415.250    0.258    0.434   74.707  160.969    3.415
  415.500    0.246    0.448   66.489  160.227    3.356
  415.750    0.258    0.444   64.619  159.800    3.336
  416.000    0.301    0.432   67.790  159.374    3.367
  416.250    0.276    0.440   70.464  159.054    3.418
  416.500    0.257    0.448   73.138  158.839    3.504
  416.750    0.244    0.434   72.762  158.308    3.598
  417.000    0.234    0.416   71.639  157.881    3.646
  417.250    0.224    0.405   73.628  158.194    3.562
