~VERSION INFORMATION
 VERS.                 2.0:   CWLS LOG ASCII STANDARD -VERSION 2.0
 WRAP.                  NO:   ONE LINE PER DEPTH STEP
~WELL INFORMATION BLOCK
#MNEM.UNIT           DATA                    DESCRIPTION OF MNEMONIC
#---------    -------------------            -------------------------------
# Generated from Intellog Unique Number	CS_77_79/WELL/873
WELL.         CDN-SUP PORTAGE                : Well_name    - WELL
LOC .         00/06-12-078-15W4/0            : Location     - LOCATION
UWI .         00/06-12-078-15W4/0            : Uwi          - UNIQUE WELL ID
ENTR.         JHS                            : Entered      - ENTERED BY
SRVC.         SCHLUMBERGER                   : Scn          - SERVICE COMPANY
STRT.M        220                            : top_depth    - START DEPTH
STOP.M        459                            : bot_depth    - STOP DEPTH
STEP.M        0.25                           : increment    - STEP LENGTH
 NULL. -999.2500:NULL Value
~CURVE INFORMATION BLOCK
#MNEM UNIT       ERCB CURVE CODE    CURVE DESCRIPTION
#-----------   ------------------   ----------------------------------
DEPT.M        00 001 00 00         : DEPTH        - DEPTH
DPHI.V/V      00 890 00 00         : PHID         - DENSITY POROSITY (LIMESTONE)
NPHI.V/V      00 330 00 00         : PHIN         - NEUTRON POROSITY (LIMESTONE)
GR  .API      00 310 00 00         : GR           - GAMMA RAY
ILD .OHMM     00 120 00 00         : RESD         - DEEP RESISTIVITY (DIL)
~PARAMETER INFORMATION
#MNEM.UNIT           DATA             DESCRIPTION OF MNEMONIC
#---------         -----------     ------------------------------
GL  .M        620.5                : gl           - GROUND LEVEL ELEVATION
EREF.M        624.85               : kb           - ELEVATION OF DEPTH REFERENCE
DATM.M        624.85               : datum        - DATUM ELEVATION
TDD .M        506                  : tdd          - TOTAL DEPTH DRILLER
RUN .         ONE                  : Run          - RUN NUMBER
ENG .         BILL                 : Engineer     - RECORDING ENGINEER
WIT .         JIM                  : Witness      - WITNESSED BY
MUD .         GEL                  : Mud_type     - MUD TYPE
MATR.         LIMESTONE            : Logunit      - NEUTRON MATRIX
TMAX.C        23                   : BHT          - MAXIMUM RECORDED TEMPERATURE
BHTD.M        506                  : BHTDEP       - MAXIMUM RECORDED TEMPERATURE
MATR.         1                    : LOGUNIT      - NEUTRON MATRIX
RMT .C        25                   : MDTP         - TEMPERATURE OF MUD
NEUT.         1                    : NEUTRON      - NEUTRON TYPE
RESI.         0                    : RESIST       - RESISTIVITY TYPE
RMC .OHMM     0.25                 : RMC          - RESISTIVITY OF MUD CAKE
RMF .OHMM     0.25                 : RMF          - RESISTIVITY OF MUD FILTRATE
SUFT.C        15                   : SUFT         - SURFACE TEMPERATURE
~A  DEPTH     PHID     PHIN       GR     RESD
# ...
  437.500    0.129    0.380   88.897   12.745
  437.750    0.080    0.348   85.835   12.282
  438.000    0.057    0.331   82.160   13.251
  438.250    0.138    0.343   72.363   14.566
  438.500    0.201    0.387   67.463   16.627
  438.750    0.218    0.380   64.401   19.708
  439.000    0.224    0.379   63.175   24.258
  439.250    0.249    0.414   52.765   35.367
  439.500    0.248    0.385   55.825   39.620
  439.750    0.237    0.375   69.293   41.160
  440.000    0.234    0.376   74.190   38.927
  440.250    0.224    0.368   75.412   35.449
  440.500    0.210    0.369   73.575   29.388
  440.750    0.205    0.376   72.961   26.263
  441.000    0.202    0.378   74.796   21.366
  441.250    0.181    0.365   81.529   19.457
  441.500    0.158    0.358   84.590   17.068
  441.750    0.145    0.342   85.812   15.543
  442.000    0.137    0.332   88.872   14.155
  442.250    0.126    0.343   94.381   12.892
  442.500    0.113    0.362  100.502   11.966
  442.750    0.109    0.348   96.215   11.529
  443.000    0.115    0.351   94.989   11.323
  443.250    0.115    0.364  100.498   11.117
  443.500    0.114    0.356   96.823   11.336
  443.750    0.118    0.338   90.087   12.230
  444.000    0.140    0.335   76.616   13.194
  444.250    0.158    0.325   68.656   14.235
  444.500    0.174    0.321   63.756   15.355
  444.750    0.172    0.326   64.979   16.567
  445.000    0.179    0.326   63.753   17.871
  445.250    0.186    0.335   61.303   18.922
  445.500    0.179    0.346   61.302   19.662
  445.750    0.174    0.332   68.647   20.047
  446.000    0.173    0.329   69.258   19.687
  446.250    0.172    0.332   63.746   19.695
  446.500    0.164    0.340   63.745   19.342
  446.750    0.153    0.335   69.866   19.352
  447.000    0.152    0.327   64.967   19.363
  447.250    0.162    0.323   60.680   18.661
  447.500    0.156    0.319   71.087   17.318
  447.750    0.141    0.320   80.881   16.069
  448.000    0.124    0.323   87.002   14.363
  448.250    0.102    0.323   94.960   13.839
  448.500    0.107    0.314  106.591   13.088
  448.750    0.116    0.313  113.324   12.379
  449.000    0.121    0.319  115.159   12.389
  449.250    0.116    0.329  118.832   12.392
  449.500    0.110    0.339  118.218   12.401
  449.750    0.108    0.347  114.543   12.406
  450.000    0.115    0.336  112.093   12.414
  450.250    0.125    0.330  106.581   12.657
  450.500    0.132    0.343  102.294   12.905
  450.750    0.145    0.341   98.619   13.411
  451.000    0.148    0.336   98.005   13.672
  451.250    0.116    0.339   99.841   13.940
  451.500    0.107    0.347   99.839   13.690
  451.750    0.121    0.366  101.675   13.698
  452.000    0.152    0.352  104.122   13.452
  452.250    0.142    0.313  104.733   13.209
  452.500    0.126    0.310  104.731   13.216
  452.750    0.115    0.325  104.118   13.224
  453.000    0.123    0.358  104.116   13.484
  453.250    0.142    0.355  103.503   13.747
  453.500    0.134    0.341  103.502   13.755
  453.750    0.124    0.330  103.500   13.762
  454.000    0.125    0.325  103.499   13.772
  454.250    0.132    0.323  102.885   13.779
  454.500    0.150    0.323  102.883   13.790
  454.750    0.155    0.323  102.882   14.061
  455.000    0.153    0.324  102.881   13.806
  455.250    0.161    0.325  102.880   13.558
  455.500    0.167    0.325  102.878   13.565
  455.750    0.157    0.324  103.489   13.318
  456.000    0.148    0.323  103.487   13.581
  456.250    0.150    0.324  103.486   13.592
  456.500    0.140    0.325  103.485   13.598
  456.750    0.131    0.324  104.096   13.606
  457.000    0.120    0.324  104.094   13.612
  457.250    0.114    0.320  104.093   13.620
  457.500    0.147    0.317  104.092   13.629
  457.750    0.193    0.313  104.090   13.639
  458.000    0.253    0.314  104.088   13.645
  458.250    0.126    0.323  104.087   13.655
  458.500    0.036    0.329  103.473   13.922
  458.750    0.006    0.330  103.472   14.197
  459.000    0.000    0.315  103.471   14.205
