~VERSION INFORMATION
 VERS.                 2.0:   CWLS LOG ASCII STANDARD -VERSION 2.0
 WRAP.                  NO:   ONE LINE PER DEPTH STEP
~WELL INFORMATION BLOCK
#MNEM.UNIT           DATA                    DESCRIPTION OF MNEMONIC
#---------    -------------------            -------------------------------
# Generated from Intellog Unique Number	CW_70_72/WELL/901
NULL.         -999.25                        : NULL_VALUE
WELL.         HOME ALMX MITSUE 07-15         : Well_name    - WELL              
LOC .         07-15-071-04W5                 : Location     - LOCATION          
UWI .         00/07-15-071-04W5/0            : Uwi          - UNIQUE WELL ID    
ENTR.         JAYE                           : Entered      - ENTERED BY        
SRVC.         SCHLUMBERGER                   : Scn          - SERVICE COMPANY   
DATE.         4 MAR 74                       : Date         - LOG DATE          
STRT.M        502.92                         : top_depth    - START DEPTH       
STOP.M        716.17                         : bot_depth    - STOP DEPTH        
STEP.M        0.25                           : increment    - STEP LENGTH       
~CURVE INFORMATION BLOCK
#MNEM UNIT       ERCB CURVE CODE    CURVE DESCRIPTION
#-----------   ------------------   ----------------------------------
DEPT.M        00 001 00 00         : DEPTH        - DEPTH                       
DPHI.V/V      00 890 00 00         : PHID         - DENSITY POROSITY (SANDSTONE)
NPHI.V/V      00 330 00 00         : PHIN         - NEUTRON POROSITY (SANDSTONE)
GR  .API      00 310 00 00         : GR           - GAMMA RAY                   
CALI.MM       00 280 01 00         : CAL          - CALIPER                     
ILD .OHMM     00 120 00 00         : RESD         - DEEP RESISTIVITY (DIL)      
~PARAMETER INFORMATION       
#MNEM.UNIT           DATA             DESCRIPTION OF MNEMONIC
#---------         -----------     ------------------------------
GL  .M        667.36               : gl           - GROUND LEVEL ELEVATION      
EREF.M        671.474              : kb           - ELEVATION OF DEPTH REFERENCE
DATM.M        667.36               : datum        - DATUM ELEVATION             
TDD .M        759.866              : tdd          - TOTAL DEPTH DRILLER         
RUN .         ONE                  : Run          - RUN NUMBER                  
ENG .         SIROIS               : Engineer     - RECORDING ENGINEER          
WIT .         HOLAN                : Witness      - WITNESSED BY                
BASE.         EDM                  : Branch       - HOME BASE OF LOGGING UNIT   
MUD .         GEL CHEM             : Mud_type     - MUD TYPE                    
MATR.         SANDSTONE            : Logunit      - NEUTRON MATRIX              
TMAX.C        28.3333              : BHT          - MAXIMUM RECORDED TEMPERATURE
BHTD.M        758.952              : BHTDEP       - MAXIMUM RECORDED TEMPERATURE
RMT .C        13.8889              : MDTP         - TEMPERATURE OF MUD          
MUDD.KG/M     1080                 : MWT          - MUD DENSITY                 
NEUT.         1                    : NEUTRON      - NEUTRON TYPE                
RESI.         0                    : RESIST       - RESISTIVITY TYPE            
RM  .OHMM     6.28                 : RM           - RESISTIVITY OF MUD          
RMC .OHMM     3.8                  : RMC          - RESISTIVITY OF MUD CAKE     
RMF .OHMM     7.5                  : RMF          - RESISTIVITY OF MUD FILTRATE 
SUFT.C        -17.7778             : SUFT         - SURFACE TEMPERATURE         
~A  DEPTH     PHID     PHIN       GR      CAL     RESD
# ...
  539.420    0.226    0.448   66.418  162.534    2.366
  539.670    0.226    0.420   65.749  162.227    2.360
  539.920    0.247    0.394   60.431  162.025    2.350
  540.170    0.260    0.407   55.786  161.823    2.356
  540.420    0.239    0.444   57.929  161.413    2.420
  540.670    0.237    0.451   60.683  161.107    2.477
  540.920    0.244    0.431   61.726  160.903    2.539
  541.170    0.223    0.419   62.524  160.702    2.584
  541.420    0.193    0.413   63.993  160.706    2.615
  541.670    0.203    0.432   66.625  160.916    2.632
  541.920    0.257    0.447   68.279  161.025    2.611
  542.170    0.251    0.439   69.138  161.339    2.539
  542.420    0.239    0.438   69.385  161.448    2.477
  542.670    0.239    0.438   72.567  161.348    2.382
  542.920    0.249    0.482   75.383  161.145    2.328
  543.170    0.239    0.488   74.713  161.046    2.297
  543.420    0.228    0.484   73.981  160.947    2.295
  543.670    0.217    0.507   75.146  160.848    2.302
  543.920    0.205    0.491   77.105  160.749    2.304
  544.170    0.203    0.460   80.226  160.649    2.319
  544.420    0.195    0.477   83.592  160.654    2.326
  544.670    0.181    0.470   87.875  160.867    2.337
  544.920    0.193    0.461   89.346  161.183    2.348
  545.170    0.187    0.463   88.003  161.288    2.363
  545.420    0.186    0.457   85.192  161.915    2.357
  545.670    0.198    0.455   81.771  162.126    2.347
  545.920    0.211    0.469   77.493  162.440    2.311
  546.170    0.210    0.464   78.290  162.548    2.251
  546.420    0.203    0.472   81.106  162.760    2.192
  546.670    0.193    0.499   85.694  162.661    2.155
  546.920    0.168    0.515   83.435  162.562    2.142
  547.170    0.188    0.518   79.279  162.773    2.163
  547.420    0.214    0.475   74.634  162.778    2.263
  547.670    0.237    0.433   69.317  162.575    2.402
  547.920    0.251    0.418   64.611  162.270    2.582
  548.170    0.251    0.407   65.287  162.169    2.822
  548.420    0.178    0.396   64.738  161.967    3.147
  548.670    0.107    0.372   58.198  161.868    3.614
  548.920    0.071    0.317   51.046  161.871    4.249
  549.170    0.113    0.264   48.847  161.980    4.601
  549.420    0.157    0.313   49.094  161.984    3.922
  549.670    0.227    0.387   51.237  162.196    3.324
  549.920    0.282    0.380   48.366  162.304    2.751
  550.170    0.282    0.377   46.411  162.516    2.366
  550.420    0.286    0.381   46.109  162.520    2.091
  550.670    0.295    0.394   46.172  162.421    1.928
  550.920    0.303    0.404   46.175  162.631    1.831
  551.170    0.300    0.413   46.177  163.154    1.806
  551.420    0.297    0.420   46.852  163.262    1.788
  551.670    0.295    0.426   47.772  163.473    1.783
  551.920    0.292    0.427   48.203  163.478    1.782
  552.170    0.297    0.418   47.900  163.275    1.788
  552.420    0.288    0.407   47.535  163.175    1.792
  552.670    0.301    0.448   46.865  163.076    1.798
  552.920    0.303    0.458   46.317  163.080    1.813
  553.170    0.295    0.456   46.809  163.086    1.845
  553.420    0.314    0.449   46.323  163.089    1.888
  553.670    0.300    0.439   46.570  163.093    1.911
  553.920    0.302    0.423   47.979  162.788    1.933
  554.170    0.302    0.414   50.183  162.378    1.979
  554.420    0.298    0.425   52.937  162.071    2.021
  554.670    0.291    0.440   55.202  161.558    2.079
  554.920    0.282    0.432   54.899  161.251    2.140
  555.170    0.262    0.428   56.124  161.359    2.194
  555.420    0.275    0.450   58.023  161.571    2.236
  555.670    0.273    0.443   59.371  161.782    2.280
  555.920    0.251    0.448   60.291  162.408    2.329
  556.170    0.239    0.452   61.883  163.241    2.379
  556.420    0.254    0.428   65.065  163.452    2.493
  556.670    0.265    0.412   70.571  163.767    2.655
  556.920    0.264    0.468   77.545  164.910    2.994
  557.170    0.228    0.521   91.857  167.607    3.302
  557.420    0.263    0.549   94.794  170.510    3.609
  557.670    0.225    0.518   88.865  173.621    3.880
  557.920    0.237    0.492   82.753  165.446    4.022
  558.170    0.270    0.478   80.371  160.376    3.989
  558.420    0.231    0.461   81.291  160.071    3.871
  558.670    0.248    0.464   80.988  159.764    3.609
  558.920    0.226    0.485   79.339  159.872    3.425
  559.170    0.241    0.461   75.489  160.083    3.264
  559.420    0.259    0.446   71.334  160.087    3.127
  559.670    0.269    0.432   71.153  160.402    3.062
  559.920    0.254    0.425   73.173  161.028    3.122
  560.170    0.236    0.404   77.456  164.346    3.302
  560.420    0.215    0.416   74.279  166.318    3.537
  560.670    0.195    0.478   69.145  168.082    3.782
  560.920    0.199    0.504   76.730  169.743    4.103
  561.170    0.169    0.536   84.377  169.126    4.388
  561.420    0.263    0.554   89.699  167.370    4.556
  561.670    0.293    0.583   93.493  168.307    4.644
  561.920    0.308    0.629   83.100  168.829    4.700
  562.170    0.254    0.493   79.434  169.352    4.637
  562.420    0.227    0.497   83.289  169.666    4.516
  562.670    0.245    0.500   90.018  169.774    4.249
  562.920    0.243    0.439   95.096  169.986    3.818
  563.170    0.159    0.423   93.814  174.753    3.425
  563.420    0.186    0.474   91.065  179.727    3.044
  563.670    0.211    0.603   85.320  169.377    2.671
  563.920    0.281    0.527   75.661  163.376    2.370
  564.170    0.289    0.446   65.757  162.241    2.130
  564.420    0.280    0.410   52.123  162.246    1.971
  564.670    0.273    0.391   45.155  162.561    2.028
  564.920    0.281    0.399   44.424  162.772    2.389
  565.170    0.273    0.395   43.937  162.880    2.855
  565.420    0.213    0.404   43.389  163.195    3.407
  565.670    0.174    0.413   41.679  163.614    3.992
  565.920    0.086    0.342   38.502  163.722    4.878
  566.170    0.090    0.249   36.976  163.830    4.768
  566.420    0.123    0.205   36.245  163.730    4.064
  566.670    0.170    0.215   37.960  163.528    3.425
  566.920    0.221    0.239   40.286  163.429    2.946
  567.170    0.259    0.272   42.428  163.432    2.470
  567.420    0.282    0.346   45.122  163.437    2.116
  567.670    0.270    0.390   47.754  163.442    1.969
  567.920    0.256    0.382   49.163  163.446    2.008
  568.170    0.262    0.401   51.061  163.554    2.062
  568.420    0.286    0.414   54.855  164.180    2.145
  568.670    0.274    0.425   59.505  164.081    2.219
  568.920    0.264    0.435   60.058  163.774    2.275
  569.170    0.271    0.426   54.801  163.571    2.302
  569.420    0.263    0.412   50.157  163.161    2.309
  569.670    0.255    0.402   50.343  162.959    2.329
  569.920    0.267    0.414   52.547  162.653    2.344
  570.170    0.260    0.407   55.913  162.451    2.355
  570.420    0.267    0.416   54.264  162.351    2.340
  570.670    0.269    0.412   51.270  162.149    2.292
  570.920    0.247    0.397   47.237  161.945    2.236
  571.170    0.266    0.383   42.286  161.434    2.170
  571.420    0.264    0.370   43.328  161.229    2.110
  571.670    0.266    0.373   45.105  161.440    2.063
  571.920    0.255    0.387   45.352  161.652    2.046
  572.170    0.260    0.403   43.825  162.174    2.037
  572.420    0.261    0.406   44.929  162.386    2.028
  572.670    0.274    0.394   44.809  162.079    2.022
  572.920    0.284    0.395   41.448  161.980    2.002
  573.170    0.290    0.391   39.066  162.399    1.983
  573.420    0.273    0.385   37.295  162.818    1.967
  573.670    0.261    0.378   35.953  163.339    1.954
  573.920    0.257    0.384   37.239  164.172    1.960
  574.170    0.261    0.376   38.587  164.590    2.002
  574.420    0.243    0.367   41.770  165.009    2.172
  574.670    0.239    0.361   46.053  165.428    2.440
  574.920    0.228    0.351   54.005  166.364    2.843
  575.170    0.204    0.337   67.154  167.611    3.411
  575.420    0.181    0.374   84.890  168.755    4.161
  575.670    0.171    0.406   89.907  169.898    4.992
