~VERSION INFORMATION
 VERS.                 2.0:   CWLS LOG ASCII STANDARD -VERSION 2.0
 WRAP.                  NO:   ONE LINE PER DEPTH STEP
~WELL INFORMATION BLOCK
#MNEM.UNIT           DATA                    DESCRIPTION OF MNEMONIC
#---------    -------------------            -------------------------------
# Generated from Intellog Unique Number	CS_77_79/WELL/3272
WELL.         ALLIED ROXANA MINERALS LTD.    : Well_name    - WELL
LOC .         00/06-03-078-16W4/0            : Location     - LOCATION
UWI .         00/06-03-078-16W4/0            : Uwi          - UNIQUE WELL ID
ENTR.         JOETTE                         : Entered      - ENTERED BY
SRVC.         SCHLUMBERGER                   : Scn          - SERVICE COMPANY
DATE.         08-24-92                       : Date         - LOG DATE
STRT.M        243.84                         : top_depth    - START DEPTH
STOP.M        467.84                         : bot_depth    - STOP DEPTH
STEP.M        0.25                           : increment    - STEP LENGTH
 NULL. -999.2500:NULL Value
~CURVE INFORMATION BLOCK
#MNEM UNIT       ERCB CURVE CODE    CURVE DESCRIPTION
#-----------   ------------------   ----------------------------------
DEPT.M        00 001 00 00         : DEPTH        - DEPTH
ILD .OHMM     00 120 00 00         : RESD         - DEEP RESISTIVITY (DIL)
NPHI.V/V      00 330 00 00         : PHIN         - NEUTRON POROSITY (SANDSTONE)
GR  .API      00 310 00 00         : GR           - GAMMA RAY
~PARAMETER INFORMATION
#MNEM.UNIT           DATA             DESCRIPTION OF MNEMONIC
#---------         -----------     ------------------------------
GL  .M        631.85               : gl           - GROUND LEVEL ELEVATION
EREF.M        634.898              : kb           - ELEVATION OF DEPTH REFERENCE
DATM.M        634.898              : datum        - DATUM ELEVATION
TDD .M        472.135              : tdd          - TOTAL DEPTH DRILLER
RUN .         ONE                  : Run          - RUN NUMBER
ENG .         BILL                 : Engineer     - RECORDING ENGINEER
WIT .         JIM                  : Witness      - WITNESSED BY
MUD .         GEL                  : Mud_type     - MUD TYPE
MATR.         SANDSTONE            : Logunit      - NEUTRON MATRIX
TMAX.C        17.7778              : BHT          - MAXIMUM RECORDED TEMPERATURE
BHTD.M        472.135              : BHTDEP       - MAXIMUM RECORDED TEMPERATURE
MATR.         1                    : LOGUNIT      - NEUTRON MATRIX
RMT .C        17.7778              : MDTP         - TEMPERATURE OF MUD
NEUT.         1                    : NEUTRON      - NEUTRON TYPE
RESI.         0                    : RESIST       - RESISTIVITY TYPE
RMC .OHMM     1.93                 : RMC          - RESISTIVITY OF MUD CAKE
RMF .OHMM     1.93                 : RMF          - RESISTIVITY OF MUD FILTRATE
SUFT.C        15                   : SUFT         - SURFACE TEMPERATURE
~A  DEPTH     RESD     PHIN       GR
# ...
  352.340   11.773    0.294   64.556
  352.590   13.405    0.234   62.080
  352.840   15.650    0.227   61.421
  353.090   18.100    0.251   58.953
  353.340   20.550    0.325   57.699
  353.590   20.945    0.406   63.166
  353.840   19.701    0.360   69.856
  354.090   17.226    0.314   63.103
  354.340   14.949    0.287   55.119
  354.590   14.738    0.304   53.857
  354.840   14.722    0.330   56.269
  355.090   13.888    0.362   59.911
  355.340   13.054    0.413   62.316
  355.590   11.605    0.437   62.284
  355.840    9.745    0.451   64.704
  356.090    9.114    0.467   68.338
  356.340    8.893    0.477   70.751
  356.590    8.883    0.516   73.155
  356.840    8.871    0.536   74.353
  357.090    8.855    0.515   76.154
  357.340    9.050    0.509   76.733
  357.590    9.240    0.500   77.304
  357.840    9.230    0.513   77.264
  358.090    9.218    0.519   77.240
  358.340    8.993    0.525   80.875
  358.590    8.772    0.502   84.509
  358.840    8.557    0.488   82.644
  359.090    8.343    0.500   80.771
  359.340    7.913    0.517   80.136
  359.590    7.904    0.533   80.104
  359.840    7.894    0.553   79.453
  360.090    8.084    0.546   80.032
  360.340    8.478    0.553   80.611
  360.590    8.469    0.556   81.801
  360.840    8.661    0.522   82.380
  361.090    8.645    0.494   82.340
  361.340    8.427    0.497   81.689
  361.590    8.415    0.523   81.673
  361.840    8.197    0.528   82.244
  362.090    7.777    0.531   84.037
  362.340    7.347    0.549   84.022
  362.590    7.129    0.602   85.807
  362.840    7.120    0.603   85.783
  363.090    7.104    0.578   85.132
  363.340    7.091    0.532   85.092
  363.590    7.284    0.552   85.076
  363.840    7.476    0.547   85.655
  364.090    7.467    0.522   86.845
  364.340    7.656    0.535   88.027
  364.590    7.644    0.587   90.447
  364.840    7.631    0.571   91.629
  365.090    7.618    0.561   90.987
  365.340    7.606    0.565   91.566
  365.590    7.593    0.552   92.748
  365.840    7.372    0.552   89.668
  366.090    7.154    0.555   87.192
  366.340    6.930    0.561   85.938
  366.590    6.715    0.592   85.898
  366.840    6.705    0.604   85.858
  367.090    6.898    0.592   86.445
  367.340    7.090    0.560   86.405
  367.590    7.488    0.549   86.373
  367.840    7.681    0.555   85.730
  368.090    8.075    0.564   83.865
  368.340    8.265    0.525   82.611
  368.590    8.464    0.497   80.143
  368.840    9.060    0.465   74.603
  369.090    9.458    0.483   70.897
  369.340    9.853    0.537   67.818
  369.590   10.052    0.504   65.952
  369.840   10.655    0.492   66.523
  370.090   11.460    0.478   66.492
  370.340   12.059    0.483   63.404
  370.590   12.255    0.483   61.539
  370.840   12.448    0.488   60.285
  371.090   12.438    0.477   59.642
  371.340   12.422    0.474   60.221
  371.590   12.198    0.484   61.411
  371.840   11.983    0.496   61.990
  372.090   11.974    0.505   62.569
  372.340   11.541    0.514   64.363
  372.590   11.326    0.510   68.608
  372.840   10.909    0.509   69.790
  373.090    9.864    0.504   68.528
  373.340    9.650    0.491   67.290
  373.590   10.458    0.470   65.417
  373.840   11.055    0.466   65.996
  374.090   11.048    0.455   64.131
  374.340   11.032    0.405   59.813
  374.590   10.606    0.382   61.004
  374.840   10.391    0.376   64.035
  375.090   10.177    0.402   67.058
  375.340    9.952    0.429   67.026
  375.590    9.943    0.504   63.931
  375.840   10.129    0.522   67.573
  376.090   10.328    0.516   67.541
  376.340   10.514    0.505   66.898
  376.590   10.299    0.492   67.477
  376.840    9.668    0.485   69.882
  377.090    9.456    0.491   68.016
  377.340    8.825    0.550   64.921
  377.590    8.398    0.529   63.667
  377.840    8.184    0.503   63.635
  378.090    8.161    0.492   61.770
  378.340    8.152    0.480   59.905
  378.590    8.145    0.477   58.651
  378.840    8.130    0.476   58.619
  379.090    8.111    0.494   58.587
  379.340    8.098    0.514   59.166
  379.590    8.088    0.528   60.356
  379.840    7.870    0.544   61.546
  380.090    7.861    0.529   62.117
  380.340    7.643    0.528   61.474
  380.590    7.425    0.527   61.442
  380.840    7.412    0.510   61.410
  381.090    7.393    0.517   63.211
  381.340    7.175    0.537   64.394
  381.590    7.166    0.565   64.362
  381.840    7.153    0.534   64.330
  382.090    7.141    0.512   64.298
  382.340    7.128    0.502   64.266
  382.590    7.112    0.502   64.234
  382.840    7.099    0.521   64.210
  383.090    7.087    0.524   63.559
  383.340    7.074    0.493   63.527
  383.590    6.847    0.487   64.098
  383.840    6.632    0.490   63.455
  384.090    6.417    0.507   62.193
  384.340    6.202    0.496   62.177
  384.590    5.773    0.525   62.137
  384.840    5.356    0.553   62.105
  385.090    4.930    0.599   62.073
  385.340    4.914    0.570   62.652
  385.590    5.514    0.547   62.620
  385.840    5.713    0.526   61.366
  386.090    6.316    0.488   59.492
  386.340    7.121    0.486   60.072
  386.590    7.926    0.501   60.040
  386.840    8.535    0.499   57.563
  387.090   10.780    0.446   52.032
  387.340   12.819    0.333   44.667
  387.590   22.661    0.177   41.580
  387.840   25.108    0.143   44.595
  388.090   24.069    0.160   47.016
  388.340   20.157    0.191   51.253
  388.590   18.910    0.222   53.054
  388.840   17.258    0.261   56.069
  389.090   13.343    0.256   58.490
  389.340   11.891    0.257   60.902
  389.590   11.057    0.301   63.917
  389.840    9.194    0.359   66.338
  390.090    8.361    0.424   67.528
  390.340    7.931    0.476   66.877
  390.590    7.922    0.479   66.242
  390.840    8.117    0.471   65.583
  391.090    8.108    0.473   65.567
  391.340    8.502    0.464   65.527
  391.590    8.493    0.463   65.495
  391.840    8.269    0.463   65.471
  392.090    8.051    0.479   65.423
  392.340    7.833    0.487   65.399
  392.590    7.615    0.498   65.970
  392.840    7.400    0.513   67.152
  393.090    7.182    0.489   68.358
  393.340    7.169    0.472   67.096
  393.590    7.154    0.507   64.620
  393.840    7.141    0.505   63.977
  394.090    7.327    0.494   63.326
  394.340    7.318    0.501   63.913
  394.590    7.510    0.493   63.881
  394.840    7.706    0.481   64.460
  395.090    7.895    0.481   65.650
  395.340    8.091    0.520   66.229
  395.590    8.069    0.500   66.197
  395.840    8.062    0.496   67.998
  396.090    8.050    0.510   70.403
  396.340    8.034    0.513   71.601
  396.590    8.024    0.549   72.783
  396.840    8.008    0.547   72.140
  397.090    7.993    0.539   70.886
  397.340    7.986    0.532   69.632
  397.590    7.974    0.530   69.592
  397.840    7.951    0.537   69.560
  398.090    7.737    0.538   71.972
  398.340    7.724    0.524   73.773
  398.590    7.506    0.531   76.177
  398.840    7.493    0.554   76.772
  399.090    7.481    0.563   78.558
  399.340    7.266    0.559   77.304
  399.590    7.253    0.542   76.661
  399.840    7.029    0.528   78.470
  400.090    6.811    0.556   80.271
  400.340    6.593    0.552   80.850
  400.590    6.375    0.545   80.207
  400.840    6.160    0.547   81.397
  401.090    5.943    0.566   86.857
  401.340    5.519    0.568   89.277
  401.590    5.090    0.563   92.292
  401.840    4.875    0.565   92.871
  402.090    5.068    0.571   89.784
  402.340    5.671    0.509   85.475
  402.590    6.678    0.463   82.999
  402.840    7.082    0.519   79.911
  403.090    7.887    0.507   75.602
  403.340    8.490    0.483   70.062
  403.590    9.507    0.379   65.753
  403.840   13.598    0.303   63.277
  404.090   13.791    0.270   61.412
  404.340   13.159    0.330   63.213
  404.590   12.534    0.481   67.458
  404.840   11.694    0.493   71.085
  405.090   10.858    0.486   73.497
  405.340   10.441    0.477   75.901
  405.590    9.806    0.481   80.155
  405.840    9.591    0.492   83.178
  406.090    9.377    0.509   84.971
  406.340    9.152    0.510   84.939
