~VERSION INFORMATION
 VERS.                 2.0:   CWLS LOG ASCII STANDARD -VERSION 2.0
 WRAP.                  NO:   ONE LINE PER DEPTH STEP
~WELL INFORMATION BLOCK
#MNEM.UNIT           DATA                    DESCRIPTION OF MNEMONIC
#---------    -------------------            -------------------------------
# Generated from Intellog Unique Number	CS_69_70/WELL/799
WELL.         AEC FISHER                     : Well_name    - WELL
LOC .         00/06-06-069-04W4/0            : Location     - LOCATION
UWI .         00/06-06-069-04W4/0            : Uwi          - UNIQUE WELL ID
ENTR.         SP                             : Entered      - ENTERED BY
SRVC.         SCHLUMBERGER                   : Scn          - SERVICE COMPANY
STRT.M        340                            : top_depth    - START DEPTH
STOP.M        595                            : bot_depth    - STOP DEPTH
STEP.M        0.25                           : increment    - STEP LENGTH
 NULL. -999.2500:NULL Value
~CURVE INFORMATION BLOCK
#MNEM UNIT       ERCB CURVE CODE    CURVE DESCRIPTION
#-----------   ------------------   ----------------------------------
DEPT.M        00 001 00 00         : DEPTH        - DEPTH
ILD .OHMM     00 120 00 00         : RESD         - DEEP RESISTIVITY (DIL)
DPHI.V/V      00 890 00 00         : PHID         - DENSITY POROSITY (LIMESTONE)
NPHI.V/V      00 330 00 00         : PHIN         - NEUTRON POROSITY (LIMESTONE)
GR  .API      00 310 00 00         : GR           - GAMMA RAY
~PARAMETER INFORMATION
#MNEM.UNIT           DATA             DESCRIPTION OF MNEMONIC
#---------         -----------     ------------------------------
GL  .M        695.6                : gl           - GROUND LEVEL ELEVATION
EREF.M        699.3                : kb           - ELEVATION OF DEPTH REFERENCE
DATM.M        695.6                : datum        - DATUM ELEVATION
TDD .M        600                  : tdd          - TOTAL DEPTH DRILLER
RUN .         ONE                  : Run          - RUN NUMBER
ENG .         BILL                 : Engineer     - RECORDING ENGINEER
WIT .         JIM                  : Witness      - WITNESSED BY
MUD .         GEL                  : Mud_type     - MUD TYPE
MATR.         LIMESTONE            : Logunit      - NEUTRON MATRIX
TMAX.C        22                   : BHT          - MAXIMUM RECORDED TEMPERATURE
BHTD.M        600                  : BHTDEP       - MAXIMUM RECORDED TEMPERATURE
MATR.         1                    : LOGUNIT      - NEUTRON MATRIX
RMT .C        25                   : MDTP         - TEMPERATURE OF MUD
NEUT.         1                    : NEUTRON      - NEUTRON TYPE
RESI.         0                    : RESIST       - RESISTIVITY TYPE
RMC .OHMM     0.25                 : RMC          - RESISTIVITY OF MUD CAKE
RMF .OHMM     0.25                 : RMF          - RESISTIVITY OF MUD FILTRATE
SUFT.C        15                   : SUFT         - SURFACE TEMPERATURE
~A  DEPTH     RESD     PHID     PHIN       GR
# ...
  383.500    7.252    0.288    0.492   80.673
  383.750    7.378    0.278    0.482   77.734
  384.000    7.493    0.271    0.474   80.711
  384.250    7.566    0.258    0.471   79.297
  384.500    7.541    0.240    0.456   73.552
  384.750    7.514    0.281    0.429   67.012
  385.000    7.516    0.297    0.419   63.159
  385.250    7.519    0.291    0.415   62.110
  385.500    7.535    0.304    0.414   62.099
  385.750    7.538    0.324    0.411   62.331
  386.000    7.540    0.336    0.420   62.442
  386.250    7.529    0.343    0.435   62.126
  386.500    7.502    0.339    0.425   60.956
  386.750    7.407    0.334    0.423   64.665
  387.000    7.298    0.333    0.442   68.985
  387.250    7.273    0.330    0.465   69.705
  387.500    7.289    0.320    0.449   67.925
  387.750    7.360    0.314    0.433   68.158
  388.000    7.432    0.331    0.448   71.440
  388.250    7.491    0.346    0.458   69.477
  388.500    7.452    0.347    0.464   68.734
  388.750    7.426    0.333    0.467   72.688
  389.000    7.344    0.322    0.457   74.627
  389.250    7.250    0.316    0.434   73.579
  389.500    7.104    0.315    0.406   74.056
  389.750    7.026    0.312    0.417   76.790
  390.000    7.028    0.302    0.437   74.948
  390.250    7.017    0.322    0.440   77.438
  390.500    7.059    0.330    0.442   80.171
  390.750    7.075    0.328    0.440   80.404
  391.000    7.144    0.326    0.437   80.697
  391.250    7.174    0.325    0.440   82.394
  391.500    7.203    0.325    0.439   85.432
  391.750    7.232    0.327    0.450   87.677
  392.000    7.235    0.327    0.437   87.728
  392.250    7.277    0.326    0.425   81.981
  392.500    7.280    0.320    0.417   82.947
  392.750    7.282    0.310    0.438   84.461
  393.000    7.312    0.299    0.432   76.214
  393.250    7.314    0.304    0.431   69.004
  393.500    7.317    0.322    0.439   60.636
  393.750    7.291    0.335    0.436   56.599
  394.000    7.199    0.343    0.428   58.968
  394.250    7.120    0.342    0.423   61.761
  394.500    6.976    0.335    0.435   63.275
  394.750    6.860    0.331    0.449   62.532
  395.000    6.785    0.334    0.456   59.715
  395.250    6.699    0.331    0.486   58.421
  395.500    6.663    0.313    0.471   59.692
  395.750    6.653    0.292    0.453   59.496
  396.000    6.680    0.275    0.437   55.765
  396.250    6.745    0.286    0.416   51.299
  396.500    6.799    0.305    0.418   49.703
  396.750    6.839    0.323    0.394   49.875
  397.000    6.867    0.336    0.382   51.327
  397.250    6.882    0.334    0.394   52.596
  397.500    6.884    0.332    0.408   53.256
  397.750    6.847    0.333    0.422   52.575
  398.000    6.811    0.338    0.429   50.489
  398.250    6.762    0.340    0.419   49.623
  398.500    6.714    0.341    0.409   51.809
  398.750    6.665    0.337    0.397   51.980
  399.000    6.581    0.334    0.385   50.076
  399.250    6.533    0.331    0.392   47.869
  399.500    6.510    0.330    0.422   48.345
  399.750    6.463    0.330    0.443   49.308
  400.000    6.417    0.333    0.436   50.337
  400.250    6.382    0.337    0.416   50.568
  400.500    6.337    0.337    0.391   48.240
  400.750    6.303    0.334    0.376   47.496
  401.000    6.269    0.337    0.391   49.132
  401.250    6.283    0.345    0.383   50.218
  401.500    6.309    0.347    0.389   50.328
  401.750    6.311    0.339    0.402   50.318
  402.000    6.289    0.331    0.412   50.063
  402.250    6.280    0.326    0.409   50.111
  402.500    6.270    0.329    0.397   50.465
  402.750    6.272    0.327    0.401   50.880
  403.000    6.286    0.323    0.414   51.357
  403.250    6.287    0.322    0.419   51.770
  403.500    6.313    0.322    0.420   52.186
  403.750    6.327    0.324    0.422   52.785
  404.000    6.329    0.327    0.425   53.388
  404.250    6.331    0.325    0.427   53.925
  404.500    6.332    0.325    0.430   52.694
  404.750    6.323    0.329    0.423   51.704
  405.000    6.313    0.338    0.411   51.451
  405.250    6.303    0.345    0.406   51.009
  405.500    6.305    0.346    0.407   50.757
  405.750    6.295    0.345    0.406   49.648
  406.000    6.273    0.351    0.404   47.990
  406.250    6.264    0.346    0.399   49.013
  406.500    6.230    0.340    0.380   49.065
  406.750    6.209    0.334    0.381   46.003
  407.000    6.187    0.336    0.400   44.162
  407.250    6.131    0.349    0.412   47.261
  407.500    6.098    0.355    0.419   50.239
  407.750    6.055    0.352    0.417   53.338
  408.000    6.022    0.353    0.413   55.096
  408.250    6.013    0.361    0.424   55.023
  408.500    6.015    0.360    0.428   53.789
  408.750    6.040    0.357    0.425   53.293
  409.000    6.076    0.358    0.430   53.034
  409.250    6.101    0.352    0.432   53.147
  409.500    6.126    0.343    0.434   53.442
  409.750    6.105    0.338    0.440   53.980
  410.000    6.118    0.338    0.432   54.453
  410.250    6.108    0.340    0.433   54.871
  410.500    6.110    0.337    0.418   54.617
  410.750    6.135    0.336    0.398   52.835
  411.000    6.148    0.340    0.388   50.444
  411.250    6.209    0.347    0.393   49.031
  411.500    6.246    0.354    0.397   48.226
  411.750    6.272    0.364    0.401   47.910
  412.000    6.345    0.369    0.424   47.959
  412.250    6.395    0.365    0.423   48.376
  412.500    6.531    0.360    0.413   49.401
  412.750    6.657    0.352    0.416   51.586
  413.000    7.020    0.343    0.399   51.391
  413.250    7.601    0.319    0.377   51.258
  413.500    8.292    0.297    0.365   51.186
  413.750    8.844    0.279    0.364   51.659
  414.000    9.415    0.286    0.369   53.115
  414.250    9.137    0.330    0.398   57.923
  414.500    7.401    0.343    0.434   62.363
  414.750    6.674    0.344    0.439   65.159
  415.000    6.321    0.345    0.445   67.403
  415.250    6.078    0.347    0.453   67.210
  415.500    5.866    0.350    0.455   63.050
  415.750    5.780    0.350    0.457   60.110
  416.000    5.728    0.345    0.454   58.086
  416.250    5.773    0.344    0.448   57.466
  416.500    5.818    0.352    0.447   57.942
  416.750    5.909    0.347    0.447   57.380
  417.000    5.955    0.340    0.445   57.431
  417.250    5.979    0.336    0.446   60.287
  417.500    5.993    0.340    0.454   60.337
  417.750    6.006    0.349    0.457   58.312
  418.000    6.019    0.352    0.461   56.224
  418.250    6.021    0.345    0.461   55.484
  418.500    6.012    0.347    0.449   54.739
  418.750    6.025    0.352    0.439   54.361
  419.000    6.049    0.342    0.435   54.107
  419.250    6.063    0.331    0.438   54.339
  419.500    6.087    0.324    0.453   54.693
  419.750    6.159    0.318    0.464   55.048
  420.000    6.219    0.332    0.458   56.563
  420.250    6.376    0.334    0.448   59.968
  420.500    6.499    0.325    0.441   60.627
  420.750    6.599    0.314    0.444   57.260
  421.000    6.765    0.305    0.447   58.713
  421.250    6.857    0.316    0.442   63.642
  421.500    6.846    0.326    0.452   67.108
  421.750    6.823    0.332    0.457   68.805
  422.000    6.648    0.321    0.443   63.365
  422.250    6.440    0.308    0.425   67.194
  422.500    6.145    0.301    0.432   69.135
  422.750    6.090    0.299    0.438   69.980
  423.000    6.114    0.284    0.430   75.459
  423.250    6.151    0.271    0.445   81.486
  423.500    6.258    0.275    0.458   78.608
  423.750    6.380    0.292    0.465   72.740
  424.000    6.466    0.306    0.449   66.689
  424.250    6.554    0.323    0.430   61.797
  424.500    6.631    0.344    0.418   58.188
  424.750    6.671    0.331    0.425   54.517
  425.000    6.648    0.327    0.437   59.507
  425.250    6.637    0.339    0.446   62.118
  425.500    6.602    0.349    0.439   62.839
  425.750    6.579    0.339    0.420   61.913
  426.000    6.544    0.323    0.404   65.560
  426.250    6.485    0.314    0.425   68.660
  426.500    6.438    0.318    0.445   72.065
  426.750    6.344    0.313    0.441   74.981
