~VERSION INFORMATION
 VERS.                 2.0:   CWLS LOG ASCII STANDARD -VERSION 2.0
 WRAP.                  NO:   ONE LINE PER DEPTH STEP
~WELL INFORMATION BLOCK
#MNEM.UNIT           DATA                    DESCRIPTION OF MNEMONIC
#---------    -------------------            -------------------------------
# Generated from Intellog Unique Number	CS_73_76/WELL/1030
WELL.         CAVALIER ENERGY INC.           : Well_name    - WELL
LOC .         00/06-02-076-15W4/0            : Location     - LOCATION
UWI .         00/06-02-076-15W4/0            : Uwi          - UNIQUE WELL ID
ENTR.         SP                             : Entered      - ENTERED BY
SRVC.         SCHLUMBERGER                   : Scn          - SERVICE COMPANY
STRT.M        344.424                        : top_depth    - START DEPTH
STOP.M        545.424                        : bot_depth    - STOP DEPTH
STEP.M        0.25                           : increment    - STEP LENGTH
 NULL. -999.2500:NULL Value
~CURVE INFORMATION BLOCK
#MNEM UNIT       ERCB CURVE CODE    CURVE DESCRIPTION
#-----------   ------------------   ----------------------------------
DEPT.M        00 001 00 00         : DEPTH        - DEPTH
GR  .API      00 310 00 00         : GR           - GAMMA RAY
DPHI.V/V      00 890 00 00         : PHID         - DENSITY POROSITY (SANDSTONE)
NPHI.V/V      00 330 00 00         : PHIN         - NEUTRON POROSITY (SANDSTONE)
ILD .OHMM     00 120 00 00         : RESD         - DEEP RESISTIVITY (DIL)
~PARAMETER INFORMATION
#MNEM.UNIT           DATA             DESCRIPTION OF MNEMONIC
#---------         -----------     ------------------------------
GL  .M        714.146              : gl           - GROUND LEVEL ELEVATION
EREF.M        717.194              : kb           - ELEVATION OF DEPTH REFERENCE
DATM.M        714.146              : datum        - DATUM ELEVATION
TDD .M        545.592              : tdd          - TOTAL DEPTH DRILLER
RUN .         ONE                  : Run          - RUN NUMBER
ENG .         BILL                 : Engineer     - RECORDING ENGINEER
WIT .         JIM                  : Witness      - WITNESSED BY
MUD .         GEL                  : Mud_type     - MUD TYPE
MATR.         SANDSTONE            : Logunit      - NEUTRON MATRIX
TMAX.C        17.7778              : BHT          - MAXIMUM RECORDED TEMPERATURE
BHTD.M        545.592              : BHTDEP       - MAXIMUM RECORDED TEMPERATURE
MATR.         1                    : LOGUNIT      - NEUTRON MATRIX
RMT .C        25                   : MDTP         - TEMPERATURE OF MUD
NEUT.         1                    : NEUTRON      - NEUTRON TYPE
RESI.         0                    : RESIST       - RESISTIVITY TYPE
RMC .OHMM     0.25                 : RMC          - RESISTIVITY OF MUD CAKE
RMF .OHMM     0.25                 : RMF          - RESISTIVITY OF MUD FILTRATE
SUFT.C        15                   : SUFT         - SURFACE TEMPERATURE
~A  DEPTH       GR     PHID     PHIN     RESD
# ...
  387.924   54.110    0.341    0.427   11.932
  388.174   53.402    0.343    0.430   11.934
  388.424   52.749    0.351    0.436   12.077
  388.674   53.346    0.343    0.441   12.110
  388.924   52.898    0.330    0.448   12.252
  389.174   52.209    0.315    0.444   12.306
  389.424   53.144    0.338    0.438   12.350
  389.674   53.556    0.348    0.454   12.416
  389.924   52.889    0.351    0.460   12.416
  390.174   52.288    0.347    0.460   12.415
  390.424   52.345    0.367    0.454   12.423
  390.674   51.670    0.361    0.444   12.328
  390.924   52.477    0.374    0.445   12.331
  391.174   52.463    0.374    0.460   12.261
  391.424   52.513    0.374    0.455   12.148
  391.674   51.858    0.369    0.444   12.020
  391.924   49.858    0.357    0.449   11.890
  392.174   49.128    0.350    0.456   11.760
  392.424   51.278    0.356    0.462   11.630
  392.674   53.014    0.354    0.460   11.500
  392.924   53.001    0.346    0.455   11.371
  393.174   50.988    0.354    0.449   11.237
  393.424   48.404    0.357    0.447   11.241
  393.674   49.784    0.361    0.441   11.146
  393.924   50.198    0.358    0.431   11.162
  394.174   50.927    0.346    0.434   11.092
  394.424   51.614    0.319    0.441   11.235
  394.674   54.121    0.335    0.442   11.287
  394.924   57.414    0.347    0.442   11.431
  395.174   58.865    0.348    0.450   11.475
  395.424   61.626    0.350    0.454   11.640
  395.674   62.945    0.361    0.447   11.721
  395.924   59.877    0.357    0.442   11.790
  396.174   56.030    0.352    0.446   11.751
  396.424   53.681    0.359    0.461   11.723
  396.674   50.543    0.362    0.471   11.653
  396.924   50.484    0.353    0.478   11.483
  397.174   50.456    0.353    0.481   11.307
  397.424   49.399    0.358    0.471   11.099
  397.674   49.335    0.340    0.447   10.968
  397.924   49.339    0.338    0.439   10.927
  398.174   49.361    0.346    0.444   10.918
  398.424   49.378    0.364    0.446   11.016
  398.674   49.395    0.343    0.449   11.009
  398.924   49.405    0.334    0.455   11.051
  399.174   49.327    0.346    0.455   11.185
  399.424   48.339    0.355    0.451   11.389
  399.674   46.614    0.348    0.455   11.654
  399.924   46.455    0.334    0.458   11.926
  400.174   46.472    0.319    0.459   12.256
  400.424   46.541    0.318    0.466   12.652
  400.674   45.871    0.331    0.456   12.864
  400.924   45.972    0.337    0.443   13.087
  401.174   45.042    0.348    0.446   13.294
  401.424   44.733    0.354    0.454   13.328
  401.674   44.172    0.341    0.462   13.470
  401.924   43.556    0.331    0.466   13.509
  402.174   42.435    0.322    0.473   13.567
  402.424   41.144    0.331    0.462   13.658
  402.674   39.123    0.340    0.470   13.652
  402.924   36.608    0.331    0.474   13.646
  403.174   35.519    0.335    0.471   13.740
  403.424   37.676    0.337    0.471   13.733
  403.674   38.629    0.347    0.470   13.731
  403.924   39.065    0.330    0.464   13.704
  404.174   37.626    0.345    0.459   13.657
  404.424   38.087    0.347    0.457   13.598
  404.674   38.121    0.342    0.457   13.579
  404.924   37.094    0.355    0.458   13.579
  405.174   37.448    0.343    0.435   13.631
  405.424   38.509    0.352    0.449   13.676
  405.674   39.033    0.336    0.460   13.737
  405.924   36.999    0.330    0.473   13.829
  406.174   36.539    0.340    0.467   13.825
  406.424   35.417    0.354    0.457   13.752
  406.674   34.867    0.350    0.459   13.689
  406.924   34.206    0.352    0.469   13.418
  407.174   34.577    0.352    0.459   13.164
  407.424   36.509    0.350    0.470   12.973
  407.674   38.529    0.347    0.464   12.788
  407.924   38.105    0.344    0.473   12.573
  408.174   37.934    0.340    0.457   12.448
  408.424   38.534    0.336    0.448   12.321
  408.674   39.607    0.347    0.439   12.245
  408.924   39.829    0.350    0.433   12.050
  409.174   39.873    0.347    0.438   11.936
  409.424   40.195    0.355    0.451   11.714
  409.674   40.562    0.362    0.457   11.598
  409.924   41.175    0.368    0.458   11.546
  410.174   41.218    0.367    0.452   11.445
  410.424   40.556    0.350    0.459   11.362
  410.674   40.225    0.328    0.466   11.309
  410.924   39.389    0.340    0.468   11.295
  411.174   38.805    0.359    0.452   11.208
  411.424   38.404    0.352    0.456   11.157
  411.674   39.123    0.360    0.471   11.114
  411.924   41.195    0.366    0.480   11.048
  412.174   42.041    0.366    0.475   11.008
  412.424   41.387    0.365    0.473   10.977
  412.674   41.924    0.359    0.477   10.905
  412.924   44.056    0.354    0.470   10.904
  413.174   46.333    0.349    0.464   10.811
  413.424   47.888    0.366    0.485   10.825
  413.674   48.340    0.363    0.498   10.729
  413.924   48.774    0.359    0.499   10.738
  414.174   49.823    0.355    0.494   10.739
  414.424   50.836    0.360    0.495   10.739
  414.674   51.827    0.370    0.484   10.741
  414.924   53.915    0.371    0.489   10.791
  415.174   55.215    0.365    0.487   10.833
  415.424   56.693    0.362    0.493   10.966
  415.674   58.111    0.368    0.487   11.195
  415.924   58.725    0.363    0.471   11.331
  416.174   56.412    0.357    0.471   11.661
  416.424   58.796    0.343    0.482   12.182
  416.674   60.693    0.334    0.490   12.927
  416.924   62.842    0.341    0.498   13.568
  417.174   64.394    0.350    0.508   14.127
  417.424   64.290    0.354    0.512   14.096
  417.674   64.360    0.341    0.502   13.999
  417.924   63.567    0.329    0.490   13.479
  418.174   62.029    0.323    0.497   13.092
  418.424   58.002    0.316    0.497   12.699
  418.674   50.172    0.233    0.421   12.318
  418.924   48.221    0.067    0.230   12.362
  419.174   51.628    0.034    0.190   14.701
  419.424   54.203    0.013    0.206   17.833
  419.674   55.920    0.023    0.226   21.303
  419.924   60.833    0.070    0.252   22.308
  420.174   65.167    0.128    0.281   22.231
  420.424   67.933    0.222    0.372   20.600
  420.674   70.943    0.276    0.436   17.481
  420.924   71.804    0.330    0.499   12.896
  421.174   75.264    0.339    0.501   11.340
  421.424   75.451    0.335    0.488   10.643
  421.674   74.924    0.334    0.493   10.138
  421.924   77.180    0.339    0.507    9.879
  422.174   79.432    0.347    0.530    9.727
  422.424   79.625    0.350    0.520    9.671
  422.674   76.285    0.354    0.498    9.570
  422.924   73.730    0.355    0.496    9.484
  423.174   72.727    0.346    0.505    9.401
  423.424   77.621    0.333    0.508    9.503
  423.674   83.076    0.340    0.519    9.494
  423.924   85.106    0.354    0.518    9.571
  424.174   85.326    0.294    0.500    9.655
  424.424   82.157    0.270    0.476    9.802
  424.674   79.442    0.224    0.438    9.862
  424.924   82.936    0.131    0.398    7.858
  425.174   86.979    0.120    0.422    6.959
  425.424   89.742    0.138    0.458    6.326
  425.674   89.183    0.204    0.495    5.719
  425.924   87.956    0.236    0.495    5.337
  426.174   89.451    0.236    0.509    4.923
  426.424   90.026    0.215    0.524    4.307
  426.674   91.051    0.226    0.535    3.713
  426.924   92.150    0.230    0.556    3.089
  427.174   91.345    0.229    0.542    2.738
  427.424   88.589    0.244    0.531    2.511
  427.674   88.331    0.253    0.534    2.629
  427.924   90.518    0.242    0.521    2.949
  428.174   92.536    0.234    0.507    3.701
  428.424   90.558    0.221    0.513    4.539
  428.674   92.300    0.224    0.525    4.932
  428.924   93.503    0.215    0.532    5.113
  429.174   93.809    0.217    0.529    5.289
  429.424   91.629    0.228    0.530    5.350
  429.674   92.366    0.239    0.527    5.373
  429.924   92.706    0.233    0.525    5.290
  430.174   90.413    0.219    0.522    5.364
  430.424   84.101    0.249    0.506    5.788
  430.674   73.636    0.278    0.480    6.435
  430.924   65.458    0.299    0.470    7.191
  431.174   62.193    0.307    0.470    7.803
