~VERSION INFORMATION
 VERS.                 2.0:   CWLS LOG ASCII STANDARD -VERSION 2.0
 WRAP.                  NO:   ONE LINE PER DEPTH STEP
~WELL INFORMATION BLOCK
#MNEM.UNIT           DATA                    DESCRIPTION OF MNEMONIC
#---------    -------------------            -------------------------------
# Generated from Intellog Unique Number	CS_73_76/WELL/771
WELL.         BOW VALLEY EXPLORATION         : Well_name    - WELL
LOC .         00/07-21-073-16W4/0            : Location     - LOCATION
UWI .         00/07-21-073-16W4/0            : Uwi          - UNIQUE WELL ID
ENTR.         SP                             : Entered      - ENTERED BY
SRVC.         SCHLUMBERGER                   : Scn          - SERVICE COMPANY
STRT.M        235                            : top_depth    - START DEPTH
STOP.M        439.5                          : bot_depth    - STOP DEPTH
STEP.M        0.25                           : increment    - STEP LENGTH
 NULL. -999.2500:NULL Value
~CURVE INFORMATION BLOCK
#MNEM UNIT       ERCB CURVE CODE    CURVE DESCRIPTION
#-----------   ------------------   ----------------------------------
DEPT.M        00 001 00 00         : DEPTH        - DEPTH
ILD .OHMM     00 120 00 00         : RESD         - DEEP RESISTIVITY (DIL)
DPHI.V/V      00 890 00 00         : PHID         - DENSITY POROSITY (LIMESTONE)
NPHI.V/V      00 330 00 00         : PHIN         - NEUTRON POROSITY (LIMESTONE)
GR  .API      00 310 00 00         : GR           - GAMMA RAY
~PARAMETER INFORMATION
#MNEM.UNIT           DATA             DESCRIPTION OF MNEMONIC
#---------         -----------     ------------------------------
GL  .M        570.65               : gl           - GROUND LEVEL ELEVATION
EREF.M        574.2                : kb           - ELEVATION OF DEPTH REFERENCE
DATM.M        570.65               : datum        - DATUM ELEVATION
TDD .M        448                  : tdd          - TOTAL DEPTH DRILLER
RUN .         ONE                  : Run          - RUN NUMBER
ENG .         BILL                 : Engineer     - RECORDING ENGINEER
WIT .         JIM                  : Witness      - WITNESSED BY
MUD .         GEL                  : Mud_type     - MUD TYPE
MATR.         LIMESTONE            : Logunit      - NEUTRON MATRIX
TMAX.C        21                   : BHT          - MAXIMUM RECORDED TEMPERATURE
BHTD.M        448                  : BHTDEP       - MAXIMUM RECORDED TEMPERATURE
MATR.         1                    : LOGUNIT      - NEUTRON MATRIX
RMT .C        25                   : MDTP         - TEMPERATURE OF MUD
NEUT.         1                    : NEUTRON      - NEUTRON TYPE
RESI.         0                    : RESIST       - RESISTIVITY TYPE
RMC .OHMM     0.25                 : RMC          - RESISTIVITY OF MUD CAKE
RMF .OHMM     0.25                 : RMF          - RESISTIVITY OF MUD FILTRATE
SUFT.C        15                   : SUFT         - SURFACE TEMPERATURE
~A  DEPTH     RESD     PHID     PHIN       GR
# ...
  409.000    6.303    0.166    0.409   94.867
  409.250    6.421    0.175    0.389   87.043
  409.500    6.541    0.153    0.378   82.230
  409.750    6.541    0.121    0.369   79.828
  410.000    6.540    0.113    0.374   84.055
  410.250    6.540    0.146    0.383   87.073
  410.500    6.539    0.176    0.393   90.695
  410.750    6.787    0.149    0.400   93.110
  411.000    7.177    0.139    0.394   86.493
  411.250    7.450    0.124    0.386   83.486
  411.500    7.733    0.110    0.366   85.300
  411.750    8.811    0.210    0.359   78.683
  412.000   11.442    0.260    0.342   73.268
  412.250   13.790    0.278    0.316   69.057
  412.500   14.583    0.292    0.292   67.257
  412.750   16.617    0.301    0.304   66.060
  413.000   18.241    0.287    0.312   65.465
  413.250   19.290    0.273    0.321   66.075
  413.500   19.653    0.243    0.325   63.675
  413.750   19.651    0.218    0.327   65.489
  414.000   19.648    0.187    0.332   67.904
  414.250   19.283    0.165    0.332   72.130
  414.500   18.925    0.159    0.338   72.136
  414.750   18.230    0.149    0.331   71.543
  415.000   16.916    0.137    0.328   73.960
  415.250   15.994    0.146    0.329   75.772
  415.500   15.121    0.174    0.331   81.203
  415.750   14.566    0.178    0.333   83.618
  416.000   14.295    0.185    0.343   86.035
  416.250   15.117    0.199    0.343   76.404
  416.500   16.907    0.227    0.334   62.556
  416.750   18.560    0.246    0.335   58.950
  417.000   23.219    0.274    0.344   57.149
  417.250   29.593    0.288    0.350   56.554
  417.500   37.021    0.301    0.356   54.756
  417.750   39.889    0.309    0.355   54.761
  418.000   39.885    0.306    0.349   58.986
  418.250   37.012    0.302    0.373   65.621
  418.500   28.496    0.284    0.365   75.872
  418.750   22.775    0.273    0.357   79.490
  419.000   17.535    0.221    0.352   87.328
  419.250   14.547    0.193    0.350   97.577
  419.500   11.627    0.163    0.344  103.609
  419.750    9.120    0.169    0.356  107.835
  420.000    8.307    0.174    0.360  110.250
  420.250    7.708    0.186    0.369  101.223
  420.500    7.565    0.216    0.379   93.398
  420.750    7.852    0.234    0.372   87.982
  421.000    8.150    0.245    0.355   84.977
  421.250    8.781    0.227    0.345   86.190
  421.500    9.286    0.197    0.338   86.198
  421.750    9.820    0.181    0.340   86.807
  422.000    9.819    0.167    0.341   89.225
  422.250   10.003    0.152    0.339   88.629
  422.500   10.003    0.142    0.333   92.257
  422.750    9.457    0.133    0.333   94.671
  423.000    8.613    0.162    0.338   96.484
  423.250    8.453    0.168    0.345   98.296
  423.500    8.142    0.170    0.347   99.509
  423.750    7.991    0.178    0.344   95.903
  424.000    7.842    0.183    0.341   94.101
  424.250    7.696    0.172    0.358   94.111
  424.500    8.292    0.165    0.365   95.321
  424.750    8.292    0.154    0.373   94.727
  425.000    8.291    0.163    0.374   95.335
  425.250    8.447    0.170    0.353   93.539
  425.500    8.446    0.181    0.334   91.134
  425.750    8.445    0.193    0.325   89.333
  426.000    8.445    0.196    0.341   95.968
  426.250    8.444    0.189    0.356  103.806
  426.500    8.443    0.182    0.367  102.006
  426.750    8.601    0.185    0.368   90.568
  427.000    8.763    0.197    0.351   86.358
  427.250    9.095    0.199    0.337   85.766
  427.500    9.440    0.201    0.330   87.579
  427.750    9.799    0.180    0.334   88.790
  428.000   11.376    0.146    0.332   77.352
  428.250   12.257    0.138    0.330   63.505
  428.500   13.455    0.182    0.325   57.486
  428.750   15.621    0.242    0.296   60.505
  429.000   16.519    0.274    0.313   69.550
  429.250   17.470    0.277    0.308   74.376
  429.500   18.823    0.275    0.304   77.998
  429.750   19.904    0.280    0.315   68.366
  430.000   21.445    0.290    0.324   52.710
  430.250   22.679    0.307    0.331   46.091
  430.500   23.984    0.314    0.333   43.087
  430.750   25.840    0.324    0.335   44.300
  431.000   26.822    0.313    0.335   45.511
  431.250   27.838    0.296    0.332   47.931
  431.500   27.836    0.282    0.332   47.333
  431.750   27.320    0.299    0.332   50.959
  432.000   25.352    0.302    0.333   53.977
  432.250   21.032    0.291    0.341   57.598
  432.500   18.802    0.270    0.358   64.232
  432.750   15.027    0.242    0.348   81.707
  433.000   13.185    0.215    0.342  103.403
  433.250   11.354    0.188    0.358  108.229
  433.500    9.778    0.156    0.372  107.032
  433.750    8.741    0.160    0.359  102.823
  434.000    7.961    0.156    0.352   98.616
  434.250    7.669    0.160    0.343   98.017
  434.500    7.813    0.164    0.332   96.819
  434.750    8.262    0.167    0.330   88.996
  435.000    9.069    0.181    0.339   80.571
  435.250    9.772    0.225    0.353   72.142
  435.500   10.727    0.251    0.338   60.102
  435.750   11.558    0.280    0.316   52.879
  436.000   12.927    0.301    0.301   66.742
  436.250   14.190    0.269    0.314   82.413
  436.500   13.669    0.238    0.334   92.661
  436.750   12.219    0.206    0.340   96.885
  437.000   10.328    0.186    0.344   96.291
  437.250    8.894    0.198    0.329   93.887
  437.500    8.409    0.204    0.338   90.281
  437.750    7.951    0.212    0.348   89.686
  438.000    7.950    0.200    0.353   87.886
  438.250    7.949    0.190    0.343   89.705
  438.500    8.098    0.203    0.324   90.915
  438.750    8.098    0.193    0.324   91.522
  439.000    8.097    0.176    0.329   70.445
  439.250    8.249    0.159    0.331   49.970
  439.500    8.248    0.159    0.337   22.868
