~VERSION INFORMATION
 VERS.                 2.0:   CWLS LOG ASCII STANDARD -VERSION 2.0
 WRAP.                  NO:   ONE LINE PER DEPTH STEP
~WELL INFORMATION BLOCK
#MNEM.UNIT           DATA                    DESCRIPTION OF MNEMONIC
#---------    -------------------            -------------------------------
# Generated from Intellog Unique Number	CS_71_72/WELL/783
WELL.         BRENDA IPIATIK                 : Well_name    - WELL
LOC .         00/06-30-071-09W4/0            : Location     - LOCATION
UWI .         00/06-30-071-09W4/0            : Uwi          - UNIQUE WELL ID
ENTR.         SP                             : Entered      - ENTERED BY
SRVC.         SCHLUMBERGER                   : Scn          - SERVICE COMPANY
STRT.M        320                            : top_depth    - START DEPTH
STOP.M        525                            : bot_depth    - STOP DEPTH
STEP.M        0.25                           : increment    - STEP LENGTH
 NULL. -999.2500:NULL Value
~CURVE INFORMATION BLOCK
#MNEM UNIT       ERCB CURVE CODE    CURVE DESCRIPTION
#-----------   ------------------   ----------------------------------
DEPT.M        00 001 00 00         : DEPTH        - DEPTH
ILD .OHMM     00 120 00 00         : RESD         - DEEP RESISTIVITY (DIL)
DPHI.V/V      00 890 00 00         : PHID         - DENSITY POROSITY (LIMESTONE)
NPHI.V/V      00 330 00 00         : PHIN         - NEUTRON POROSITY (LIMESTONE)
GR  .API      00 310 00 00         : GR           - GAMMA RAY
~PARAMETER INFORMATION
#MNEM.UNIT           DATA             DESCRIPTION OF MNEMONIC
#---------         -----------     ------------------------------
GL  .M        678.5                : gl           - GROUND LEVEL ELEVATION
EREF.M        6810.4               : kb           - ELEVATION OF DEPTH REFERENCE
DATM.M        678.5                : datum        - DATUM ELEVATION
TDD .M        539                  : tdd          - TOTAL DEPTH DRILLER
RUN .         ONE                  : Run          - RUN NUMBER
ENG .         BILL                 : Engineer     - RECORDING ENGINEER
WIT .         JIM                  : Witness      - WITNESSED BY
MUD .         GEL                  : Mud_type     - MUD TYPE
MATR.         LIMESTONE            : Logunit      - NEUTRON MATRIX
TMAX.C        22                   : BHT          - MAXIMUM RECORDED TEMPERATURE
BHTD.M        539                  : BHTDEP       - MAXIMUM RECORDED TEMPERATURE
MATR.         1                    : LOGUNIT      - NEUTRON MATRIX
RMT .C        25                   : MDTP         - TEMPERATURE OF MUD
NEUT.         1                    : NEUTRON      - NEUTRON TYPE
RESI.         0                    : RESIST       - RESISTIVITY TYPE
RMC .OHMM     0.25                 : RMC          - RESISTIVITY OF MUD CAKE
RMF .OHMM     0.25                 : RMF          - RESISTIVITY OF MUD FILTRATE
SUFT.C        15                   : SUFT         - SURFACE TEMPERATURE
~A  DEPTH     RESD     PHID     PHIN       GR
# ...
  494.000    9.582    0.196    0.339   61.404
  494.250    9.513    0.190    0.339   65.199
  494.500    9.497    0.183    0.333   66.854
  494.750    9.535    0.178    0.327   63.261
  495.000    9.719    0.179    0.344   61.743
  495.250    9.962    0.176    0.355   66.759
  495.500   10.134    0.179    0.352   66.766
  495.750   10.252    0.180    0.340   64.942
  496.000   10.274    0.192    0.333   69.286
  496.250   10.257    0.206    0.341   73.021
  496.500   10.144    0.213    0.344   73.881
  496.750   10.033    0.213    0.340   71.936
  497.000    9.979    0.216    0.346   71.334
  497.250    9.851    0.218    0.353   75.372
  497.500    9.688    0.208    0.358   79.105
  497.750    9.474    0.197    0.363   83.142
  498.000    9.317    0.179    0.366   86.264
  498.250    9.128    0.163    0.360   88.775
  498.500    9.045    0.164    0.357   88.234
  498.750    9.064    0.156    0.366   87.268
  499.000    9.083    0.146    0.374   87.396
  499.250    9.017    0.141    0.372   89.847
  499.500    8.785    0.152    0.367   91.993
  499.750    8.591    0.180    0.366   92.918
  500.000    8.323    0.193    0.362   92.315
  500.250    8.215    0.190    0.354   93.300
  500.500    8.125    0.186    0.346   94.102
  500.750    8.097    0.183    0.343   92.950
  501.000    8.053    0.180    0.351   86.975
  501.250    7.995    0.175    0.361   79.169
  501.500    7.923    0.191    0.365   71.241
  501.750    7.893    0.228    0.359   63.313
  502.000    7.926    0.233    0.349   68.938
  502.250    8.078    0.220    0.336   75.052
  502.500    8.249    0.213    0.331   79.943
  502.750    8.408    0.203    0.334   85.325
  503.000    8.331    0.220    0.340   85.577
  503.250    7.935    0.246    0.355   77.528
  503.500    7.543    0.208    0.369   76.009
  503.750    7.322    0.183    0.361   78.398
  504.000    7.647    0.184    0.379   76.209
  504.250    7.663    0.207    0.412   66.877
  504.500    6.719    0.260    0.379   55.957
  504.750    5.332    0.295    0.348   35.025
  505.000    4.435    0.312    0.335   30.516
  505.250    4.046    0.310    0.340   30.831
  505.500    3.897    0.303    0.353   32.672
  505.750    3.862    0.292    0.357   34.509
  506.000    3.928    0.280    0.359   39.036
  506.250    4.165    0.257    0.355   43.256
  506.500    4.392    0.246    0.344   49.432
  506.750    4.544    0.242    0.329   54.202
  507.000    4.545    0.253    0.321   55.736
  507.250    4.281    0.294    0.331   51.715
  507.500    3.897    0.306    0.337   45.253
  507.750    3.664    0.298    0.342   40.498
  508.000    3.529    0.287    0.348   41.606
  508.250    3.406    0.285    0.356   46.072
  508.500    3.356    0.286    0.360   49.682
  508.750    3.350    0.279    0.371   49.568
  509.000    3.396    0.289    0.381   44.325
  509.250    3.455    0.300    0.373   39.572
  509.500    3.475    0.300    0.361   44.160
  509.750    3.483    0.299    0.357   47.464
  510.000    3.497    0.300    0.362   49.488
  510.250    3.510    0.302    0.368   51.389
  510.500    3.578    0.302    0.370   54.511
  510.750    3.606    0.301    0.366   56.412
  511.000    3.620    0.301    0.378   54.100
  511.250    3.648    0.299    0.388   51.117
  511.500    3.684    0.295    0.379   51.736
  511.750    3.921    0.276    0.387   57.667
  512.000    4.173    0.228    0.379   62.192
  512.250    4.367    0.193    0.359   66.779
  512.500    4.595    0.179    0.349   71.916
  512.750    4.773    0.192    0.341   76.748
  513.000    4.892    0.223    0.358   81.335
  513.250    5.024    0.253    0.356   85.921
  513.500    5.082    0.234    0.350   90.448
  513.750    5.328    0.222    0.352   93.814
  514.000    5.576    0.217    0.359   96.386
  514.250    5.901    0.211    0.361   99.265
  514.500    6.198    0.184    0.350  102.998
  514.750    6.499    0.166    0.340  106.546
  515.000    6.737    0.159    0.346  111.012
  515.250    6.971    0.170    0.365  114.562
  515.500    7.186    0.169    0.387  117.805
  515.750    7.296    0.162    0.388  120.255
  516.000    7.522    0.167    0.376  118.676
  516.250    7.827    0.173    0.365  104.093
  516.500    8.007    0.178    0.355   87.862
  516.750    8.571    0.188    0.347   84.696
  517.000    8.801    0.204    0.356   83.361
  517.250    9.175    0.234    0.363   83.614
  517.500    8.989    0.225    0.368   87.774
  517.750    8.757    0.176    0.374   92.423
  518.000    8.976    0.152    0.379   97.805
  518.250    9.500    0.130    0.377  101.292
  518.500   10.479    0.124    0.341  104.962
  518.750   11.322    0.166    0.337   86.106
  519.000   11.982    0.196    0.348   66.457
  519.250   13.045    0.217    0.349   56.087
  519.500   14.228    0.199    0.322   50.661
  519.750   15.783    0.156    0.244   45.664
  520.000   17.541    0.049    0.220   39.689
  520.250   19.024    0.007    0.195   32.494
  520.500   19.982    0.007    0.176   28.595
  520.750   16.937    0.023    0.169   33.548
  521.000   15.246    0.037    0.187   40.700
  521.250   14.467    0.051    0.284   48.462
  521.500   14.691    0.047    0.336   56.345
  521.750   16.763    0.087    0.355   67.282
  522.000   21.414    0.095    0.321   77.974
  522.250   27.355    0.078    0.232   68.153
  522.500   33.654    0.068    0.191   43.742
  522.750   36.089    0.060    0.179   33.676
  523.000   36.853    0.053    0.172   28.984
  523.250   37.492    0.045    0.162   24.536
  523.500   37.857    0.037    0.145   21.431
  523.750   37.864    0.036    0.147   20.463
  524.000   37.804    0.051    0.156   20.289
  524.250   37.528    0.062    0.165   20.663
  524.500   36.768    0.061    0.174   21.281
  524.750   34.888    0.043    0.170   21.963
  525.000   31.289    0.030    0.160   22.641
