~VERSION INFORMATION
 VERS.                 2.0:   CWLS LOG ASCII STANDARD -VERSION 2.0
 WRAP.                  NO:   ONE LINE PER DEPTH STEP
~WELL INFORMATION BLOCK
#MNEM.UNIT           DATA                    DESCRIPTION OF MNEMONIC
#---------    -------------------            -------------------------------
# Generated from Intellog Unique Number	CW_76_78/WELL/56
WELL.         PAN AM IMP D-1 MARTEN H 06-02  : Well_name    - WELL
LOC .         00/06-02-077-26W4/0            : Location     - LOCATION
UWI .         00/06-02-077-26W4/0            : Uwi          - UNIQUE WELL ID
ENTR.         JJ                             : Entered      - ENTERED BY
SRVC.         SCHLUMBERGER                   : Scn          - SERVICE COMPANY
DATE.         10 AUG 62                      : Date         - LOG DATE
STRT.M        630.936                        : top_depth    - START DEPTH
STOP.M        758.936                        : bot_depth    - STOP DEPTH
STEP.M        0.25                           : increment    - STEP LENGTH
 NULL. -999.2500:NULL Value
~CURVE INFORMATION BLOCK
#MNEM UNIT       ERCB CURVE CODE    CURVE DESCRIPTION
#-----------   ------------------   ----------------------------------
DEPT.M        00 001 00 00         : DEPTH        - DEPTH
DELT.US/F     00 520 00 00         : DELT         - SONIC TRAVEL TIME
GR  .API      00 310 00 00         : GR           - GAMMA RAY
ILD .OHMM     00 120 00 00         : RESD         - DEEP RESISTIVITY (DIL)
~PARAMETER INFORMATION
#MNEM.UNIT           DATA             DESCRIPTION OF MNEMONIC
#---------         -----------     ------------------------------
GL  .M        835.121              : gl           - GROUND LEVEL ELEVATION
EREF.M        838.566              : kb           - ELEVATION OF DEPTH REFERENCE
DATM.M        838.566              : datum        - DATUM ELEVATION
TDD .M        760.476              : tdd          - TOTAL DEPTH DRILLER
RUN .         ONE                  : Run          - RUN NUMBER
ENG .         JAMES                : Engineer     - RECORDING ENGINEER
WIT .         MITCHELL             : Witness      - WITNESSED BY
BASE.         EDM                  : Branch       - HOME BASE OF LOGGING UNIT
MUD .         GEL                  : Mud_type     - MUD TYPE
MATR.         SANDSTONE            : Logunit      - NEUTRON MATRIX
TMAX.C        32.7778              : BHT          - MAXIMUM RECORDED TEMPERATURE
BHTD.M        762.305              : BHTDEP       - MAXIMUM RECORDED TEMPERATURE
RMT .C        15.5556              : MDTP         - TEMPERATURE OF MUD
MUDD.KG/M     1068                 : MWT          - MUD DENSITY
NEUT.         1                    : NEUTRON      - NEUTRON TYPE
RESI.         0                    : RESIST       - RESISTIVITY TYPE
RM  .OHMM     8.2                  : RM           - RESISTIVITY OF MUD
RMC .OHMM     6.5                  : RMC          - RESISTIVITY OF MUD CAKE
RMF .OHMM     5.6                  : RMF          - RESISTIVITY OF MUD FILTRATE
SUFT.C        5                    : SUFT         - SURFACE TEMPERATURE
~A  DEPTH     DELT       GR     RESD
  630.936  344.383   82.187    5.222
  631.186  362.213   88.111    5.311
  631.436  379.179   92.668    5.497
  631.686  394.232   81.235    5.956
  631.936  394.726   71.669    6.341
  632.186  361.782   74.996    6.852
  632.436  345.434   78.961    7.408
  632.686  334.946   71.810    8.223
  632.936  349.999   69.124    8.431
  633.186  352.714   68.670    7.683
  633.436  380.970   69.537    7.320
  633.686  390.717   70.040    7.949
  633.936  378.009   68.493    8.527
  634.186  351.851   67.628    9.105
  634.436  314.959   66.035    9.668
  634.686  307.371   63.622   10.320
  634.936  328.100   59.979    9.869
  635.186  367.831   57.384    9.187
  635.436  382.761   60.620    8.661
  635.686  388.375   61.715    8.358
  635.936  393.126   61.989    7.913
  636.186  394.298   62.675    7.528
  636.436  394.792   63.450    7.166
  636.686  396.026   65.365    7.677
  636.936  395.101   67.007    8.329
  637.186  381.529   66.006    8.684
  637.436  307.929   68.331    8.840
  637.686  293.431   65.280    8.759
  637.936  292.445   60.635    8.226
  638.186  330.386   56.764    7.700
  638.436  359.567   69.613    7.041
  638.686  370.857   79.774    6.537
  638.936  380.790   87.885    6.137
  639.186  379.248   89.617    6.456
  639.436  373.696   84.972    6.508
  639.686  383.999   79.233    6.197
  639.936  375.053   77.321    5.797
  640.186  345.873   77.095    5.486
  640.436  369.070   77.598    5.330
  640.686  388.257   80.196    5.301
  640.936  384.000   80.698    5.316
  641.186  357.472   81.839    5.486
  641.436  357.041   81.932    5.805
  641.686  345.196   76.557    5.768
  641.936  323.788   74.053    5.568
  642.186  335.264   78.018    5.427
  642.436  350.379   81.801    5.242
  642.686  357.042   81.757    5.191
  642.936  365.185   80.847    5.213
  643.186  371.787   79.528    5.272
  643.436  365.680   76.203    5.317
  643.686  361.793   77.845    5.376
  643.936  359.141   83.359    5.436
  644.186  356.303   80.673    5.480
  644.436  361.917   78.806    5.466
  644.686  369.814   76.029    5.429
  644.936  369.383   75.392    5.347
  645.186  360.437   79.767    5.318
  645.436  361.301   86.648    5.318
  645.686  372.159   87.880    5.244
  645.936  382.401   83.644    5.081
  646.186  392.025   77.678    4.896
  646.436  396.652   77.269    4.704
  646.686  380.181   80.961    4.607
  646.936  384.129   86.247    4.674
  647.186  373.210   89.028    5.245
  647.436  351.000   90.077    5.830
  647.686  340.143   83.701    6.778
  647.936  284.804   70.445    7.586
  648.186  268.209   62.975    7.519
  648.436  300.598   58.102    7.082
  648.686  319.353   66.167    6.630
  648.936  341.439   84.027    6.060
  649.186  373.335   86.489    5.408
  649.436  370.559   85.260    5.253
  649.686  365.809   86.856    5.216
  649.936  355.815   86.266    5.164
  650.186  363.835   80.572    5.024
  650.436  372.904   74.059    4.846
  650.686  384.935   70.461    4.757
  650.936  399.433   76.886    5.350
  651.186  389.809   77.982    5.921
  651.436  377.532   81.263    6.965
  651.686  299.244   76.117    8.261
  651.936  284.870   65.275    8.958
  652.186  276.850   59.992    9.321
  652.436  280.367   69.561    8.314
  652.686  304.057   71.339    7.625
  652.936  323.799   74.621    6.914
  653.186  343.109   80.590    6.247
  653.436  352.857   81.093    5.936
  653.686  359.212   73.623    5.722
  653.936  362.975   75.401    5.655
  654.186  366.245   75.722    5.640
  654.436  359.706   76.224    5.759
  654.686  354.154   79.643    5.996
  654.936  348.417   79.553    6.204
  655.186  339.903   77.687    6.389
  655.436  348.479   79.146    6.508
  655.686  339.225   76.824    6.523
  655.936  346.505   77.008    6.404
  656.186  343.174   77.875    6.264
  656.436  341.323   77.968    6.278
  656.686  348.418   78.015    6.523
  656.936  355.698   82.253    6.864
  657.186  358.043   79.612    7.153
  657.436  338.918   74.876    7.523
  657.686  335.834   72.508    7.761
  657.936  320.781   69.639    7.827
  658.186  321.707   68.046    7.761
  658.436  330.591   65.588    7.887
  658.686  325.285   62.583    7.835
  658.936  345.829   67.094    7.398
  659.186  323.682   72.517    6.917
  659.436  330.283   67.280    6.347
  659.686  346.879   67.965    5.991
  659.936  364.462   74.663    5.621
  660.186  382.785   78.674    5.236
  660.436  390.867   78.493    5.643
  660.686  361.254   82.185    7.029
  660.936  352.802   95.353    9.007
  661.186  347.312   99.318   10.436
  661.436  348.855   80.412   13.259
  661.686  328.928   69.207   15.125
  661.936  309.680   60.917   15.829
  662.186  254.342   56.271   18.607
  662.436  240.152   51.125   19.800
  662.686  262.547   50.716   18.096
  662.936  258.722   54.089   15.326
  663.186  254.096   59.239   14.237
  663.436  251.875   58.420   13.371
  663.686  311.964   62.112   12.534
  663.936  360.826   65.393   11.623
  664.186  389.636   67.809   12.986
  664.436  355.027   67.355   14.060
  664.686  304.809   62.938   15.771
  664.936  274.950   53.828   17.342
  665.186  256.072   51.005   18.194
  665.436  244.721   54.651   18.609
  665.686  235.590   61.076   18.298
  665.936  243.549   66.955   17.468
  666.186  247.991   71.102   16.653
  666.436  243.611   66.365   16.572
  666.686  239.848   60.034   15.957
  666.936  240.589   53.840   14.854
  667.186  244.414   54.616   13.602
  667.436  256.074   60.677   12.647
  667.686  265.452   64.459   11.802
  667.936  254.409   69.381   11.165
  668.186  285.132   64.736   10.691
  668.436  295.744   66.241    9.973
  668.686  307.280   68.247    9.447
  668.936  332.575   70.162    9.684
  669.186  359.658   71.120   10.181
  669.436  333.377   70.347   10.462
  669.686  315.610   66.567   10.625
  669.936  310.736   66.888   10.596
  670.186  305.678   65.477   10.403
  670.436  319.436   68.941    9.781
  670.686  324.742   76.459    9.130
  670.936  328.320   82.019    8.611
  671.186  333.873   75.688    8.108
  671.436  341.708   68.491    7.604
  671.686  346.705   70.361    7.123
  671.936  343.559   77.241    6.686
  672.186  348.371   83.575    6.471
  672.436  352.258   83.486    6.841
  672.686  354.788   77.155    6.975
  672.936  355.158   72.919    7.079
  673.186  332.394   75.700    7.338
  673.436  189.451   82.216    7.686
  673.686  189.143   79.576    8.057
  673.936  224.185   73.928    8.361
  674.186  322.832   71.196    8.435
  674.436  334.616   72.746    8.220
  674.686  329.064   73.249    7.954
  674.936  319.872   72.203    7.680
  675.186  326.041   71.384    7.428
  675.436  332.026   74.575    7.272
  675.686  336.838   77.037    7.302
  675.936  328.078   78.906    7.384
  676.186  316.912   79.864    7.421
  676.436  320.367   80.594    7.295
  676.686  334.433   80.414    7.132
  676.936  343.132   77.180    6.999
  677.186  351.954   76.590    6.925
  677.436  352.510   80.054    6.851
  677.686  338.444   77.823    6.799
  677.936  339.802   75.319    6.755
  678.186  336.532   74.728    6.689
  678.436  338.445   85.390    6.592
  678.686  346.774   87.533    6.563
  678.936  353.252   88.719    6.511
  679.186  352.635   89.996    6.474
  679.436  350.229   94.872    6.474
  679.686  347.762   89.589    6.534
  679.936  343.012   83.942    6.830
  680.186  336.226   77.656    7.527
  680.436  328.761   71.507    7.897
  680.686  322.900   76.611    8.305
  680.936  310.624   85.542    8.719
  681.186  308.958   85.999    8.994
  681.436  305.133   88.005    9.305
  681.686  305.072   81.446    9.801
  681.936  287.798   75.252    9.068
  682.186  271.635   70.287    7.905
  682.436  286.503   69.469    6.861
  682.686  321.792   78.719    6.165
  682.936  383.670   83.732    5.550
  683.186  375.033   91.341    5.143
  683.436  349.123   95.489    4.735
  683.686  332.774   99.180    4.928
  683.936  319.757  104.968    5.906
  684.186  308.961  104.286    7.299
  684.436  298.165   90.392    8.454
  684.686  275.154   81.328    9.684
  684.936  265.098   77.730   10.514
