~VERSION INFORMATION
 VERS.                 2.0:   CWLS LOG ASCII STANDARD -VERSION 2.0
 WRAP.                  NO:   ONE LINE PER DEPTH STEP
~WELL INFORMATION BLOCK
#MNEM.UNIT           DATA                    DESCRIPTION OF MNEMONIC
#---------    -------------------            -------------------------------
# Generated from Intellog Unique Number	CW_76_78/WELL/502
LOC .         00/06-07-076-25W4/0            : Location     - LOCATION
UWI .         00/06-07-076-25W4/0            : Uwi          - UNIQUE WELL ID
ENTR.         JAYE                           : Entered      - ENTERED BY
SRVC.         SCHLUMBERGER                   : Scn          - SERVICE COMPANY
DATE.         17 JAN 75                      : Date         - LOG DATE
STRT.M        472.44                         : top_depth    - START DEPTH
STOP.M        658.44                         : bot_depth    - STOP DEPTH
STEP.M        0.25                           : increment    - STEP LENGTH
 NULL. -999.2500:NULL Value
~CURVE INFORMATION BLOCK
#MNEM UNIT       ERCB CURVE CODE    CURVE DESCRIPTION
#-----------   ------------------   ----------------------------------
DEPT.M        00 001 00 00         : DEPTH        - DEPTH
ILD .OHMM     00 120 00 00         : RESD         - DEEP RESISTIVITY (DIL)
NPHI.V/V      00 330 00 00         : PHIN         - NEUTRON POROSITY (SANDSTONE)
DPHI.V/V      00 890 00 00         : PHID         - DENSITY POROSITY (SANDSTONE)
GR  .API      00 310 00 00         : GR           - GAMMA RAY
CALI.MM       00 280 01 00         : CAL          - CALIPER
~PARAMETER INFORMATION
#MNEM.UNIT           DATA             DESCRIPTION OF MNEMONIC
#---------         -----------     ------------------------------
GL  .M        767.182              : gl           - GROUND LEVEL ELEVATION
EREF.M        771.235              : kb           - ELEVATION OF DEPTH REFERENCE
DATM.M        767.182              : datum        - DATUM ELEVATION
TDD .M        663.55               : tdd          - TOTAL DEPTH DRILLER
RUN .         ONE                  : Run          - RUN NUMBER
ENG .         LLOYD                : Engineer     - RECORDING ENGINEER
WIT .         MUCULAK              : Witness      - WITNESSED BY
BASE.         EDM                  : Branch       - HOME BASE OF LOGGING UNIT
MUD .         GEL                  : Mud_type     - MUD TYPE
MATR.         SANDSTONE            : Logunit      - NEUTRON MATRIX
TMAX.C        30                   : BHT          - MAXIMUM RECORDED TEMPERATURE
BHTD.M        663.55               : BHTDEP       - MAXIMUM RECORDED TEMPERATURE
RMT .C        12.2222              : MDTP         - TEMPERATURE OF MUD
MUDD.KG/M     1140                 : MWT          - MUD DENSITY
NEUT.         1                    : NEUTRON      - NEUTRON TYPE
RESI.         0                    : RESIST       - RESISTIVITY TYPE
RM  .OHMM     2.73                 : RM           - RESISTIVITY OF MUD
RMC .OHMM     0                    : RMC          - RESISTIVITY OF MUD CAKE
RMF .OHMM     0                    : RMF          - RESISTIVITY OF MUD FILTRATE
SUFT.C        -17.7778             : SUFT         - SURFACE TEMPERATURE
~A  DEPTH     RESD     PHIN     PHID       GR      CAL
# ...
  508.940    2.788    0.455    0.261   88.338  223.520
  509.190    2.502    0.468    0.219   92.587  214.227
  509.440    2.412    0.479    0.155   98.661  213.179
  509.690    2.377    0.491    0.157  102.423  213.057
  509.940    2.391    0.499    0.200  105.516  212.729
  510.190    2.435    0.497    0.184  109.643  212.295
  510.440    2.475    0.483    0.181  112.857  211.970
  510.690    2.592    0.468    0.184  113.940  212.467
  510.940    2.799    0.476    0.167  114.781  213.582
  511.190    3.001    0.496    0.197  117.205  216.037
  511.440    3.247    0.502    0.242  121.211  220.140
  511.690    3.788    0.496    0.251  112.377  223.419
  511.940    4.275    0.459    0.239  102.811  219.382
  512.190    4.500    0.438    0.252   96.046  214.932
  512.440    4.468    0.446    0.270   94.697  217.901
  512.690    4.292    0.444    0.253   97.362  221.076
  512.940    4.100    0.431    0.229  100.638  223.429
  513.190    3.817    0.437    0.219   99.652  225.674
  513.440    3.653    0.445    0.216  103.293  226.277
  513.690    3.673    0.448    0.209  107.968  224.401
  513.940    4.184    0.461    0.232  101.445  222.630
  514.190    4.925    0.473    0.243   89.569  220.756
  514.440    5.766    0.468    0.257   80.004  219.813
  514.690    6.738    0.431    0.259   72.812  218.765
  514.940    8.551    0.444    0.277   69.394  217.716
  515.190    9.304    0.454    0.326   67.983  217.490
  515.440    9.237    0.451    0.305   68.034  217.988
  515.690    9.003    0.452    0.293   68.449  218.379
  515.940    8.664    0.458    0.312   67.586  218.877
  516.190    8.322    0.449    0.333   68.487  219.370
  516.440    7.950    0.437    0.297   70.606  219.768
  516.690    7.849    0.427    0.286   72.299  220.264
  516.940    8.157    0.417    0.282   73.018  221.587
  517.190    8.908    0.399    0.271   70.573  223.423
  517.440    9.429    0.364    0.217   67.642  226.392
  517.690    9.224    0.357    0.193   63.980  229.259
  517.940    8.433    0.321    0.177   60.317  229.342
  518.190    7.514    0.296    0.125   57.690  226.335
  518.440    6.502    0.319    0.116   55.914  224.358
  518.690    5.585    0.383    0.123   57.607  222.075
  518.940    4.745    0.420    0.169   65.809  219.377
  519.190    3.900    0.414    0.281   69.208  217.401
  519.440    3.507    0.428    0.267   75.100  215.631
  519.690    3.412    0.443    0.257   76.913  214.580
  519.940    3.699    0.456    0.272   72.704  214.151
  520.190    4.252    0.463    0.315   68.738  214.027
  520.440    4.427    0.463    0.324   64.587  213.801
  520.690    4.411    0.452    0.298   61.779  213.474
  520.940    4.339    0.453    0.316   58.543  212.940
  521.190    4.300    0.457    0.337   56.220  212.513
  521.440    4.300    0.443    0.334   56.330  211.874
  521.690    4.300    0.430    0.319   56.805  211.651
  521.940    4.238    0.428    0.296   57.525  212.044
  522.190    4.034    0.443    0.297   56.053  212.747
  522.440    3.715    0.473    0.303   54.096  213.859
  522.690    3.510    0.471    0.308   53.232  214.769
  522.940    3.377    0.459    0.309   57.602  215.267
  523.190    3.409    0.471    0.298   61.182  215.764
  523.440    3.661    0.478    0.295   63.423  216.158
  523.690    3.890    0.460    0.319   63.230  216.756
  523.940    4.050    0.448    0.335   57.864  217.254
  524.190    4.178    0.460    0.352   53.470  217.338
  524.440    4.240    0.461    0.369   50.296  217.320
  524.690    4.343    0.457    0.376   48.095  216.993
  524.940    4.497    0.454    0.368   49.849  216.767
  525.190    4.622    0.456    0.346   53.184  216.646
  525.440    4.875    0.461    0.350   52.138  216.937
  525.690    5.324    0.465    0.366   48.416  217.843
  525.940    5.845    0.449    0.353   45.545  218.651
  526.190    6.806    0.419    0.329   47.054  219.148
  526.440    7.794    0.406    0.276   49.174  219.437
  526.690    8.175    0.414    0.238   51.535  220.140
  526.940    7.696    0.350    0.221   53.412  220.740
  527.190    7.061    0.331    0.212   54.922  220.517
  527.440    6.397    0.323    0.176   54.972  219.673
  527.690    5.689    0.358    0.230   53.501  219.138
  527.940    5.041    0.408    0.248   55.436  219.018
  528.190    4.542    0.427    0.255   58.650  219.719
  528.440    4.307    0.445    0.236   61.804  220.628
  528.690    4.291    0.439    0.212   64.470  220.816
  528.940    4.452    0.442    0.207   65.799  219.560
  529.190    4.644    0.480    0.298   70.108  218.411
  529.440    4.888    0.452    0.329   68.089  215.815
  529.690    5.053    0.417    0.329   64.305  215.179
  529.940    5.062    0.426    0.319   61.371  216.911
  530.190    5.044    0.439    0.318   59.659  218.335
  530.440    4.989    0.444    0.337   58.794  219.759
  530.690    4.854    0.443    0.337   58.966  220.668
  530.940    4.603    0.435    0.328   59.322  220.956
  531.190    4.317    0.433    0.315   60.040  220.941
  531.440    4.124    0.458    0.324   60.820  222.673
  531.690    3.926    0.474    0.318   61.843  224.099
  531.940    3.819    0.481    0.317   64.329  221.812
  532.190    3.813    0.494    0.338   71.376  217.877
  532.440    3.862    0.481    0.357   76.720  216.210
  532.690    3.948    0.449    0.337   75.613  215.987
  532.940    4.058    0.444    0.304   74.507  216.998
  533.190    4.272    0.460    0.318   70.845  218.318
  533.440    4.514    0.480    0.326   65.845  219.535
  533.690    4.831    0.494    0.309   64.252  220.034
  533.940    5.522    0.439    0.292   64.302  219.603
  534.190    6.477    0.407    0.262   63.499  218.245
  534.440    7.350    0.372    0.261   63.062  218.226
  534.690    9.009    0.318    0.207   60.434  220.269
  534.940   10.038    0.302    0.133   57.808  221.899
  535.190    9.109    0.294    0.132   59.196  223.220
  535.440    7.585    0.302    0.126   63.627  224.953
  535.690    6.385    0.324    0.187   69.397  226.995
  535.940    5.375    0.396    0.219   78.878  223.884
  536.190    4.694    0.443    0.238   83.736  220.570
  536.440    4.291    0.460    0.240   87.741  219.108
  536.690    4.010    0.445    0.234   88.400  219.193
  536.940    3.945    0.429    0.223   85.041  223.811
  537.190    3.967    0.429    0.221   80.407  231.622
  537.440    3.996    0.420    0.235   74.675  231.090
  537.690    3.996    0.403    0.283   68.519  224.580
  537.940    3.996    0.406    0.301   61.874  212.711
  538.190    4.056    0.415    0.320   56.509  211.351
  538.440    4.063    0.421    0.332   53.516  211.953
  538.690    4.056    0.425    0.339   51.679  213.685
  538.940    3.975    0.429    0.343   53.737  215.728
  539.190    3.812    0.436    0.340   54.456  217.873
  539.440    3.729    0.417    0.339   52.985  219.298
  539.690    3.615    0.423    0.340   50.783  220.310
  539.940    3.536    0.452    0.345   50.772  221.012
  540.190    3.472    0.470    0.350   52.831  221.504
  540.440    3.473    0.447    0.353   54.584  222.106
  540.690    3.511    0.434    0.354   54.877  222.503
  540.940    3.642    0.429    0.357   54.623  222.791
  541.190    3.751    0.434    0.355   54.734  223.082
  541.440    3.884    0.443    0.347   55.514  220.592
  541.690    3.920    0.443    0.343   56.538  213.155
  541.940    3.765    0.435    0.343   57.440  212.930
  542.190    3.506    0.453    0.340   58.220  216.312
  542.440    3.325    0.482    0.342   62.834  215.674
  542.690    3.170    0.506    0.332   69.882  217.714
  542.940    3.182    0.514    0.273   77.295  220.068
  543.190    3.418    0.469    0.245   85.011  222.934
  543.440    3.815    0.451    0.239   86.887  225.699
  543.690    4.274    0.432    0.287   79.391  228.565
  543.940    4.719    0.424    0.287   76.824  230.608
  544.190    5.088    0.422    0.263   76.630  231.825
  544.440    5.386    0.423    0.241   75.524  232.424
  544.690    5.618    0.416    0.218   73.323  232.406
  544.940    5.817    0.405    0.191   69.478  231.873
  545.190    5.871    0.402    0.216   65.634  231.132
