~VERSION INFORMATION
 VERS.                 2.0:   CWLS LOG ASCII STANDARD -VERSION 2.0
 WRAP.                  NO:   ONE LINE PER DEPTH STEP
~WELL INFORMATION BLOCK
#MNEM.UNIT           DATA                    DESCRIPTION OF MNEMONIC
#---------    -------------------            -------------------------------
# Generated from Intellog Unique Number	CS_77_79/WELL/3268
WELL.         LOGAN RESOURCES LTD.           : Well_name    - WELL
LOC .         00/02-18-077-13W4/0            : Location     - LOCATION
UWI .         00/02-18-077-13W4/0            : Uwi          - UNIQUE WELL ID
ENTR.         JOETTE                         : Entered      - ENTERED BY
SRVC.         SCHLUMBERGER                   : Scn          - SERVICE COMPANY
DATE.         08/26/92                       : Date         - LOG DATE
STRT.M        295                            : top_depth    - START DEPTH
STOP.M        532                            : bot_depth    - STOP DEPTH
STEP.M        0.25                           : increment    - STEP LENGTH
 NULL. -999.2500:NULL Value
~CURVE INFORMATION BLOCK
#MNEM UNIT       ERCB CURVE CODE    CURVE DESCRIPTION
#-----------   ------------------   ----------------------------------
DEPT.M        00 001 00 00         : DEPTH        - DEPTH
ILD .OHMM     00 120 00 00         : RESD         - DEEP RESISTIVITY (DIL)
DPHI.V/V      00 890 00 00         : PHID         - DENSITY POROSITY (SANDSTONE)
NPHI.V/V      00 330 00 00         : PHIN         - NEUTRON POROSITY (SANDSTONE)
GR  .API      00 310 00 00         : GR           - GAMMA RAY
~PARAMETER INFORMATION
#MNEM.UNIT           DATA             DESCRIPTION OF MNEMONIC
#---------         -----------     ------------------------------
GL  .M        686.57               : gl           - GROUND LEVEL ELEVATION
EREF.M        690.17               : kb           - ELEVATION OF DEPTH REFERENCE
DATM.M        690.17               : datum        - DATUM ELEVATION
TDD .M        541                  : tdd          - TOTAL DEPTH DRILLER
RUN .         ONE                  : Run          - RUN NUMBER
ENG .         BILL                 : Engineer     - RECORDING ENGINEER
WIT .         JIM                  : Witness      - WITNESSED BY
MUD .         GEL                  : Mud_type     - MUD TYPE
MATR.         SANDSTONE            : Logunit      - NEUTRON MATRIX
TMAX.C        27                   : BHT          - MAXIMUM RECORDED TEMPERATURE
BHTD.M        541                  : BHTDEP       - MAXIMUM RECORDED TEMPERATURE
RMT .C        16                   : MDTP         - TEMPERATURE OF MUD
MUDD.KG/M     1190                 : MWT          - MUD DENSITY
NEUT.         1                    : NEUTRON      - NEUTRON TYPE
RESI.         0                    : RESIST       - RESISTIVITY TYPE
RM  .OHMM     4.25                 : RM           - RESISTIVITY OF MUD
RMC .OHMM     4.25                 : RMC          - RESISTIVITY OF MUD CAKE
RMF .OHMM     4.5                  : RMF          - RESISTIVITY OF MUD FILTRATE
SUFT.C        4                    : SUFT         - SURFACE TEMPERATURE
~A  DEPTH     RESD     PHID     PHIN       GR
# ...
  382.000    7.022    0.302    0.396   72.629
  382.250    7.865    0.295    0.371   75.683
  382.500    8.172    0.243    0.349   77.537
  382.750    8.494    0.151    0.323   60.205
  383.000    8.357    0.054    0.291   53.665
  383.250    7.640    0.013    0.261   47.711
  383.500    7.235    0.019    0.215   45.368
  383.750    7.109    0.049    0.191   52.034
  384.000    6.258    0.214    0.410   64.681
  384.250    5.309    0.225    0.418   82.139
  384.500    4.504    0.227    0.408   87.592
  384.750    3.965    0.226    0.401   93.657
  385.000    3.557    0.224    0.402   96.711
  385.250    3.370    0.231    0.392   91.970
  385.500    3.024    0.225    0.393   93.839
  385.750    2.864    0.229    0.395   91.496
  386.000    2.617    0.226    0.392   93.936
  386.250    2.719    0.216    0.379  100.588
  386.500    3.044    0.215    0.386   91.050
  386.750    3.283    0.211    0.396   92.905
  387.000    3.475    0.218    0.395  104.967
  387.250    3.679    0.222    0.394  106.236
  387.500    3.828    0.222    0.400  103.280
  387.750    3.904    0.230    0.403  100.937
  388.000    3.986    0.234    0.401  107.003
  388.250    3.993    0.231    0.395  100.449
  388.500    3.855    0.225    0.390   98.120
  388.750    3.720    0.222    0.390   95.164
  389.000    3.660    0.225    0.395   95.220
  389.250    3.601    0.233    0.398   97.674
  389.500    3.671    0.238    0.395   95.931
  389.750    3.959    0.242    0.401   98.985
  390.000    4.270    0.250    0.417   94.244
  390.250    5.148    0.241    0.415   88.918
  390.500    5.761    0.243    0.407   92.571
  390.750    5.881    0.265    0.392   90.215
  391.000    5.472    0.295    0.383   83.675
  391.250    4.727    0.308    0.392   80.133
  391.500    3.332    0.295    0.387   78.390
  391.750    2.675    0.281    0.397   76.647
  392.000    2.312    0.261    0.430  100.101
  392.250    2.152    0.257    0.428  111.564
  392.500    2.077    0.256    0.415  115.831
  392.750    2.006    0.255    0.478  112.275
  393.000    1.971    0.266    0.471  106.934
  393.250    2.013    0.260    0.444  108.203
  393.500    2.015    0.252    0.433  111.857
  393.750    2.015    0.247    0.481  109.514
  394.000    2.222    0.244    0.487  104.773
  394.250    1.989    0.269    0.462  107.213
  394.500    2.030    0.268    0.455  110.867
  394.750    2.151    0.263    0.448  110.337
  395.000    2.321    0.259    0.442  103.783
  395.250    2.411    0.258    0.472  105.038
  395.500    2.599    0.258    0.461  110.519
  395.750    2.963    0.253    0.434  106.363
  396.000    3.316    0.242    0.429  101.636
  396.250    3.998    0.241    0.439  106.489
  396.500    4.729    0.248    0.430  107.130
  396.750    5.391    0.264    0.417  102.389
  397.000    5.925    0.275    0.395   82.045
  397.250    6.046    0.281    0.384   68.310
  397.500    6.057    0.294    0.387   68.979
  397.750    6.067    0.305    0.384   74.418
  398.000    5.858    0.302    0.374   72.075
  398.250    5.763    0.300    0.376   64.336
  398.500    5.773    0.291    0.389   69.189
  398.750    5.891    0.270    0.393   74.641
  399.000    6.009    0.245    0.394   84.304
  399.250    6.019    0.255    0.386   89.171
  399.500    6.030    0.263    0.377   83.217
  399.750    6.046    0.271    0.381   84.472
  400.000    6.051    0.274    0.387   80.930
  400.250    6.175    0.274    0.379   81.585
  400.500    6.301    0.268    0.378   78.044
  400.750    6.674    0.258    0.376   79.299
  401.000    7.205    0.258    0.372   85.350
  401.250    7.483    0.258    0.373   81.209
  401.500    8.077    0.253    0.382   82.464
  401.750    8.235    0.188    0.379   86.731
  402.000    8.560    0.149    0.351   84.389
  402.250    8.579    0.113    0.220   51.452
  402.500    8.134    0.100    0.261   53.907
  402.750    7.703    0.125    0.349   65.355
  403.000    6.907    0.206    0.369   81.014
  403.250    6.309    0.234    0.380   87.066
  403.500    5.985    0.230    0.384   91.919
  403.750    5.880    0.244    0.378   87.192
  404.000    5.783    0.261    0.375   84.236
  404.250    5.687    0.272    0.382   90.901
  404.500    5.598    0.270    0.368   83.162
  404.750    5.603    0.268    0.365   86.216
  405.000    5.615    0.273    0.374   82.075
  405.250    5.727    0.282    0.382   78.533
  405.500    5.740    0.288    0.382   77.389
  405.750    5.752    0.299    0.377   88.838
  406.000    5.760    0.282    0.373   82.898
  406.250    5.770    0.255    0.375   69.177
  406.500    5.780    0.249    0.380   68.633
  406.750    5.793    0.259    0.375   69.302
  407.000    5.590    0.275    0.369   70.529
  407.250    5.108    0.288    0.377   74.183
  407.500    5.024    0.288    0.381   79.035
  407.750    5.126    0.271    0.372   76.093
  408.000    5.133    0.263    0.370   70.153
  408.250    4.958    0.274    0.394   75.006
  408.500    4.611    0.272    0.398   78.073
  408.750    3.840    0.264    0.394   79.928
  409.000    3.258    0.252    0.389   84.181
  409.250    3.145    0.256    0.397   83.637
  409.500    3.330    0.254    0.438   89.104
  409.750    3.661    0.254    0.423   87.974
  410.000    3.665    0.264    0.403   86.803
  410.250    3.605    0.268    0.394   83.261
  410.500    3.355    0.273    0.396   85.116
  410.750    3.181    0.266    0.400   89.383
  411.000    3.184    0.264    0.403   93.036
  411.250    3.311    0.261    0.414   94.291
  411.500    3.638    0.253    0.413  100.943
  411.750    3.922    0.217    0.383   94.403
  412.000    4.647    0.217    0.368   83.066
  412.250    4.738    0.220    0.370   80.724
  412.500    4.837    0.220    0.389   88.575
  412.750    4.932    0.219    0.390   92.242
  413.000    4.850    0.227    0.390   90.485
  413.250    4.684    0.236    0.382   89.370
  413.500    4.605    0.237    0.376   85.800
  413.750    4.699    0.234    0.379   82.272
  414.000    4.884    0.232    0.389   85.326
  414.250    5.268    0.237    0.390   97.374
  414.500    5.790    0.239    0.367   98.043
  414.750    6.133    0.227    0.363   95.087
  415.000    6.258    0.214    0.361   89.147
  415.250    6.267    0.247    0.365   81.408
  415.500    6.280    0.259    0.381   94.655
  415.750    6.294    0.260    0.375   96.523
  416.000    6.184    0.264    0.371   81.575
  416.250    6.082    0.295    0.371   73.836
  416.500    5.880    0.318    0.361   62.486
  416.750    5.885    0.332    0.357   56.546
  417.000    5.790    0.340    0.360   56.002
  417.250    5.795    0.342    0.362   60.868
  417.500    5.805    0.335    0.368   59.739
  417.750    6.034    0.327    0.371   57.383
  418.000    6.277    0.310    0.383   62.235
  418.250    6.525    0.291    0.389   58.094
  418.500    6.785    0.306    0.383   60.548
  418.750    6.924    0.326    0.371   63.602
  419.000    6.806    0.328    0.370   60.660
  419.250    6.574    0.331    0.367   56.518
  419.500    6.344    0.326    0.364   58.387
  419.750    6.127    0.324    0.366   59.042
  420.000    6.021    0.327    0.363   56.700
  420.250    5.709    0.329    0.356   57.955
  420.500    5.612    0.326    0.353   60.409
  420.750    5.325    0.325    0.360   61.664
  421.000    5.235    0.324    0.367   58.136
  421.250    5.146    0.322    0.369   59.991
  421.500    5.157    0.328    0.368   62.431
  421.750    5.162    0.330    0.368   59.489
  422.000    5.081    0.329    0.368   54.762
  422.250    5.087    0.325    0.369   56.617
  422.500    5.001    0.320    0.372   60.256
  422.750    5.010    0.316    0.373   61.525
  423.000    4.931    0.321    0.377   65.179
  423.250    4.851    0.327    0.382   60.452
  423.500    4.769    0.323    0.370   59.908
  423.750    4.688    0.325    0.360   58.179
  424.000    4.612    0.329    0.358   60.619
  424.250    4.618    0.331    0.366   61.860
  424.500    4.628    0.332    0.372   58.332
  424.750    4.637    0.332    0.369   59.601
  425.000    4.643    0.328    0.368   62.028
  425.250    4.737    0.319    0.373   61.484
