~VERSION INFORMATION
 VERS.                 2.0:   CWLS LOG ASCII STANDARD -VERSION 2.0
 WRAP.                  NO:   ONE LINE PER DEPTH STEP
~WELL INFORMATION BLOCK
#MNEM.UNIT           DATA                    DESCRIPTION OF MNEMONIC
#---------    -------------------            -------------------------------
# Generated from Intellog Unique Number	CS_69_70/WELL/781
NULL.         -999.25                        : NULL_VALUE
WELL.         SULPETRO LIMITED               : Well_name    - WELL              
LOC .         00/06-28-070-10W4/0            : Location     - LOCATION          
UWI .         00/06-28-070-10W4/0            : Uwi          - UNIQUE WELL ID    
ENTR.         SP                             : Entered      - ENTERED BY        
SRVC.         SCHLUMBERGER                   : Scn          - SERVICE COMPANY   
STRT.M        290                            : top_depth    - START DEPTH       
STOP.M        510                            : bot_depth    - STOP DEPTH        
STEP.M        0.25                           : increment    - STEP LENGTH       
~CURVE INFORMATION BLOCK
#MNEM UNIT       ERCB CURVE CODE    CURVE DESCRIPTION
#-----------   ------------------   ----------------------------------
DEPT.M        00 001 00 00         : DEPTH        - DEPTH                       
DPHI.V/V      00 890 00 00         : PHID         - DENSITY POROSITY (LIMESTONE)
NPHI.V/V      00 330 00 00         : PHIN         - NEUTRON POROSITY (LIMESTONE)
GR  .API      00 310 00 00         : GR           - GAMMA RAY                   
ILD .OHMM     00 120 00 00         : RESD         - DEEP RESISTIVITY (DIL)      
~PARAMETER INFORMATION       
#MNEM.UNIT           DATA             DESCRIPTION OF MNEMONIC
#---------         -----------     ------------------------------
GL  .M        633.84               : gl           - GROUND LEVEL ELEVATION      
EREF.M        630.84               : kb           - ELEVATION OF DEPTH REFERENCE
DATM.M        633.84               : datum        - DATUM ELEVATION             
TDD .M        518                  : tdd          - TOTAL DEPTH DRILLER         
RUN .         ONE                  : Run          - RUN NUMBER                  
ENG .         BILL                 : Engineer     - RECORDING ENGINEER          
WIT .         JIM                  : Witness      - WITNESSED BY                
MUD .         GEL                  : Mud_type     - MUD TYPE                    
MATR.         LIMESTONE            : Logunit      - NEUTRON MATRIX              
TMAX.C        27                   : BHT          - MAXIMUM RECORDED TEMPERATURE
BHTD.M        518                  : BHTDEP       - MAXIMUM RECORDED TEMPERATURE
MATR.         1                    : LOGUNIT      - NEUTRON MATRIX              
RMT .C        25                   : MDTP         - TEMPERATURE OF MUD          
NEUT.         1                    : NEUTRON      - NEUTRON TYPE                
RESI.         0                    : RESIST       - RESISTIVITY TYPE            
RMC .OHMM     0.25                 : RMC          - RESISTIVITY OF MUD CAKE     
RMF .OHMM     0.25                 : RMF          - RESISTIVITY OF MUD FILTRATE 
SUFT.C        15                   : SUFT         - SURFACE TEMPERATURE         
~A  DEPTH     PHID     PHIN       GR     RESD
# ...
  377.000    0.326    0.405   53.578   12.019
  377.250    0.334    0.422   54.134   11.833
  377.500    0.336    0.438   53.469   11.836
  377.750    0.331    0.430   52.497   11.871
  378.000    0.332    0.431   51.160   11.898
  378.250    0.326    0.423   52.877   11.975
  378.500    0.320    0.371   56.857   11.979
  378.750    0.319    0.374   53.991   11.965
  379.000    0.325    0.377   52.163   11.910
  379.250    0.330    0.384   54.554   11.891
  379.500    0.334    0.392   56.639   11.815
  379.750    0.326    0.411   57.746   11.887
  380.000    0.322    0.401   57.385   11.827
  380.250    0.326    0.409   54.520   11.835
  380.500    0.329    0.426   54.097   11.976
  380.750    0.331    0.428   55.632   12.029
  381.000    0.332    0.404   55.150   12.610
  381.250    0.327    0.368   51.245   14.291
  381.500    0.311    0.415   50.090   17.843
  381.750    0.281    0.276   50.404   22.235
  382.000    0.175    0.190   50.532   26.154
  382.250    0.058    0.129   50.418   28.936
  382.500   -0.004    0.114   50.422   26.779
  382.750   -0.011    0.117   52.996   20.015
  383.000    0.025    0.146   58.077   16.446
  383.250    0.120    0.320   61.202   14.078
  383.500    0.217    0.455   62.307   12.671
  383.750    0.278    0.465   63.108   11.793
  384.000    0.313    0.455   60.852   11.414
  384.250    0.322    0.416   59.087   11.356
  384.500    0.316    0.402   57.076   11.322
  384.750    0.313    0.391   54.638   11.439
  385.000    0.311    0.392   52.322   11.550
  385.250    0.312    0.404   51.900   11.800
  385.500    0.317    0.400   52.335   11.848
  385.750    0.321    0.403   54.175   11.903
  386.000    0.325    0.418   57.604   11.864
  386.250    0.325    0.433   56.450   11.850
  386.500    0.324    0.408   53.095   11.773
  386.750    0.324    0.389   53.651   11.735
  387.000    0.324    0.413   55.125   11.680
  387.250    0.322    0.431   55.559   11.643
  387.500    0.327    0.412   55.628   11.418
  387.750    0.337    0.402   54.472   11.318
  388.000    0.348    0.423   53.134   11.137
  388.250    0.335    0.438   54.425   11.002
  388.500    0.325    0.420   54.553   10.925
  388.750    0.321    0.405   51.809   10.850
  389.000    0.315    0.420   51.938   10.718
  389.250    0.307    0.432   57.385   10.414
  389.500    0.291    0.450   61.792   10.021
  389.750    0.279    0.463   65.894    9.624
  390.000    0.282    0.472   68.712    9.227
  390.250    0.272    0.414   71.471    8.946
  390.500    0.281    0.397   73.127    8.628
  390.750    0.264    0.393   74.845    8.458
  391.000    0.244    0.411   76.624    8.338
  391.250    0.235    0.443   76.936    8.145
  391.500    0.227    0.474   76.454    7.987
  391.750    0.218    0.475   78.783    7.931
  392.000    0.210    0.427   80.687    7.750
  392.250    0.213    0.384   81.180    7.655
  392.500    0.218    0.367   80.881    8.171
  392.750    0.222    0.358   79.177    8.042
  393.000    0.219    0.350   78.511    7.957
  393.250    0.217    0.356   77.662    7.861
  393.500    0.216    0.401   77.733    7.820
  393.750    0.216    0.408   78.227    7.727
  394.000    0.219    0.410   82.816    7.702
  394.250    0.226    0.402   82.456    7.678
  394.500    0.229    0.395   82.402    7.669
  394.750    0.221    0.387   82.409    7.688
  395.000    0.210    0.381   82.843    7.722
  395.250    0.198    0.388   84.805    7.858
  395.500    0.191    0.408   86.462    7.952
  395.750    0.192    0.422   85.429    8.046
  396.000    0.198    0.436   84.397    8.126
  396.250    0.207    0.405   86.359    8.147
  396.500    0.212    0.375   88.077    8.137
  396.750    0.215    0.365   88.329    8.098
  397.000    0.205    0.393   86.929    8.043
  397.250    0.198    0.422   83.207    7.988
  397.500    0.199    0.445   82.358    7.935
  397.750    0.205    0.444   83.464    7.881
  398.000    0.202    0.445   84.694    7.815
  398.250    0.201    0.446   83.784    7.734
  398.500    0.206    0.453   84.218    7.708
  398.750    0.208    0.463   86.181    7.602
  399.000    0.206    0.459   86.737    7.578
  399.250    0.208    0.418   85.705    7.403
  399.500    0.203    0.412   84.061    7.284
  399.750    0.197    0.426   83.212    7.090
  400.000    0.194    0.404   83.831    7.052
  400.250    0.195    0.390   84.509    6.865
  400.500    0.196    0.373   85.738    6.753
  400.750    0.199    0.387   87.884    6.499
  401.000    0.201    0.398   89.724    6.038
  401.250    0.203    0.357   87.652    5.159
  401.500    0.205    0.337   84.726    4.490
  401.750    0.210    0.323   83.754    3.873
  402.000    0.226    0.311   88.222    3.421
  402.250    0.237    0.362   91.529    3.039
  402.500    0.226    0.393   89.458    2.756
  402.750    0.219    0.418   87.937    2.758
  403.000    0.223    0.442   87.393    2.935
  403.250    0.224    0.446   87.766    3.116
  403.500    0.219    0.407   90.218    3.384
  403.750    0.209    0.393   93.586    3.662
  404.000    0.205    0.403   92.554    3.874
  404.250    0.219    0.423   89.505    4.139
  404.500    0.237    0.416   86.333    4.257
  404.750    0.228    0.387   85.850    4.463
  405.000    0.220    0.372   89.219    4.775
  405.250    0.205    0.364   87.697    5.109
  405.500    0.208    0.382   80.735    5.517
  405.750    0.238    0.401   73.957    5.837
  406.000    0.258    0.413   69.990    6.074
  406.250    0.269    0.406   69.385    5.934
  406.500    0.264    0.414   72.082    5.741
  406.750    0.249    0.410   74.168    5.557
  407.000    0.237    0.416   76.069    5.519
  407.250    0.229    0.438   77.358    5.595
  407.500    0.220    0.458   78.587    5.899
  407.750    0.232    0.459   77.921    6.046
  408.000    0.264    0.453   74.505    6.376
  408.250    0.283    0.456   71.822    6.498
  408.500    0.289    0.478   69.689    6.624
  408.750    0.283    0.428   69.390    6.793
  409.000    0.279    0.406   71.598    6.886
  409.250    0.276    0.399   74.783    6.983
  409.500    0.269    0.413   76.868    6.729
  409.750    0.262    0.411   75.284    6.734
  410.000    0.258    0.401   71.196    6.737
  410.250    0.257    0.381   67.231    6.742
  410.500    0.259    0.363   65.341    6.797
  410.750    0.262    0.369   62.842    6.802
  411.000    0.271    0.345   60.953    6.844
  411.250    0.272    0.330   67.318    6.978
  411.500    0.250    0.349   72.337    7.127
  411.750    0.229    0.367   76.744    7.198
  412.000    0.230    0.390   80.540    6.991
  412.250    0.242    0.399   83.724    6.604
  412.500    0.244    0.426   82.081    6.193
  412.750    0.239    0.446   85.327    6.128
  413.000    0.229    0.441   88.635    6.329
  413.250    0.214    0.451   90.475    6.937
  413.500    0.149    0.216   77.646    7.367
  413.750    0.088    0.192   68.056    7.249
  414.000    0.030    0.185   62.254    6.537
  414.250    0.132    0.202   64.584    5.743
  414.500    0.183    0.234   70.092    5.170
  414.750    0.205    0.300   75.295    4.883
  415.000    0.209    0.406   79.091    4.708
  415.250    0.208    0.429   81.603    4.651
  415.500    0.212    0.425   80.815    4.697
  415.750    0.226    0.405   79.477    4.735
  416.000    0.232    0.394   78.139    4.757
  416.250    0.238    0.401   77.229    4.742
  416.500    0.240    0.404   77.174    4.736
  416.750    0.231    0.383   78.342    4.730
  417.000    0.230    0.371   80.429    4.734
  417.250    0.233    0.357   83.246    4.774
  417.500    0.227    0.373   84.413    4.794
  417.750    0.223    0.390   80.570    4.842
  418.000    0.218    0.381   79.659    4.899
  418.250    0.219    0.359   79.848    4.986
  418.500    0.216    0.397   81.323    5.026
  418.750    0.210    0.421   82.429    5.086
  419.000    0.204    0.420   80.847    5.108
  419.250    0.199    0.413   78.958    5.121
  419.500    0.205    0.407   78.231    5.106
  419.750    0.209    0.418   81.049    5.091
  420.000    0.203    0.400   83.380    5.057
  420.250    0.201    0.395   84.425    5.041
