~VERSION INFORMATION
 VERS.                 2.0:   CWLS LOG ASCII STANDARD -VERSION 2.0
 WRAP.                  NO:   ONE LINE PER DEPTH STEP
~WELL INFORMATION BLOCK
#MNEM.UNIT           DATA                    DESCRIPTION OF MNEMONIC
#---------    -------------------            -------------------------------
# Generated from Intellog Unique Number	CW_73_75/WELL/3524
WELL.         ULSTER MARTIN HILLS            : Well_name    - WELL
LOC .         00/09-09-074-02W5/0            : Location     - LOCATION
UWI .         00/09-09-074-02W5/0            : Uwi          - UNIQUE WELL ID
ENTR.         T                              : Entered      - ENTERED BY
SRVC.         SCHLUMBERGER                   : Scn          - SERVICE COMPANY
STRT.M        355                            : top_depth    - START DEPTH
STOP.M        615                            : bot_depth    - STOP DEPTH
STEP.M        0.25                           : increment    - STEP LENGTH
 NULL. -999.2500:NULL Value
~CURVE INFORMATION BLOCK
#MNEM UNIT       ERCB CURVE CODE    CURVE DESCRIPTION
#-----------   ------------------   ----------------------------------
DEPT.M        00 001 00 00         : DEPTH        - DEPTH
GR  .API      00 310 00 00         : GR           - GAMMA RAY
NPHI.V/V      00 330 00 00         : PHIN         - NEUTRON POROSITY (SANDSTONE)
DPHI.V/V      00 890 00 00         : PHID         - DENSITY POROSITY (SANDSTONE)
ILD .OHMM     00 120 00 00         : RESD         - DEEP RESISTIVITY (DIL)
~PARAMETER INFORMATION
#MNEM.UNIT           DATA             DESCRIPTION OF MNEMONIC
#---------         -----------     ------------------------------
GL  .M        636                  : gl           - GROUND LEVEL ELEVATION
EREF.M        639                  : kb           - ELEVATION OF DEPTH REFERENCE
DATM.M        639                  : datum        - DATUM ELEVATION
TDD .M        620                  : tdd          - TOTAL DEPTH DRILLER
RUN .         ONE                  : Run          - RUN NUMBER
ENG .         BILL                 : Engineer     - RECORDING ENGINEER
WIT .         JIM                  : Witness      - WITNESSED BY
MUD .         GEL                  : Mud_type     - MUD TYPE
MATR.         SANDSTONE            : Logunit      - NEUTRON MATRIX
TMAX.C        21                   : BHT          - MAXIMUM RECORDED TEMPERATURE
BHTD.M        620                  : BHTDEP       - MAXIMUM RECORDED TEMPERATURE
RMT .C        22                   : MDTP         - TEMPERATURE OF MUD
MUDD.KG/M     1130                 : MWT          - MUD DENSITY
NEUT.         1                    : NEUTRON      - NEUTRON TYPE
RESI.         0                    : RESIST       - RESISTIVITY TYPE
RM  .OHMM     3.2                  : RM           - RESISTIVITY OF MUD
RMC .OHMM     3.5                  : RMC          - RESISTIVITY OF MUD CAKE
RMF .OHMM     2.4                  : RMF          - RESISTIVITY OF MUD FILTRATE
SUFT.C        4                    : SUFT         - SURFACE TEMPERATURE
~A  DEPTH       GR     PHIN     PHID     RESD
# ...
  442.000   72.915    0.377    0.269    5.814
  442.250   70.048    0.377    0.276    6.148
  442.500   67.187    0.377    0.276    6.384
  442.750   67.782    0.380    0.272    6.504
  443.000   70.108    0.382    0.269    6.754
  443.250   67.814    0.387    0.270    6.758
  443.500   64.370    0.384    0.272    6.891
  443.750   59.196    0.372    0.273    6.898
  444.000   54.027    0.358    0.275    7.030
  444.250   54.627    0.358    0.275    7.036
  444.500   56.957    0.367    0.270    7.044
  444.750   58.702    0.374    0.264    7.052
  445.000   62.754    0.379    0.270    7.058
  445.250   66.233    0.374    0.278    7.192
  445.500   61.059    0.360    0.277    7.336
  445.750   70.890    0.362    0.265    7.339
  446.000   74.374    0.365    0.243    7.483
  446.250   69.772    0.369    0.231    7.770
  446.500   65.180    0.367    0.234    7.916
  446.750   62.886    0.354    0.247    8.218
  447.000   60.020    0.357    0.263    8.533
  447.250   57.162    0.360    0.273    8.696
  447.500   56.018    0.366    0.276    8.708
  447.750   71.040    0.370    0.279    8.558
  448.000   75.674    0.375    0.280    8.409
  448.250   80.884    0.381    0.273    7.825
  448.500   85.518    0.386    0.217    7.281
  448.750   82.651    0.613    0.219    7.422
  449.000   69.401    0.612    0.255    6.905
  449.250   61.342    0.609    0.570    6.426
  449.500   70.019    0.602    0.491    6.313
  449.750   89.652    0.584    0.403    6.092
  450.000   89.093    0.559    0.331    5.774
  450.250   82.765    0.423    0.296    5.674
  450.500   85.091    0.445    0.311    5.477
  450.750   87.999    0.457    0.274    5.382
  451.000   83.983    0.397    0.270    5.289
  451.250   84.001    0.402    0.274    5.492
  451.500   82.870    0.400    0.272    5.913
  451.750   81.726    0.385    0.264    6.026
  452.000   81.744    0.381    0.254    6.257
  452.250   84.070    0.384    0.244    6.377
  452.500   88.131    0.390    0.235    6.503
  452.750   88.149    0.394    0.225    6.749
  453.000   89.330    0.388    0.215    6.881
  453.250   90.493    0.356    0.194    7.142
  453.500   91.665    0.326    0.179    7.554
  453.750   92.842    0.301    0.145    7.697
  454.000   85.356    0.268    0.057    8.915
  454.250   72.686    0.233    0.033   10.713
  454.500   68.662    0.170    0.018   11.963
  454.750   62.334    0.161   -0.008   13.360
  455.000   60.626    0.175   -0.006   11.349
  455.250   73.913    0.205    0.011    8.795
  455.500   91.816    0.303    0.033    8.487
  455.750   98.185    0.347    0.063    8.044
  456.000  101.664    0.369    0.121    7.763
  456.250  105.721    0.385    0.163    7.627
  456.500  107.470    0.395    0.154    7.500
  456.750  101.142    0.395    0.163    7.369
  457.000   94.814    0.393    0.183    7.242
  457.250   89.640    0.390    0.196    7.249
  457.500   86.197    0.380    0.196    7.390
  457.750   91.408    0.378    0.192    7.395
  458.000  100.084    0.378    0.184    7.402
  458.250  101.261    0.377    0.177    7.545
  458.500  101.856    0.361    0.177    7.417
  458.750  103.609    0.362    0.178    7.289
  459.000  100.734    0.363    0.174    7.162
  459.250   95.564    0.370    0.167    6.791
  459.500   93.270    0.375    0.163    6.794
  459.750   88.097    0.380    0.170    6.677
  460.000   82.932    0.387    0.178    6.685
  460.250   80.642    0.388    0.198    6.689
  460.500   78.348    0.384    0.221    6.697
  460.750   75.482    0.376    0.230    6.701
  461.000   77.808    0.376    0.240    7.086
  461.250   84.172    0.376    0.221    7.223
  461.500   87.652    0.376    0.206    7.230
  461.750   91.136    0.371    0.201    7.236
  462.000   92.885    0.371    0.208    7.243
  462.250   81.942    0.375    0.221    7.249
  462.500   77.922    0.376    0.233    7.126
  462.750   76.791    0.376    0.252    7.134
  463.000   76.814    0.368    0.265    7.271
  463.250   76.246    0.365    0.260    7.546
  463.500   75.110    0.357    0.128    8.275
  463.750   71.090    0.333    0.072    9.763
  464.000   66.497    0.212    0.071   11.104
  464.250   71.708    0.212    0.114   10.913
  464.500   75.188    0.236    0.135    9.972
  464.750   78.667    0.255    0.216    9.447
  465.000   83.305    0.359    0.235    8.632
  465.250   85.627    0.373    0.219    7.886
  465.500   89.688    0.373    0.200    7.338
  465.750   92.595    0.372    0.187    6.951
  466.000   91.455    0.370    0.182    6.590
  466.250   89.166    0.369    0.174    6.596
  466.500   90.338    0.373    0.171    6.723
  466.750   96.702    0.376    0.166    7.506
  467.000  105.956    0.381    0.160    7.379
  467.250  104.243    0.383    0.151    7.250
  467.500   99.646    0.366    0.150    7.127
  467.750   97.357    0.354    0.153    7.132
  468.000   97.375    0.354    0.157    7.138
  468.250   96.244    0.350    0.158    7.145
  468.500   93.382    0.345    0.162    7.025
  468.750   91.660    0.347    0.163    6.904
  469.000   92.837    0.360    0.166    6.784
  469.250   97.475    0.378    0.171    6.668
  469.500   96.335    0.390    0.174    6.435
  469.750   96.930    0.392    0.179    6.323
  470.000  101.564    0.385    0.186    6.103
  470.250  102.736    0.387    0.224    5.999
  470.500   95.254    0.396    0.255    5.895
  470.750   83.157    0.400    0.275    5.792
  471.000   68.752    0.381    0.290    5.800
  471.250   63.001    0.376    0.294    6.245
  471.500   69.375    0.376    0.263    6.724
  471.750   66.504    0.351    0.250    7.240
  472.000   61.907    0.299    0.224    7.378
  472.250   56.156    0.257    0.206    7.523
  472.500   51.559    0.257    0.232    7.393
  472.750   56.769    0.271    0.249    7.133
  473.000   61.407    0.307    0.268    6.521
  473.250   57.960    0.358    0.276    6.291
  473.500   57.987    0.378    0.274    6.071
  473.750   57.428    0.376    0.274    5.857
  474.000   56.293    0.371    0.280    5.552
  474.250   59.191    0.359    0.284    5.456
  474.500   62.094    0.335    0.284    5.461
  474.750   62.694    0.359    0.292    5.466
  475.000   65.015    0.373    0.292    5.471
  475.250   67.922    0.382    0.283    5.474
  475.500   68.517    0.379    0.277    5.683
  475.750   66.228    0.377    0.276    5.901
  476.000   69.131    0.375    0.273    5.694
  476.250   67.418    0.373    0.275    5.596
  476.500   64.552    0.378    0.280    5.500
  476.750   61.685    0.390    0.281    5.607
  477.000   61.704    0.384    0.278    5.715
  477.250   76.726    0.384    0.278    5.828
  477.500   81.365    0.391    0.279    5.938
  477.750   79.071    0.393    0.280    6.056
  478.000   73.897    0.377    0.280    6.173
  478.250   68.146    0.368    0.274    6.291
  478.500   73.933    0.365    0.269    6.414
  478.750   86.648    0.370    0.261    6.538
  479.000   89.551    0.374    0.252    6.663
  479.250   78.035    0.378    0.252    6.669
  479.500   74.010    0.380    0.255    6.675
  479.750   75.183    0.376    0.251    6.682
  480.000   80.970    0.372    0.220    6.567
  480.250   86.762    0.370    0.200    6.457
  480.500   85.631    0.363    0.180    6.344
  480.750   85.649    0.363    0.203    6.122
  481.000   87.971    0.367    0.225    5.908
  481.250   89.143    0.376    0.267    5.702
  481.500   82.238    0.379    0.276    5.501
  481.750   71.871    0.374    0.289    5.310
  482.000   70.164    0.364    0.247    5.411
  482.250   71.908    0.340    0.232    5.829
  482.500   69.046    0.328    0.224    6.161
  482.750   63.300    0.329    0.253    6.396
  483.000   68.506    0.335    0.264    6.641
  483.250   70.832    0.336    0.240    6.649
  483.500   76.047    0.332    0.207    6.653
  483.750   79.522    0.359    0.182    6.537
  484.000   83.006    0.376    0.226    6.197
  484.250   77.255    0.387    0.256    6.089
  484.500   73.244    0.386    0.266    5.876
  484.750   74.407    0.358    0.194    5.672
  485.000   77.891    0.336    0.182    5.472
  485.250   77.910    0.317    0.155    5.379
