~VERSION INFORMATION
 VERS.                 2.0:   CWLS LOG ASCII STANDARD -VERSION 2.0
 WRAP.                  NO:   ONE LINE PER DEPTH STEP
~WELL INFORMATION BLOCK
#MNEM.UNIT           DATA                    DESCRIPTION OF MNEMONIC
#---------    -------------------            -------------------------------
# Generated from Intellog Unique Number	CS_73_76/WELL/1044
WELL.         CANADIAN SUPERIOR OIL LTD.     : Well_name    - WELL
LOC .         00/06-20-076-14W4/0            : Location     - LOCATION
UWI .         00/06-20-076-14W4/0            : Uwi          - UNIQUE WELL ID
ENTR.         SP                             : Entered      - ENTERED BY
SRVC.         SCHLUMBERGER                   : Scn          - SERVICE COMPANY
STRT.M        315                            : top_depth    - START DEPTH
STOP.M        530                            : bot_depth    - STOP DEPTH
STEP.M        0.25                           : increment    - STEP LENGTH
 NULL. -999.2500:NULL Value
~CURVE INFORMATION BLOCK
#MNEM UNIT       ERCB CURVE CODE    CURVE DESCRIPTION
#-----------   ------------------   ----------------------------------
DEPT.M        00 001 00 00         : DEPTH        - DEPTH
DPHI.V/V      00 890 00 00         : PHID         - DENSITY POROSITY (LIMESTONE)
NPHI.V/V      00 330 00 00         : PHIN         - NEUTRON POROSITY (LIMESTONE)
GR  .API      00 310 00 00         : GR           - GAMMA RAY
ILD .OHMM     00 120 00 00         : RESD         - DEEP RESISTIVITY (DIL)
~PARAMETER INFORMATION
#MNEM.UNIT           DATA             DESCRIPTION OF MNEMONIC
#---------         -----------     ------------------------------
GL  .M        694.7                : gl           - GROUND LEVEL ELEVATION
EREF.M        698.7                : kb           - ELEVATION OF DEPTH REFERENCE
DATM.M        694.7                : datum        - DATUM ELEVATION
TDD .M        539                  : tdd          - TOTAL DEPTH DRILLER
RUN .         ONE                  : Run          - RUN NUMBER
ENG .         BILL                 : Engineer     - RECORDING ENGINEER
WIT .         JIM                  : Witness      - WITNESSED BY
MUD .         GEL                  : Mud_type     - MUD TYPE
MATR.         LIMESTONE            : Logunit      - NEUTRON MATRIX
TMAX.C        21                   : BHT          - MAXIMUM RECORDED TEMPERATURE
BHTD.M        539                  : BHTDEP       - MAXIMUM RECORDED TEMPERATURE
MATR.         1                    : LOGUNIT      - NEUTRON MATRIX
RMT .C        25                   : MDTP         - TEMPERATURE OF MUD
NEUT.         1                    : NEUTRON      - NEUTRON TYPE
RESI.         0                    : RESIST       - RESISTIVITY TYPE
RMC .OHMM     0.25                 : RMC          - RESISTIVITY OF MUD CAKE
RMF .OHMM     0.25                 : RMF          - RESISTIVITY OF MUD FILTRATE
SUFT.C        15                   : SUFT         - SURFACE TEMPERATURE
~A  DEPTH     PHID     PHIN       GR     RESD
# ...
  358.500    0.257    0.457   73.453    9.411
  358.750    0.266    0.483   68.020    9.592
  359.000    0.283    0.466   61.988   10.928
  359.250    0.292    0.434   59.577   11.557
  359.500    0.298    0.417   54.749   12.454
  359.750    0.291    0.405   49.922   12.929
  360.000    0.301    0.386   49.937   13.180
  360.250    0.307    0.370   48.738   13.431
  360.500    0.308    0.364   47.538   13.440
  360.750    0.316    0.370   47.555   13.700
  361.000    0.325    0.382   48.167   13.961
  361.250    0.321    0.378   49.996   13.967
  361.500    0.323    0.372   51.216   13.977
  361.750    0.313    0.378   52.437   13.983
  362.000    0.322    0.384   50.634   13.733
  362.250    0.332    0.389   50.045   13.742
  362.500    0.332    0.389   50.059   13.499
  362.750    0.335    0.400   50.065   13.503
  363.000    0.323    0.408   47.657   13.765
  363.250    0.340    0.402   47.066   13.774
  363.500    0.356    0.411   48.288   13.780
  363.750    0.354    0.424   51.929   14.043
  364.000    0.349    0.437   54.359   14.314
  364.250    0.339    0.430   52.557   14.324
  364.500    0.344    0.419   51.360   14.330
  364.750    0.349    0.408   50.766   14.338
  365.000    0.353    0.394   53.803   14.081
  365.250    0.345    0.385   52.611   14.088
  365.500    0.352    0.398   52.011   14.360
  365.750    0.355    0.414   50.209   14.368
  366.000    0.347    0.403   55.064   14.376
  366.250    0.340    0.408   56.281   14.384
  366.500    0.353    0.420   53.271   14.390
  366.750    0.352    0.408   53.283   14.135
  367.000    0.347    0.418   52.688   14.141
  367.250    0.343    0.429   51.489   14.149
  367.500    0.346    0.443   52.712   14.158
  367.750    0.334    0.421   52.724   14.167
  368.000    0.346    0.412   55.155   14.174
  368.250    0.354    0.393   54.562   13.920
  368.500    0.355    0.399   51.554   13.673
  368.750    0.347    0.410   52.169   13.429
  369.000    0.346    0.421   53.389   13.687
  369.250    0.360    0.421   53.400   13.696
  369.500    0.371    0.417   54.623   13.702
  369.750    0.348    0.413   57.055   13.457
  370.000    0.331    0.404   58.879   13.463
  370.250    0.347    0.416   58.288   13.471
  370.500    0.352    0.426   55.276   13.730
  370.750    0.347    0.411   54.078   13.739
  371.000    0.348    0.398   54.090   14.003
  371.250    0.356    0.409   55.915   14.011
  371.500    0.361    0.405   56.531   14.017
  371.750    0.345    0.388   55.335   14.025
  372.000    0.332    0.390   55.345   14.035
  372.250    0.342    0.404   54.149   14.304
  372.500    0.350    0.412   54.162   14.311
  372.750    0.334    0.418   51.148   14.318
  373.000    0.331    0.405   51.160   14.062
  373.250    0.337    0.386   50.569   14.333
  373.500    0.342    0.385   50.580   14.077
  373.750    0.343    0.382   49.986   14.085
  374.000    0.348    0.385   48.790   13.836
  374.250    0.337    0.398   50.614   13.841
  374.500    0.345    0.408   53.046   13.596
  374.750    0.349    0.415   56.084   13.109
  375.000    0.358    0.405   57.908   12.876
  375.250    0.356    0.405   60.340   12.880
  375.500    0.357    0.401   59.749   12.653
  375.750    0.367    0.408   57.340   12.658
  376.000    0.370    0.423   53.723   12.904
  376.250    0.364    0.422   50.709   13.153
  376.500    0.357    0.417   49.511   13.159
  376.750    0.353    0.414   47.710   13.411
  377.000    0.349    0.414   47.117   13.670
  377.250    0.353    0.402   47.131   13.932
  377.500    0.347    0.411   48.350   14.201
  377.750    0.331    0.428   53.200   14.477
  378.000    0.321    0.425   50.188   14.481
  378.250    0.329    0.421   47.177   14.761
  378.500    0.333    0.430   47.794   15.327
  378.750    0.341    0.440   46.599   15.621
  379.000    0.347    0.427   46.005   15.921
  379.250    0.346    0.414   45.412   15.927
  379.500    0.349    0.415   46.025   15.940
  379.750    0.340    0.407   45.432   15.945
  380.000    0.330    0.408   45.445   15.956
  380.250    0.336    0.437   41.827   15.669
  380.500    0.338    0.430   40.630   15.390
  380.750    0.344    0.420   40.642   15.405
  381.000    0.331    0.419   41.261   15.413
  381.250    0.340    0.421   42.480   15.422
  381.500    0.349    0.427   43.097   16.010
  381.750    0.346    0.434   42.505   16.015
  382.000    0.346    0.427   42.515   16.024
  382.250    0.336    0.409   43.133   15.738
  382.500    0.332    0.396   43.144   15.173
  382.750    0.342    0.409   43.765   14.629
  383.000    0.347    0.425   43.777   14.370
  383.250    0.342    0.419   43.790   14.923
  383.500    0.333    0.419   44.401   14.926
  383.750    0.330    0.425   44.418   14.934
  384.000    0.334    0.418   44.429   14.942
  384.250    0.339    0.425   43.833   14.950
  384.500    0.344    0.431   43.242   14.961
  384.750    0.348    0.428   42.646   14.691
  385.000    0.348    0.420   40.846   14.436
  385.250    0.351    0.415   40.857   14.443
  385.500    0.349    0.415   39.659   14.449
  385.750    0.337    0.410   39.065   14.453
  386.000    0.331    0.404   37.263   14.465
  386.250    0.346    0.412   39.694   14.472
  386.500    0.352    0.426   40.312   14.213
  386.750    0.358    0.426   40.929   14.218
  387.000    0.368    0.421   40.940   13.964
  387.250    0.352    0.407   39.742   13.716
  387.500    0.344    0.402   40.360   13.472
  387.750    0.347    0.404   40.370   13.483
  388.000    0.355    0.399   40.987   13.242
  388.250    0.357    0.407   40.398   13.245
  388.500    0.364    0.413   39.801   13.253
  388.750    0.367    0.403   39.210   13.018
  389.000    0.361    0.388   39.221   13.029
  389.250    0.353    0.397   39.232   12.796
  389.500    0.360    0.412   41.061   12.800
  389.750    0.360    0.416   41.676   12.806
  390.000    0.362    0.419   42.293   12.812
  390.250    0.366    0.413   41.699   12.818
  390.500    0.369    0.411   41.107   12.591
  390.750    0.360    0.420   40.514   12.836
  391.000    0.354    0.426   42.342   12.841
  391.250    0.363    0.412   43.561   12.846
  391.500    0.368    0.417   46.597   12.620
  391.750    0.371    0.418   46.609   12.625
  392.000    0.382    0.413   46.020   12.635
  392.250    0.388    0.413   46.029   12.641
  392.500    0.377    0.415   44.831   12.648
  392.750    0.376    0.415   44.844   12.655
  393.000    0.378    0.419   46.065   12.660
  393.250    0.371    0.415   46.682   12.665
  393.500    0.366    0.421   47.907   12.674
  393.750    0.370    0.430   49.731   12.679
  394.000    0.370    0.437   52.162   12.686
  394.250    0.367    0.448   52.175   12.459
  394.500    0.364    0.459   50.370   12.467
  394.750    0.356    0.470   50.382   12.944
  395.000    0.364    0.473   53.419   13.439
  395.250    0.371    0.464   52.221   12.957
  395.500    0.370    0.454   53.443   12.494
  395.750    0.371    0.447   58.294   12.734
  396.000    0.366    0.456   60.725   13.722
  396.250    0.354    0.438   57.713   14.247
  396.500    0.302    0.422   55.307   15.069
  396.750    0.218    0.279   54.712   15.643
  397.000    0.098    0.259   60.167   17.819
  397.250    0.133    0.302   62.602   19.925
  397.500    0.191    0.335   61.401   21.467
  397.750    0.180    0.377   55.365   18.524
  398.000    0.001    0.301   50.538   17.860
  398.250    0.210    0.262   52.368   17.540
  398.500    0.242    0.337   56.005   16.912
  398.750    0.272    0.371   63.277   16.005
  399.000    0.298    0.406   67.522   14.068
  399.250    0.295    0.439   65.719   13.817
  399.500    0.319    0.458   65.126   13.570
  399.750    0.335    0.462   71.189   13.331
  400.000    0.323    0.450   71.199   13.335
  400.250    0.336    0.469   71.816   12.390
  400.500    0.330    0.475   73.041   12.171
  400.750    0.339    0.465   73.655   11.952
  401.000    0.347    0.462   75.480   11.958
  401.250    0.357    0.473   76.703   11.747
  401.500    0.356    0.479   74.295   11.753
  401.750    0.346    0.470   71.284   11.759
