~VERSION INFORMATION
 VERS.                 2.0:   CWLS LOG ASCII STANDARD -VERSION 2.0
 WRAP.                  NO:   ONE LINE PER DEPTH STEP
~WELL INFORMATION BLOCK
#MNEM.UNIT           DATA                    DESCRIPTION OF MNEMONIC
#---------    -------------------            -------------------------------
# Generated from Intellog Unique Number	CW_73_75/WELL/528
LOC .         00/06-04-075-24W4/0            : Location     - LOCATION
UWI .         00/06-04-075-24W4/0            : Uwi          - UNIQUE WELL ID
ENTR.         JAYE                           : Entered      - ENTERED BY
SRVC.         SCHLUMBERGER                   : Scn          - SERVICE COMPANY
DATE.         26 FEB 75                      : Date         - LOG DATE
STRT.M        438.912                        : top_depth    - START DEPTH
STOP.M        640.162                        : bot_depth    - STOP DEPTH
STEP.M        0.25                           : increment    - STEP LENGTH
 NULL. -999.2500:NULL Value
~CURVE INFORMATION BLOCK
#MNEM UNIT       ERCB CURVE CODE    CURVE DESCRIPTION
#-----------   ------------------   ----------------------------------
DEPT.M        00 001 00 00         : DEPTH        - DEPTH
ILD .OHMM     00 120 00 00         : RESD         - DEEP RESISTIVITY (DIL)
NPHI.V/V      00 330 00 00         : PHIN         - NEUTRON POROSITY (SANDSTONE)
DPHI.V/V      00 890 00 00         : PHID         - DENSITY POROSITY (SANDSTONE)
GR  .API      00 310 00 00         : GR           - GAMMA RAY
CALI.MM       00 280 01 00         : CAL          - CALIPER
~PARAMETER INFORMATION
#MNEM.UNIT           DATA             DESCRIPTION OF MNEMONIC
#---------         -----------     ------------------------------
GL  .M        718.322              : gl           - GROUND LEVEL ELEVATION
EREF.M        723.199              : kb           - ELEVATION OF DEPTH REFERENCE
DATM.M        718.322              : datum        - DATUM ELEVATION
TDD .M        640.385              : tdd          - TOTAL DEPTH DRILLER
RUN .         ONE                  : Run          - RUN NUMBER
ENG .         FETTERLEY            : Engineer     - RECORDING ENGINEER
WIT .         HARDMAN              : Witness      - WITNESSED BY
BASE.         EDM                  : Branch       - HOME BASE OF LOGGING UNIT
MUD .         GEL CHEM             : Mud_type     - MUD TYPE
MATR.         SANDSTONE            : Logunit      - NEUTRON MATRIX
TMAX.C        26.6667              : BHT          - MAXIMUM RECORDED TEMPERATURE
BHTD.M        641.604              : BHTDEP       - MAXIMUM RECORDED TEMPERATURE
RMT .C        15.5556              : MDTP         - TEMPERATURE OF MUD
MUDD.KG/M     1020                 : MWT          - MUD DENSITY
NEUT.         1                    : NEUTRON      - NEUTRON TYPE
RESI.         0                    : RESIST       - RESISTIVITY TYPE
RM  .OHMM     7.78                 : RM           - RESISTIVITY OF MUD
RMC .OHMM     0                    : RMC          - RESISTIVITY OF MUD CAKE
RMF .OHMM     5.63                 : RMF          - RESISTIVITY OF MUD FILTRATE
SUFT.C        -17.7778             : SUFT         - SURFACE TEMPERATURE
~A  DEPTH     RESD     PHIN     PHID       GR      CAL
# ...
  584.912   25.420    0.415    0.198   65.318  229.349
  585.162   23.636    0.437    0.233   66.850  229.183
  585.412   21.145    0.466    0.261   68.381  229.222
  585.662   18.202    0.469    0.271   70.035  228.966
  585.912   14.965    0.466    0.264   65.243  228.303
  586.162   13.120    0.460    0.254   66.535  227.940
  586.412   12.335    0.452    0.241   68.671  227.069
  586.662   12.297    0.439    0.269   71.048  227.014
  586.912   12.718    0.429    0.278   68.362  226.647
  587.162   13.695    0.458    0.265   66.701  226.277
  587.412   14.401    0.470    0.275   72.513  225.914
  587.662   13.891    0.474    0.289   76.335  225.663
  587.912   13.398    0.476    0.265   76.062  225.905
  588.162   13.090    0.460    0.247   74.703  226.151
  588.412   13.026    0.433    0.217   73.527  226.297
  588.662   13.035    0.398    0.186   73.009  226.660
  588.912   13.236    0.379    0.171   70.387  226.803
  589.162   13.918    0.378    0.181   67.458  227.253
  589.412   15.405    0.384    0.191   65.797  227.514
  589.662   18.150    0.392    0.166   64.317  227.551
  589.912   19.050    0.357    0.156   62.295  227.590
  590.162   19.062    0.330    0.129   62.203  228.258
  590.412   18.659    0.335    0.108   63.434  228.603
  590.662   17.898    0.349    0.132   65.031  229.473
  590.912   16.248    0.357    0.124   66.862  229.815
  591.162   14.298    0.372    0.137   71.591  230.270
  591.412   12.467    0.394    0.168   73.905  231.032
  591.662   10.911    0.409    0.167   69.114  231.488
  591.912    9.978    0.410    0.160   68.839  231.526
  592.162    9.451    0.400    0.165   69.952  231.269
  592.412    9.216    0.383    0.148   71.724  230.492
  592.662    9.004    0.365    0.125   73.619  229.822
  592.912    8.782    0.348    0.133   75.637  228.847
  593.162    8.377    0.354    0.155   78.255  228.184
  593.412    7.746    0.391    0.146   79.122  227.821
  593.662    7.123    0.386    0.174   78.429  227.872
  593.912    6.771    0.369    0.168   78.393  228.727
  594.162    6.615    0.355    0.144   80.046  230.098
  594.412    6.559    0.381    0.120   82.906  231.672
  594.662    6.563    0.402    0.191   86.370  232.539
  594.912    6.579    0.419    0.178   89.226  232.793
  595.162    6.511    0.414    0.168   93.772  232.729
  595.412    6.304    0.410    0.159   99.046  232.567
  595.662    6.102    0.410    0.144  101.962  232.614
  595.912    5.865    0.418    0.186  103.497  232.966
  596.162    5.678    0.439    0.169  103.884  233.318
  596.412    5.537    0.449    0.183  101.982  232.343
  596.662    5.520    0.448    0.181  101.103  230.855
  596.912    5.544    0.428    0.178  101.194  224.475
  597.162    5.755    0.409    0.173   99.471  223.204
  597.412    6.040    0.366    0.204   94.858  223.138
  597.662    6.409    0.362    0.185   90.365  224.616
  597.912    6.777    0.369    0.162   85.872  226.084
  598.162    7.008    0.394    0.134   86.683  227.157
  598.412    7.104    0.394    0.147   86.347  227.305
  598.662    7.121    0.387    0.142   81.192  227.245
  598.912    7.165    0.375    0.207   82.487  227.291
  599.162    7.235    0.371    0.182   84.561  227.438
  599.412    7.347    0.388    0.191   86.033  227.785
  599.662    7.433    0.372    0.181   86.661  228.138
  599.912    7.535    0.355    0.172   86.692  228.186
  600.162    7.580    0.363    0.156   86.959  228.132
  600.412    7.571    0.376    0.155   88.189  227.973
  600.662    7.452    0.376    0.167   90.628  227.910
  600.912    7.334    0.377    0.182   93.607  227.355
  601.162    7.140    0.386    0.163   99.296  227.194
  601.412    6.849    0.412    0.124  101.494  227.130
  601.662    7.430    0.395    0.069   94.230  227.175
  601.912    8.059    0.368    0.031   84.314  227.227
  602.162    9.120    0.331    0.011   80.364  227.162
  602.412   10.686    0.282    0.074   75.930  227.006
  602.662   13.675    0.265    0.083   68.183  227.053
  602.912   15.790    0.246    0.059   64.113  227.102
  603.162   15.484    0.283    0.083   79.928  227.342
  603.412   12.161    0.355    0.102   88.691  227.498
  603.662   10.090    0.425    0.181   92.939  227.536
  603.912    8.733    0.437    0.176   90.552  227.685
  604.162    7.713    0.433    0.170   86.606  227.944
  604.412    7.159    0.417    0.165   84.581  227.776
  604.662    6.867    0.390    0.181   83.765  227.826
  604.912    6.685    0.398    0.168   87.044  228.075
  605.162    6.519    0.415    0.156   85.867  228.432
  605.412    6.440    0.413    0.185   88.966  228.570
  605.662    6.280    0.385    0.201   91.223  228.923
  605.912    6.024    0.403    0.190   84.743  228.974
  606.162    5.843    0.388    0.167   79.224  228.809
  606.412    5.761    0.389    0.149   85.638  229.064
  606.662    5.486    0.415    0.162   93.378  228.898
  606.912    5.120    0.424    0.191   93.288  228.842
  607.162    4.717    0.423    0.170   92.890  228.901
  607.412    4.370    0.383    0.139   93.278  229.146
  607.662    4.277    0.373    0.147   94.873  229.286
  607.912    4.256    0.410    0.115   98.998  229.534
  608.162    4.197    0.428    0.125   99.445  229.175
  608.412    4.177    0.434    0.146   98.810  229.011
  608.662    4.187    0.423    0.167   99.378  228.546
  608.912    4.244    0.416    0.173  100.372  225.835
  609.162    4.301    0.410    0.166  100.819  223.026
  609.412    4.392    0.405    0.184  100.724  221.651
  609.662    4.468    0.398    0.164  101.536  221.796
  609.912    4.537    0.416    0.154  103.068  223.673
  610.162    4.548    0.432    0.152  104.364  226.880
  610.412    4.576    0.439    0.116  101.072  230.602
  610.662    4.613    0.397    0.061   95.616  231.464
  610.912    4.692    0.411    0.015   88.954  231.404
  611.162    4.818    0.404    0.038   89.524  231.451
  611.412    4.910    0.387    0.102   94.854  231.504
  611.662    4.967    0.361    0.161   98.076  231.443
  611.912    4.898    0.377    0.156   99.188  231.190
  612.162    4.681    0.427    0.155  100.421  231.229
  612.412    4.112    0.464    0.200  102.011  231.270
  612.662    3.652    0.517    0.212  105.290  230.908
  612.912    3.255    0.521    0.186  104.475  230.745
  613.162    2.944    0.509    0.178  102.575  230.600
  613.412    2.702    0.504    0.167  102.665  230.640
  613.662    2.650    0.496    0.163  102.630  230.474
  613.912    2.736    0.473    0.164  101.811  230.425
  614.162    2.851    0.438    0.156   98.763  230.056
  614.412    3.058    0.385    0.142   92.643  228.369
  614.662    3.442    0.390    0.138   89.719  227.302
  614.912    3.838    0.405    0.148   89.444  227.335
  615.162    4.391    0.417    0.152   91.338  227.796
  615.412    4.878    0.419    0.143   94.379  227.834
  615.662    5.234    0.409    0.157   97.177  227.888
  615.912    5.374    0.380    0.162   95.997  228.136
  616.162    5.378    0.363    0.152   92.169  228.080
  616.412    5.321    0.374    0.136   96.234  227.812
  616.662    5.228    0.403    0.138   98.851  227.665
  616.912    5.089    0.423    0.166   96.950  227.597
  617.162    4.963    0.436    0.161   94.143  227.748
  617.412    4.939    0.437    0.156   89.831  227.895
  617.662    5.006    0.363    0.148   83.832  227.733
  617.912    5.149    0.329    0.167   73.674  227.172
  618.162    5.524    0.276    0.223   62.917  226.714
  618.412    6.003    0.204    0.347   53.119  226.540
  618.662    6.882    0.172    0.384   43.083  225.780
  618.912    7.960    0.171    0.378   41.302  225.511
  619.162   10.685    0.195    0.371   45.004  225.153
  619.412   15.952    0.221    0.382   47.141  224.681
  619.662   38.737    0.246    0.367   47.953  223.812
  619.912   55.853    0.281    0.351   47.560  223.143
  620.162   63.904    0.307    0.333   46.923  222.585
  620.412   62.437    0.372    0.322   46.948  223.031
  620.662   61.112    0.366    0.320   48.542  223.688
  620.912   58.840    0.361    0.327   49.534  224.037
  621.162   55.826    0.368    0.320   49.256  224.494
