~VERSION INFORMATION
 VERS.                 2.0:   CWLS LOG ASCII STANDARD -VERSION 2.0
 WRAP.                  NO:   ONE LINE PER DEPTH STEP
~WELL INFORMATION BLOCK
#MNEM.UNIT           DATA                    DESCRIPTION OF MNEMONIC
#---------    -------------------            -------------------------------
# Generated from Intellog Unique Number	CW_79_81/WELL/2451
WELL.         06-15-080-22W4                 : Well_name    - WELL
LOC .         00/06-15-080-22W4/0            : Location     - LOCATION
UWI .         00/06-15-080-22W4/0            : Uwi          - UNIQUE WELL ID
ENTR.         MAX                            : Entered      - ENTERED BY
SRVC.         SCHLUMBERGER                   : Scn          - SERVICE COMPANY
STRT.M        215                            : top_depth    - START DEPTH
STOP.M        434.75                         : bot_depth    - STOP DEPTH
STEP.M        0.25                           : increment    - STEP LENGTH
 NULL. -999.2500:NULL Value
~CURVE INFORMATION BLOCK
#MNEM UNIT       ERCB CURVE CODE    CURVE DESCRIPTION
#-----------   ------------------   ----------------------------------
DEPT.M        00 001 00 00         : DEPTH        - DEPTH
ILD .OHMM     00 120 00 00         : RESD         - DEEP RESISTIVITY (DIL)
NPHI.V/V      00 330 00 00         : PHIN         - NEUTRON POROSITY (SANDSTONE)
DPHI.V/V      00 890 00 00         : PHID         - DENSITY POROSITY (SANDSTONE)
GR  .API      00 310 00 00         : GR           - GAMMA RAY
CALI.MM       00 280 01 00         : CAL          - CALIPER
~PARAMETER INFORMATION
#MNEM.UNIT           DATA             DESCRIPTION OF MNEMONIC
#---------         -----------     ------------------------------
GL  .M        586                  : gl           - GROUND LEVEL ELEVATION
EREF.M        590.5                : kb           - ELEVATION OF DEPTH REFERENCE
DATM.M        586                  : datum        - DATUM ELEVATION
TDD .M        440                  : tdd          - TOTAL DEPTH DRILLER
RUN .         ONE                  : Run          - RUN NUMBER
ENG .         BILL                 : Engineer     - RECORDING ENGINEER
WIT .         JIM                  : Witness      - WITNESSED BY
MUD .         GEL                  : Mud_type     - MUD TYPE
MATR.         SANDSTONE            : Logunit      - NEUTRON MATRIX
TMAX.C        28                   : BHT          - MAXIMUM RECORDED TEMPERATURE
BHTD.M        440                  : BHTDEP       - MAXIMUM RECORDED TEMPERATURE
MATR.         1                    : LOGUNIT      - NEUTRON MATRIX
RMT .C        17                   : MDTP         - TEMPERATURE OF MUD
NEUT.         1                    : NEUTRON      - NEUTRON TYPE
RESI.         0                    : RESIST       - RESISTIVITY TYPE
RMC .OHMM     7.25                 : RMC          - RESISTIVITY OF MUD CAKE
RMF .OHMM     6.53                 : RMF          - RESISTIVITY OF MUD FILTRATE
SUFT.C        -20.5556             : SUFT         - SURFACE TEMPERATURE
~A  DEPTH     RESD     PHIN     PHID       GR      CAL
# ...
  251.500   16.621    0.409    0.289   53.642  232.584
  251.750   17.176    0.400    0.288   52.325  232.974
  252.000   17.902    0.389    0.293   51.305  232.967
  252.250   18.700    0.391    0.303   51.757  232.956
  252.500   18.426    0.414    0.308   49.267  232.947
  252.750   18.047    0.426    0.305   49.024  232.540
  253.000   17.766    0.429    0.302   48.779  231.836
  253.250   17.577    0.426    0.302   48.535  231.032
  253.500   17.536    0.423    0.304   48.471  230.328
  253.750   17.905    0.435    0.305   48.694  230.087
  254.000   18.666    0.437    0.307   47.446  230.906
  254.250   19.546    0.416    0.304   46.487  231.693
  254.500   20.468    0.399    0.299   47.138  230.988
  254.750   21.091    0.392    0.299   49.398  229.986
  255.000   21.366    0.399    0.303   52.017  229.480
  255.250   21.696    0.423    0.312   52.437  229.867
  255.500   21.990    0.427    0.318   52.184  229.859
  255.750   22.272    0.403    0.321   53.371  229.848
  256.000   22.898    0.410    0.325   54.200  229.840
  256.250   23.664    0.415    0.328   54.434  229.633
  256.500   24.337    0.413    0.329   54.131  229.326
  256.750   24.751    0.427    0.324   54.094  229.150
  257.000   25.261    0.431    0.318   56.323  228.311
  257.250   25.756    0.434    0.319   56.557  227.509
  257.500   26.002    0.432    0.322   55.897  226.408
  257.750   26.249    0.425    0.327   55.772  226.001
  258.000   26.630    0.426    0.331   56.184  226.589
  258.250   27.227    0.458    0.331   55.601  227.771
  258.500   27.595    0.450    0.331   55.100  227.761
  258.750   27.949    0.452    0.330   54.617  227.754
  259.000   28.592    0.448    0.330   53.599  228.340
  259.250   29.352    0.437    0.330   53.116  228.729
  259.500   30.083    0.424    0.328   52.813  228.820
  259.750   30.717    0.419    0.324   50.552  229.289
  260.000   30.909    0.422    0.324   48.806  229.696
  260.250   31.099    0.434    0.326   49.040  230.084
  260.500   31.442    0.435    0.330   50.347  230.473
  260.750   31.742    0.435    0.334   51.654  231.060
  261.000   31.994    0.437    0.336   52.423  231.747
  261.250   32.489    0.432    0.336   52.704  232.052
  261.500   32.927    0.417    0.336   52.948  231.629
  261.750   33.352    0.424    0.336   53.897  230.029
  262.000   34.116    0.435    0.338   54.130  229.027
  262.250   35.021    0.444    0.341   53.409  228.821
  262.500   36.073    0.446    0.343   52.629  229.110
  262.750   38.149    0.437    0.351   54.113  229.100
  263.000   41.488    0.430    0.354   55.598  229.090
  263.250   43.161    0.445    0.348   54.639  229.082
  263.500   43.798    0.462    0.341   54.395  228.775
  263.750   42.875    0.469    0.335   55.463  228.170
  264.000   40.738    0.464    0.331   57.425  227.565
  264.250   37.672    0.457    0.329   59.048  227.554
  264.500   34.638    0.473    0.325   60.038  227.547
  264.750   32.121    0.471    0.321   59.555  227.139
  265.000   30.903    0.460    0.323   56.569  227.031
  265.250   29.961    0.467    0.331   54.298  227.023
  265.500   29.199    0.491    0.340   54.233  227.015
  265.750   29.257    0.504    0.343   56.382  227.004
  266.000   29.651    0.497    0.342   57.619  226.995
  266.250   30.440    0.491    0.341   58.092  226.987
  266.500   31.401    0.490    0.342   58.921  226.382
  266.750   32.346    0.481    0.342   58.797  226.373
  267.000   33.210    0.464    0.338   57.480  227.058
  267.250   34.234    0.454    0.334   55.704  227.529
  267.500   34.938    0.464    0.332   55.202  227.935
  267.750   35.147    0.468    0.331   55.674  228.721
  268.000   35.007    0.451    0.329   56.861  229.507
  268.250   34.633    0.436    0.326   58.049  229.896
  268.500   34.148    0.436    0.323   59.534  229.888
  268.750   33.477    0.455    0.320   63.075  229.876
  269.000   32.532    0.447    0.317   65.305  229.867
  269.250   31.427    0.440    0.319   63.870  229.858
  269.500   30.838    0.431    0.323   61.539  230.148
  269.750   30.201    0.425    0.328   59.745  230.338
  270.000   29.380    0.432    0.330   59.383  230.329
  270.250   28.500    0.464    0.329   60.807  230.237
  270.500   28.087    0.497    0.334   60.801  229.812
  270.750   28.636    0.497    0.346   61.035  229.009
  271.000   29.054    0.481    0.354   58.943  227.908
  271.250   29.233    0.460    0.355   56.553  227.303
  271.500   29.216    0.444    0.348   55.415  227.295
  271.750   29.275    0.442    0.340   57.147  227.284
  272.000   29.665    0.451    0.342   59.874  227.273
  272.250   30.654    0.447    0.358   61.778  227.266
  272.500   31.835    0.449    0.364   61.892  227.258
  272.750   32.908    0.457    0.363   61.051  227.249
  273.000   33.562    0.464    0.359   60.093  227.240
  273.250   33.393    0.461    0.356   59.798  227.231
  273.500   32.679    0.461    0.355   59.543  227.221
  273.750   31.148    0.469    0.351   59.777  227.211
  274.000   29.234    0.469    0.349   60.011  227.202
  274.250   27.411    0.465    0.346   60.244  227.194
  274.500   25.882    0.458    0.344   60.358  227.088
  274.750   24.539    0.447    0.340   59.964  226.680
  275.000   23.850    0.445    0.336   59.213  226.669
  275.250   22.729    0.446    0.337   60.401  226.662
  275.500   22.117    0.443    0.340   61.588  226.951
  275.750   21.811    0.436    0.340   62.179  227.141
  276.000   21.760    0.430    0.335   61.519  227.132
  276.250   21.784    0.435    0.326   58.243  227.122
  276.500   20.592    0.437    0.323   55.008  227.113
  276.750   17.095    0.428    0.321   55.241  228.296
  277.000   11.764    0.451    0.316   61.019  228.585
  277.250    9.694    0.469    0.311   62.921  228.378
  277.500    9.716    0.468    0.314   59.816  228.072
  277.750   11.223    0.446    0.339   58.310  228.061
  278.000   11.294    0.423    0.335   55.571  228.053
  278.250    9.642    0.423    0.332   57.236  228.442
  278.500    8.021    0.438    0.332   60.152  228.830
  278.750    7.145    0.474    0.333   61.816  229.219
  279.000    6.873    0.512    0.333   61.394  229.509
  279.250    6.903    0.508    0.330   59.618  229.499
  279.500    6.851    0.478    0.325   59.115  229.489
  279.750    6.665    0.453    0.320   61.973  229.481
  280.000    6.319    0.438    0.305   67.691  230.068
  280.250    5.881    0.451    0.289   74.125  230.456
  280.500    5.463    0.481    0.281   79.902  230.546
  280.750    5.108    0.493    0.281   84.924  231.016
  281.000    4.794    0.520    0.263   87.403  231.421
  281.250    4.446    0.528    0.267   86.205  231.811
  281.500    4.255    0.514    0.280   87.333  231.901
  281.750    4.169    0.502    0.285   89.474  231.892
  282.000    4.159    0.509    0.279   91.854  231.883
  282.250    4.224    0.545    0.271   93.983  231.873
  282.500    4.281    0.535    0.271   92.735  231.864
  282.750    4.336    0.527    0.272   89.153  231.459
  283.000    4.347    0.512    0.273   87.002  231.351
  283.250    4.286    0.493    0.276   85.209  231.342
  283.500    4.177    0.488    0.281   83.414  231.332
  283.750    4.107    0.529    0.289   81.977  231.158
  284.000    4.192    0.533    0.294   81.972  230.319
  284.250    4.597    0.525    0.304   79.582  230.311
  284.500    5.191    0.500    0.314   75.225  230.601
  284.750    6.130    0.489    0.324   70.092  230.592
  285.000    7.461    0.498    0.331   65.019  230.286
  285.250    8.722    0.505    0.332   60.234  230.193
  285.500    9.353    0.468    0.337   58.987  229.768
  285.750    9.666    0.447    0.331   57.789  229.760
  286.000   10.138    0.435    0.316   53.551  229.452
  286.250   10.828    0.420    0.299   49.730  229.245
  286.500   11.733    0.409    0.297   48.294  229.138
  286.750   12.992    0.435    0.330   50.414  228.647
  287.000   14.541    0.451    0.328   53.887  228.223
  287.250   15.429    0.448    0.332   57.220  228.217
  287.500   15.899    0.460    0.338   59.123  228.208
  287.750   16.105    0.464    0.345   60.191  228.398
