~VERSION INFORMATION
 VERS.                 2.0:   CWLS LOG ASCII STANDARD -VERSION 2.0
 WRAP.                  NO:   ONE LINE PER DEPTH STEP
~WELL INFORMATION BLOCK
#MNEM.UNIT           DATA                    DESCRIPTION OF MNEMONIC
#---------    -------------------            -------------------------------
# Generated from Intellog Unique Number	CN_94_101/WELL/3278
WELL.         CDC OIL & GAS LTD.             : Well_name    - WELL
LOC .         00/03-14-095-07W4/0            : Location     - LOCATION
UWI .         00/03-14-095-07W400            : Uwi          - UNIQUE WELL ID
ENTR.         JOETTE                         : Entered      - ENTERED BY
SRVC.         SCHLUMBERGER                   : Scn          - SERVICE COMPANY
DATE.         07/22/92                       : Date         - LOG DATE
STRT.M        50                             : top_depth    - START DEPTH
STOP.M        286                            : bot_depth    - STOP DEPTH
STEP.M        0.25                           : increment    - STEP LENGTH
 NULL. -999.2500:NULL Value
~CURVE INFORMATION BLOCK
#MNEM UNIT       ERCB CURVE CODE    CURVE DESCRIPTION
#-----------   ------------------   ----------------------------------
DEPT.M        00 001 00 00         : DEPTH        - DEPTH
GR  .API      00 310 00 00         : GR           - GAMMA RAY
ILD .OHMM     00 120 00 00         : RESD         - DEEP RESISTIVITY (DIL)
NPHI.V/V      00 330 00 00         : PHIN         - NEUTRON POROSITY (SANDSTONE)
DPHI.V/V      00 890 00 00         : PHID         - DENSITY POROSITY (SANDSTONE)
~PARAMETER INFORMATION
#MNEM.UNIT           DATA             DESCRIPTION OF MNEMONIC
#---------         -----------     ------------------------------
GL  .M        505.28               : gl           - GROUND LEVEL ELEVATION
EREF.M        506.66               : kb           - ELEVATION OF DEPTH REFERENCE
DATM.M        506.66               : datum        - DATUM ELEVATION
TDD .M        404                  : tdd          - TOTAL DEPTH DRILLER
RUN .         ONE                  : Run          - RUN NUMBER
ENG .         JO                   : Engineer     - RECORDING ENGINEER
WIT .         TIM                  : Witness      - WITNESSED BY
MUD .         GEL                  : Mud_type     - MUD TYPE
MATR.         SANDSTONE            : Logunit      - NEUTRON MATRIX
TMAX.C        21                   : BHT          - MAXIMUM RECORDED TEMPERATURE
BHTD.M        404                  : BHTDEP       - MAXIMUM RECORDED TEMPERATURE
RMT .C        15                   : MDTP         - TEMPERATURE OF MUD
MUDD.KG/M     1030                 : MWT          - MUD DENSITY
NEUT.         1                    : NEUTRON      - NEUTRON TYPE
RESI.         0                    : RESIST       - RESISTIVITY TYPE
RM  .OHMM     0.33                 : RM           - RESISTIVITY OF MUD
RMC .OHMM     0.58                 : RMC          - RESISTIVITY OF MUD CAKE
RMF .OHMM     0.32                 : RMF          - RESISTIVITY OF MUD FILTRATE
SUFT.C        4                    : SUFT         - SURFACE TEMPERATURE
~A  DEPTH       GR     RESD     PHIN     PHID
   50.000   35.522   20.719    0.356    0.224
   50.250   36.092   21.431    0.351    0.220
   50.500   36.661   21.783    0.339    0.166
   50.750   39.008   21.757    0.330    0.148
   51.000   40.170   20.995    0.325    0.156
   51.250   40.745   20.626    0.322    0.157
   51.500   40.723   19.562    0.318    0.159
   51.750   40.707   18.877    0.316    0.147
   52.000   40.679   18.228    0.315    0.147
   52.250   40.657   17.288    0.317    0.150
   52.500   40.635   16.690    0.323    0.150
   52.750   41.199   15.826    0.333    0.150
   53.000   41.177   15.548    0.335    0.150
   53.250   40.574   15.264    0.328    0.151
   53.500   39.356   15.257    0.321    0.155
   53.750   38.161   15.239    0.317    0.157
   54.000   36.954   15.493    0.311    0.157
   54.250   36.927   16.021    0.309    0.154
   54.500   36.899   17.150    0.300    0.146
   54.750   36.290   18.997    0.293    0.144
   55.000   36.279   19.987    0.284    0.146
   55.250   35.067   19.973    0.282    0.146
   55.500   35.637   20.649    0.288    0.148
   55.750   36.799   20.630    0.294    0.148
   56.000   36.782   20.615    0.299    0.148
   56.250   35.565   20.239    0.303    0.155
   56.500   34.956   19.874    0.307    0.178
   56.750   34.347   19.515    0.312    0.178
   57.000   33.136   19.497    0.305    0.149
   57.250   32.527   19.145    0.301    0.135
   57.500   32.505   19.127    0.301    0.138
   57.750   32.483   18.782    0.301    0.141
   58.000   33.645   18.765    0.304    0.144
   58.250   35.991   18.747    0.309    0.146
   58.500   37.745   18.409    0.314    0.153
   58.750   37.728   18.396    0.317    0.160
   59.000   38.287   18.060    0.321    0.179
   59.250   38.271   18.051    0.326    0.188
   59.500   38.243   18.026    0.330    0.190
   59.750   38.226   18.013    0.333    0.189
   60.000   38.210   17.987    0.334    0.183
   60.250   39.372   17.974    0.335    0.185
   60.500   39.942   17.962    0.334    0.190
   60.750   39.919   17.949    0.333    0.198
   61.000   38.104   17.924    0.329    0.204
   61.250   38.099   17.911    0.325    0.214
   61.500   37.473   17.898    0.330    0.228
   61.750   37.462   17.877    0.371    0.249
   62.000   38.038   17.864    0.416    0.326
   62.250   39.786   17.843    0.430    0.333
   62.500   40.351   17.526    0.370    0.258
   62.750   40.334   17.205    0.296    0.162
   63.000   40.306   16.606    0.299    0.154
   63.250   40.295   16.311    0.307    0.156
   63.500   40.865   16.013    0.306    0.180
   63.750   41.430   15.720    0.309    0.192
   64.000   43.178   15.444    0.320    0.206
   64.250   43.167   15.162    0.337    0.227
   64.500   43.145   14.631    0.347    0.262
   64.750   43.715   14.374    0.342    0.209
   65.000   44.280   14.111    0.335    0.184
   65.250   44.861   13.860    0.331    0.172
   65.500   46.012   13.610    0.331    0.166
   65.750   47.185   13.361    0.331    0.154
   66.000   47.157   13.117    0.332    0.164
   66.250   47.727   13.108    0.333    0.176
   66.500   47.710   13.099    0.333    0.188
   66.750   47.688   12.860    0.334    0.208
   67.000   47.660   12.409    0.339    0.250
   67.250   47.052   12.400    0.345    0.264
   67.500   46.437   12.182    0.343    0.266
   67.750   45.231   12.171    0.336    0.234
   68.000   44.622   13.479    0.325    0.157
   68.250   44.002   13.707    0.311    0.153
   68.500   43.986   14.171    0.297    0.161
   68.750   43.371   14.404    0.351    0.187
   69.000   41.573   13.661    0.416    0.202
   69.250   36.222   13.192    0.441    0.218
   69.500   30.278   11.883    0.442    0.257
   69.750   22.553   10.163    0.430    0.283
   70.000   18.978    9.478    0.423    0.328
   70.250   19.554   10.499    0.419    0.372
   70.500   21.302   11.437    0.414    0.368
   70.750   23.056   12.242    0.408    0.362
   71.000   25.397   12.657    0.397    0.359
   71.250   27.163   13.317    0.391    0.359
   71.500   34.838   14.502    0.390    0.361
   71.750   41.921   15.258    0.432    0.364
   72.000   44.267   15.779    0.453    0.387
   72.250   44.245   16.038    0.438    0.387
   72.500   43.044   15.757    0.394    0.386
   72.750   41.246   14.948    0.326    0.230
   73.000   40.039   14.427    0.320    0.217
   73.250   40.017   14.160    0.313    0.208
   73.500   40.582   14.147    0.311    0.196
   73.750   40.560   14.137    0.320    0.182
   74.000   42.314   14.127    0.335    0.171
   74.250   42.884   14.110    0.337    0.166
   74.500   41.091   13.612    0.324    0.168
   74.750   37.510   13.609    0.321    0.174
   75.000   34.533   13.364    0.360    0.191
   75.250   31.550   13.123    0.367    0.210
   75.500   26.786   12.883    0.378    0.273
   75.750   23.216   12.874    0.388    0.331
   76.000   21.418   12.642    0.402    0.354
   76.250   20.803   13.073    0.426    0.387
   76.500   19.005   13.748    0.416    0.385
   76.750   18.391   13.977    0.400    0.374
   77.000   17.776   13.967    0.394    0.359
   77.250   18.346   13.954    0.389    0.344
   77.500   19.508   14.183    0.397    0.335
   77.750   20.073   14.664    0.410    0.331
   78.000   20.051   14.908    0.421    0.349
   78.250   20.034   15.413    0.417    0.359
   78.500   20.017   15.667    0.390    0.374
   78.750   19.392   15.656    0.383    0.372
   79.000   18.783   14.848    0.379    0.362
   79.250   18.767   14.588    0.377    0.359
   79.500   18.744   14.080    0.361    0.377
   79.750   18.125   13.354    0.355    0.399
   80.000   18.113   13.113    0.361    0.413
   80.250   18.086   12.880    0.370    0.429
   80.500   18.069   12.431    0.381    0.475
   80.750   18.628   11.995    0.397    0.502
   81.000   19.209   11.987    0.407    0.522
   81.250   19.768   11.970    0.412    0.536
   81.500   20.349   11.964    0.417    0.553
   81.750   20.913   12.158    0.424    0.569
   82.000   21.483   12.146    0.433    0.568
   82.250   22.053   12.132    0.424    0.537
   82.500   23.210   12.123    0.410    0.504
   82.750   24.383   12.115    0.396    0.485
   83.000   26.137   12.100    0.385    0.444
   83.250   29.081   12.086    0.386    0.422
   83.500   34.383   12.080    0.391    0.399
   83.750   38.511   11.863    0.386    0.367
   84.000   41.444   11.646    0.377    0.337
   84.250   42.606   11.436    0.364    0.221
   84.500   43.170   11.428    0.366    0.223
   84.750   43.745   11.030    0.364    0.231
   85.000   43.734   10.643    0.361    0.247
   85.250   43.712   10.454    0.358    0.270
   85.500   44.277    9.917    0.355    0.294
   85.750   44.260    9.738    0.354    0.236
   86.000   44.232    9.560    0.354    0.237
   86.250   43.612    9.554    0.354    0.243
   86.500   41.819    9.219    0.355    0.252
   86.750   40.619    8.896    0.355    0.281
   87.000   36.446    8.739    0.356    0.313
   87.250   31.692    8.578    0.359    0.402
   87.500   26.341    8.721    0.361    0.438
   87.750   26.911    9.335    0.359    0.382
   88.000   34.581    9.997    0.359    0.241
   88.250   35.151   11.269    0.369    0.239
   88.500   32.766   12.060    0.384    0.251
   88.750   28.593   12.474    0.404    0.307
   89.000   27.387   12.676    0.408    0.321
   89.250   27.376   11.820    0.399    0.323
   89.500   27.354   11.213    0.388    0.326
   89.750   33.253   11.011    0.374    0.345
   90.000   37.962   11.003    0.377    0.404
   90.250   37.353   10.993    0.387    0.454
   90.500   35.549    9.084    0.413    0.524
   90.750   34.348    8.324    0.426    0.492
   91.000   35.510    8.172    0.446    0.438
   91.250   37.264    8.308    0.464    0.272
   91.500   40.789    8.594    0.435    0.271
   91.750   41.946    8.885    0.412    0.300
   92.000   42.527    9.031    0.397    0.315
   92.250   43.103    8.716    0.365    0.189
   92.500   45.438    8.267    0.340    0.187
   92.750   46.019    8.122    0.337    0.179
   93.000   47.175    7.839    0.333    0.166
   93.250   47.159    7.698    0.331    0.166
