~VERSION INFORMATION
 VERS.                 2.0:   CWLS LOG ASCII STANDARD -VERSION 2.0
 WRAP.                  NO:   ONE LINE PER DEPTH STEP
~WELL INFORMATION BLOCK
#MNEM.UNIT           DATA                    DESCRIPTION OF MNEMONIC
#---------    -------------------            -------------------------------
# Generated from Intellog Unique Number	CW_79_81/WELL/2458
WELL.         AMOCO BRINTNELL                : Well_name    - WELL
LOC .         00/07-15-081-23W4/0            : Location     - LOCATION
UWI .         00/07-15-081-23W4/0            : Uwi          - UNIQUE WELL ID
ENTR.         MAX                            : Entered      - ENTERED BY
SRVC.         COMPUTALOG                     : Scn          - SERVICE COMPANY
STRT.M        230                            : top_depth    - START DEPTH
STOP.M        455                            : bot_depth    - STOP DEPTH
STEP.M        0.25                           : increment    - STEP LENGTH
 NULL. -999.2500:NULL Value
~CURVE INFORMATION BLOCK
#MNEM UNIT       ERCB CURVE CODE    CURVE DESCRIPTION
#-----------   ------------------   ----------------------------------
DEPT.M        00 001 00 00         : DEPTH        - DEPTH
ILD .OHMM     00 120 00 00         : RESD         - DEEP RESISTIVITY (DIL)
NPHI.V/V      00 330 00 00         : PHIN         - NEUTRON POROSITY (SANDSTONE)
DPHI.V/V      00 890 00 00         : PHID         - DENSITY POROSITY (SANDSTONE)
GR  .API      00 310 00 00         : GR           - GAMMA RAY
CALI.MM       00 280 01 00         : CAL          - CALIPER
~PARAMETER INFORMATION
#MNEM.UNIT           DATA             DESCRIPTION OF MNEMONIC
#---------         -----------     ------------------------------
GL  .M        605                  : gl           - GROUND LEVEL ELEVATION
EREF.M        608.6                : kb           - ELEVATION OF DEPTH REFERENCE
DATM.M        605                  : datum        - DATUM ELEVATION
TDD .M        453.3                : tdd          - TOTAL DEPTH DRILLER
RUN .         ONE                  : Run          - RUN NUMBER
ENG .         BILL                 : Engineer     - RECORDING ENGINEER
WIT .         JIM                  : Witness      - WITNESSED BY
MUD .         GEL                  : Mud_type     - MUD TYPE
MATR.         SANDSTONE            : Logunit      - NEUTRON MATRIX
TMAX.C        32                   : BHT          - MAXIMUM RECORDED TEMPERATURE
BHTD.M        453.3                : BHTDEP       - MAXIMUM RECORDED TEMPERATURE
MATR.         1                    : LOGUNIT      - NEUTRON MATRIX
RMT .C        26.7                 : MDTP         - TEMPERATURE OF MUD
NEUT.         1                    : NEUTRON      - NEUTRON TYPE
RESI.         0                    : RESIST       - RESISTIVITY TYPE
RMC .OHMM     4                    : RMC          - RESISTIVITY OF MUD CAKE
RMF .OHMM     7.5                  : RMF          - RESISTIVITY OF MUD FILTRATE
SUFT.C        5                    : SUFT         - SURFACE TEMPERATURE
~A  DEPTH     RESD     PHIN     PHID       GR      CAL
  230.000    3.250    0.477    0.260   77.297  226.518
  230.250    3.249    0.475    0.253   77.060  227.408
  230.500    3.213    0.475    0.249   76.651  227.603
  230.750    3.140    0.465    0.251   76.418  227.215
  231.000    3.047    0.454    0.256   76.558  226.625
  231.250    2.937    0.472    0.259   77.436  226.661
  231.500    2.847    0.490    0.263   79.255  226.690
  231.750    2.699    0.489    0.269   80.756  226.712
  232.000    2.649    0.489    0.273   81.327  227.357
  232.250    2.639    0.488    0.274   81.961  228.621
  232.500    2.644    0.485    0.275   82.532  229.886
  232.750    2.672    0.472    0.279   81.708  230.265
  233.000    2.715    0.470    0.285   81.211  232.008
  233.250    2.776    0.491    0.283   81.474  234.509
  233.500    2.824    0.514    0.279   79.882  235.153
  233.750    2.824    0.531    0.277   79.774  234.149
  234.000    2.781    0.537    0.276   81.397  231.600
  234.250    2.726    0.521    0.271   81.553  227.513
  234.500    2.663    0.507    0.265   79.767  227.536
  234.750    2.623    0.511    0.264   81.266  228.391
  235.000    2.613    0.524    0.265   82.208  228.314
  235.250    2.622    0.536    0.265   82.472  227.312
  235.500    2.647    0.544    0.264   82.427  225.694
  235.750    2.704    0.545    0.263   83.044  223.989
  236.000    2.790    0.530    0.264   83.578  223.583
  236.250    2.832    0.514    0.264   83.593  224.443
  236.500    2.859    0.512    0.260   83.608  225.291
  236.750    2.881    0.505    0.256   84.119  225.934
  237.000    2.897    0.494    0.255   84.384  226.271
  237.250    2.901    0.499    0.261   81.754  226.299
  237.500    2.924    0.514    0.258   78.424  226.328
  237.750    2.924    0.523    0.263   78.931  226.771
  238.000    2.907    0.526    0.270   80.557  225.974
  238.250    2.896    0.520    0.278   82.676  225.175
  238.500    2.890    0.509    0.283   84.484  225.406
  238.750    2.868    0.503    0.280   84.740  227.333
  239.000    2.868    0.500    0.274   83.470  226.500
  239.250    2.933    0.490    0.281   82.744  223.642
  239.500    3.186    0.491    0.284   77.009  222.637
  239.750    3.734    0.483    0.282   68.985  222.662
  240.000    4.732    0.453    0.268   60.344  222.791
  240.250    6.525    0.383    0.226   50.523  221.828
  240.500    8.721    0.349    0.216   44.618  220.998
  240.750   11.016    0.355    0.304   46.361  220.201
  241.000   13.078    0.363    0.336   48.107  219.713
  241.250   15.196    0.369    0.345   48.619  219.533
  241.500   17.686    0.374    0.352   48.018  219.559
  241.750   20.203    0.384    0.357   47.738  219.764
  242.000   21.351    0.403    0.360   47.499  220.651
  242.250   22.835    0.417    0.357   46.771  221.509
  242.500   24.564    0.430    0.355   45.489  222.665
  242.750   26.957    0.436    0.354   43.899  224.337
  243.000   30.055    0.433    0.354   42.988  226.117
  243.250   33.336    0.427    0.357   44.904  226.975
  243.500   35.510    0.434    0.363   46.980  227.003
  243.750   37.142    0.437    0.369   49.470  224.970
  244.000   38.425    0.433    0.372   50.475  222.934
  244.250   39.307    0.428    0.372   51.110  221.314
  244.500   39.828    0.426    0.370   51.870  220.417
  244.750   40.127    0.422    0.368   52.682  220.445
  245.000   40.124    0.424    0.363   52.954  220.477
  245.250   39.820    0.434    0.355   51.239  220.499
  245.500   39.743    0.441    0.346   46.742  219.911
  245.750   40.189    0.443    0.329   43.913  219.320
  246.000   41.554    0.446    0.317   44.486  219.035
  246.250   44.974    0.464    0.343   47.682  219.240
  246.500   47.528    0.463    0.368   48.727  220.127
  246.750   50.083    0.467    0.364   49.734  220.976
  247.000   53.369    0.469    0.360   50.371  224.612
  247.250   57.523    0.465    0.361   50.138  231.442
  247.500   62.084    0.460    0.367   48.605  240.124
  247.750   65.671    0.462    0.373   45.153  248.780
  248.000   66.709    0.462    0.373   43.883  254.820
  248.250   67.209    0.447    0.372   42.663  256.496
  248.500   67.714    0.437    0.372   41.626  257.243
  248.750   67.966    0.430    0.373   41.395  257.476
  249.000   67.574    0.426    0.375   41.536  257.606
  249.250   65.852    0.429    0.372   40.516  258.224
  249.500   64.823    0.427    0.356   40.273  259.111
  249.750   65.802    0.431    0.363   38.309  259.136
  250.000   67.173    0.440    0.368   37.831  258.545
  250.250   68.450    0.441    0.373   38.097  257.543
  250.500   69.358    0.436    0.376   38.361  256.337
  250.750   70.205    0.433    0.376   37.987  254.877
  251.000   71.878    0.435    0.375   38.521  253.608
  251.250   72.965    0.435    0.375   41.257  252.399
  251.500   73.652    0.436    0.374   41.210  251.502
  251.750   73.927    0.439    0.372   40.608  250.498
  252.000   73.783    0.446    0.371   41.244  249.185
  252.250   72.991    0.458    0.375   44.376  247.143
  252.500   71.850    0.473    0.379   43.878  245.024
  252.750   71.305    0.474    0.379   44.140  242.988
  253.000   70.765    0.470    0.381   46.073  239.408
  253.250   69.427    0.468    0.380   47.573  234.283
  253.500   67.623    0.471    0.375   47.406  229.671
  253.750   65.967    0.466    0.365   45.159  230.043
  254.000   62.940    0.451    0.361   44.907  231.789
  254.250   61.992    0.449    0.358   44.425  228.107
  254.500   60.019    0.453    0.359   44.319  224.422
  254.750   58.241    0.468    0.364   44.335  221.975
  255.000   57.154    0.485    0.371   44.474  221.179
  255.250   56.452    0.479    0.371   45.092  221.973
  255.500   55.136    0.469    0.360   45.624  223.717
  255.750   54.305    0.444    0.358   45.639  226.212
  256.000   52.879    0.439    0.361   45.657  230.569
  256.250   51.700    0.455    0.365   45.675  233.277
  256.500   50.429    0.478    0.365   45.692  233.618
  256.750   47.073    0.482    0.359   45.761  233.664
  257.000   43.541    0.477    0.360   46.033  233.673
  257.250   40.346    0.456    0.362   46.544  234.112
  257.500   35.018    0.438    0.363   47.984  234.243
  257.750   28.614    0.433    0.363   48.990  233.652
  258.000   21.119    0.440    0.361   49.252  232.133
  258.250   12.895    0.453    0.352   49.930  228.832
  258.500    9.449    0.441    0.333   52.008  224.566
  258.750    8.040    0.411    0.290   53.264  221.705
  259.000    7.274    0.407    0.272   55.072  219.777
  259.250    6.881    0.417    0.269   58.427  218.980
  259.500    6.728    0.429    0.273   62.154  219.004
  259.750    6.727    0.435    0.279   62.867  219.121
  260.000    6.727    0.439    0.284   62.622  219.579
  260.250    6.676    0.437    0.283   62.886  220.019
  260.500    6.587    0.431    0.281   62.966  220.151
  260.750    6.488    0.431    0.280   62.984  220.387
  261.000    6.415    0.439    0.281   62.875  220.826
  261.250    6.425    0.454    0.280   61.935  221.268
  261.500    6.475    0.455    0.282   59.631  221.297
  261.750    6.524    0.442    0.284   60.886  221.325
  262.000    6.573    0.432    0.278   62.882  221.047
  262.250    6.597    0.427    0.267   65.371  220.661
  262.500    6.609    0.428    0.254   68.168  220.270
  262.750    6.669    0.438    0.241   71.002  219.630
  263.000    6.721    0.441    0.243   70.244  218.371
  263.250    6.823    0.435    0.253   67.294  217.986
  263.500    6.926    0.432    0.268   65.085  218.220
  263.750    7.135    0.429    0.281   63.987  218.658
  264.000    7.493    0.423    0.284   64.373  219.302
  264.250    8.095    0.409    0.263   67.137  220.744
  264.500    8.831    0.405    0.237   69.727  221.631
  264.750    9.237    0.417    0.246   72.217  222.071
  265.000    9.450    0.419    0.251   72.481  222.200
  265.250    9.413    0.416    0.254   71.632  222.432
  265.500    9.113    0.410    0.258   69.855  222.872
  265.750    8.024    0.403    0.269   66.823  223.489
  266.000    6.054    0.411    0.276   68.901  224.377
  266.250    4.992    0.440    0.265   75.845  224.401
