~VERSION INFORMATION
 VERS.                 2.0:   CWLS LOG ASCII STANDARD -VERSION 2.0
 WRAP.                  NO:   ONE LINE PER DEPTH STEP
~WELL INFORMATION BLOCK
#MNEM.UNIT           DATA                    DESCRIPTION OF MNEMONIC
#---------    -------------------            -------------------------------
# Generated from Intellog Unique Number	CS_73_76/WELL/2912
WELL.         BRALORNE OIL TOWER             : Well_name    - WELL
LOC .         00/07-32-076-15W4/0            : Location     - LOCATION
UWI .         00/07-32-076-15W4/0            : Uwi          - UNIQUE WELL ID
ENTR.         SP                             : Entered      - ENTERED BY
SRVC.         SCHLUMBERGER                   : Scn          - SERVICE COMPANY
STRT.M        305                            : top_depth    - START DEPTH
STOP.M        545                            : bot_depth    - STOP DEPTH
STEP.M        0.25                           : increment    - STEP LENGTH
 NULL. -999.2500:NULL Value
~CURVE INFORMATION BLOCK
#MNEM UNIT       ERCB CURVE CODE    CURVE DESCRIPTION
#-----------   ------------------   ----------------------------------
DEPT.M        00 001 00 00         : DEPTH        - DEPTH
DPHI.V/V      00 890 00 00         : PHID         - DENSITY POROSITY (LIMESTONE)
NPHI.V/V      00 330 00 00         : PHIN         - NEUTRON POROSITY (LIMESTONE)
GR  .API      00 310 00 00         : GR           - GAMMA RAY
ILD .OHMM     00 120 00 00         : RESD         - DEEP RESISTIVITY (DIL)
~PARAMETER INFORMATION
#MNEM.UNIT           DATA             DESCRIPTION OF MNEMONIC
#---------         -----------     ------------------------------
GL  .M        679.7                : gl           - GROUND LEVEL ELEVATION
EREF.M        684                  : kb           - ELEVATION OF DEPTH REFERENCE
DATM.M        679.7                : datum        - DATUM ELEVATION
TDD .M        557                  : tdd          - TOTAL DEPTH DRILLER
RUN .         ONE                  : Run          - RUN NUMBER
ENG .         BILL                 : Engineer     - RECORDING ENGINEER
WIT .         JIM                  : Witness      - WITNESSED BY
MUD .         GEL                  : Mud_type     - MUD TYPE
MATR.         LIMESTONE            : Logunit      - NEUTRON MATRIX
TMAX.C        21                   : BHT          - MAXIMUM RECORDED TEMPERATURE
BHTD.M        557                  : BHTDEP       - MAXIMUM RECORDED TEMPERATURE
MATR.         1                    : LOGUNIT      - NEUTRON MATRIX
RMT .C        25                   : MDTP         - TEMPERATURE OF MUD
NEUT.         1                    : NEUTRON      - NEUTRON TYPE
RESI.         0                    : RESIST       - RESISTIVITY TYPE
RMC .OHMM     0.25                 : RMC          - RESISTIVITY OF MUD CAKE
RMF .OHMM     0.25                 : RMF          - RESISTIVITY OF MUD FILTRATE
SUFT.C        15                   : SUFT         - SURFACE TEMPERATURE
~A  DEPTH     PHID     PHIN       GR     RESD
  305.000    0.251    0.495  103.033    2.962
  305.250    0.228    0.484  103.632    3.193
  305.500    0.241    0.473  104.840    3.076
  305.750    0.230    0.480  106.652    3.194
  306.000    0.228    0.487  107.860    3.379
  306.250    0.231    0.496  107.237    3.508
  306.500    0.233    0.505  102.346    3.642
  306.750    0.228    0.499   98.676    3.782
  307.000    0.226    0.480   99.879    3.712
  307.250    0.230    0.475  104.136    3.644
  307.500    0.240    0.480  107.172    3.381
  307.750    0.238    0.487  108.986    3.197
  308.000    0.230    0.501  113.240    3.138
  308.250    0.228    0.514  115.057    3.383
  308.500    0.221    0.534  116.263    3.715
  308.750    0.214    0.538  117.471    4.316
  309.000    0.218    0.512  112.579    4.830
  309.250    0.216    0.477  104.029    5.611
  309.500    0.219    0.437  100.360    6.519
  309.750    0.220    0.428   99.128    8.162
  310.000    0.231    0.415   97.285    8.964
  310.250    0.228    0.410   93.614    9.307
  310.500    0.237    0.396   89.942    8.967
  310.750    0.232    0.387   91.145    8.321
  311.000    0.231    0.399   92.961    8.168
  311.250    0.240    0.414   94.777    8.017
  311.500    0.234    0.410   96.594    8.972
  311.750    0.217    0.414   91.094    9.492
  312.000    0.228    0.426   80.717   10.231
  312.250    0.251    0.437   72.779   10.824
  312.500    0.277    0.444   62.399   11.239
  312.750    0.307    0.410   56.898   11.669
  313.000    0.323    0.408   57.493   11.671
  313.250    0.312    0.414   59.919   11.892
  313.500    0.297    0.418   63.561   12.119
  313.750    0.293    0.412   65.381   12.350
  314.000    0.294    0.403   65.366   12.823
  314.250    0.296    0.404   64.135   13.314
  314.500    0.297    0.403   62.291   13.069
  314.750    0.273    0.403   62.891   12.828
  315.000    0.253    0.397   65.316   12.359
  315.250    0.223    0.400   68.955   11.906
  315.500    0.238    0.432   70.776   11.470
  315.750    0.309    0.449   75.638   11.050
  316.000    0.326    0.456   79.893   10.449
  316.250    0.326    0.453   83.538   10.066
  316.500    0.302    0.438   87.182    9.517
  316.750    0.285    0.416   91.439    9.342
  317.000    0.273    0.401   95.085    9.344
  317.250    0.267    0.410   96.899    9.701
  317.500    0.272    0.433   95.058   10.263
  317.750    0.290    0.447   90.777   10.657
  318.000    0.304    0.436   90.152   10.859
  318.250    0.293    0.420   95.016   11.066
  318.500    0.293    0.426   98.663   11.068
  318.750    0.281    0.434  102.917   11.069
  319.000    0.274    0.425  106.560   10.866
  319.250    0.266    0.415  108.378   10.867
  319.500    0.269    0.407  107.146   10.667
  319.750    0.272    0.416  104.083   10.669
  320.000    0.288    0.428   99.802   10.872
  320.250    0.296    0.433   96.741   10.874
  320.500    0.301    0.434   98.556   10.875
  320.750    0.304    0.438   96.714   10.477
  321.000    0.278    0.422   93.652   10.284
  321.250    0.264    0.400   87.537    9.907
  321.500    0.256    0.379   84.481    9.545
  321.750    0.243    0.389   78.367    9.369
  322.000    0.258    0.405   74.697    9.026
  322.250    0.259    0.421   70.417    9.198
  322.500    0.270    0.411   72.234    9.550
  322.750    0.264    0.419   70.998    9.552
  323.000    0.279    0.429   67.329    9.554
  323.250    0.319    0.402   65.489    9.554
  323.500    0.305    0.392   73.397    8.866
  323.750    0.288    0.383   81.311    8.383
  324.000    0.275    0.408   92.273    7.635
  324.250    0.251    0.431  102.627    6.698
  324.500    0.218    0.446  111.149    6.101
  324.750    0.172    0.464  115.401    5.661
  325.000    0.136    0.469  117.828    5.353
  325.250    0.164    0.478  120.864    4.875
  325.500    0.181    0.501  124.506    4.524
  325.750    0.173    0.509  126.324    4.359
  326.000    0.170    0.490  126.310    4.278
  326.250    0.168    0.476  125.690    4.279
  326.500    0.177    0.501  126.282    4.360
  326.750    0.198    0.522  128.709    4.527
  327.000    0.191    0.532  128.696    4.614
  327.250    0.166    0.521  125.633    4.615
  327.500    0.162    0.498  123.183    4.363
  327.750    0.150    0.502  120.120    4.283
  328.000    0.133    0.512  124.374    3.828
  328.250    0.209    0.526  127.411    3.487
  328.500    0.233    0.542  132.886    3.553
  328.750    0.253    0.558  133.478    4.128
  329.000    0.250    0.551  131.030    4.886
  329.250    0.241    0.503  124.309    6.117
  329.500    0.250    0.455  118.809    7.517
  329.750    0.285    0.443  112.700    8.571
  330.000    0.245    0.440  110.247    9.239
  330.250    0.230    0.453  111.455    9.069
  330.500    0.272    0.450  113.878    9.070
  330.750    0.289    0.454  112.643    9.243
  331.000    0.292    0.444  108.975    8.905
  331.250    0.307    0.453  105.912    8.263
  331.500    0.280    0.444  105.898    7.526
  331.750    0.211    0.433  108.327    6.727
  332.000    0.158    0.440  114.406    6.604
  332.250    0.101    0.432  117.443    7.529
  332.500    0.167    0.420  121.090    8.269
  332.750    0.210    0.426  112.540    9.082
  333.000    0.222    0.419  105.208    9.790
  333.250    0.256    0.406  103.977   10.164
  333.500    0.262    0.411  109.451    9.611
  333.750    0.272    0.428  112.487    9.087
  334.000    0.274    0.449  110.640    8.592
  334.250    0.264    0.461  108.191    8.124
  334.500    0.267    0.432  106.961    7.827
  334.750    0.264    0.444  111.213    7.683
  335.000    0.246    0.451  117.293    7.684
  335.250    0.251    0.451  119.725    7.685
  335.500    0.257    0.444  122.149    7.831
  335.750    0.255    0.450  123.353    8.131
  336.000    0.263    0.453  120.289    8.286
  336.250    0.286    0.459  116.012    8.603
  336.500    0.291    0.473  105.632    8.605
  336.750    0.322    0.491   95.864    8.934
  337.000    0.330    0.457   86.705    9.451
  337.250    0.294    0.444   78.768    9.999
  337.500    0.310    0.446   75.705   10.578
  337.750    0.316    0.441   76.303   11.191
  338.000    0.322    0.453   75.679   11.404
  338.250    0.324    0.463   70.787   11.621
  338.500    0.327    0.448   66.505   11.842
  338.750    0.330    0.431   61.617   11.844
  339.000    0.334    0.409   57.335   11.846
  339.250    0.336    0.410   62.803   11.848
  339.500    0.341    0.419   64.625   11.849
  339.750    0.352    0.429   66.443   11.631
  340.000    0.350    0.436   67.039   11.633
  340.250    0.345    0.442   65.194   11.635
  340.500    0.340    0.437   63.961   11.636
  340.750    0.337    0.447   64.559   12.082
  341.000    0.338    0.453   64.543   11.859
  341.250    0.327    0.460   63.922   11.862
  341.500    0.315    0.453   64.520    9.838
  341.750    0.295    0.440   67.556    8.159
  342.000    0.275    0.426   74.244    7.293
  342.250    0.261    0.432   80.329    6.049
  342.500    0.260    0.436   87.023    4.655
  342.750    0.247    0.463   92.499    4.656
  343.000    0.251    0.493   96.756    4.744
  343.250    0.268    0.475   97.958    5.309
  343.500    0.266    0.461   98.555    5.831
  343.750    0.272    0.471  100.367    6.285
  344.000    0.267    0.490  100.971    6.649
  344.250    0.278    0.493  101.565    6.650
  344.500    0.301    0.482   99.112    6.171
  344.750    0.312    0.468   95.439    5.621
  345.000    0.327    0.450   93.601    5.728
  345.250    0.304    0.465   97.854    6.174
  345.500    0.286    0.489   96.621    6.781
  345.750    0.305    0.502   92.341    7.309
  346.000    0.332    0.485   88.671    7.878
  346.250    0.287    0.448   86.216    8.653
  346.500    0.298    0.447   86.815    8.818
  346.750    0.290    0.452   89.849    8.031
  347.000    0.285    0.452   91.664    7.178
  347.250    0.296    0.453   87.385    6.298
  347.500    0.296    0.445   80.054    5.955
  347.750    0.268    0.461   81.871    6.068
  348.000    0.251    0.487   86.126    6.541
  348.250    0.268    0.471   72.085    7.320
