~VERSION INFORMATION
 VERS.                 2.0:   CWLS LOG ASCII STANDARD -VERSION 2.0
 WRAP.                  NO:   ONE LINE PER DEPTH STEP
~WELL INFORMATION BLOCK
#MNEM.UNIT           DATA                    DESCRIPTION OF MNEMONIC
#---------    -------------------            -------------------------------
# Generated from Intellog Unique Number	CW_79_81/WELL/2455
WELL.         06-29-080-24W4                 : Well_name    - WELL
LOC .         00/06-29-080-24W4/0            : Location     - LOCATION
UWI .         00/06-29-080-24W4/0            : Uwi          - UNIQUE WELL ID
ENTR.         MAX                            : Entered      - ENTERED BY
SRVC.         WESTERN ATLAS                  : Scn          - SERVICE COMPANY
STRT.M        198.12                         : top_depth    - START DEPTH
STOP.M        426.37                         : bot_depth    - STOP DEPTH
STEP.M        0.25                           : increment    - STEP LENGTH
 NULL. -999.2500:NULL Value
~CURVE INFORMATION BLOCK
#MNEM UNIT       ERCB CURVE CODE    CURVE DESCRIPTION
#-----------   ------------------   ----------------------------------
DEPT.M        00 001 00 00         : DEPTH        - DEPTH
ILD .OHMM     00 120 00 00         : RESD         - DEEP RESISTIVITY (DIL)
NPHI.V/V      00 330 00 00         : PHIN         - NEUTRON POROSITY (SANDSTONE)
DPHI.V/V      00 890 00 00         : PHID         - DENSITY POROSITY (SANDSTONE)
GR  .API      00 310 00 00         : GR           - GAMMA RAY
CALI.MM       00 280 01 00         : CAL          - CALIPER
~PARAMETER INFORMATION
#MNEM.UNIT           DATA             DESCRIPTION OF MNEMONIC
#---------         -----------     ------------------------------
GL  .M        546.811              : gl           - GROUND LEVEL ELEVATION
EREF.M        552.907              : kb           - ELEVATION OF DEPTH REFERENCE
DATM.M        546.811              : datum        - DATUM ELEVATION
TDD .M        426.72               : tdd          - TOTAL DEPTH DRILLER
RUN .         ONE                  : Run          - RUN NUMBER
ENG .         BILL                 : Engineer     - RECORDING ENGINEER
WIT .         JIM                  : Witness      - WITNESSED BY
MUD .         GEL                  : Mud_type     - MUD TYPE
MATR.         SANDSTONE            : Logunit      - NEUTRON MATRIX
TMAX.C        26.6667              : BHT          - MAXIMUM RECORDED TEMPERATURE
BHTD.M        426.72               : BHTDEP       - MAXIMUM RECORDED TEMPERATURE
MATR.         1                    : LOGUNIT      - NEUTRON MATRIX
RMT .C        16.6667              : MDTP         - TEMPERATURE OF MUD
NEUT.         1                    : NEUTRON      - NEUTRON TYPE
RESI.         0                    : RESIST       - RESISTIVITY TYPE
RMC .OHMM     1                    : RMC          - RESISTIVITY OF MUD CAKE
RMF .OHMM     1.2                  : RMF          - RESISTIVITY OF MUD FILTRATE
SUFT.C        -20.5556             : SUFT         - SURFACE TEMPERATURE
~A  DEPTH     RESD     PHIN     PHID       GR      CAL
# ...
  234.620   29.084    0.331    0.199   44.762  267.104
  234.870   31.890    0.325    0.215   41.379  262.978
  235.120   33.823    0.339    0.233   38.113  261.269
  235.370   32.436    0.362    0.237   36.845  269.244
  235.620   31.294    0.387    0.223   36.170  266.418
  235.870   31.574    0.395    0.195   35.037  272.968
  236.120   32.021    0.374    0.178   34.259  265.932
  236.370   32.539    0.357    0.166   33.487  255.365
  236.620   33.010    0.356    0.154   32.660  254.850
  236.870   33.100    0.355    0.136   31.772  291.658
  237.120   32.179    0.349    0.124   30.597  342.458
  237.370   31.532    0.343    0.133   30.656  339.744
  237.620   31.585    0.336    0.153   31.067  340.354
  237.870   32.093    0.334    0.173   31.716  340.449
  238.120   32.846    0.342    0.185   32.843  328.771
  238.370   33.626    0.374    0.191   35.546  278.027
  238.620   33.685    0.390    0.194   38.080  234.982
  238.870   33.732    0.356    0.197   41.462  203.710
  239.120   33.962    0.347    0.194   46.451  227.038
  239.370   34.383    0.333    0.188   50.548  248.252
  239.620   34.942    0.312    0.187   52.389  251.062
  239.870   35.516    0.308    0.197   51.556  259.979
  240.120   35.568    0.302    0.217   50.629  261.758
  240.370   35.377    0.310    0.233   49.495  266.269
  240.620   34.230    0.333    0.253   46.233  272.001
  240.870   31.467    0.347    0.278   43.797  273.915
  241.120   27.664    0.348    0.305   43.553  269.187
  241.370   23.816    0.360    0.333   46.087  254.550
  241.620   23.503    0.389    0.331   50.092  241.255
  241.870   24.226    0.397    0.360   51.100  245.776
  242.120   25.503    0.395    0.352   48.375  249.996
  242.370   26.780    0.385    0.341   44.752  257.330
  242.620   27.569    0.369    0.336   41.361  263.058
  242.870   27.497    0.348    0.325   37.540  253.331
  243.120   26.920    0.337    0.307   37.101  248.411
  243.370   25.254    0.343    0.289   39.296  243.677
  243.620   23.298    0.353    0.276   42.382  240.466
  243.870   21.314    0.370    0.264   46.476  239.555
  244.120   19.672    0.387    0.255   51.165  240.447
  244.370   18.627    0.394    0.255   56.604  239.958
  244.620   18.105    0.400    0.262   62.111  232.944
  244.870   17.876    0.406    0.254   59.079  233.436
  245.120   17.840    0.411    0.265   56.580  229.722
  245.370   17.803    0.416    0.274   54.740  225.797
  245.620   17.703    0.420    0.274   53.676  223.473
  245.870   17.610    0.417    0.273   53.360  222.312
  246.120   17.633    0.422    0.273   52.674  221.987
  246.370   17.788    0.431    0.271   53.213  218.871
  246.620   17.848    0.435    0.265   52.685  208.815
  246.870   17.748    0.448    0.260   53.337  202.287
  247.120   17.553    0.462    0.259   56.061  201.809
  247.370   17.402    0.444    0.264   61.736  201.957
  247.620   17.173    0.416    0.269   68.486  201.998
  247.870   17.197    0.391    0.265   66.172  202.500
  248.120   17.130    0.391    0.266   63.675  202.700
  248.370   17.036    0.399    0.266   61.829  203.800
  248.620   17.003    0.402    0.262   61.764  206.507
  248.870   17.204    0.389    0.254   63.933  211.144
  249.120   17.494    0.371    0.256   59.049  211.666
  249.370   18.032    0.381    0.263   58.876  213.374
  249.620   18.689    0.376    0.267   56.910  216.589
  249.870   19.202    0.370    0.269   55.423  219.703
  250.120   19.119    0.375    0.271   57.089  221.313
  250.370   17.764    0.400    0.270   65.883  220.238
  250.620   16.888    0.415    0.276   70.396  220.342
  250.870   17.034    0.416    0.277   74.733  222.040
  251.120   16.906    0.416    0.282   70.695  223.451
  251.370   16.566    0.397    0.286   65.050  223.144
  251.620   16.296    0.365    0.286   60.775  221.121
  251.870   16.691    0.340    0.283   56.510  219.175
  252.120   17.355    0.312    0.282   53.851  220.953
  252.370   19.073    0.302    0.284   54.373  224.269
  252.620   22.166    0.288    0.275   54.018  225.165
  252.870   26.651    0.273    0.238   52.656  223.863
  253.120   31.971    0.257    0.187   51.170  221.966
  253.370   36.788    0.237    0.164   51.326  222.811
  253.620   41.318    0.216    0.162   50.652  224.580
  253.870   42.583    0.187    0.154   51.417  224.278
  254.120   43.888    0.177    0.150   50.936  226.086
  254.370   45.565    0.170    0.146   48.384  227.391
  254.620   47.505    0.160    0.140   45.063  227.798
  254.870   49.278    0.155    0.131   44.467  230.733
  255.120   50.878    0.151    0.124   44.782  238.782
  255.370   52.052    0.148    0.125   43.880  240.078
  255.620   52.989    0.150    0.129   43.703  240.477
  255.870   54.042    0.150    0.135   43.646  241.586
  256.120   55.414    0.144    0.140   43.466  244.507
  256.370   57.310    0.143    0.141   43.298  249.937
  256.620   58.264    0.148    0.129   43.378  250.460
  256.870   55.051    0.145    0.122   43.419  251.364
  257.120   48.042    0.138    0.117   44.364  254.671
  257.370   43.358    0.141    0.112   46.559  258.198
  257.620   41.765    0.155    0.107   48.995  261.430
  257.870   42.184    0.183    0.101   49.312  265.555
  258.120   41.010    0.223    0.109   49.362  265.680
  258.370   38.742    0.286    0.139   48.477  268.181
  258.620   38.258    0.300    0.182   46.524  274.602
  258.870   38.182    0.289    0.182   45.156  279.927
  259.120   37.693    0.267    0.118   44.909  281.539
  259.370   35.930    0.239    0.008   45.316  278.820
  259.620   33.643    0.239    0.029   45.865  276.830
  259.870   28.654    0.250    0.034   45.218  276.930
  260.120   24.874    0.268    0.044   45.096  273.405
  260.370   22.321    0.284    0.056   45.867  271.896
  260.620   20.747    0.297    0.082   47.116  274.011
  260.870   19.756    0.326    0.161   48.052  277.005
  261.120   19.067    0.367    0.228   50.091  275.444
  261.370   18.816    0.382    0.259   51.574  277.152
  261.620   18.573    0.400    0.265   50.570  278.551
  261.870   18.267    0.410    0.264   49.919  280.253
  262.120   17.969    0.413    0.263   50.514  282.770
  262.370   17.873    0.427    0.265   51.253  286.945
  262.620   17.873    0.436    0.268   51.061  289.132
  262.870   17.797    0.439    0.273   49.933  290.026
  263.120   17.993    0.427    0.272   49.869  291.228
  263.370   18.086    0.414    0.270   50.883  291.534
  263.620   17.948    0.402    0.268   52.019  289.630
  263.870   17.680    0.387    0.263   51.808  283.275
  264.120   17.464    0.394    0.264   54.107  279.192
  264.370   17.344    0.400    0.270   53.923  283.311
  264.620   17.143    0.405    0.275   53.921  271.145
  264.870   16.921    0.405    0.277   53.146  265.817
  265.120   16.705    0.399    0.282   51.955  273.258
  265.370   16.474    0.391    0.301   52.519  282.216
  265.620   16.378    0.386    0.305   55.047  282.341
  265.870   16.285    0.391    0.302   54.874  283.637
  266.120   16.103    0.401    0.300   54.515  285.241
  266.370   15.896    0.409    0.298   55.639  287.953
  266.620   15.721    0.412    0.297   57.719  291.772
  266.870   15.613    0.402    0.296   57.397  294.152
  267.120   15.521    0.392    0.291   54.244  285.453
  267.370   15.431    0.387    0.289   53.341  293.590
  267.620   15.428    0.394    0.290   53.516  295.399
  267.870   15.454    0.397    0.291   53.931  293.088
  268.120   15.449    0.393    0.291   54.820  292.081
  268.370   15.294    0.395    0.288   57.455  302.724
  268.620   14.978    0.395    0.290   57.275  311.222
  268.870   14.786    0.407    0.293   57.328  306.892
  269.120   14.517    0.418    0.299   57.394  304.369
  269.370   14.280    0.422    0.304   55.673  302.253
  269.620   14.098    0.425    0.306   53.646  300.644
  269.870   13.905    0.435    0.299   56.290  302.092
  270.120   13.816    0.428    0.296   57.347  306.823
  270.370   13.738    0.432    0.296   56.450  303.285
  270.620   13.438    0.436    0.294   56.987  302.189
  270.870   12.981    0.430    0.292   57.874  302.088
