~VERSION INFORMATION
 VERS.                 2.0:   CWLS LOG ASCII STANDARD -VERSION 2.0
 WRAP.                  NO:   ONE LINE PER DEPTH STEP
~WELL INFORMATION BLOCK
#MNEM.UNIT           DATA                    DESCRIPTION OF MNEMONIC
#---------    -------------------            -------------------------------
# Generated from Intellog Unique Number	CS_71_72/WELL/829
WELL.         BRENDA ET AL NIXON             : Well_name    - WELL
LOC .         00/07-31-072-15W4/0            : Location     - LOCATION
UWI .         00/07-31-072-15W4/0            : Uwi          - UNIQUE WELL ID
ENTR.         SP                             : Entered      - ENTERED BY
SRVC.         SCHLUMBERGER                   : Scn          - SERVICE COMPANY
STRT.M        240                            : top_depth    - START DEPTH
STOP.M        445                            : bot_depth    - STOP DEPTH
STEP.M        0.25                           : increment    - STEP LENGTH
 NULL. -999.2500:NULL Value
~CURVE INFORMATION BLOCK
#MNEM UNIT       ERCB CURVE CODE    CURVE DESCRIPTION
#-----------   ------------------   ----------------------------------
DEPT.M        00 001 00 00         : DEPTH        - DEPTH
GR  .API      00 310 00 00         : GR           - GAMMA RAY
NPHI.V/V      00 330 00 00         : PHIN         - NEUTRON POROSITY (LIMESTONE)
DPHI.V/V      00 890 00 00         : PHID         - DENSITY POROSITY (LIMESTONE)
ILD .OHMM     00 120 00 00         : RESD         - DEEP RESISTIVITY (DIL)
~PARAMETER INFORMATION
#MNEM.UNIT           DATA             DESCRIPTION OF MNEMONIC
#---------         -----------     ------------------------------
GL  .M        575                  : gl           - GROUND LEVEL ELEVATION
EREF.M        577.75               : kb           - ELEVATION OF DEPTH REFERENCE
DATM.M        575                  : datum        - DATUM ELEVATION
TDD .M        470                  : tdd          - TOTAL DEPTH DRILLER
RUN .         ONE                  : Run          - RUN NUMBER
ENG .         BILL                 : Engineer     - RECORDING ENGINEER
WIT .         JIM                  : Witness      - WITNESSED BY
MUD .         GEL                  : Mud_type     - MUD TYPE
MATR.         LIMESTONE            : Logunit      - NEUTRON MATRIX
TMAX.C        23                   : BHT          - MAXIMUM RECORDED TEMPERATURE
BHTD.M        470                  : BHTDEP       - MAXIMUM RECORDED TEMPERATURE
MATR.         1                    : LOGUNIT      - NEUTRON MATRIX
RMT .C        25                   : MDTP         - TEMPERATURE OF MUD
NEUT.         1                    : NEUTRON      - NEUTRON TYPE
RESI.         0                    : RESIST       - RESISTIVITY TYPE
RMC .OHMM     0.25                 : RMC          - RESISTIVITY OF MUD CAKE
RMF .OHMM     0.25                 : RMF          - RESISTIVITY OF MUD FILTRATE
SUFT.C        15                   : SUFT         - SURFACE TEMPERATURE
~A  DEPTH       GR     PHIN     PHID     RESD
  240.000  127.871    0.451    0.285    2.556
  240.250  123.573    0.461    0.287    2.558
  240.500  126.654    0.473    0.298    2.513
  240.750  126.045    0.480    0.309    2.514
  241.000  124.820    0.461    0.305    2.515
  241.250  125.441    0.463    0.299    2.517
  241.500  125.447    0.466    0.293    2.519
  241.750  123.610    0.457    0.293    2.617
  242.000  122.385    0.448    0.283    2.668
  242.250  123.621    0.446    0.276    2.772
  242.500  124.856    0.456    0.269    2.935
  242.750  124.862    0.437    0.244    2.991
  243.000  124.870    0.425    0.239    3.108
  243.250  123.031    0.414    0.253    3.229
  243.500  118.119    0.410    0.260    3.419
  243.750  113.205    0.417    0.220    3.485
  244.000  108.908    0.421    0.214    3.690
  244.250  115.063    0.424    0.230    3.762
  244.500  118.142    0.427    0.243    3.836
  244.750  121.223    0.435    0.249    3.838
  245.000  121.228    0.441    0.238    3.770
  245.250  120.004    0.419    0.242    3.702
  245.500  120.625    0.415    0.251    3.567
  245.750  116.943    0.438    0.258    3.312
  246.000  115.718    0.473    0.254    3.252
  246.250  121.872    0.463    0.251    3.135
  246.500  129.255    0.447    0.251    3.078
  246.750  131.720    0.438    0.264    3.080
  247.000  128.038    0.430    0.258    3.083
  247.250  124.356    0.438    0.250    3.143
  247.500  126.820    0.464    0.249    3.204
  247.750  127.441    0.462    0.253    3.266
  248.000  125.603    0.436    0.260    3.331
  248.250  125.609    0.420    0.272    3.333
  248.500  127.459    0.408    0.282    3.274
  248.750  125.007    0.402    0.295    3.276
  249.000  122.556    0.428    0.278    3.277
  249.250  120.716    0.435    0.261    3.218
  249.500  117.036    0.426    0.254    3.160
  249.750  115.810    0.414    0.248    3.162
  250.000  113.357    0.408    0.248    3.348
  250.250  115.822    0.421    0.259    3.413
  250.500  118.900    0.437    0.272    3.480
  250.750  116.447    0.447    0.260    3.549
  251.000  109.076    0.392    0.075    3.551
  251.250   98.633    0.375    0.090    3.830
  251.500   91.876    0.390    0.207    4.210
  251.750   82.045    0.399    0.326    4.716
  252.000   77.748    0.397    0.339    4.898
  252.250   83.289    0.381    0.331    5.184
  252.500   83.907    0.375    0.323    5.595
  252.750   83.299    0.388    0.313    5.811
  253.000   83.304    0.388    0.309    5.924
  253.250   86.383    0.381    0.305    6.041
  253.500   93.768    0.371    0.301    6.159
  253.750   98.077    0.372    0.296    6.400
  254.000  103.002    0.384    0.293    6.648
  254.250  104.851    0.389    0.297    6.651
  254.500   99.940    0.390    0.316    6.657
  254.750   99.330    0.379    0.321    6.537
  255.000  100.565    0.373    0.313    6.300
  255.250   95.040    0.407    0.319    6.072
  255.500   90.741    0.418    0.339    5.637
  255.750   88.288    0.390    0.340    5.535
  256.000   93.213    0.391    0.337    5.335
  256.250   96.906    0.393    0.333    5.337
  256.500   91.994    0.398    0.336    5.341
  256.750   84.625    0.413    0.340    5.246
  257.000   80.941    0.420    0.344    5.248
  257.250   78.488    0.416    0.343    5.253
  257.500   76.035    0.402    0.339    5.255
  257.750   82.804    0.398    0.339    5.258
  258.000   84.653    0.398    0.341    5.262
  258.250   96.342    0.401    0.329    5.265
  258.500   98.806    0.389    0.324    5.574
  258.750   96.352    0.384    0.327    5.683
  259.000  102.507    0.382    0.317    5.906
  259.250  108.662    0.383    0.305    6.022
  259.500  111.739    0.395    0.296    6.140
  259.750  114.819    0.399    0.294    6.143
  260.000  114.825    0.380    0.301    6.262
  260.250  106.224    0.373    0.311    6.267
  260.500  104.385    0.388    0.320    6.271
  260.750  107.465    0.389    0.317    6.158
  261.000  106.243    0.379    0.306    6.162
  261.250   96.412    0.364    0.287    6.282
  261.500   82.278    0.345    0.280    6.406
  261.750   88.433    0.339    0.278    6.409
  262.000   96.430    0.364    0.289    6.537
  262.250  105.659    0.355    0.308    6.664
  262.500  109.353    0.344    0.301    6.668
  262.750  103.210    0.352    0.271    6.548
  263.000   82.314    0.362    0.251    6.311
  263.250   68.795    0.359    0.249    5.969
  263.500   63.885    0.357    0.298    5.752
  263.750   62.661    0.364    0.317    5.544
  264.000   62.666    0.379    0.318    5.444
  264.250   74.968    0.368    0.308    5.346
  264.500   84.196    0.362    0.299    5.153
  264.750   90.963    0.374    0.287    5.060
  265.000   99.576    0.378    0.241    5.063
  265.250  108.188    0.384    0.163    5.163
  265.500  116.801    0.392    0.144    5.167
  265.750  121.725    0.406    0.166    5.170
  266.000  132.796    0.419    0.189    5.077
  266.250  139.565    0.418    0.193    4.894
  266.500  134.038    0.404    0.202    4.805
  266.750  145.111    0.413    0.216    4.546
  267.000  146.346    0.424    0.228    4.463
  267.250  143.277    0.424    0.237    4.223
  267.500  147.588    0.412    0.258    4.224
  267.750  142.060    0.412    0.162    4.226
  268.000  131.614    0.421    0.154    4.310
  268.250  126.703    0.432    0.180    4.313
  268.500  137.774    0.457    0.216    4.235
  268.750  143.927    0.473    0.241    4.081
  269.000  140.247    0.457    0.274    3.861
  269.250  146.400    0.457    0.300    3.720
  269.500  149.480    0.452    0.315    3.519
  269.750  150.714    0.432    0.304    3.392
  270.000  140.884    0.405    0.292    3.799
  270.250  133.513    0.392    0.286    4.501
  270.500  130.446    0.390    0.281    4.946
  270.750  133.526    0.388    0.273    5.335
  271.000  135.993    0.399    0.262    6.091
  271.250  134.767    0.403    0.250    6.209
  271.500  121.862    0.401    0.245    6.450
  271.750   99.737    0.403    0.280    6.334
  272.000   84.376    0.415    0.300    6.220
  272.250   81.921    0.407    0.313    6.223
  272.500   95.455    0.399    0.302    6.112
  272.750  104.680    0.388    0.297    6.350
  273.000  112.677    0.398    0.290    6.724
  273.250  121.905    0.419    0.281    6.985
  273.500  124.370    0.422    0.267    7.122
  273.750  126.834    0.425    0.251    7.260
  274.000  120.080    0.433    0.232    7.131
  274.250  125.619    0.426    0.218    7.002
  274.500  129.312    0.439    0.228    6.502
  274.750  133.005    0.443    0.216    6.265
  275.000  136.086    0.437    0.220    5.925
  275.250  133.633    0.430    0.250    5.710
  275.500  132.411    0.425    0.266    5.401
  275.750  127.498    0.406    0.271    5.110
  276.000  120.126    0.398    0.276    5.112
  276.250  109.681    0.394    0.283    5.213
  276.500   99.237    0.409    0.296    5.415
  276.750   98.013    0.403    0.309    5.951
  277.000  106.626    0.398    0.314    6.182
  277.250  109.705    0.398    0.307    6.547
  277.500  103.564    0.414    0.310    6.674
  277.750  101.110    0.410    0.296    6.677
  278.000  100.504    0.405    0.288    6.809
  278.250   99.280    0.409    0.279    6.814
  278.500  109.740    0.420    0.299    7.079
  278.750  112.816    0.425    0.310    7.216
  279.000  118.969    0.416    0.285    7.222
  279.250  125.738    0.412    0.263    7.363
  279.500  128.817    0.404    0.257    7.370
  279.750  120.217    0.400    0.256    7.237
  280.000  123.912    0.392    0.253    7.240
  280.250  128.836    0.382    0.255    7.109
  280.500  134.375    0.374    0.262    6.727
  280.750  140.528    0.393    0.266    6.605
  281.000  146.067    0.396    0.264    6.608
  281.250  150.377    0.388    0.263    6.737
  281.500  151.611    0.383    0.267    6.743
  281.750  148.543    0.390    0.282    6.875
  282.000  136.868    0.401    0.283    7.009
  282.250  119.661    0.394    0.186    7.013
  282.500  108.601    0.377    0.167    7.153
  282.750  117.832    0.366    0.201    7.155
  283.000  121.524    0.363    0.251    7.296
  283.250  125.833    0.365    0.280    7.439
