~VERSION INFORMATION
 VERS.                 2.0:   CWLS LOG ASCII STANDARD -VERSION 2.0
 WRAP.                  NO:   ONE LINE PER DEPTH STEP
~WELL INFORMATION BLOCK
#MNEM.UNIT           DATA                    DESCRIPTION OF MNEMONIC
#---------    -------------------            -------------------------------
# Generated from Intellog Unique Number	CW_73_75/WELL/3520
WELL.         MANNVILLE OIL                  : Well_name    - WELL
LOC .         00/07-08-073-03W5/0            : Location     - LOCATION
UWI .         00/07-08-073-03W5/0            : Uwi          - UNIQUE WELL ID
ENTR.         TIM                            : Entered      - ENTERED BY
SRVC.         SCHLUMBERGER                   : Scn          - SERVICE COMPANY
DATE.         05\15\92                       : Date         - LOG DATE
STRT.M        350                            : top_depth    - START DEPTH
STOP.M        620                            : bot_depth    - STOP DEPTH
STEP.M        0.25                           : increment    - STEP LENGTH
 NULL. -999.2500:NULL Value
~CURVE INFORMATION BLOCK
#MNEM UNIT       ERCB CURVE CODE    CURVE DESCRIPTION
#-----------   ------------------   ----------------------------------
DEPT.M        00 001 00 00         : DEPTH        - DEPTH
GR  .API      00 310 00 00         : GR           - GAMMA RAY
NPHI.V/V      00 330 00 00         : PHIN         - NEUTRON POROSITY (SANDSTONE)
DPHI.V/V      00 890 00 00         : PHID         - DENSITY POROSITY (SANDSTONE)
ILD .OHMM     00 120 00 00         : RESD         - DEEP RESISTIVITY (DIL)
~PARAMETER INFORMATION
#MNEM.UNIT           DATA             DESCRIPTION OF MNEMONIC
#---------         -----------     ------------------------------
GL  .M        590                  : gl           - GROUND LEVEL ELEVATION
EREF.M        593.5                : kb           - ELEVATION OF DEPTH REFERENCE
DATM.M        593.5                : datum        - DATUM ELEVATION
TDD .M        621                  : tdd          - TOTAL DEPTH DRILLER
RUN .         ONE                  : Run          - RUN NUMBER
ENG .         JO                   : Engineer     - RECORDING ENGINEER
WIT .         TIM                  : Witness      - WITNESSED BY
MUD .         GEL                  : Mud_type     - MUD TYPE
MATR.         SANDSTONE            : Logunit      - NEUTRON MATRIX
TMAX.C        28                   : BHT          - MAXIMUM RECORDED TEMPERATURE
BHTD.M        620                  : BHTDEP       - MAXIMUM RECORDED TEMPERATURE
RMT .C        15                   : MDTP         - TEMPERATURE OF MUD
MUDD.KG/M     1080                 : MWT          - MUD DENSITY
NEUT.         1                    : NEUTRON      - NEUTRON TYPE
RESI.         0                    : RESIST       - RESISTIVITY TYPE
RM  .OHMM     2.53                 : RM           - RESISTIVITY OF MUD
RMC .OHMM     2.78                 : RMC          - RESISTIVITY OF MUD CAKE
RMF .OHMM     2.33                 : RMF          - RESISTIVITY OF MUD FILTRATE
SUFT.C        4                    : SUFT         - SURFACE TEMPERATURE
~A  DEPTH       GR     PHIN     PHID     RESD
# ...
  524.000   90.932    0.374    0.194    5.227
  524.250   90.870    0.374    0.196    5.124
  524.500   87.849    0.375    0.197    5.023
  524.750   83.666    0.379    0.198    4.918
  525.000   80.661    0.387    0.204    4.728
  525.250   89.426    0.385    0.212    4.637
  525.500   98.191    0.407    0.213    4.543
  525.750  101.676    0.432    0.196    4.450
  526.000   99.832    0.430    0.187    4.864
  526.250   98.592    0.421    0.186    5.322
  526.500   98.529    0.408    0.184    5.928
  526.750   94.347    0.366    0.183    6.602
  527.000   87.810    0.337    0.154    7.354
  527.250   72.430    0.288    0.095    8.186
  527.500   58.815    0.267    0.090    8.324
  527.750   58.148    0.230    0.090    8.601
  528.000   62.809    0.344    0.179    8.431
  528.250   68.632    0.337    0.204    8.265
  528.500   72.100    0.330    0.191    7.520
  528.750   73.803    0.332    0.180    6.596
  529.000   77.272    0.337    0.173    6.233
  529.250   80.756    0.345    0.169    5.669
  529.500   83.047    0.356    0.174    5.456
  529.750   80.011    0.366    0.177    5.251
  530.000   77.594    0.386    0.186    5.141
  530.250   75.177    0.388    0.215    5.130
  530.500   73.937    0.377    0.229    5.310
  530.750   72.697    0.376    0.230    5.301
  531.000   72.650    0.380    0.229    5.487
  531.250   72.588    0.386    0.227    5.573
  531.500   71.921    0.389    0.226    5.667
  531.750   69.504    0.394    0.219    5.546
  532.000   67.087    0.396    0.207    5.436
  532.250   67.613    0.401    0.210    5.325
  532.500   70.493    0.407    0.249    5.217
  532.750   75.727    0.408    0.253    5.018
  533.000   74.487    0.418    0.253    4.914
  533.250   70.893    0.433    0.253    4.903
  533.500   67.872    0.445    0.255    4.985
  533.750   63.658    0.444    0.257    5.064
  534.000   62.419    0.397    0.260    5.241
  534.250   62.387    0.371    0.262    5.324
  534.500   64.074    0.360    0.265    5.413
  534.750   64.600    0.362    0.265    5.504
  535.000   65.715    0.364    0.264    5.292
  535.250   65.652    0.370    0.259    5.093
  535.500   65.573    0.378    0.228    4.547
  535.750   66.719    0.386    0.232    4.374
  536.000   71.953    0.389    0.237    4.207
  536.250   73.656    0.385    0.237    4.045
  536.500   75.932    0.383    0.233    4.038
  536.750   78.828    0.383    0.223    4.031
  537.000   89.359    0.387    0.215    4.031
  537.250   99.317    0.394    0.206    4.312
  537.500  103.374    0.416    0.195    4.231
  537.750   96.249    0.418    0.184    4.298
  538.000   93.816    0.417    0.183    4.370
  538.250   93.738    0.414    0.183    4.684
  538.500   94.263    0.392    0.183    4.851
  538.750   94.805    0.377    0.183    5.024
  539.000   95.331    0.378    0.184    5.297
  539.250   95.857    0.384    0.179    5.485
  539.500   98.737    0.379    0.174    5.992
  539.750  101.012    0.368    0.166    6.205
  540.000   95.080    0.366    0.166    6.779
  540.250   92.632    0.359    0.170    6.896
  540.500   94.350    0.355    0.169    7.138
  540.750   95.480    0.351    0.164    7.393
  541.000   94.225    0.339    0.156    7.513
  541.250   87.100    0.326    0.144    7.496
  541.500   79.959    0.328    0.138    6.947
  541.750   73.422    0.333    0.142    6.442
  542.000   78.068    0.342    0.153    6.196
  542.250   84.495    0.348    0.167    6.179
  542.500   89.713    0.355    0.175    6.283
  542.750   92.005    0.352    0.170    6.504
  543.000   90.176    0.349    0.162    6.849
  543.250   84.228    0.350    0.154    6.964
  543.500   68.864    0.343    0.142    7.081
  543.750   65.238    0.318    0.123    7.188
  544.000   65.764    0.312    0.095    7.180
  544.250   73.972    0.313    0.091    7.027
  544.500   85.680    0.328    0.138    6.755
  544.750   93.857    0.338    0.156    6.625
  545.000   94.971    0.349    0.168    6.369
  545.250   94.893    0.356    0.169    6.243
  545.500   96.596    0.360    0.158    6.113
  545.750   98.887    0.363    0.160    6.100
  546.000   99.413    0.358    0.159    6.090
  546.250   98.762    0.355    0.153    6.303
  546.500   96.345    0.345    0.148    6.521
  546.750   93.944    0.326    0.140    6.630
  547.000   92.688    0.324    0.142    6.859
  547.250   93.818    0.326    0.155    6.844
  547.500   96.110    0.328    0.162    6.701
  547.750   97.224    0.329    0.149    6.562
  548.000   96.542    0.332    0.139    6.551
  548.250   95.302    0.333    0.146    6.540
  548.500   96.989    0.341    0.153    6.643
  548.750   99.296    0.348    0.159    6.754
  549.000   99.822    0.352    0.159    7.113
  549.250   97.421    0.361    0.159    7.370
  549.500   92.061    0.366    0.167    7.909
  549.750   86.097    0.351    0.179    8.191
  550.000   80.149    0.334    0.181    9.113
  550.250   75.967    0.320    0.169    9.443
  550.500   72.357    0.311    0.159    9.774
  550.750   68.748    0.310    0.165   10.489
  551.000   66.331    0.310    0.175   10.665
  551.250   63.898    0.310    0.177   10.832
  551.500   63.278    0.310    0.174   11.009
  551.750   62.023    0.309    0.128   10.991
  552.000   63.137    0.304    0.119   10.966
  552.250   63.679    0.298    0.099   10.738
  552.500   64.793    0.289    0.101   10.520
  552.750   64.699    0.299    0.142    9.929
  553.000   64.064    0.306    0.116    9.541
  553.250   61.647    0.307    0.108    9.357
  553.500   60.407    0.311    0.120    9.000
  553.750   60.344    0.314    0.134    8.813
  554.000   63.224    0.313    0.136    8.643
  554.250   69.635    0.309    0.138    8.158
  554.500   73.104    0.303    0.135    7.843
  554.750   75.364    0.295    0.126    7.407
  555.000   77.083    0.292    0.123    7.257
  555.250   79.390    0.291    0.134    7.105
  555.500   82.858    0.297    0.166    6.969
  555.750   85.754    0.317    0.170    6.950
  556.000   93.931    0.318    0.170    7.066
  556.250  101.519    0.325    0.169    7.310
  556.500  105.576    0.331    0.162    7.566
  556.750  104.336    0.339    0.150    7.832
  557.000   92.487    0.330    0.121    7.964
  557.250   81.831    0.299    0.074    8.395
  557.500   73.481    0.285    0.051    8.690
  557.750   76.393    0.275    0.048    8.994
  558.000   82.231    0.261    0.064    9.310
  558.250   84.522    0.261    0.058    9.456
  558.500   86.225    0.266    0.058    9.615
  558.750   86.751    0.302    0.063    9.588
  559.000   85.496    0.312    0.073    9.567
  559.250   82.475    0.317    0.143    9.363
  559.500   82.412    0.314    0.165    9.178
  559.750   82.938    0.312    0.158    8.986
  560.000   84.641    0.311    0.150    8.813
  560.250   85.739    0.312    0.144    8.473
  560.500   85.708    0.320    0.140    8.305
  560.750   85.614    0.326    0.143    8.132
  561.000   84.978    0.328    0.150    7.971
  561.250   83.739    0.328    0.155    7.655
  561.500   80.733    0.306    0.145    7.503
  561.750   77.139    0.303    0.126    7.491
  562.000   78.842    0.301    0.103    7.475
  562.250   82.899    0.309    0.132    7.454
  562.500   86.368    0.333    0.143    7.438
  562.750   86.894    0.340    0.152    7.287
  563.000   89.758    0.341    0.155    7.271
  563.250   90.299    0.336    0.149    7.247
  563.500   90.237    0.323    0.146    7.103
  563.750   88.408    0.322    0.146    7.096
  564.000   87.168    0.315    0.156    6.818
  564.250   88.267    0.309    0.153    6.558
  564.500   91.147    0.299    0.153    6.421
  564.750   92.866    0.291    0.154    6.410
  565.000   91.022    0.283    0.150    6.396
  565.250   89.209    0.271    0.126    6.379
  565.500   86.792    0.264    0.070    6.372
  565.750   89.657    0.270    0.101    6.129
  566.000   92.552    0.287    0.126    5.683
  566.250   96.609    0.305    0.157    3.651
  566.500  102.432    0.333    0.164    3.087
  566.750  106.489    0.361    0.176    2.095
  567.000  107.588    0.372    0.210    1.771
  567.250  105.186    0.431    0.307    1.644
