~VERSION INFORMATION
 VERS.                 2.0:   CWLS LOG ASCII STANDARD -VERSION 2.0
 WRAP.                  NO:   ONE LINE PER DEPTH STEP
~WELL INFORMATION BLOCK
#MNEM.UNIT           DATA                    DESCRIPTION OF MNEMONIC
#---------    -------------------            -------------------------------
# Generated from Intellog Unique Number	CS_77_79/WELL/879
WELL.         HB THORNBURY EV                : Well_name    - WELL
LOC .         00/06-20-078-11W4/0            : Location     - LOCATION
UWI .         00/06-20-078-11W4/0            : Uwi          - UNIQUE WELL ID
ENTR.         JHS                            : Entered      - ENTERED BY
SRVC.         SCHLUMBERGER                   : Scn          - SERVICE COMPANY
STRT.M        259.080                        : top_depth    - START DEPTH
STOP.M        493.580                        : bot_depth    - STOP DEPTH
STEP.M        0.25                           : increment    - STEP LENGTH
 NULL. -999.2500:NULL Value
~CURVE INFORMATION BLOCK
#MNEM UNIT       ERCB CURVE CODE    CURVE DESCRIPTION
#-----------   ------------------   ----------------------------------
DEPT.M        00 001 00 00         : DEPTH        - DEPTH
RHOB.KG/M3    00 350 00 00         : DENS         - BULK DENSITY
GR  .API      00 310 00 00         : GR           - GAMMA RAY
DPHI.V/V      00 890 00 00         : PHID         - DENSITY POROSITY (SANDSTONE)
NPHI.V/V      00 330 00 00         : PHIN         - NEUTRON POROSITY (SANDSTONE)
ILD .OHMM     00 120 00 00         : RESD         - DEEP RESISTIVITY (DIL)
~PARAMETER INFORMATION
#MNEM.UNIT           DATA             DESCRIPTION OF MNEMONIC
#---------         -----------     ------------------------------
GL  .M        704.088              : gl           - GROUND LEVEL ELEVATION
EREF.M        721.462              : kb           - ELEVATION OF DEPTH REFERENCE
DATM.M        721.462              : datum        - DATUM ELEVATION
TDD .M        498.348              : tdd          - TOTAL DEPTH DRILLER
RUN .         ONE                  : Run          - RUN NUMBER
ENG .         BILL                 : Engineer     - RECORDING ENGINEER
WIT .         JIM                  : Witness      - WITNESSED BY
MUD .         GEL                  : Mud_type     - MUD TYPE
MATR.         SANDSTONE            : Logunit      - NEUTRON MATRIX
TMAX.C        60                   : BHT          - MAXIMUM RECORDED TEMPERATURE
BHTD.M        498.348              : BHTDEP       - MAXIMUM RECORDED TEMPERATURE
MATR.         1                    : LOGUNIT      - NEUTRON MATRIX
RMT .C        25                   : MDTP         - TEMPERATURE OF MUD
NEUT.         1                    : NEUTRON      - NEUTRON TYPE
RESI.         0                    : RESIST       - RESISTIVITY TYPE
RMC .OHMM     0.25                 : RMC          - RESISTIVITY OF MUD CAKE
RMF .OHMM     0.25                 : RMF          - RESISTIVITY OF MUD FILTRATE
SUFT.C        15                   : SUFT         - SURFACE TEMPERATURE
~A  DEPTH     DENS       GR     PHID     PHIN     RESD
# ...
  368.580   -0.000   94.198    0.270    0.583    4.831
  368.830   -0.000   91.542    0.283    0.563    4.603
  369.080    0.000   89.947    0.318    0.551    4.380
  369.330    0.000   89.459    0.333    0.581    4.371
  369.580    0.000   90.570    0.367    0.595    4.464
  369.830   -0.000   91.757    0.345    0.557    4.646
  370.080   -0.000   93.965    0.304    0.545    5.048
  370.330    0.000   95.384    0.294    0.549    5.464
  370.580    0.000   93.520    0.327    0.528    5.911
  370.830    0.000   88.881    0.314    0.528    6.842
  371.080   -0.000   85.963    0.301    0.537    7.603
  371.330   -0.000   84.958    0.316    0.530    7.861
  371.580   -0.000   88.796    0.303    0.499    7.904
  371.830    0.000   92.294    0.289    0.480    7.254
  372.080    0.000   91.940    0.303    0.483    5.481
  372.330    0.000   90.620    0.303    0.502    4.375
  372.580   -0.000   90.579    0.328    0.547    3.807
  372.830   -0.000   91.334    0.340    0.592    3.506
  373.080   -0.000   94.259    0.338    0.599    3.413
  373.330    0.000   95.542    0.321    0.587    3.397
  373.580    0.000   97.488    0.297    0.568    3.649
  373.830   -0.000   97.906    0.288    0.558    3.681
  374.080   -0.000   95.960    0.325    0.569    3.650
  374.330   -0.000   93.989    0.323    0.592    3.539
  374.580    0.000   92.618    0.326    0.565    3.436
  374.830    0.000   91.444    0.340    0.570    3.337
  375.080    0.000   92.657    0.351    0.599    3.244
  375.330   -0.000   98.227    0.378    0.610    3.203
  375.580   -0.000  101.002    0.347    0.619    3.215
  375.830   -0.000  100.222    0.329    0.619    3.252
  376.080    0.000   96.136    0.304    0.620    3.296
  376.330    0.000   94.065    0.318    0.612    3.296
  376.580   -0.000   93.713    0.325    0.612    3.259
  376.830   -0.000   94.620    0.311    0.596    3.157
  377.080   -0.000   96.207    0.283    0.601    3.134
  377.330    0.000   96.687    0.292    0.610    3.084
  377.580    0.000   96.730    0.313    0.615    3.148
  377.830    0.000   96.770    0.331    0.602    3.218
  378.080   -0.000   98.875    0.307    0.587    3.375
  378.330   -0.000  100.088    0.295    0.585    3.517
  378.580   -0.000   99.693    0.309    0.590    3.668
  378.830    0.000   98.721    0.283    0.577    3.850
  379.080    0.000   97.586    0.281    0.551    4.108
  379.330    0.000   95.564    0.296    0.536    4.328
  379.580   -0.000   94.826    0.283    0.530    4.544
  379.830   -0.000   97.488    0.310    0.521    4.806
  380.080    0.000   98.038    0.311    0.511    5.097
  380.330    0.000   96.060    0.289    0.519    5.686
  380.580    0.000   93.650    0.277    0.515    6.356
  380.830   -0.000   93.179    0.272    0.500    6.963
  381.080   -0.000   94.420    0.280    0.493    7.434
  381.330   -0.000   95.659    0.289    0.497    7.561
  381.580    0.000   95.158    0.278    0.520    7.825
  381.830    0.000   93.818    0.264    0.546    7.844
  382.080    0.000   90.804    0.264    0.551    7.853
  382.330   -0.000   90.382    0.276    0.523    7.861
  382.580   -0.000   91.127    0.283    0.507    7.908
  382.830    0.000   91.456    0.281    0.498    8.015
  383.080    0.000   91.072    0.278    0.505    8.019
  383.330    0.000   90.856    0.272    0.495    8.024
  383.580   -0.000   91.408    0.279    0.486    8.027
  383.830   -0.000   92.648    0.268    0.503    7.953
  384.080   -0.000   94.534    0.260    0.510    7.895
  384.330    0.000   95.007    0.257    0.519    7.905
  384.580    0.000   95.349    0.263    0.529    7.675
  384.830    0.000   95.691    0.268    0.529    7.614
  385.080   -0.000   95.711    0.262    0.510    7.377
  385.330   -0.000   95.752    0.264    0.516    7.408
  385.580   -0.000   95.100    0.263    0.518    7.495
  385.830    0.000   93.751    0.276    0.507    7.501
  386.080    0.000   91.701    0.269    0.500    7.504
  386.330   -0.000   90.914    0.269    0.509    7.516
  386.580   -0.000   92.523    0.270    0.513    7.367
  386.830   -0.000   95.596    0.269    0.496    7.387
  387.080    0.000   97.485    0.257    0.477    7.276
  387.330    0.000   98.207    0.256    0.488    7.129
  387.580    0.000   98.160    0.261    0.468    6.992
  387.830   -0.000   98.163    0.252    0.453    6.905
  388.080   -0.000   98.172    0.253    0.449    6.651
  388.330   -0.000   98.180    0.241    0.462    6.388
  388.580    0.000   97.797    0.278    0.502    6.220
  388.830    0.000   96.951    0.284    0.519    5.738
  389.080   -0.000   96.990    0.270    0.493    5.045
  389.330   -0.000   97.602    0.291    0.495    4.405
  389.580   -0.000   98.469    0.276    0.515    3.787
  389.830    0.000  101.050    0.275    0.548    3.149
  390.080    0.000  102.211    0.302    0.603    2.752
  390.330    0.000  100.196    0.338    0.619    2.593
  390.580   -0.000   97.197    0.335    0.612    2.507
  390.830   -0.000   95.709    0.320    0.600    2.562
  391.080   -0.000   95.779    0.290    0.611    2.945
  391.330    0.000   95.210    0.317    0.620    3.214
  391.580    0.000   95.243    0.334    0.605    3.527
  391.830    0.000   95.252    0.325    0.571    3.863
  392.080   -0.000   95.091    0.289    0.515    4.545
  392.330   -0.000   97.511    0.265    0.513    4.993
  392.580    0.000   99.433    0.261    0.495    5.365
  392.830    0.000   99.230    0.281    0.477    5.829
  393.080    0.000   96.637    0.286    0.477    6.021
  393.330   -0.000   93.668    0.293    0.513    6.010
  393.580   -0.000   91.402    0.291    0.527    6.144
  393.830   -0.000   91.150    0.300    0.501    6.136
  394.080    0.000   97.213    0.313    0.493    6.142
  394.330    0.000   95.453    0.309    0.497    6.182
  394.580    0.000   92.139    0.298    0.499    6.381
  394.830   -0.000   89.109    0.272    0.483    6.461
  395.080   -0.000   89.049    0.253    0.475    6.667
  395.330    0.000   91.724    0.272    0.489    6.880
  395.580    0.000   93.374    0.297    0.504    6.882
  395.830    0.000   93.383    0.285    0.522    6.888
  396.080   -0.000   92.436    0.286    0.513    6.892
  396.330   -0.000   89.923    0.296    0.495    6.896
  396.580   -0.000   86.543    0.306    0.502    6.899
  396.830    0.000   83.131    0.304    0.509    6.915
  397.080    0.000   80.324    0.298    0.495    6.780
  397.330    0.000   78.316    0.317    0.486    6.647
  397.580   -0.000   74.476    0.347    0.499    6.441
  397.830   -0.000   68.017    0.375    0.520    6.342
  398.080   -0.000   62.891    0.377    0.519    6.202
  398.330    0.000   63.244    0.381    0.523    6.003
  398.580    0.000   63.529    0.377    0.501    5.955
  398.830   -0.000   64.175    0.368    0.511    5.879
  399.080   -0.000   64.842    0.369    0.521    5.883
  399.330   -0.000   64.811    0.383    0.501    5.888
  399.580    0.000   64.824    0.381    0.503    5.891
  399.830    0.000   65.157    0.374    0.499    5.898
  400.080    0.000   65.501    0.359    0.484    5.915
  400.330   -0.000   66.004    0.362    0.474    6.016
  400.580   -0.000   66.647    0.354    0.475    6.018
  400.830   -0.000   67.272    0.339    0.479    6.021
  401.080    0.000   67.284    0.336    0.485    6.015
  401.330    0.000   66.408    0.346    0.482    6.192
  401.580    0.000   65.446    0.349    0.487    6.258
  401.830   -0.000   65.593    0.368    0.498    6.266
  402.080   -0.000   66.839    0.376    0.510    6.296
  402.330    0.000   67.302    0.378    0.514    6.388
  402.580    0.000   66.613    0.370    0.521    6.392
  402.830    0.000   66.579    0.360    0.513    6.399
  403.080   -0.000   66.061    0.355    0.505    6.293
  403.330   -0.000   65.798    0.356    0.508    6.229
  403.580   -0.000   65.517    0.358    0.499    6.166
  403.830    0.000   65.438    0.357    0.494    6.058
  404.080    0.000   67.567    0.349    0.498    6.024
  404.330    0.000   69.216    0.341    0.489    5.964
  404.580   -0.000   71.213    0.341    0.478    5.969
  404.830   -0.000   70.595    0.368    0.471    6.005
