~VERSION INFORMATION
 VERS.                 2.0:   CWLS LOG ASCII STANDARD -VERSION 2.0
 WRAP.                  NO:   ONE LINE PER DEPTH STEP
~WELL INFORMATION BLOCK
#MNEM.UNIT           DATA                    DESCRIPTION OF MNEMONIC
#---------    -------------------            -------------------------------
# Generated from Intellog Unique Number	CS_67_68/WELL/2401
WELL.         BVI ET AL TOUCHWOOD            : Well_name    - WELL
LOC .         00/09-31-067-10W4/0            : Location     - LOCATION
UWI .         00/09-31-067-10W4/0            : Uwi          - UNIQUE WELL ID
ENTR.         C                              : Entered      - ENTERED BY
SRVC.         SCHLUMBERGER                   : Scn          - SERVICE COMPANY
STRT.M        350                            : top_depth    - START DEPTH
STOP.M        575                            : bot_depth    - STOP DEPTH
STEP.M        0.25                           : increment    - STEP LENGTH
 NULL. -999.2500:NULL Value
~CURVE INFORMATION BLOCK
#MNEM UNIT       ERCB CURVE CODE    CURVE DESCRIPTION
#-----------   ------------------   ----------------------------------
DEPT.M        00 001 00 00         : DEPTH        - DEPTH
ILD .OHMM     00 120 00 00         : RESD         - DEEP RESISTIVITY (DIL)
DPHI.V/V      00 890 00 00         : PHID         - DENSITY POROSITY (SANDSTONE)
NPHI.V/V      00 330 00 00         : PHIN         - NEUTRON POROSITY (SANDSTONE)
CALI.MM       00 280 01 00         : CAL          - CALIPER
GR  .API      00 310 00 00         : GR           - GAMMA RAY
~PARAMETER INFORMATION
#MNEM.UNIT           DATA             DESCRIPTION OF MNEMONIC
#---------         -----------     ------------------------------
GL  .M        653                  : gl           - GROUND LEVEL ELEVATION
EREF.M        657.15               : kb           - ELEVATION OF DEPTH REFERENCE
DATM.M        657.15               : datum        - DATUM ELEVATION
TDD .M        686                  : tdd          - TOTAL DEPTH DRILLER
RUN .         ONE                  : Run          - RUN NUMBER
ENG .         BILL                 : Engineer     - RECORDING ENGINEER
WIT .         JIM                  : Witness      - WITNESSED BY
MUD .         GEL                  : Mud_type     - MUD TYPE
MATR.         SANDSTONE            : Logunit      - NEUTRON MATRIX
TMAX.C        28                   : BHT          - MAXIMUM RECORDED TEMPERATURE
BHTD.M        586                  : BHTDEP       - MAXIMUM RECORDED TEMPERATURE
RMT .C        22                   : MDTP         - TEMPERATURE OF MUD
MUDD.KG/M     1130                 : MWT          - MUD DENSITY
NEUT.         1                    : NEUTRON      - NEUTRON TYPE
RESI.         0                    : RESIST       - RESISTIVITY TYPE
RM  .OHMM     4.3                  : RM           - RESISTIVITY OF MUD
RMC .OHMM     2.7                  : RMC          - RESISTIVITY OF MUD CAKE
RMF .OHMM     3.7                  : RMF          - RESISTIVITY OF MUD FILTRATE
SUFT.C        4                    : SUFT         - SURFACE TEMPERATURE
~A  DEPTH     RESD     PHID     PHIN      CAL       GR
# ...
  423.000    5.823    0.196    0.349  158.545   92.284
  423.250    5.823    0.185    0.349  159.537   89.840
  423.500    5.823    0.181    0.350  159.515   89.214
  423.750    5.714    0.186    0.351  159.515   86.765
  424.000    5.714    0.192    0.353  160.478   84.312
  424.250    5.713    0.193    0.351  161.448   83.079
  424.500    5.607    0.190    0.349  161.427   85.493
  424.750    5.607    0.184    0.342  161.405   87.912
  425.000    5.606    0.180    0.345  162.383   90.323
  425.250    5.606    0.185    0.355  162.361   91.526
  425.500    5.606    0.190    0.363  163.346   91.504
  425.750    5.712    0.195    0.358  163.317   87.235
  426.000    5.820    0.201    0.355  163.288   91.470
  426.250    5.820    0.199    0.348  163.245   94.496
  426.500    5.819    0.198    0.343  162.218   93.876
  426.750    5.930    0.198    0.346  162.182   91.422
  427.000    6.042    0.199    0.353  161.147   89.581
  427.250    6.042    0.198    0.354  159.092   93.212
  427.500    6.041    0.193    0.349  158.035   96.239
  427.750    6.041    0.190    0.345  158.014   95.613
  428.000    6.041    0.188    0.340  156.972   91.340
  428.250    6.041    0.192    0.343  156.943   85.851
  428.500    6.040    0.197    0.346  155.901   87.658
  428.750    6.040    0.194    0.342  155.872   88.857
  429.000    6.040    0.199    0.336  155.851   85.800
  429.250    6.040    0.205    0.340  155.815   87.602
  429.500    6.039    0.213    0.352  156.792   84.549
  429.750    6.039    0.215    0.358  156.771   81.492
  430.000    6.153    0.213    0.361  156.749   83.903
  430.250    6.153    0.212    0.365  157.734   83.890
  430.500    6.153    0.214    0.378  158.718   83.864
  430.750    6.152    0.219    0.452  159.695   84.463
  431.000    6.152    0.225    0.482  159.681   86.270
  431.250    6.152    0.233    0.449  160.666   88.684
  431.500    6.152    0.239    0.429  161.643   89.879
  431.750    6.152    0.238    0.412  162.620   87.430
  432.000    6.151    0.234    0.379  162.606   84.985
  432.250    6.151    0.229    0.376  163.591   80.708
  432.500    6.151    0.223    0.379  164.568   84.342
  432.750    6.036    0.217    0.378  164.546   81.893
  433.000    5.923    0.212    0.375  163.490   81.876
  433.250    5.813    0.210    0.376  162.462   83.075
  433.500    5.704    0.212    0.380  161.420   81.234
  433.750    5.291    0.223    0.385  158.337   77.569
  434.000    4.552    0.246    0.388  157.303   74.507
  434.250    4.222    0.267    0.388  156.268   77.534
  434.500    3.701    0.280    0.388  156.232   79.953
  434.750    3.564    0.293    0.389  156.210   77.500
  435.000    3.498    0.296    0.387  156.160   75.055
  435.250    3.432    0.292    0.383  156.153   71.390
  435.500    3.631    0.285    0.376  157.130   67.721
  435.750    3.842    0.278    0.374  158.122   65.276
  436.000    3.915    0.274    0.377  159.092   64.043
  436.250    4.064    0.270    0.382  159.071   64.629
  436.500    4.141    0.270    0.386  160.062   67.044
  436.750    4.220    0.272    0.389  160.019   69.463
  437.000    4.381    0.277    0.394  160.005   70.049
  437.250    4.381    0.282    0.392  159.969   68.204
  437.500    4.381    0.285    0.381  159.940   67.587
  437.750    4.381    0.286    0.373  159.904   66.354
  438.000    4.381    0.290    0.370  159.883   68.764
  438.250    4.380    0.295    0.364  159.861   65.103
  438.500    4.380    0.304    0.349  159.825   60.222
  438.750    4.298    0.271    0.302  158.791   54.729
  439.000    4.298    0.108    0.272  158.769   51.672
  439.250    4.218    0.033    0.186  157.713   51.655
  439.500    4.298    0.016    0.143  157.677   54.678
  439.750    4.379    0.089    0.141  157.662   57.096
  440.000    4.633    0.154    0.154  157.641   61.331
  440.250    4.902    0.283    0.246  157.612   63.750
  440.500    5.384    0.284    0.302  158.597   67.984
  440.750    5.591    0.278    0.369  158.561   69.187
  441.000    6.027    0.270    0.405  159.538   68.562
  441.250    6.875    0.257    0.389  159.517   67.932
  441.500    7.411    0.243    0.381  160.508   67.915
  441.750    7.990    0.233    0.388  160.465   67.898
  442.000    8.295    0.247    0.398  160.444   67.880
  442.250    7.989    0.263    0.410  160.422   68.475
  442.500    6.745    0.263    0.390  160.393   69.674
  442.750    5.803    0.258    0.379  160.365   68.441
  443.000    5.282    0.256    0.371  160.336   67.208
  443.250    4.808    0.250    0.365  160.300   67.191
  443.500    4.544    0.241    0.362  160.271   67.173
  443.750    4.459    0.234    0.370  160.250   68.376
  444.000    4.459    0.224    0.367  159.208   75.047
  444.250    4.459    0.210    0.372  159.179   76.853
  444.500    4.459    0.197    0.382  159.150   80.484
  444.750    4.543    0.195    0.392  159.122   83.502
  445.000    4.629    0.200    0.389  160.106   80.445
  445.250    4.806    0.201    0.378  160.077   82.252
  445.500    4.897    0.195    0.376  160.056   87.103
  445.750    4.990    0.189    0.379  160.027   94.989
  446.000    5.084    0.192    0.379  159.998   90.712
  446.250    5.279    0.196    0.372  159.970   85.835
  446.500    5.379    0.196    0.365  159.941   79.734
  446.750    5.799    0.195    0.368  159.905   74.853
  447.000    5.908    0.192    0.373  159.876   75.448
  447.250    5.908    0.189    0.369  159.848   85.766
  447.500    6.020    0.186    0.363  159.826   85.141
  447.750    6.020    0.183    0.362  159.826   81.471
  448.000    6.020    0.182    0.368  159.754   79.022
  448.250    6.019    0.182    0.378  159.725   78.397
  448.500    5.907    0.182    0.380  159.725   78.388
  448.750    5.907    0.183    0.374  164.742   79.587
  449.000    5.796    0.183    0.369  160.660   81.394
  449.250    5.688    0.185    0.372  160.631   83.196
  449.500    5.688    0.190    0.378  161.616   85.007
  449.750    5.582    0.193    0.384  163.613   86.201
  450.000    5.478    0.191    0.377  164.598   83.757
  450.250    5.375    0.186    0.371  164.569   80.087
  450.500    5.275    0.183    0.373  164.540   78.859
  450.750    5.275    0.182    0.378  164.519   83.097
  451.000    5.275    0.187    0.391  164.483   86.728
  451.250    5.274    0.196    0.396  164.461   89.142
  451.500    5.274    0.198    0.392  165.453   92.773
  451.750    5.274    0.201    0.392  165.424   86.068
  452.000    5.274    0.202    0.403  165.389   84.831
  452.250    5.175    0.197    0.413  165.353   85.425
  452.500    5.079    0.186    0.403  165.331   78.113
  452.750    5.078    0.179    0.396  165.302   78.703
  453.000    4.984    0.169    0.382  166.294   86.590
  453.250    4.890    0.165    0.375  166.265   93.864
  453.500    4.890    0.166    0.384  166.237   93.243
  453.750    4.890    0.173    0.397  167.214   88.362
  454.000    4.890    0.181    0.394  168.206   77.397
  454.250    4.890    0.188    0.387  168.170   87.112
  454.500    4.798    0.194    0.386  168.148   92.570
  454.750    4.798    0.199    0.386  167.106   96.192
  455.000    4.798    0.195    0.388  167.063   94.968
  455.250    4.798    0.193    0.390  166.036   88.263
  455.500    4.708    0.189    0.393  165.992   84.598
  455.750    4.708    0.184    0.394  165.978   87.008
  456.000    4.620    0.178    0.393  164.929   90.643
  456.250    4.449    0.176    0.390  164.900   95.489
  456.500    4.366    0.168    0.388  164.879   99.728
  456.750    4.127    0.169    0.395  164.850   94.847
  457.000    4.050    0.176    0.400  164.814   89.966
  457.250    3.900    0.192    0.404  164.778   90.557
  457.500    3.756    0.208    0.411  164.757   86.887
  457.750    3.550    0.218    0.426  164.728   90.522
  458.000    3.483    0.224    0.488  164.706   97.193
  458.250    3.418    0.241    0.447  164.678   77.113
  458.500    3.292    0.262    0.433  163.621   63.720
  458.750    3.231    0.282    0.424  163.600   66.135
  459.000    3.170    0.288    0.412  162.572   70.373
  459.250    3.111    0.274    0.396  160.517   77.044
