~VERSION INFORMATION
 VERS.                 2.0:   CWLS LOG ASCII STANDARD -VERSION 2.0
 WRAP.                  NO:   ONE LINE PER DEPTH STEP
~WELL INFORMATION BLOCK
#MNEM.UNIT           DATA                    DESCRIPTION OF MNEMONIC
#---------    -------------------            -------------------------------
# Generated from Intellog Unique Number	CX_WELLS/WELL/3065
WELL.         AMOCO A-1 HOUSE                : Well_name    - WELL
LOC .         00/06-27-082-14W4/0            : Location     - LOCATION
UWI .         00/06-27-082-14W400            : Uwi          - UNIQUE WELL ID
ENTR.         TIM                            : Entered      - ENTERED BY
SRVC.         SCHLUMBERGER                   : Scn          - SERVICE COMPANY
DATE.         03/04/92                       : Date         - LOG DATE
STRT.F        450                            : top_depth    - START DEPTH
STOP.F        1189.83                        : bot_depth    - STOP DEPTH
STEP.F        0.82                           : increment    - STEP LENGTH
 NULL. -999.2500:NULL Value
~CURVE INFORMATION BLOCK
#MNEM UNIT       ERCB CURVE CODE    CURVE DESCRIPTION
#-----------   ------------------   ----------------------------------
DEPT.F        00 001 00 00         : DEPTH        - DEPTH
GR  .API      00 310 00 00         : GR           - GAMMA RAY
NPHI.V/V      00 330 00 00         : PHIN         - NEUTRON POROSITY (SANDSTONE)
DPHI.V/V      00 890 00 00         : PHID         - DENSITY POROSITY (SANDSTONE)
ILD .OHMM     00 120 00 00         : RESD         - DEEP RESISTIVITY (OTHER)
~PARAMETER INFORMATION
#MNEM.UNIT           DATA             DESCRIPTION OF MNEMONIC
#---------         -----------     ------------------------------
GL  .F        1905.3               : gl           - GROUND LEVEL ELEVATION
EREF.F        1919                 : kb           - ELEVATION OF DEPTH REFERENCE
DATM.F        1919                 : datum        - DATUM ELEVATION
TDD .F        1224                 : tdd          - TOTAL DEPTH DRILLER
RUN .         ONE                  : Run          - RUN NUMBER
ENG .         JO                   : Engineer     - RECORDING ENGINEER
WIT .         TIM                  : Witness      - WITNESSED BY
MUD .         GEL                  : Mud_type     - MUD TYPE
MATR.         SANDSTONE            : Logunit      - NEUTRON MATRIX
TMAX.F        72                   : BHT          - MAXIMUM RECORDED TEMPERATURE
BHTD.F        1224                 : BHTDEP       - MAXIMUM RECORDED TEMPERATURE
RMT .F        72                   : MDTP         - TEMPERATURE OF MUD
MUDD.LB/G     1                    : MWT          - MUD DENSITY
NEUT.         1                    : NEUTRON      - NEUTRON TYPE
RESI.         1.9                  : RESIST       - RESISTIVITY TYPE
RM  .OHMM     1.9                  : RM           - RESISTIVITY OF MUD
RMC .OHMM     1.9                  : RMC          - RESISTIVITY OF MUD CAKE
RMF .OHMM     1.84                 : RMF          - RESISTIVITY OF MUD FILTRATE
SUFT.F        32                   : SUFT         - SURFACE TEMPERATURE
~A  DEPTH       GR     PHIN     PHID     RESD
# ...
  878.150   78.409    0.477    0.290    7.715
  878.970   79.070    0.484    0.289    7.729
  879.790   81.005    0.496    0.287    7.741
  880.610   81.667    0.495    0.283    7.755
  881.430   82.379    0.486    0.277    7.766
  882.251   82.428    0.480    0.269    7.778
  883.071   82.512    0.479    0.257    7.787
  883.891   82.562    0.480    0.257    7.798
  884.711   82.662    0.477    0.258    7.672
  885.531   82.695    0.476    0.259    7.686
  886.352   82.761    0.472    0.259    7.695
  887.172   82.216    0.472    0.258    7.709
  887.992   82.283    0.472    0.261    7.718
  888.812   83.590    0.472    0.277    7.732
  889.633   84.301    0.472    0.270    7.743
  890.453   84.351    0.473    0.262    7.618
  891.273   84.434    0.476    0.284    7.632
  892.093   84.484    0.488    0.279    7.500
  892.913   84.534    0.502    0.273    7.117
  893.734   84.601    0.519    0.265    6.868
  894.554   84.684    0.514    0.254    6.280
  895.374   84.751    0.515    0.249    5.643
  896.194   84.817    0.522    0.247    5.545
  897.014   84.901    0.533    0.245    5.555
  897.835   84.951    0.545    0.238    5.770
  898.655   85.051    0.553    0.232    5.995
  899.475   85.712    0.523    0.232    6.460
  900.295   85.812    0.520    0.253    6.586
  901.115   86.474    0.519    0.246    7.096
  901.936   86.524    0.510    0.242    7.370
  902.756   87.847    0.502    0.247    7.798
  903.576   89.103    0.488    0.255    7.953
  904.396   93.468    0.477    0.251    7.815
  905.217   98.428    0.465    0.239    7.149
  906.037   98.495    0.471    0.233    6.777
  906.857   96.760    0.500    0.229    6.310
  907.677   95.586    0.515    0.226    5.880
  908.497   95.058    0.515    0.223    5.781
  909.318   95.108    0.525    0.223    5.685
  910.138   95.786    0.526    0.224    5.800
  910.958   98.316    0.526    0.224    5.913
  911.778  100.829    0.533    0.228    6.144
  912.598  101.507    0.538    0.235    6.266
  913.419   99.772    0.494    0.239    6.630
  914.239   99.194    0.483    0.241    7.141
  915.059   98.037    0.474    0.234    7.833
  915.879   96.286    0.465    0.229    8.288
  916.699   96.352    0.451    0.220    8.449
  917.520   96.436    0.458    0.218    8.617
  918.340   96.486    0.464    0.219    8.792
  919.160   96.585    0.457    0.220    8.812
  919.980   96.635    0.453    0.221    8.659
  920.801   96.107    0.450    0.222    8.512
  921.621   95.545    0.456    0.223    8.220
  922.441   95.595    0.461    0.225    7.938
  923.261   95.712    0.466    0.229    7.397
  924.081   96.357    0.473    0.231    7.141
  924.902   96.424    0.482    0.236    7.028
  925.722   97.118    0.490    0.233    7.033
  926.542   95.962    0.485    0.232    7.043
  927.362   92.375    0.482    0.232    7.315
  928.182   91.185    0.477    0.233    7.464
  929.003   87.599    0.456    0.236    8.187
  929.823   85.219    0.446    0.240    9.148
  930.643   86.509    0.446    0.239    9.854
  931.463   89.038    0.446    0.229    9.690
  932.283   89.733    0.452    0.221    9.358
  933.104   89.172    0.454    0.216    9.203
  933.924   86.808    0.459    0.224    8.887
  934.744   84.412    0.462    0.248    8.430
  935.564   82.627    0.467    0.254    8.288
  936.385   79.652    0.464    0.259    8.006
  937.205   77.867    0.462    0.247    8.018
  938.025   76.727    0.457    0.174    8.030
  938.845   76.182    0.445    0.100    8.340
  939.665   78.084    0.413    0.077    8.983
  940.486   82.448    0.334    0.063    9.854
  941.306   85.573    0.372    0.121   10.808
  942.126   87.475    0.429    0.175   11.864
  942.946   88.781    0.454    0.246   12.100
  943.766   88.831    0.460    0.266   11.272
  944.587   89.526    0.456    0.261   10.685
  945.407   89.593    0.450    0.249   10.314
  946.227   88.436    0.448    0.240    9.784
  947.047   87.296    0.445    0.233    9.445
  947.867   86.751    0.442    0.232    9.295
  948.688   86.206    0.448    0.236    9.306
  949.508   85.661    0.456    0.242    9.151
  950.328   85.099    0.462    0.247    9.168
  951.148   84.571    0.467    0.256    9.182
  951.969   84.026    0.469    0.257    9.027
  952.789   83.481    0.470    0.248    8.880
  953.609   82.341    0.471    0.246    8.736
  954.429   81.796    0.471    0.250    8.746
  955.249   81.863    0.471    0.259    8.449
  956.070   81.317    0.471    0.267    8.162
  956.890   80.789    0.472    0.273    8.168
  957.710   80.823    0.473    0.276    7.891
  958.530   79.088    0.474    0.273    7.757
  959.350   77.914    0.475    0.269    7.497
  960.171   76.179    0.477    0.267    7.370
  960.991   75.601    0.477    0.263    7.125
  961.811   75.056    0.478    0.258    6.878
  962.631   75.767    0.480    0.259    6.761
  963.451   76.429    0.480    0.261    6.647
  964.272   77.719    0.480    0.265    6.421
  965.092   79.621    0.482    0.269    6.198
  965.912   81.522    0.488    0.272    5.986
  966.732   83.424    0.495    0.274    5.780
  967.552   85.953    0.485    0.273    5.582
  968.373   88.466    0.477    0.265    5.108
  969.193   91.608    0.474    0.260    4.756
  970.013   93.526    0.484    0.248    4.427
  970.833   95.427    0.508    0.236    4.051
  971.654   96.717    0.520    0.220    3.981
  972.474   96.156    0.529    0.215    3.987
  973.294   94.999    0.527    0.215    4.454
  974.114   92.024    0.510    0.222    6.191
  974.934   90.256    0.489    0.230    6.794
  975.755   89.694    0.473    0.235    7.183
  976.575   89.149    0.462    0.229    8.030
  977.395   88.604    0.454    0.223    8.048
  978.215   89.911    0.441    0.217    8.054
  979.035   91.829    0.433    0.209    8.069
  979.856   92.490    0.444    0.219    7.932
  980.676   92.574    0.459    0.231    7.947
  981.496   92.624    0.463    0.233    7.952
  982.316   92.112    0.465    0.233    7.826
  983.136   92.195    0.466    0.233    7.838
  983.957   92.229    0.465    0.232    7.708
  984.777   92.329    0.458    0.229    7.717
  985.597   92.379    0.456    0.223    7.728
  986.417   92.462    0.452    0.215    7.740
  987.238   91.933    0.448    0.213    7.754
  988.058   91.967    0.453    0.209    7.631
  988.878   92.033    0.461    0.208    7.637
  989.698   92.745    0.461    0.206    7.651
  990.518   93.390    0.461    0.202    7.524
  991.339   95.291    0.461    0.203    7.402
  992.159   98.466    0.461    0.206    7.274
  992.979   99.723    0.460    0.209    7.027
  993.799   99.789    0.463    0.208    6.428
  994.619   96.186    0.470    0.204    5.463
  995.440   90.153    0.477    0.205    4.643
  996.260   85.310    0.494    0.211    3.673
  997.080   80.484    0.508    0.230    3.813
  997.900   76.269    0.520    0.236    4.261
  998.720   70.847    0.523    0.247    4.589
  999.541   66.004    0.492    0.255    5.125
 1000.360   66.699    0.481    0.255    5.729
 1001.180   69.212    0.475    0.232    6.168
 1002.000   71.725    0.475    0.227    6.768
 1002.820   74.850    0.474    0.221    7.159
 1003.640   77.380    0.471    0.212    7.301
 1004.460   79.910    0.470    0.213    6.558
 1005.280   81.183    0.472    0.220    6.104
 1006.100   84.936    0.475    0.231    5.382
 1006.920   88.656    0.493    0.234    4.833
 1007.740   92.409    0.494    0.238    4.339
 1008.560   91.252    0.497    0.238    4.042
 1009.380   89.484    0.501    0.238    3.976
 1010.200   88.327    0.506    0.235    4.054
 1011.020   87.171    0.487    0.231    4.210
 1011.840   87.237    0.462    0.225    4.375
 1012.660   87.304    0.447    0.219    4.544
 1013.480   88.594    0.453    0.213    4.634
 1014.300   93.570    0.460    0.216    4.726
 1015.120   96.695    0.466    0.212    4.648
 1015.940   99.820    0.477    0.211    4.488
 1016.770  100.498    0.484    0.211    4.256
 1017.590  100.581    0.490    0.216    4.108
 1018.410  100.036    0.498    0.224    3.827
 1019.230   98.879    0.504    0.231    3.696
 1020.050   99.574    0.492    0.239    3.569
