~VERSION INFORMATION
 VERS.                 2.0:   CWLS LOG ASCII STANDARD -VERSION 2.0
 WRAP.                  NO:   ONE LINE PER DEPTH STEP
~WELL INFORMATION BLOCK
#MNEM.UNIT           DATA                    DESCRIPTION OF MNEMONIC
#---------    -------------------            -------------------------------
# Generated from Intellog Unique Number	CS_73_76/WELL/620
WELL.         CAVALIER ET AL NIXON           : Well_name    - WELL
LOC .         00/06-09-073-14W4/0            : Location     - LOCATION
UWI .         00/06-09-073-14W4/0            : Uwi          - UNIQUE WELL ID
ENTR.         SP                             : Entered      - ENTERED BY
SRVC.         SCHLUMBERGER                   : Scn          - SERVICE COMPANY
STRT.M        310                            : top_depth    - START DEPTH
STOP.M        490                            : bot_depth    - STOP DEPTH
STEP.M        0.25                           : increment    - STEP LENGTH
 NULL. -999.2500:NULL Value
~CURVE INFORMATION BLOCK
#MNEM UNIT       ERCB CURVE CODE    CURVE DESCRIPTION
#-----------   ------------------   ----------------------------------
DEPT.M        00 001 00 00         : DEPTH        - DEPTH
ILD .OHMM     00 120 00 00         : RESD         - DEEP RESISTIVITY (DIL)
DPHI.V/V      00 890 00 00         : PHID         - DENSITY POROSITY (LIMESTONE)
NPHI.V/V      00 330 00 00         : PHIN         - NEUTRON POROSITY (LIMESTONE)
GR  .API      00 310 00 00         : GR           - GAMMA RAY
~PARAMETER INFORMATION
#MNEM.UNIT           DATA             DESCRIPTION OF MNEMONIC
#---------         -----------     ------------------------------
GL  .M        652.5                : gl           - GROUND LEVEL ELEVATION
EREF.M        656.64               : kb           - ELEVATION OF DEPTH REFERENCE
DATM.M        652.5                : datum        - DATUM ELEVATION
TDD .M        499.6                : tdd          - TOTAL DEPTH DRILLER
RUN .         ONE                  : Run          - RUN NUMBER
ENG .         BILL                 : Engineer     - RECORDING ENGINEER
WIT .         JIM                  : Witness      - WITNESSED BY
MUD .         GEL                  : Mud_type     - MUD TYPE
MATR.         LIMESTONE            : Logunit      - NEUTRON MATRIX
TMAX.C        21                   : BHT          - MAXIMUM RECORDED TEMPERATURE
BHTD.M        499.6                : BHTDEP       - MAXIMUM RECORDED TEMPERATURE
MATR.         1                    : LOGUNIT      - NEUTRON MATRIX
RMT .C        25                   : MDTP         - TEMPERATURE OF MUD
NEUT.         1                    : NEUTRON      - NEUTRON TYPE
RESI.         0                    : RESIST       - RESISTIVITY TYPE
RMC .OHMM     0.25                 : RMC          - RESISTIVITY OF MUD CAKE
RMF .OHMM     0.25                 : RMF          - RESISTIVITY OF MUD FILTRATE
SUFT.C        15                   : SUFT         - SURFACE TEMPERATURE
~A  DEPTH     RESD     PHID     PHIN       GR
  310.000    2.697    0.217    0.538   92.031
  310.250    2.647    0.218    0.534   93.820
  310.500    2.696    0.224    0.534   96.206
  310.750    2.747    0.224    0.539   97.995
  311.000    2.747    0.213    0.542   99.783
  311.250    2.747    0.213    0.537  100.975
  311.500    2.746    0.222    0.531  100.969
  311.750    2.798    0.229    0.533  100.368
  312.000    2.850    0.218    0.534   99.169
  312.250    2.959    0.212    0.521   97.970
  312.500    3.014    0.203    0.528   96.173
  312.750    3.071    0.196    0.532   94.376
  313.000    3.129    0.194    0.527   93.176
  313.250    3.129    0.194    0.514   92.573
  313.500    3.013    0.196    0.502   92.571
  313.750    3.013    0.200    0.494   92.567
  314.000    3.013    0.211    0.494   93.757
  314.250    3.069    0.225    0.504   94.949
  314.500    3.127    0.235    0.506   95.541
  314.750    3.186    0.242    0.510   95.538
  315.000    3.245    0.247    0.526   95.534
  315.250    3.306    0.236    0.533   96.127
  315.500    3.306    0.219    0.537   96.721
  315.750    3.306    0.202    0.538   97.314
  316.000    3.184    0.190    0.531   95.517
  316.250    3.125    0.186    0.521   93.121
  316.500    3.066    0.182    0.527   91.923
  316.750    3.009    0.205    0.535   94.309
  317.000    3.066    0.227    0.541   95.499
  317.250    3.123    0.222    0.527   96.093
  317.500    3.182    0.227    0.509   96.090
  317.750    3.303    0.229    0.496   94.891
  318.000    3.365    0.230    0.482   93.093
  318.250    3.365    0.230    0.487   92.492
  318.500    3.302    0.230    0.499   93.085
  318.750    3.180    0.232    0.505   92.483
  319.000    3.180    0.239    0.510   91.283
  319.250    3.427    0.250    0.505   89.487
  319.500    3.763    0.266    0.499   86.496
  319.750    3.980    0.280    0.498   82.308
  320.000    4.289    0.296    0.491   78.718
  320.250    4.622    0.311    0.476   75.129
  320.500    4.888    0.319    0.462   71.538
  320.750    5.170    0.321    0.452   69.143
  321.000    5.170    0.324    0.447   66.749
  321.250    5.366    0.323    0.451   65.550
  321.500    5.467    0.313    0.452   66.143
  321.750    5.466    0.301    0.441   69.724
  322.000    5.569    0.286    0.434   71.513
  322.250    5.568    0.276    0.422   75.095
  322.500    5.568    0.255    0.420   79.871
  322.750    5.567    0.244    0.442   82.855
  323.000    5.464    0.231    0.452   87.631
  323.250    5.362    0.214    0.470   90.615
  323.500    5.262    0.199    0.487   94.196
  323.750    5.164    0.184    0.498   95.986
  324.000    5.067    0.173    0.507   97.776
  324.250    4.973    0.167    0.518  100.162
  324.500    4.972    0.170    0.503  103.743
  324.750    4.972    0.184    0.493  100.152
  325.000    5.065    0.220    0.470   93.574
  325.250    5.065    0.254    0.455   86.400
  325.500    5.064    0.276    0.442   77.432
  325.750    5.063    0.293    0.433   70.256
  326.000    5.159    0.305    0.429   61.886
  326.250    5.158    0.315    0.438   67.855
  326.500    5.158    0.304    0.440   70.243
  326.750    5.157    0.299    0.440   74.422
  327.000    5.254    0.290    0.438   76.211
  327.250    5.253    0.290    0.440   75.012
  327.500    5.352    0.282    0.438   74.410
  327.750    5.352    0.276    0.429   77.392
  328.000    5.555    0.267    0.418   78.586
  328.250    5.660    0.258    0.394   77.984
  328.500    5.766    0.248    0.377   72.003
  328.750    5.874    0.237    0.366   70.207
  329.000    5.985    0.220    0.359   71.397
  329.250    6.097    0.211    0.356   75.576
  329.500    6.212    0.205    0.368   80.352
  329.750    6.211    0.209    0.384   82.142
  330.000    6.095    0.205    0.406   85.125
  330.250    5.762    0.200    0.422   85.718
  330.500    5.654    0.202    0.413   86.313
  330.750    5.549    0.198    0.407   86.308
  331.000    5.445    0.191    0.389   80.328
  331.250    5.344    0.194    0.385   73.151
  331.500    5.343    0.188    0.379   70.759
  331.750    5.343    0.191    0.376   65.973
  332.000    5.342    0.220    0.375   61.188
  332.250    5.342    0.248    0.378   58.794
  332.500    5.242    0.265    0.387   63.570
  332.750    5.144    0.274    0.400   71.334
  333.000    5.048    0.252    0.411   75.515
  333.250    4.862    0.221    0.423   85.072
  333.500    4.772    0.204    0.440   94.629
  333.750    4.683    0.182    0.450   97.614
  334.000    4.595    0.166    0.470  100.598
  334.250    4.510    0.153    0.487  102.983
  334.500    4.509    0.141    0.502  104.175
  334.750    4.509    0.134    0.515  106.561
  335.000    4.425    0.136    0.522  108.947
  335.250    4.424    0.147    0.505  107.149
  335.500    4.342    0.156    0.489  106.549
  335.750    4.341    0.170    0.481  107.740
  336.000    4.341    0.184    0.474  109.529
  336.250    4.260    0.188    0.498  110.720
  336.500    4.027    0.195    0.521  112.507
  336.750    3.807    0.199    0.537  112.504
  337.000    3.598    0.212    0.567  113.097
  337.250    3.401    0.219    0.571  113.092
  337.500    3.276    0.231    0.572  112.491
  337.750    3.215    0.240    0.551  110.693
  338.000    3.465    0.237    0.534  107.701
  338.250    3.804    0.236    0.527  105.905
  338.500    4.177    0.240    0.511  103.511
  338.750    4.761    0.235    0.495  103.507
  339.000    5.131    0.228    0.481  101.708
  339.250    5.529    0.218    0.473  101.108
  339.500    5.740    0.197    0.469   98.712
  339.750    5.739    0.185    0.467   96.318
  340.000    5.739    0.179    0.470   95.716
  340.250    5.425    0.181    0.471   98.103
  340.500    5.225    0.183    0.476  101.684
  340.750    4.847    0.177    0.478  102.876
  341.000    4.582    0.167    0.481  104.067
  341.250    4.413    0.158    0.478  102.868
  341.500    4.331    0.132    0.469   99.876
  341.750    4.331    0.106    0.459   95.688
  342.000    4.495    0.112    0.456   94.488
  342.250    4.666    0.124    0.452   93.887
  342.500    5.028    0.142    0.450   93.285
  342.750    5.220    0.177    0.442   93.879
  343.000    5.521    0.202    0.432   93.874
  343.250    5.839    0.223    0.418   91.479
  343.500    6.061    0.240    0.410   89.683
  343.750    6.175    0.253    0.402   87.886
  344.000    6.291    0.256    0.393   86.089
  344.250    6.409    0.262    0.392   83.095
  344.500    6.409    0.262    0.398   82.495
  344.750    6.408    0.259    0.403   82.491
  345.000    6.407    0.250    0.407   84.280
  345.250    6.407    0.238    0.423   87.263
  345.500    6.287    0.228    0.429   90.246
  345.750    6.287    0.218    0.444   92.037
  346.000    6.169    0.218    0.466   96.812
  346.250    6.054    0.211    0.479  102.187
  346.500    6.054    0.205    0.477  105.769
  346.750    5.941    0.204    0.462  109.350
  347.000    5.940    0.207    0.446  112.334
  347.250    5.940    0.212    0.438  106.354
  347.500    5.939    0.229    0.429   97.983
  347.750    5.938    0.241    0.423   92.004
  348.000    6.050    0.249    0.419   83.632
  348.250    6.049    0.253    0.415   78.249
  348.500    6.049    0.245    0.408   80.636
  348.750    6.162    0.241    0.404   87.204
  349.000    6.162    0.243    0.404   90.189
  349.250    6.161    0.239    0.404   93.174
  349.500    6.160    0.234    0.406   96.755
  349.750    6.160    0.224    0.413   97.946
  350.000    6.159    0.218    0.422   99.734
  350.250    6.158    0.211    0.428   97.937
  350.500    6.043    0.206    0.441   97.934
  350.750    6.043    0.213    0.448  100.916
  351.000    5.820    0.210    0.456  103.900
  351.250    5.606    0.206    0.467  106.287
  351.500    5.399    0.204    0.476  108.674
  351.750    5.104    0.207    0.485  111.060
  352.000    4.825    0.203    0.493  112.251
  352.250    4.561    0.198    0.497  109.856
  352.500    4.393    0.204    0.502  107.462
  352.750    4.311    0.215    0.497  103.274
  353.000    4.310    0.231    0.509  100.282
  353.250    4.310    0.243    0.517   97.888
