~VERSION INFORMATION
 VERS.                 2.0:   CWLS LOG ASCII STANDARD -VERSION 2.0
 WRAP.                  NO:   ONE LINE PER DEPTH STEP
~WELL INFORMATION BLOCK
#MNEM.UNIT           DATA                    DESCRIPTION OF MNEMONIC
#---------    -------------------            -------------------------------
# Generated from Intellog Unique Number	CN_94_101/WELL/3728
WELL.         01-29-096-19W4                 : Well_name    - WELL
LOC .         00/01-29-096-19W4/0            : Location     - LOCATION
UWI .         00/01-29-096-19W400            : Uwi          - UNIQUE WELL ID
ENTR.         JOETTE                         : Entered      - ENTERED BY
SRVC.         SCHLUMBERGER                   : Scn          - SERVICE COMPANY
DATE.         08/10/92                       : Date         - LOG DATE
STRT.F        1100                           : top_depth    - START DEPTH
STOP.F        1720.08                        : bot_depth    - STOP DEPTH
STEP.F        0.82                           : increment    - STEP LENGTH
 NULL. -999.2500:NULL Value
~CURVE INFORMATION BLOCK
#MNEM UNIT       ERCB CURVE CODE    CURVE DESCRIPTION
#-----------   ------------------   ----------------------------------
DEPT.F        00 001 00 00         : DEPTH        - DEPTH
ILD .OHMM     00 120 00 00         : RESD         - DEEP RESISTIVITY (DIL)
GR  .API      00 310 00 00         : GR           - GAMMA RAY
NPHI.V/V      00 330 00 00         : PHIN         - NEUTRON POROSITY (SANDSTONE)
~PARAMETER INFORMATION
#MNEM.UNIT           DATA             DESCRIPTION OF MNEMONIC
#---------         -----------     ------------------------------
GL  .M        783.793              : gl           - GROUND LEVEL ELEVATION
EREF.M        786.11               : kb           - ELEVATION OF DEPTH REFERENCE
DATM.M        786.11               : datum        - DATUM ELEVATION
TDD .M        526.39               : tdd          - TOTAL DEPTH DRILLER
RUN .         ONE                  : Run          - RUN NUMBER
ENG .         BILL                 : Engineer     - RECORDING ENGINEER
WIT .         JIM                  : Witness      - WITNESSED BY
MUD .         GEL                  : Mud_type     - MUD TYPE
MATR.         SANDSTONE            : Logunit      - NEUTRON MATRIX
TMAX.F        65                   : BHT          - MAXIMUM RECORDED TEMPERATURE
BHTD.F        1727                 : BHTDEP       - MAXIMUM RECORDED TEMPERATURE
RMT .F        70                   : MDTP         - TEMPERATURE OF MUD
MUDD.LB/G     9.1                  : MWT          - MUD DENSITY
NEUT.         1                    : NEUTRON      - NEUTRON TYPE
RESI.         0                    : RESIST       - RESISTIVITY TYPE
RM  .OHMM     6.2                  : RM           - RESISTIVITY OF MUD
RMC .OHMM     6.2                  : RMC          - RESISTIVITY OF MUD CAKE
RMF .OHMM     6.2                  : RMF          - RESISTIVITY OF MUD FILTRATE
SUFT.F        4                    : SUFT         - SURFACE TEMPERATURE
~A  DEPTH     RESD       GR     PHIN
# ...
 1277.990    3.124   96.950    0.380
 1278.810    3.132   95.778    0.395
 1279.630    3.194   95.234    0.404
 1280.450    3.200   95.906    0.414
 1281.270    3.263   96.549    0.399
 1282.090    3.269   97.849    0.405
 1282.910    3.276   94.233    0.413
 1283.730    3.281   95.505    0.412
 1284.550    3.288   98.019    0.385
 1285.370    3.296   94.390    0.392
 1286.190    3.300   87.087    0.409
 1287.010    3.365   87.144    0.417
 1287.830    3.563   87.801    0.409
 1288.650    3.701   86.644    0.404
 1289.470    3.921   86.086    0.406
 1290.290    3.857   86.143    0.405
 1291.110    3.524   83.728    0.387
 1291.930    3.221   80.713    0.385
 1292.750    3.109   81.398    0.405
 1293.570    3.003   82.698    0.422
 1294.390    2.955   81.526    0.411
 1295.210    3.068   81.583    0.393
 1296.030    3.495   81.011    0.391
 1296.850    4.133   75.538    0.382
 1297.670    4.456   71.294    0.350
 1298.490    4.546   74.423    0.330
 1299.310    4.471   79.395    0.330
 1300.130    4.396   85.611    0.365
 1300.950    4.171   85.682    0.382
 1301.770    4.024   85.110    0.402
 1302.590    3.886   88.868    0.408
 1303.410    3.823   90.168    0.403
 1304.230    3.904   88.353    0.406
 1305.050    3.908   83.509    0.399
 1305.870    3.987   82.951    0.415
 1306.690    3.996   87.924    0.430
 1307.510    3.928   91.667    0.426
 1308.330    3.793   85.580    0.418
 1309.150    3.598   88.723    0.428
 1309.970    3.537   86.922    0.427
 1310.790    3.675   85.764    0.414
 1311.610    3.892   90.108    0.410
 1312.430    4.197   88.336    0.430
 1313.250    4.444   83.463    0.436
 1314.070    4.531   79.219    0.436
 1314.900    4.458   81.748    0.430
 1315.720    4.382   83.648    0.423
 1316.540    4.310   88.020    0.412
 1317.360    4.241   83.762    0.401
 1318.180    4.248   81.361    0.404
 1319.000    4.415   83.275    0.411
 1319.820    4.506   82.103    0.404
 1320.640    4.596   79.688    0.400
 1321.460    4.778   75.458    0.405
 1322.280    4.784   76.130    0.416
 1323.100    4.794   78.644    0.412
 1323.920    4.803   80.545    0.415
 1324.740    4.723   83.688    0.433
 1325.560    4.561   86.817    0.454
 1326.380    4.247   81.944    0.449
 1327.200    4.025   75.871    0.451
 1328.020    3.818   81.444    0.439
 1328.840    3.618   93.803    0.413
 1329.660    3.430   99.419    0.422
 1330.480    3.312   98.218    0.425
 1331.300    3.143   95.817    0.417
 1332.120    3.088   91.587    0.418
 1332.940    2.928   89.172    0.447
 1333.760    2.725   90.472    0.474
 1334.580    2.584   90.529    0.487
 1335.400    2.541   88.743    0.490
 1336.220    2.692   83.884    0.457
 1337.040    2.851   92.543    0.435
 1337.860    2.960   98.745    0.441
 1338.680    3.133   94.500    0.442
 1339.500    3.257   89.041    0.426
 1340.320    3.383   84.797    0.423
 1341.140    3.650   81.153    0.392
 1341.960    3.655   77.523    0.401
 1342.780    3.664   81.882    0.408
 1343.600    3.602   85.639    0.417
 1344.420    3.477   82.624    0.451
 1345.240    3.299   80.223    0.447
 1346.060    3.242   79.665    0.451
 1346.880    3.189   82.795    0.447
 1347.700    3.082   87.153    0.446
 1348.520    3.031   91.539    0.444
 1349.340    3.035   90.981    0.451
 1350.160    2.986   89.809    0.439
 1350.980    2.936   92.310    0.433
 1351.800    2.890   92.981    0.430
 1352.620    2.895   90.594    0.428
 1353.440    2.951   88.794    0.445
 1354.270    3.013   90.080    0.436
 1355.090    3.073   92.623    0.444
 1355.910    3.138   90.208    0.437
 1356.730    3.142   91.493    0.420
 1357.550    3.146   91.550    0.430
 1358.370    3.155   88.535    0.429
 1359.190    3.217   91.078    0.434
 1360.010    3.281   90.492    0.445
 1360.830    3.476   85.633    0.413
 1361.650    3.543   75.859    0.405
 1362.470    3.821   75.302    0.395
 1363.290    3.973   83.346    0.407
 1364.110    3.978   90.191    0.402
 1364.930    3.843   90.247    0.425
 1365.750    3.709   90.919    0.457
 1366.570    3.455   93.419    0.458
 1367.390    3.396   94.091    0.474
 1368.210    3.163   92.918    0.466
 1369.030    3.052   92.361    0.451
 1369.850    2.948   91.818    0.449
 1370.670    2.952   83.258    0.419
 1371.490    3.127   77.785    0.394
 1372.310    3.309   80.928    0.402
 1373.130    3.702   77.284    0.413
 1373.950    3.916   79.813    0.419
 1374.770    4.384   77.427    0.406
 1375.590    4.080   76.255    0.380
 1376.410    3.867   82.442    0.394
 1377.230    3.535   89.272    0.406
 1378.050    3.350   93.630    0.413
 1378.870    3.178   96.759    0.431
 1379.690    3.127  102.974    0.452
 1380.510    3.074  106.718    0.438
 1381.330    3.023  107.403    0.430
 1382.150    3.030  106.860    0.435
 1382.970    3.032  106.274    0.450
 1383.790    3.039  103.873    0.441
 1384.610    3.044  102.087    0.453
 1385.430    3.107   99.686    0.458
 1386.250    3.170  101.586    0.441
 1387.070    3.236  102.272    0.459
 1387.890    3.300   99.871    0.453
 1388.710    3.366  103.000    0.451
 1389.530    3.310  103.671    0.452
 1390.350    3.138   93.897    0.452
 1391.170    2.869   94.568    0.452
 1391.990    2.770   94.011    0.460
 1392.810    2.724   85.451    0.441
 1393.640    2.832   78.749    0.429
 1394.460    3.170   83.736    0.416
 1395.280    3.352   80.721    0.424
 1396.100    3.750   71.575    0.415
 1396.920    4.272   69.146    0.402
 1397.740    4.870   67.988    0.386
 1398.560    5.150   71.746    0.374
 1399.380    5.451   72.417    0.381
 1400.200    6.101   73.074    0.395
 1401.020    6.222   74.974    0.389
 1401.840    6.469   76.875    0.387
 1402.660    6.600   77.574    0.376
 1403.480    6.855   77.631    0.350
 1404.300    7.256   76.459    0.330
 1405.120    7.540   75.902    0.359
 1405.940    8.135   75.959    0.369
 1406.760    8.146   75.401    0.357
 1407.580    7.869   75.444    0.347
 1408.400    7.061   76.115    0.368
 1409.220    6.333   82.331    0.388
 1410.040    5.280   84.845    0.391
 1410.860    4.567   75.686    0.378
 1411.680    4.494   72.056    0.362
 1412.500    4.504   78.257    0.357
 1413.320    4.508   85.073    0.383
 1414.140    4.515   93.132    0.408
 1414.960    4.362   91.345    0.424
 1415.780    4.288   89.573    0.430
 1416.600    3.992   86.572    0.424
 1417.420    3.716   83.557    0.428
 1418.240    3.656   81.742    0.414
 1419.060    4.016   76.269    0.400
 1419.880    4.408   68.952    0.403
 1420.700    4.929   69.009    0.385
 1421.520    5.617   70.924    0.386
 1422.340    6.167   69.737    0.385
 1423.160    6.775   66.736    0.386
 1423.980    7.303   67.408    0.399
 1424.800    7.589   69.908    0.410
 1425.620    4.463   76.738    0.429
 1426.440    3.520   74.351    0.455
 1427.260    3.103   73.165    0.435
 1428.080    2.889   76.923    0.441
 1428.900    2.790   79.423    0.442
 1429.720    2.795   79.480    0.437
 1430.540    2.903   75.850    0.433
 1431.360    3.247   77.793    0.430
 1432.190    3.632   77.822    0.419
 1433.010    4.062   77.293    0.392
 1433.830    4.460   77.936    0.379
 1434.650    4.808   78.607    0.385
 1435.470    5.001   76.820    0.373
 1436.290    5.098   75.048    0.381
 1437.110    5.111   76.334    0.396
 1437.930    5.217   80.720    0.386
 1438.750    5.321   83.235    0.376
 1439.570    5.426   82.063    0.380
 1440.390    5.438   79.034    0.392
 1441.210    5.445   76.018    0.399
 1442.030    5.560   76.704    0.384
 1442.850    5.565   77.347    0.383
 1443.670    5.575   77.432    0.371
 1444.490    5.690   76.846    0.369
 1445.310    5.601   75.703    0.364
 1446.130    5.609   76.374    0.372
 1446.950    5.516   76.416    0.370
 1447.770    5.327   76.473    0.382
 1448.590    5.239   76.544    0.378
 1449.410    5.248   75.373    0.372
 1450.230    5.453   71.128    0.373
 1451.050    5.988   65.026    0.373
 1451.870    6.820   57.724    0.375
 1452.690    7.352   63.911    0.380
 1453.510    7.647   72.570    0.376
 1454.330    7.654   71.413    0.363
 1455.150    7.670   66.540    0.365
