~VERSION INFORMATION
 VERS.                 2.0:   CWLS LOG ASCII STANDARD -VERSION 2.0
 WRAP.                  NO:   ONE LINE PER DEPTH STEP
~WELL INFORMATION BLOCK
#MNEM.UNIT           DATA                    DESCRIPTION OF MNEMONIC
#---------    -------------------            -------------------------------
# Generated from Intellog Unique Number	CS_69_70/WELL/772
WELL.         ALGAS MINERAL ENTERPRISES      : Well_name    - WELL
LOC .         00/06-20-069-16W4/0            : Location     - LOCATION
UWI .         00/06-20-069-16W4/0            : Uwi          - UNIQUE WELL ID
ENTR.         SP                             : Entered      - ENTERED BY
SRVC.         SCHLUMBERGER                   : Scn          - SERVICE COMPANY
STRT.M        283.464                        : top_depth    - START DEPTH
STOP.M        481.214                        : bot_depth    - STOP DEPTH
STEP.M        0.25                           : increment    - STEP LENGTH
 NULL. -999.2500:NULL Value
~CURVE INFORMATION BLOCK
#MNEM UNIT       ERCB CURVE CODE    CURVE DESCRIPTION
#-----------   ------------------   ----------------------------------
DEPT.M        00 001 00 00         : DEPTH        - DEPTH
GR  .API      00 310 00 00         : GR           - GAMMA RAY
DPHI.V/V      00 890 00 00         : PHID         - DENSITY POROSITY (SANDSTONE)
NPHI.V/V      00 330 00 00         : PHIN         - NEUTRON POROSITY (SANDSTONE)
ILD .OHMM     00 120 00 00         : RESD         - DEEP RESISTIVITY (DIL)
~PARAMETER INFORMATION
#MNEM.UNIT           DATA             DESCRIPTION OF MNEMONIC
#---------         -----------     ------------------------------
GL  .M        561.899              : gl           - GROUND LEVEL ELEVATION
EREF.M        565.252              : kb           - ELEVATION OF DEPTH REFERENCE
DATM.M        561.899              : datum        - DATUM ELEVATION
TDD .M        493.166              : tdd          - TOTAL DEPTH DRILLER
RUN .         ONE                  : Run          - RUN NUMBER
ENG .         BILL                 : Engineer     - RECORDING ENGINEER
WIT .         JIM                  : Witness      - WITNESSED BY
MUD .         GEL                  : Mud_type     - MUD TYPE
MATR.         SANDSTONE            : Logunit      - NEUTRON MATRIX
TMAX.C        25.5556              : BHT          - MAXIMUM RECORDED TEMPERATURE
BHTD.M        493.166              : BHTDEP       - MAXIMUM RECORDED TEMPERATURE
MATR.         1                    : LOGUNIT      - NEUTRON MATRIX
RMT .C        25                   : MDTP         - TEMPERATURE OF MUD
NEUT.         1                    : NEUTRON      - NEUTRON TYPE
RESI.         0                    : RESIST       - RESISTIVITY TYPE
RMC .OHMM     0.25                 : RMC          - RESISTIVITY OF MUD CAKE
RMF .OHMM     0.25                 : RMF          - RESISTIVITY OF MUD FILTRATE
SUFT.C        15                   : SUFT         - SURFACE TEMPERATURE
~A  DEPTH       GR     PHID     PHIN     RESD
# ...
  457.464   68.142    0.056    0.250   13.544
  457.714   68.945    0.080    0.233   11.593
  457.964   63.984    0.103    0.221   10.346
  458.214   71.085    0.125    0.243    9.522
  458.464   81.598    0.124    0.307    8.963
  458.714   90.464    0.126    0.328    8.475
  458.964   98.129    0.114    0.343    8.101
  459.214  101.510    0.095    0.355    7.920
  459.464  101.927    0.076    0.337    7.863
  459.714   98.689    0.119    0.341    7.801
  459.964  100.041    0.134    0.337    7.741
  460.214  101.915    0.144    0.330    7.747
  460.464   98.577    0.128    0.326    7.708
  460.714   91.829    0.112    0.314    7.789
  460.964   86.466    0.128    0.301    7.905
  461.214   82.549    0.121    0.290    8.140
  461.464   79.416    0.118    0.282    8.447
  461.714   76.134    0.079    0.257    8.948
  461.964   72.452    0.130    0.237    9.542
  462.214   68.977    0.139    0.246   10.372
  462.464   64.195    0.139    0.268   11.383
  462.714   62.269    0.164    0.281   12.575
  462.964   61.793    0.175    0.284   13.695
  463.214   63.869    0.190    0.286   13.771
  463.464   68.484    0.141    0.295   13.380
  463.714   71.415    0.163    0.289   12.943
  463.964   73.932    0.183    0.288   12.768
  464.214   70.852    0.134    0.283   12.524
  464.464   69.561    0.086    0.262   12.413
  464.714   68.511    0.059    0.240   12.338
  464.964   67.309    0.051    0.245   12.257
  465.214   68.124    0.090    0.254   12.235
  465.464   69.542    0.097    0.259   12.162
  465.714   70.341    0.075    0.250   12.165
  465.964   70.538    0.054    0.239   12.158
  466.214   70.411    0.055    0.231   12.092
  466.464   69.440    0.061    0.216   12.032
  466.714   67.932    0.061    0.196   12.047
  466.964   67.553    0.060    0.192   12.149
  467.214   67.843    0.059    0.197   12.291
  467.464   68.656    0.057    0.200   12.702
  467.714   68.800    0.056    0.205   12.876
  467.964   69.547    0.054    0.211   13.078
  468.214   71.662    0.048    0.217   13.370
  468.464   73.369    0.043    0.225   13.355
  468.714   73.725    0.040    0.231   12.875
  468.964   71.442    0.049    0.237   11.372
  469.214   67.533    0.055    0.248   10.181
  469.464   64.090    0.052    0.269    9.220
  469.714   61.189    0.050    0.273    8.515
  469.964   58.283    0.052    0.280    7.993
  470.214   55.986    0.056    0.287    7.487
  470.464   54.182    0.052    0.278    7.148
  470.714   53.554    0.049    0.261    7.005
  470.964   53.305    0.043    0.245    7.814
  471.214   52.909    0.036    0.230    7.979
  471.464   54.129    0.030    0.222    8.308
  471.714   57.038    0.036    0.225    8.778
  471.964   59.135    0.042    0.217    9.269
  472.214   59.386    0.043    0.202    9.749
  472.464   57.855    0.044    0.187   10.270
  472.714   58.056    0.051    0.179   10.736
  472.964   59.353    0.059    0.193   10.857
  473.214   60.377    0.068    0.219   10.628
  473.464   61.925    0.075    0.242    9.729
  473.714   63.560    0.083    0.257    8.594
  473.964   64.728    0.087    0.276    7.914
  474.214   65.584    0.093    0.293    7.357
  474.464   65.727    0.096    0.303    7.075
  474.714   64.224    0.100    0.307    7.039
  474.964   62.890    0.096    0.306    7.070
  475.214   62.055    0.100    0.302    7.130
  475.464   61.757    0.101    0.299    7.127
  475.714   62.197    0.094    0.296    7.121
  475.964   63.401    0.089    0.294    6.881
  476.214   64.068    0.084    0.294    6.525
  476.464   64.422    0.082    0.291    6.068
  476.714   63.877    0.081    0.288    5.745
  476.964   65.331    0.079    0.281    5.526
  477.214   66.666    0.075    0.278    5.450
  477.464   67.275    0.070    0.274    5.516
  477.714   66.443    0.060    0.268    5.920
  477.964   64.892    0.050    0.254    6.482
  478.214   63.849    0.036    0.243    7.074
  478.464   62.749    0.021    0.229    7.664
  478.714   62.039    0.011    0.212    8.376
  478.964   60.866    0.005    0.192    9.000
  479.214   59.715    0.001    0.178   10.434
  479.464   58.653   -0.008    0.170   11.306
  479.714   55.983   -0.014    0.159   11.884
  479.964   51.922   -0.021    0.147   11.723
  480.214   47.679   -0.022    0.124   13.356
  480.464   46.229   -0.023    0.109   19.796
  480.714   44.569   -0.025    0.096   35.644
  480.964   40.320   -0.027    0.093   49.733
  481.214   36.026   -0.029    0.103   56.522
