~VERSION INFORMATION
 VERS.                 2.0:   CWLS LOG ASCII STANDARD -VERSION 2.0
 WRAP.                  NO:   ONE LINE PER DEPTH STEP
~WELL INFORMATION BLOCK
#MNEM.UNIT           DATA                    DESCRIPTION OF MNEMONIC
#---------    -------------------            -------------------------------
# Generated from Intellog Unique Number	CW_79_81/WELL/2446
WELL.         AMOCO PELICAN                  : Well_name    - WELL
LOC .         00/05-01-081-23W4/0            : Location     - LOCATION
UWI .         00/05-01-081-23W4/0            : Uwi          - UNIQUE WELL ID
ENTR.         MAX                            : Entered      - ENTERED BY
SRVC.         COMPUTALOG                     : Scn          - SERVICE COMPANY
STRT.M        200                            : top_depth    - START DEPTH
STOP.M        459.75                         : bot_depth    - STOP DEPTH
STEP.M        0.25                           : increment    - STEP LENGTH
 NULL. -999.2500:NULL Value
~CURVE INFORMATION BLOCK
#MNEM UNIT       ERCB CURVE CODE    CURVE DESCRIPTION
#-----------   ------------------   ----------------------------------
DEPT.M        00 001 00 00         : DEPTH        - DEPTH
ILD .OHMM     00 120 00 00         : RESD         - DEEP RESISTIVITY (DIL)
NPHI.V/V      00 330 00 00         : PHIN         - NEUTRON POROSITY (SANDSTONE)
DPHI.V/V      00 890 00 00         : PHID         - DENSITY POROSITY (SANDSTONE)
GR  .API      00 310 00 00         : GR           - GAMMA RAY
CALI.MM       00 280 01 00         : CAL          - CALIPER
~PARAMETER INFORMATION
#MNEM.UNIT           DATA             DESCRIPTION OF MNEMONIC
#---------         -----------     ------------------------------
GL  .M        593.34               : gl           - GROUND LEVEL ELEVATION
EREF.M        597.04               : kb           - ELEVATION OF DEPTH REFERENCE
DATM.M        593.34               : datum        - DATUM ELEVATION
TDD .M        456                  : tdd          - TOTAL DEPTH DRILLER
RUN .         ONE                  : Run          - RUN NUMBER
ENG .         BILL                 : Engineer     - RECORDING ENGINEER
WIT .         JIM                  : Witness      - WITNESSED BY
MUD .         GEL                  : Mud_type     - MUD TYPE
MATR.         SANDSTONE            : Logunit      - NEUTRON MATRIX
TMAX.C        31                   : BHT          - MAXIMUM RECORDED TEMPERATURE
BHTD.M        456                  : BHTDEP       - MAXIMUM RECORDED TEMPERATURE
MATR.         1                    : LOGUNIT      - NEUTRON MATRIX
RMT .C        21                   : MDTP         - TEMPERATURE OF MUD
NEUT.         1                    : NEUTRON      - NEUTRON TYPE
RESI.         0                    : RESIST       - RESISTIVITY TYPE
RMC .OHMM     4.9                  : RMC          - RESISTIVITY OF MUD CAKE
RMF .OHMM     5.6                  : RMF          - RESISTIVITY OF MUD FILTRATE
SUFT.C        -10                  : SUFT         - SURFACE TEMPERATURE
~A  DEPTH     RESD     PHIN     PHID       GR      CAL
# ...
  309.500    8.455    0.447    0.327   71.367  202.374
  309.750    8.391    0.452    0.341   70.644  201.984
  310.000    8.328    0.456    0.346   71.200  201.593
  310.250    8.297    0.458    0.347   71.695  201.405
  310.500    8.296    0.455    0.347   71.887  201.419
  310.750    8.283    0.449    0.344   72.983  201.265
  311.000    8.218    0.439    0.338   74.766  200.440
  311.250    8.218    0.438    0.335   74.773  200.047
  311.500    8.217    0.439    0.332   74.052  199.959
  311.750    8.216    0.444    0.327   73.088  199.769
  312.000    8.246    0.450    0.318   72.489  199.478
  312.250    8.408    0.456    0.308   73.136  199.497
  312.500    8.606    0.454    0.309   73.905  199.510
  312.750    8.734    0.466    0.307   73.913  199.118
  313.000    8.864    0.459    0.300   74.287  199.029
  313.250    8.963    0.444    0.294   74.175  199.044
  313.500    8.996    0.429    0.293   73.270  198.857
  313.750    8.915    0.429    0.311   72.022  197.725
  314.000    8.845    0.426    0.320   73.046  196.048
  314.250    8.584    0.422    0.325   75.487  194.848
  314.500    8.331    0.425    0.326   77.199  194.252
  314.750    7.963    0.441    0.319   79.033  194.670
  315.000    7.489    0.462    0.304   81.596  196.207
  315.250    6.906    0.465    0.282   86.067  199.083
  315.500    6.443    0.462    0.258   90.132  201.204
  315.750    6.443    0.448    0.245   90.383  204.464
  316.000    6.479    0.436    0.245   89.722  206.811
  316.250    6.502    0.424    0.253   87.419  209.259
  316.500    6.465    0.415    0.260   85.359  212.112
  316.750    6.262    0.412    0.260   88.096  215.305
  317.000    5.979    0.437    0.283   88.358  217.007
  317.250    5.673    0.460    0.299   87.150  216.212
  317.500    5.414    0.473    0.321   84.847  215.416
  317.750    5.336    0.475    0.309   80.719  214.010
  318.000    5.464    0.469    0.269   76.531  211.996
  318.250    5.869    0.459    0.250   76.947  209.562
  318.500    6.498    0.459    0.249   78.983  207.464
  318.750    7.149    0.467    0.247   82.640  205.451
  319.000    7.870    0.465    0.244   83.744  204.958
  319.250    8.549    0.453    0.244   82.171  206.190
  319.500    9.079    0.433    0.243   79.138  208.739
  319.750    9.424    0.411    0.224   77.302  211.761
  320.000    9.423    0.409    0.188   77.818  212.621
  320.250    8.874    0.424    0.194   84.396  212.634
  320.500    8.503    0.439    0.212   86.960  211.736
  320.750    8.286    0.448    0.225   87.698  210.737
  321.000    8.193    0.452    0.229   88.193  210.043
  321.250    8.205    0.455    0.229   89.725  209.738
  321.500    8.269    0.452    0.226   91.254  210.173
  321.750    8.330    0.437    0.222   93.209  211.811
  322.000    8.345    0.422    0.219   94.798  213.143
  322.250    8.344    0.415    0.218   94.928  213.358
  322.500    8.359    0.418    0.222   92.930  212.662
  322.750    8.434    0.434    0.238   87.800  211.937
  323.000    8.499    0.455    0.251   84.006  210.265
  323.250    8.498    0.455    0.245   82.799  208.252
  323.500    8.498    0.455    0.242   82.868  207.148
  323.750    8.529    0.453    0.243   82.876  205.743
  324.000    8.639    0.446    0.246   82.338  203.831
  324.250    8.968    0.430    0.249   81.820  201.801
  324.500    9.323    0.417    0.250   82.842  199.704
  324.750    9.048    0.423    0.248   85.284  198.096
  325.000    8.732    0.432    0.245   87.727  197.402
  325.250    8.573    0.432    0.245   88.830  197.416
  325.500    8.572    0.426    0.248   88.229  197.733
  325.750    8.558    0.429    0.242   86.081  197.668
  326.000    8.491    0.429    0.240   83.808  197.259
  326.250    8.428    0.426    0.248   82.845  196.054
  326.500    8.458    0.425    0.252   82.608  194.851
  326.750    8.552    0.424    0.256   82.737  194.462
  327.000    8.696    0.426    0.266   83.111  194.984
  327.250    8.933    0.430    0.286   84.258  196.146
  327.500    9.143    0.428    0.284   86.296  197.851
  327.750    8.675    0.424    0.272   88.006  201.922
  328.000    8.233    0.426    0.258   89.171  205.384
  328.250    7.965    0.442    0.247   89.422  207.425
  328.500    7.891    0.463    0.239   88.579  207.336
  328.750    7.986    0.455    0.237   85.729  203.757
  329.000    8.174    0.442    0.241   81.175  199.969
  329.250    8.607    0.437    0.269   75.344  197.548
  329.500    9.263    0.432    0.296   70.790  195.736
  329.750    9.805    0.428    0.313   68.609  194.533
  330.000   10.027    0.426    0.315   68.739  194.142
  330.250    9.979    0.429    0.299   70.472  195.139
  330.500    9.750    0.427    0.291   73.016  195.998
  330.750    9.605    0.418    0.277   72.294  196.418
  331.000    9.515    0.399    0.277   71.025  197.447
  331.250    9.479    0.407    0.283   69.087  198.678
  331.500    9.478    0.436    0.288   67.392  199.908
  331.750    9.521    0.437    0.287   67.990  201.481
  332.000    9.745    0.426    0.279   68.505  203.185
  332.250   10.800    0.407    0.268   67.298  204.009
  332.500   11.851    0.360    0.204   62.987  203.924
  332.750   12.822    0.307    0.137   60.440  203.126
  333.000   13.442    0.285    0.111   62.334  202.023
  333.250   12.712    0.361    0.170   70.323  202.077
  333.500   10.591    0.408    0.214   76.162  206.325
  333.750    9.314    0.419    0.231   80.550  207.548
  334.000    8.591    0.423    0.240   84.026  207.254
  334.250    8.065    0.425    0.247   86.103  206.456
  334.500    7.644    0.427    0.255   86.416  205.560
  334.750    7.319    0.434    0.262   85.382  204.024
  335.000    7.096    0.445    0.274   88.685  202.347
  335.250    6.938    0.460    0.268   90.641  201.953
  335.500    6.900    0.459    0.250   88.034  203.083
  335.750    6.925    0.449    0.237   83.905  205.330
  336.000    6.976    0.437    0.236   80.567  207.778
  336.250    7.028    0.435    0.245   79.807  209.515
  336.500    7.027    0.438    0.249   80.830  212.064
  336.750    6.974    0.436    0.249   83.029  212.889
  337.000    6.922    0.429    0.249   82.490  213.715
  337.250    6.793    0.425    0.247   81.281  214.542
  337.500    6.593    0.426    0.243   80.438  215.064
  337.750    6.360    0.427    0.244   80.164  214.587
  338.000    6.166    0.428    0.251   81.188  214.181
  338.250    6.074    0.457    0.260   81.439  213.385
  338.500    6.018    0.463    0.265   81.144  213.195
  338.750    6.084    0.468    0.266   80.301  213.006
  339.000    6.279    0.479    0.264   79.457  212.412
  339.250    6.587    0.490    0.262   79.861  211.127
  339.500    6.956    0.488    0.264   80.632  210.723
  339.750    7.165    0.477    0.268   81.127  210.329
  340.000    7.236    0.456    0.272   80.347  207.661
  340.250    7.357    0.434    0.269   79.161  205.178
  340.500    7.529    0.420    0.258   78.535  203.537
  340.750    7.521    0.424    0.248   79.833  201.766
  341.000    7.467    0.434    0.251   81.362  202.656
  341.250    7.415    0.427    0.252   79.716  203.104
  341.500    7.404    0.428    0.249   80.588  204.461
  341.750    7.408    0.434    0.243   81.101  206.511
  342.000    7.411    0.442    0.238   80.354  208.458
  342.250    7.438    0.453    0.236   79.284  208.684
  342.500    7.560    0.461    0.233   78.566  207.486
  342.750    7.564    0.458    0.230   75.964  205.132
  343.000    7.524    0.444    0.233   75.153  203.090
  343.250    7.499    0.430    0.240   75.784  202.151
  343.500    7.475    0.424    0.249   77.318  202.107
  343.750    7.357    0.431    0.253   79.485  201.762
  344.000    7.304    0.435    0.252   81.764  201.813
  344.250    7.145    0.430    0.253   84.194  201.868
  344.500    7.029    0.422    0.255   86.985  202.522
  344.750    6.928    0.421    0.252   88.936  203.781
  345.000    6.854    0.426    0.248   89.328  205.142
  345.250    6.858    0.428    0.255   87.576  205.689
  345.500    6.862    0.424    0.260   85.861  206.151
  345.750    6.916    0.422    0.253   87.576  205.417
