~VERSION INFORMATION
 VERS.                 2.0:   CWLS LOG ASCII STANDARD -VERSION 2.0
 WRAP.                  NO:   ONE LINE PER DEPTH STEP
~WELL INFORMATION BLOCK
#MNEM.UNIT           DATA                    DESCRIPTION OF MNEMONIC
#---------    -------------------            -------------------------------
# Generated from Intellog Unique Number	CN_94_101/WELL/2572
WELL.         PARAMOUNT RESOURCES LTD.       : Well_name    - WELL
LOC .         00/07-24-094-19W4/0            : Location     - LOCATION
UWI .         00/07-24-094-19W4/0            : Uwi          - UNIQUE WELL ID
ENTR.         JOETTE                         : Entered      - ENTERED BY
SRVC.         COMPUTALOG                     : Scn          - SERVICE COMPANY
DATE.         06\12\92                       : Date         - LOG DATE
STRT.M        90                             : top_depth    - START DEPTH
STOP.M        277                            : bot_depth    - STOP DEPTH
STEP.M        0.25                           : increment    - STEP LENGTH
 NULL. -999.2500:NULL Value
~CURVE INFORMATION BLOCK
#MNEM UNIT       ERCB CURVE CODE    CURVE DESCRIPTION
#-----------   ------------------   ----------------------------------
DEPT.M        00 001 00 00         : DEPTH        - DEPTH
CALI.MM       00 280 01 00         : CAL          - CALIPER
GR  .API      00 310 00 00         : GR           - GAMMA RAY
NPHI.V/V      00 330 00 00         : PHIN         - NEUTRON POROSITY (SANDSTONE)
DPHI.V/V      00 890 00 00         : PHID         - DENSITY POROSITY (SANDSTONE)
ILD .OHMM     00 120 00 00         : RESD         - DEEP RESISTIVITY (DIL)
~PARAMETER INFORMATION
#MNEM.UNIT           DATA             DESCRIPTION OF MNEMONIC
#---------         -----------     ------------------------------
GL  .M        557.4                : gl           - GROUND LEVEL ELEVATION
EREF.M        560.8                : kb           - ELEVATION OF DEPTH REFERENCE
DATM.M        560.8                : datum        - DATUM ELEVATION
TDD .M        280.1                : tdd          - TOTAL DEPTH DRILLER
RUN .         ONE                  : Run          - RUN NUMBER
ENG .         JO                   : Engineer     - RECORDING ENGINEER
WIT .         TIM                  : Witness      - WITNESSED BY
MUD .         GEL                  : Mud_type     - MUD TYPE
MATR.         SANDSTONE            : Logunit      - NEUTRON MATRIX
TMAX.C        32                   : BHT          - MAXIMUM RECORDED TEMPERATURE
BHTD.M        280.1                : BHTDEP       - MAXIMUM RECORDED TEMPERATURE
RMT .C        19                   : MDTP         - TEMPERATURE OF MUD
MUDD.KG/M     1130                 : MWT          - MUD DENSITY
NEUT.         1                    : NEUTRON      - NEUTRON TYPE
RESI.         0                    : RESIST       - RESISTIVITY TYPE
RM  .OHMM     5.3                  : RM           - RESISTIVITY OF MUD
RMC .OHMM     5.3                  : RMC          - RESISTIVITY OF MUD CAKE
RMF .OHMM     5.3                  : RMF          - RESISTIVITY OF MUD FILTRATE
SUFT.C        4                    : SUFT         - SURFACE TEMPERATURE
~A  DEPTH      CAL       GR     PHIN     PHID     RESD
# ...
  163.000  174.383   83.951    0.441    0.227    4.603
  163.250  174.383   88.889    0.467    0.250    4.026
  163.500  174.383   96.296    0.480    0.258    3.802
  163.750  175.412  103.704    0.475    0.261    3.658
  164.000  181.584  110.494    0.472    0.258    3.518
  164.250  191.872  110.494    0.480    0.246    3.451
  164.500  200.103  106.173    0.496    0.241    3.449
  164.750  198.045  103.704    0.487    0.239    3.513
  165.000  190.844  105.556    0.480    0.249    3.648
  165.250  183.642  109.259    0.485    0.255    3.859
  165.500  178.498  111.111    0.490    0.256    3.859
  165.750  177.469  109.259    0.453    0.249    3.506
  166.000  178.498  101.852    0.444    0.235    3.928
  166.250  180.556  102.469    0.448    0.229    3.852
  166.500  183.642  108.025    0.467    0.240    3.500
  166.750  185.700  111.728    0.488    0.261    3.304
  167.000  183.642  111.111    0.501    0.274    3.303
  167.250  183.642  103.086    0.506    0.282    3.301
  167.500  183.642   99.383    0.503    0.276    3.493
  167.750  185.700   94.444    0.490    0.246    3.697
  168.000  185.700   91.358    0.480    0.218    4.141
  168.250  180.556   86.420    0.471    0.211    4.551
  168.500  177.469   82.716    0.462    0.243    4.726
  168.750  172.325   86.420    0.455    0.240    4.724
  169.000  170.267   94.444    0.450    0.237    4.544
  169.250  171.296  106.790    0.462    0.241    4.373
  169.500  174.383  107.407    0.467    0.248    4.207
  169.750  177.469  106.790    0.461    0.246    4.204
  170.000  181.584  104.938    0.464    0.245    4.203
  170.250  184.671  103.704    0.470    0.248    4.281
  170.500  185.700  101.852    0.477    0.256    4.361
  170.750  184.671   96.914    0.469    0.264    4.528
  171.000  183.642   94.444    0.449    0.259    4.701
  171.250  181.584   98.148    0.430    0.250    4.975
  171.500  178.498  104.938    0.436    0.254    5.164
  171.750  174.383  105.556    0.450    0.261    5.261
  172.000  173.354   98.765    0.450    0.269    5.462
  172.250  176.440   91.975    0.434    0.262    5.670
  172.500  180.556   86.420    0.413    0.250    5.777
  172.750  182.613   92.593    0.409    0.250    5.559
  173.000  181.584   97.531    0.424    0.237    4.956
  173.250  180.556   98.765    0.454    0.196    4.504
  173.500  179.527   98.148    0.470    0.157    3.866
  173.750  178.498  101.852    0.465    0.197    3.581
  174.000  178.498  103.704    0.472    0.223    3.254
  174.250  177.469  111.111    0.480    0.239    3.191
  174.500  177.469  111.111    0.481    0.254    3.313
  174.750  178.498  111.111    0.476    0.260    3.439
  175.000  182.613  108.642    0.467    0.255    3.504
  175.250  185.700  106.173    0.455    0.251    3.638
  175.500  186.728  108.025    0.441    0.253    3.706
  175.750  186.728  105.556    0.441    0.256    3.704
  176.000  186.728  103.704    0.457    0.255    3.633
  176.250  186.728  104.938    0.470    0.251    3.562
  176.500  182.613  108.642    0.475    0.249    3.560
  176.750  177.469  112.346    0.469    0.253    3.558
  177.000  172.325  101.235    0.459    0.257    3.624
  177.250  170.267   95.679    0.452    0.257    3.763
  177.500  168.210   95.679    0.456    0.249    3.981
  177.750  168.210   98.148    0.454    0.245    4.214
  178.000  169.239   99.383    0.435    0.264    4.631
  178.250  170.267   92.593    0.393    0.286    5.091
  178.500  171.296   83.951    0.381    0.277    5.812
  178.750  169.239   86.420    0.428    0.264    6.035
  179.000  168.210  100.000    0.428    0.236    6.148
  179.250  168.210  105.556    0.428    0.215    6.145
  179.500  169.239  105.556    0.422    0.136    5.801
  179.750  170.267   88.889    0.414    0.083    5.271
  180.000  171.296   84.568    0.444    0.155    4.883
  180.250  172.325  101.235    0.460    0.178    4.437
  180.500  177.469  116.049    0.475    0.160    4.189
  180.750  180.556  117.284    0.475    0.145    4.031
  181.000  179.527  114.815    0.469    0.180    3.953
  181.250  176.440  113.580    0.477    0.191    3.803
  181.500  175.412  116.049    0.487    0.202    3.801
  181.750  173.354  117.284    0.492    0.212    3.726
  182.000  173.354  120.988    0.493    0.222    3.655
  182.250  174.383  120.988    0.494    0.234    3.584
  182.500  174.383  117.901    0.496    0.244    3.448
  182.750  174.383  112.963    0.498    0.254    3.382
  183.000  174.383  110.494    0.503    0.265    3.192
  183.250  174.383  111.111    0.513    0.273    3.072
  183.500  175.412  112.963    0.519    0.297    2.900
  183.750  180.556  114.198    0.509    0.307    2.686
  184.000  184.671  114.198    0.503    0.310    2.584
  184.250  180.556  111.728    0.496    0.314    2.535
  184.500  176.440  106.790    0.498    0.318    2.533
  184.750  174.383  106.173    0.498    0.304    2.838
  185.000  175.412  108.025    0.456    0.269    3.179
  185.250  177.469   98.765    0.435    0.272    3.843
  185.500  176.440   86.420    0.425    0.281    4.735
  185.750  173.354   82.099    0.427    0.282    5.725
  186.000  174.383   87.037    0.414    0.294    6.537
  186.250  175.412   86.420    0.394    0.293    7.605
  186.500  177.469   82.716    0.396    0.277    8.050
  186.750  177.469   74.691    0.401    0.255    9.018
  187.000  176.440   69.753    0.393    0.268    9.912
  187.250  173.354   70.370    0.388    0.251   10.289
  187.500  170.267   72.840    0.388    0.238   10.287
  187.750  172.325   77.160    0.394    0.228    9.527
  188.000  174.383   81.481    0.407    0.233    8.825
  188.250  176.440   84.568    0.415    0.234    7.869
  188.500  177.469   89.506    0.420    0.231    6.884
  188.750  178.498   92.593    0.413    0.230    6.498
  189.000  177.469   92.593    0.401    0.233    6.373
  189.250  177.469   88.272    0.394    0.247    6.370
  189.500  178.498   85.185    0.392    0.246    6.365
  189.750  182.613   82.716    0.403    0.239    6.363
  190.000  184.671   85.802    0.434    0.231    6.359
  190.250  186.728   95.679    0.457    0.233    6.003
  190.500  187.757  103.704    0.447    0.236    5.560
  190.750  184.671  102.469    0.431    0.262    5.249
  191.000  173.354  100.000    0.413    0.287    5.348
  191.250  170.267   93.210    0.405    0.275    5.991
  191.500  171.296   76.543    0.399    0.264    7.382
  191.750  174.383   71.605    0.408    0.259    8.754
  192.000  175.412   72.222    0.413    0.289    9.996
  192.250  177.469   70.988    0.402    0.255   11.197
  192.500  177.469   66.667    0.399    0.213   11.628
  192.750  175.412   62.963    0.408    0.189   12.070
  193.000  170.267   63.580    0.404    0.239   12.065
  193.250  166.152   66.049    0.387    0.229   11.175
  193.500  164.095   70.988    0.389    0.262   10.157
  193.750  164.095   75.309    0.419    0.271    6.939
  194.000  166.152   80.247    0.443    0.264    4.477
  194.250  169.239   87.037    0.456    0.257    3.771
  194.500  170.267   93.210    0.466    0.251    3.299
  194.750  174.383   94.444    0.473    0.243    3.114
  195.000  179.527   93.827    0.480    0.243    3.112
  195.250  181.584   93.827    0.475    0.247    3.231
  195.500  183.642   93.827    0.468    0.247    3.485
  195.750  183.642   96.914    0.460    0.244    3.831
  196.000  184.671   98.148    0.454    0.238    5.291
  196.250  188.786   99.383    0.455    0.235    5.493
  196.500  190.844  100.000    0.420    0.231    5.703
  196.750  192.901  101.235    0.423    0.225    5.809
  197.000  192.901  106.790    0.451    0.233    5.806
  197.250  184.671  109.259    0.461    0.229    5.481
  197.500  179.527  109.877    0.434    0.191    4.796
  197.750  178.498   96.296    0.403    0.175    4.441
  198.000  176.440   79.012    0.403    0.157    4.791
  198.250  178.498   81.481    0.412    0.222    6.491
  198.500  180.556   83.333    0.414    0.263    7.000
  198.750  181.584   83.333    0.425    0.271    7.407
  199.000  185.700   85.802    0.439    0.250    7.263
  199.250  188.786   88.889    0.438    0.239    6.990
