~VERSION INFORMATION
 VERS.                 2.0:   CWLS LOG ASCII STANDARD -VERSION 2.0
 WRAP.                  NO:   ONE LINE PER DEPTH STEP
~WELL INFORMATION BLOCK
#MNEM.UNIT           DATA                    DESCRIPTION OF MNEMONIC
#---------    -------------------            -------------------------------
# Generated from Intellog Unique Number	CS_77_79/WELL/3268
WELL.         LOGAN RESOURCES LTD.           : Well_name    - WELL
LOC .         00/02-18-077-13W4/0            : Location     - LOCATION
UWI .         00/02-18-077-13W4/0            : Uwi          - UNIQUE WELL ID
ENTR.         JOETTE                         : Entered      - ENTERED BY
SRVC.         SCHLUMBERGER                   : Scn          - SERVICE COMPANY
DATE.         08/26/92                       : Date         - LOG DATE
STRT.M        295                            : top_depth    - START DEPTH
STOP.M        532                            : bot_depth    - STOP DEPTH
STEP.M        0.25                           : increment    - STEP LENGTH
 NULL. -999.2500:NULL Value
~CURVE INFORMATION BLOCK
#MNEM UNIT       ERCB CURVE CODE    CURVE DESCRIPTION
#-----------   ------------------   ----------------------------------
DEPT.M        00 001 00 00         : DEPTH        - DEPTH
ILD .OHMM     00 120 00 00         : RESD         - DEEP RESISTIVITY (DIL)
DPHI.V/V      00 890 00 00         : PHID         - DENSITY POROSITY (SANDSTONE)
NPHI.V/V      00 330 00 00         : PHIN         - NEUTRON POROSITY (SANDSTONE)
GR  .API      00 310 00 00         : GR           - GAMMA RAY
~PARAMETER INFORMATION
#MNEM.UNIT           DATA             DESCRIPTION OF MNEMONIC
#---------         -----------     ------------------------------
GL  .M        686.57               : gl           - GROUND LEVEL ELEVATION
EREF.M        690.17               : kb           - ELEVATION OF DEPTH REFERENCE
DATM.M        690.17               : datum        - DATUM ELEVATION
TDD .M        541                  : tdd          - TOTAL DEPTH DRILLER
RUN .         ONE                  : Run          - RUN NUMBER
ENG .         BILL                 : Engineer     - RECORDING ENGINEER
WIT .         JIM                  : Witness      - WITNESSED BY
MUD .         GEL                  : Mud_type     - MUD TYPE
MATR.         SANDSTONE            : Logunit      - NEUTRON MATRIX
TMAX.C        27                   : BHT          - MAXIMUM RECORDED TEMPERATURE
BHTD.M        541                  : BHTDEP       - MAXIMUM RECORDED TEMPERATURE
RMT .C        16                   : MDTP         - TEMPERATURE OF MUD
MUDD.KG/M     1190                 : MWT          - MUD DENSITY
NEUT.         1                    : NEUTRON      - NEUTRON TYPE
RESI.         0                    : RESIST       - RESISTIVITY TYPE
RM  .OHMM     4.25                 : RM           - RESISTIVITY OF MUD
RMC .OHMM     4.25                 : RMC          - RESISTIVITY OF MUD CAKE
RMF .OHMM     4.5                  : RMF          - RESISTIVITY OF MUD FILTRATE
SUFT.C        4                    : SUFT         - SURFACE TEMPERATURE
~A  DEPTH     RESD     PHID     PHIN       GR
# ...
  425.500    4.746    0.296    0.374   59.155
  425.750    4.756    0.297    0.372   58.612
  426.000    4.767    0.304    0.378   59.267
  426.250    4.773    0.311    0.372   58.709
  426.500    4.868    0.329    0.364   56.980
  426.750    4.972    0.324    0.366   58.835
  427.000    4.979    0.325    0.372   61.289
  427.250    5.083    0.328    0.362   62.544
  427.500    5.089    0.328    0.361   60.801
  427.750    5.101    0.333    0.363   63.255
  428.000    5.107    0.333    0.363   65.110
  428.250    5.025    0.328    0.362   63.367
  428.500    5.031    0.327    0.364   59.226
  428.750    5.040    0.333    0.365   57.483
  429.000    4.870    0.335    0.369   60.537
  429.250    4.788    0.312    0.374   64.204
  429.500    4.622    0.305    0.377   61.861
  429.750    4.628    0.331    0.371   60.118
  430.000    4.551    0.342    0.366   58.975
  430.250    4.646    0.350    0.373   58.431
  430.500    4.741    0.343    0.374   57.888
  430.750    5.020    0.346    0.369   58.557
  431.000    5.218    0.347    0.365   59.812
  431.250    5.426    0.342    0.376   62.252
  431.500    5.540    0.347    0.377   58.111
  431.750    5.648    0.346    0.376   58.167
  432.000    5.763    0.344    0.374   60.021
  432.250    5.773    0.342    0.377   59.478
  432.500    5.678    0.337    0.372   58.334
  432.750    5.584    0.331    0.367   58.404
  433.000    5.494    0.334    0.366   59.074
  433.250    5.403    0.332    0.375   59.715
  433.500    5.410    0.326    0.371   60.370
  433.750    5.325    0.317    0.371   59.227
  434.000    5.332    0.328    0.370   55.685
  434.250    5.243    0.340    0.365   54.542
  434.500    5.253    0.336    0.367   59.994
  434.750    5.163    0.335    0.364   61.849
  435.000    5.078    0.339    0.362   62.504
  435.250    4.994    0.348    0.367   58.962
  435.500    4.825    0.349    0.370   60.817
  435.750    4.743    0.347    0.373   63.285
  436.000    4.667    0.342    0.370   57.931
  436.250    4.673    0.338    0.363   55.602
  436.500    4.687    0.330    0.366   54.459
  436.750    4.691    0.328    0.373   57.527
  437.000    4.697    0.330    0.383   61.180
  437.250    4.706    0.337    0.379   62.421
  437.500    4.720    0.343    0.373   60.079
  437.750    4.724    0.342    0.369   58.336
  438.000    4.735    0.337    0.366   58.419
  438.250    4.827    0.334    0.363   58.461
  438.500    5.020    0.327    0.367   57.917
  438.750    5.315    0.294    0.372   57.374
  439.000    5.735    0.252    0.357   55.017
  439.250    6.191    0.244    0.336   39.483
  439.500    6.312    0.210    0.298   34.143
  439.750    6.323    0.195    0.370   47.989
  440.000    6.334    0.253    0.374   52.257
  440.250    6.226    0.301    0.369   57.709
  440.500    5.692    0.322    0.358   61.376
  440.750    5.390    0.329    0.340   59.020
  441.000    5.113    0.282    0.321   60.275
  441.250    5.120    0.186    0.258   62.729
  441.500    5.033    0.323    0.203   60.986
  441.750    4.954    0.354    0.365   59.843
  442.000    4.958    0.348    0.382   62.311
  442.250    4.703    0.336    0.380   62.367
  442.500    4.623    0.323    0.378   64.821
  442.750    4.630    0.331    0.379   62.478
  443.000    4.812    0.339    0.386   63.747
  443.250    4.913    0.337    0.382   59.592
  443.500    5.011    0.337    0.369   56.650
  443.750    5.213    0.338    0.367   63.901
  444.000    5.319    0.333    0.364   65.755
  444.250    5.329    0.330    0.358   62.813
  444.500    5.240    0.334    0.353   61.070
  444.750    5.250    0.341    0.355   66.550
  445.000    5.160    0.346    0.365   67.805
  445.250    4.984    0.342    0.372   64.863
  445.500    4.724    0.336    0.369   63.706
  445.750    4.730    0.334    0.363   61.977
  446.000    4.829    0.332    0.363   63.246
  446.250    4.837    0.331    0.363   63.873
  446.500    4.757    0.332    0.369   63.943
  446.750    4.766    0.329    0.363   63.400
  447.000    4.772    0.335    0.366   63.455
  447.250    4.693    0.340    0.371   65.910
  447.500    4.619    0.323    0.366   70.163
  447.750    4.543    0.288    0.365   76.814
  448.000    4.463    0.292    0.374   78.683
  448.250    4.309    0.291    0.369   76.926
  448.500    4.238    0.281    0.374   76.996
  448.750    4.095    0.270    0.374   78.836
  449.000    4.100    0.263    0.370   83.103
  449.250    4.109    0.262    0.372   87.956
  449.500    4.273    0.283    0.395   91.623
  449.750    4.277    0.306    0.403   86.868
  450.000    4.366    0.322    0.395   77.930
  450.250    4.372    0.331    0.380   73.189
  450.500    4.382    0.324    0.372   75.044
  450.750    4.232    0.300    0.389   75.699
  451.000    4.238    0.278    0.399   75.169
  451.250    4.165    0.256    0.400   72.827
  451.500    4.175    0.272    0.394   69.271
  451.750    4.184    0.267    0.380   70.526
  452.000    4.189    0.255    0.364   78.977
  452.250    4.273    0.241    0.361   85.042
  452.500    4.442    0.200    0.384   82.700
  452.750    4.975    0.206    0.386   81.556
  453.000    5.366    0.200    0.383   73.817
  453.250    5.895    0.154    0.381   74.473
  453.500    5.903    0.101    0.340   70.931
  453.750    5.808    0.111    0.349   66.176
  454.000    5.607    0.188    0.380   70.443
  454.250    5.314    0.205    0.395   78.308
  454.500    5.039    0.213    0.394   79.549
  454.750    4.953    0.216    0.393   79.005
  455.000    4.869    0.215    0.390   80.860
  455.250    4.973    0.216    0.379   83.927
  455.500    5.072    0.220    0.366   88.181
  455.750    5.176    0.222    0.367   87.037
  456.000    5.176    0.218    0.368   85.308
  456.250    5.396    0.218    0.367   84.165
  456.500    6.144    0.216    0.364   81.808
  456.750    6.045    0.214    0.363   80.665
  457.000    6.053    0.210    0.356   86.117
  457.250    5.957    0.204    0.353   87.372
  457.500    5.965    0.199    0.354   92.253
  457.750    5.976    0.205    0.361   92.309
  458.000    5.989    0.207    0.368   92.365
  458.250    5.885    0.208    0.368   91.835
  458.500    5.684    0.208    0.362   91.263
  458.750    5.587    0.212    0.358   96.116
  459.000    5.396    0.224    0.358  104.594
  459.250    5.117    0.224    0.357  103.450
  459.500    4.940    0.220    0.353  104.106
  459.750    4.854    0.214    0.356  105.961
  460.000    4.437    0.212    0.364  101.206
  460.250    4.280    0.216    0.366   91.654
  460.500    4.057    0.213    0.372   88.126
  460.750    3.845    0.207    0.372   89.395
  461.000    3.577    0.200    0.366   88.851
  461.250    3.268    0.196    0.370   94.290
  461.500    2.930    0.218    0.381   93.146
  461.750    2.580    0.237    0.394   90.204
  462.000    2.400    0.254    0.401   90.260
  462.250    2.152    0.265    0.437   87.917
  462.500    1.894    0.262    0.461   89.186
  462.750    1.863    0.258    0.464   88.642
  463.000    1.832    0.261    0.457   89.897
  463.250    1.835    0.270    0.455   92.937
  463.500    1.838    0.272    0.449   90.595
  463.750    1.809    0.264    0.438   87.067
  464.000    1.812    0.254    0.431   90.721
  464.250    1.953    0.252    0.434   94.974
  464.500    2.107    0.249    0.440   95.029
  464.750    2.448    0.241    0.434   93.300
  465.000    2.689    0.215    0.418   98.139
  465.250    3.182    0.204    0.382   83.205
  465.500    3.628    0.199    0.371   88.657
  465.750    4.062    0.181    0.370   94.709
  466.000    4.381    0.145    0.366   96.578
  466.250    4.470    0.148    0.350   91.823
  466.500    4.316    0.178    0.346   81.086
  466.750    4.167    0.185    0.355   88.337
  467.000    4.172    0.197    0.364   99.199
  467.250    4.259    0.205    0.391  103.466
  467.500    4.348    0.200    0.369   99.911
  467.750    4.433    0.206    0.363   93.385
  468.000    4.608    0.197    0.364   97.624
  468.250    4.883    0.154    0.368   92.283
  468.500    5.467    0.121    0.376   94.737
  468.750    5.574    0.107    0.355   93.594
