~VERSION INFORMATION
 VERS.                 2.0:   CWLS LOG ASCII STANDARD -VERSION 2.0
 WRAP.                  NO:   ONE LINE PER DEPTH STEP
~WELL INFORMATION BLOCK
#MNEM.UNIT           DATA                    DESCRIPTION OF MNEMONIC
#---------    -------------------            -------------------------------
# Generated from Intellog Unique Number	CS_67_68/WELL/954
WELL.         NOVALTA TWEEDIE                : Well_name    - WELL
LOC .         00/05-04-068-11W4/0            : Location     - LOCATION
UWI .         00/05-04-068-11W4/0            : Uwi          - UNIQUE WELL ID
ENTR.         T                              : Entered      - ENTERED BY
SRVC.         SCHLUMBERGER                   : Scn          - SERVICE COMPANY
STRT.M        300                            : top_depth    - START DEPTH
STOP.M        515                            : bot_depth    - STOP DEPTH
STEP.M        0.25                           : increment    - STEP LENGTH
 NULL. -999.2500:NULL Value
~CURVE INFORMATION BLOCK
#MNEM UNIT       ERCB CURVE CODE    CURVE DESCRIPTION
#-----------   ------------------   ----------------------------------
DEPT.M        00 001 00 00         : DEPTH        - DEPTH
GR  .API      00 310 00 00         : GR           - GAMMA RAY
CALI.MM       00 280 01 00         : CAL          - CALIPER
NPHI.V/V      00 330 00 00         : PHIN         - NEUTRON POROSITY (SANDSTONE)
DPHI.V/V      00 890 00 00         : PHID         - DENSITY POROSITY (SANDSTONE)
ILD .OHMM     00 120 00 00         : RESD         - DEEP RESISTIVITY (DLL)
~PARAMETER INFORMATION
#MNEM.UNIT           DATA             DESCRIPTION OF MNEMONIC
#---------         -----------     ------------------------------
GL  .M        613.7                : gl           - GROUND LEVEL ELEVATION
EREF.M        617                  : kb           - ELEVATION OF DEPTH REFERENCE
DATM.M        617                  : datum        - DATUM ELEVATION
TDD .M        515                  : tdd          - TOTAL DEPTH DRILLER
RUN .         ONE                  : Run          - RUN NUMBER
ENG .         BILL                 : Engineer     - RECORDING ENGINEER
WIT .         JIM                  : Witness      - WITNESSED BY
MUD .         GEL                  : Mud_type     - MUD TYPE
MATR.         SANDSTONE            : Logunit      - NEUTRON MATRIX
TMAX.C        5                    : BHT          - MAXIMUM RECORDED TEMPERATURE
BHTD.M        25                   : BHTDEP       - MAXIMUM RECORDED TEMPERATURE
RMT .C        515                  : MDTP         - TEMPERATURE OF MUD
MUDD.KG/M     17                   : MWT          - MUD DENSITY
NEUT.         1100                 : NEUTRON      - NEUTRON TYPE
RESI.         1                    : RESIST       - RESISTIVITY TYPE
RM  .OHMM     0                    : RM           - RESISTIVITY OF MUD
RMC .OHMM     2.6                  : RMC          - RESISTIVITY OF MUD CAKE
RMF .OHMM     2.6                  : RMF          - RESISTIVITY OF MUD FILTRATE
SUFT.C        2.7                  : SUFT         - SURFACE TEMPERATURE
SUFT.C        15                   : SUFT         - SURFACE TEMPERATURE
~A  DEPTH       GR      CAL     PHIN     PHID     RESD
# ...
  482.500   86.373  159.197    0.358    0.191    4.913
  482.750   92.251  159.199    0.366    0.200    5.102
  483.000   95.776  159.203    0.363    0.200    5.202
  483.250   99.307  158.224    0.358    0.195    5.403
  483.500   96.385  157.245    0.353    0.183    5.409
  483.750   91.121  157.249    0.346    0.177    5.417
  484.000   82.927  156.270    0.336    0.184    5.229
  484.250   77.078  155.289    0.331    0.180    4.957
  484.500   73.573  154.311    0.329    0.182    4.786
  484.750   81.789  153.331    0.324    0.182    4.793
  485.000   92.353  152.352    0.319    0.178    4.799
  485.250   89.431  152.355    0.317    0.177    4.895
  485.500   82.995  151.376    0.312    0.186    5.090
  485.750   78.318  151.379    0.305    0.207    5.190
  486.000   77.157  151.382    0.324    0.239    4.919
  486.250   75.413  151.386    0.343    0.238    4.663
  486.500   74.252  151.391    0.336    0.233    4.587
  486.750   75.435  151.395    0.322    0.248    4.590
  487.000   87.168  151.398    0.314    0.203    4.600
  487.250   90.699  151.401    0.326    0.189    4.605
  487.500   86.022  152.388    0.343    0.211    4.695
  487.750   80.755  152.394    0.354    0.241    4.788
  488.000   76.664  152.395    0.359    0.264    4.712
  488.250   72.576  152.400    0.357    0.279    4.631
  488.500   70.240  152.403    0.355    0.283    4.552
  488.750   66.737  152.406    0.353    0.271    4.318
  489.000   61.471  152.411    0.341    0.252    4.167
  489.250   53.277  152.415    0.338    0.247    4.023
  489.500   49.186  152.419    0.349    0.263    3.746
  489.750   58.577  152.422    0.340    0.279    3.615
  490.000   70.310  152.427    0.327    0.284    3.427
  490.250   78.527  152.431    0.313    0.234    3.369
  490.500   75.608  153.417    0.308    0.199    3.566
  490.750   75.619  154.404    0.330    0.198    3.703
  491.000   99.660  154.408    0.368    0.185    4.063
  491.250  107.291  154.412    0.401    0.109    4.383
  491.500  104.372  155.397    0.397    0.071    4.551
  491.750  107.316  155.401    0.382    0.089    4.640
  492.000  113.774  155.405    0.375    0.123    4.820
  492.250  113.786  156.392    0.411    0.150    4.916
  492.500  100.317  156.396    0.356    0.177    4.925
  492.750   85.676  157.383    0.328    0.212    5.023
  493.000   77.482  157.387    0.339    0.251    5.028
  493.250   79.838  157.391    0.345    0.279    5.225
  493.500   87.471  157.395    0.347    0.273    5.327
  493.750   90.996  157.399    0.344    0.261    5.534
  494.000   91.593  157.401    0.338    0.248    5.750
  494.250   92.191  157.405    0.329    0.199    5.865
  494.500   93.374  157.409    0.322    0.143    5.873
  494.750   94.558  157.413    0.312    0.165    5.879
  495.000   98.675  157.418    0.310    0.177    5.890
  495.250   98.105  157.423    0.310    0.179    5.902
  495.500   95.770  157.425    0.312    0.176    5.909
  495.750   94.606  157.429    0.314    0.168    5.917
  496.000   95.792  157.432    0.323    0.154    5.924
  496.250   97.559  157.436    0.336    0.150    5.938
  496.500  100.504  157.440    0.330    0.164    5.945
  496.750  102.859  157.444    0.333    0.188    5.841
  497.000   99.351  157.446    0.345    0.182    5.745
  497.250   92.329  157.450    0.342    0.176    5.649
  497.500   87.066  157.453    0.324    0.173    5.452
  497.750   78.872  157.457    0.309    0.177    5.267
  498.000   70.092  157.461    0.321    0.210    5.273
  498.250   66.586  157.466    0.340    0.263    5.091
  498.500   63.667  157.470    0.355    0.275    5.005
  498.750   63.681  158.456    0.361    0.269    4.920
  499.000   66.037  158.460    0.314    0.262    4.929
  499.250   74.254  158.464    0.304    0.239    4.939
  499.500   82.470  158.469    0.304    0.178    5.036
  499.750   90.101  158.471    0.304    0.175    5.233
  500.000   93.043  158.476    0.307    0.178    5.335
  500.250   93.640  158.479    0.318    0.175    5.544
  500.500   88.963  158.482    0.329    0.169    5.548
  500.750   67.874  158.486    0.335    0.162    5.457
  501.000   61.439  158.489    0.335    0.178    5.175
  501.250   55.006  156.528    0.331    0.233    4.992
  501.500   52.084  153.582    0.324    0.266    4.646
  501.750   45.065  152.602    0.318    0.281    4.246
  502.000   43.904  149.657    0.306    0.290    3.741
  502.250   52.707  148.677    0.302    0.288    3.421
  502.500   69.129  148.681    0.309    0.173    3.551
  502.750   90.825  147.701    0.312    0.145    3.689
  503.000   98.456  147.705    0.312    0.155    3.976
  503.250   92.606  147.709    0.314    0.163    4.365
  503.500   85.585  147.713    0.324    0.174    4.701
  503.750   74.460  147.715    0.331    0.205    5.065
  504.000   67.441  147.720    0.334    0.217    4.463
  504.250   63.936  147.724    0.338    0.256    3.860
  504.500   60.431  147.727    0.333    0.262    3.342
  504.750   55.750  147.732    0.328    0.248    3.225
  505.000   51.073  147.734    0.325    0.259    3.170
  505.250   48.743  146.756    0.323    0.275    3.062
  505.500   48.168  146.758    0.326    0.284    3.010
  505.750   48.765  145.780    0.326    0.279    3.015
  506.000   49.949  144.800    0.322    0.207    3.075
  506.250   52.307  144.804    0.304    0.188    3.375
  506.500   52.905  144.808    0.296    0.189    3.634
  506.750   52.330  144.811    0.298    0.200    3.916
  507.000   51.752  144.815    0.314    0.203    3.782
  507.250   51.177  145.804    0.318    0.209    3.456
  507.500   51.192  145.806    0.316    0.215    3.335
  507.750   51.789  145.810    0.315    0.219    3.108
  508.000   52.972  146.796    0.314    0.226    3.053
  508.250   54.156  146.800    0.315    0.239    2.895
  508.500   54.756  147.787    0.328    0.260    2.794
  508.750   54.767  147.790    0.331    0.272    2.601
  509.000   54.779  148.779    0.329    0.273    2.465
  509.250   55.373  149.765    0.325    0.267    2.337
  509.500   54.799  150.751    0.321    0.275    2.256
  509.750   52.465  151.738    0.316    0.288    2.218
  510.000   48.960  151.743    0.311    0.295    2.066
  510.250   45.455  151.746    0.309    0.306    2.030
  510.500   46.641  151.752    0.306    0.307    1.960
  510.750   48.997  151.755    0.307    0.306    1.964
  511.000   52.525  150.775    0.311    0.306    2.002
  511.250   56.050  149.794    0.311    0.308    2.080
  511.500   61.925  147.831    0.311    0.308    2.241
  511.750   65.453  145.869    0.311    0.306    2.459
  512.000   67.225  142.923    0.311    0.301    2.651
  512.250   67.820  140.961    0.314    0.298    2.857
  512.500   67.245  139.981    0.317    0.290    2.861
  512.750   67.256  138.018    0.318    0.290    2.761
  513.000   67.854  137.040    0.318    0.294    2.715
  513.250   67.865  136.061    0.318    0.295    2.719
  513.500   68.462  136.063    0.319    0.299    2.674
  513.750   71.990  136.067    0.319    0.301    2.678
  514.000   74.349  135.088    0.320    0.302    2.732
  514.250   75.535  135.091    0.320    0.302    2.838
  514.500   76.719  135.095    0.320    0.301    2.894
  514.750   77.902  135.099    0.320    0.301    3.006
  515.000   78.497  135.102    0.320    0.298    3.124
