~VERSION INFORMATION
 VERS.                 2.0:   CWLS LOG ASCII STANDARD -VERSION 2.0
 WRAP.                  NO:   ONE LINE PER DEPTH STEP
~WELL INFORMATION BLOCK
#MNEM.UNIT           DATA                    DESCRIPTION OF MNEMONIC
#---------    -------------------            -------------------------------
# Generated from Intellog Unique Number	CW_70_72/WELL/199
NULL.         -999.25                        : NULL_VALUE
WELL.         GULF NORCEN MITSUE 02-36       : Well_name    - WELL              
LOC .         02-36-072-04W5                 : Location     - LOCATION          
UWI .         00/02-36-072-04W5/0            : Uwi          - UNIQUE WELL ID    
ENTR.         JAYE                           : Entered      - ENTERED BY        
SRVC.         COMPUTALOG                     : Scn          - SERVICE COMPANY   
DATE.         20 JAN 83                      : Date         - LOG DATE          
STRT.M        375                            : top_depth    - START DEPTH       
STOP.M        580                            : bot_depth    - STOP DEPTH        
STEP.M        0.25                           : increment    - STEP LENGTH       
~CURVE INFORMATION BLOCK
#MNEM UNIT       ERCB CURVE CODE    CURVE DESCRIPTION
#-----------   ------------------   ----------------------------------
DEPT.M        00 001 00 00         : DEPTH        - DEPTH                       
DPHI.V/V      00 890 00 00         : PHID         - DENSITY POROSITY (SANDSTONE)
NPHI.V/V      00 330 00 00         : PHIN         - NEUTRON POROSITY (SANDSTONE)
GR  .API      00 310 00 00         : GR           - GAMMA RAY                   
CALI.MM       00 280 01 00         : CAL          - CALIPER                     
ILD .OHMM     00 120 00 00         : RESD         - DEEP RESISTIVITY (DIL)      
~PARAMETER INFORMATION       
#MNEM.UNIT           DATA             DESCRIPTION OF MNEMONIC
#---------         -----------     ------------------------------
GL  .M        588.1                : gl           - GROUND LEVEL ELEVATION      
EREF.M        592.9                : kb           - ELEVATION OF DEPTH REFERENCE
DATM.M        588.1                : datum        - DATUM ELEVATION             
TDD .M        1647                 : tdd          - TOTAL DEPTH DRILLER         
RUN .         ONE                  : Run          - RUN NUMBER                  
ENG .         AASLAND              : Engineer     - RECORDING ENGINEER          
WIT .         FITZGERALD           : Witness      - WITNESSED BY                
BASE.         EDM                  : Branch       - HOME BASE OF LOGGING UNIT   
MUD .         GEL CHEM             : Mud_type     - MUD TYPE                    
MATR.         SANDSTONE            : Logunit      - NEUTRON MATRIX              
TMAX.C        52                   : BHT          - MAXIMUM RECORDED TEMPERATURE
BHTD.M        1645.6               : BHTDEP       - MAXIMUM RECORDED TEMPERATURE
RMT .C        21                   : MDTP         - TEMPERATURE OF MUD          
MUDD.KG/M     1100                 : MWT          - MUD DENSITY                 
NEUT.         1                    : NEUTRON      - NEUTRON TYPE                
RESI.         0                    : RESIST       - RESISTIVITY TYPE            
RM  .OHMM     0.37                 : RM           - RESISTIVITY OF MUD          
RMC .OHMM     0.38                 : RMC          - RESISTIVITY OF MUD CAKE     
RMF .OHMM     0.34                 : RMF          - RESISTIVITY OF MUD FILTRATE 
SUFT.C        0                    : SUFT         - SURFACE TEMPERATURE         
~A  DEPTH     PHID     PHIN       GR      CAL     RESD
  375.000    0.424    0.558   87.179  274.052    1.847
  375.250    0.391    0.521   80.306  238.398    1.881
  375.500    0.362    0.510   77.814  236.018    1.905
  375.750    0.369    0.516   78.325  243.444    1.955
  376.000    0.365    0.522   78.650  252.225    2.007
  376.250    0.360    0.531   76.471  260.378    2.056
  376.500    0.367    0.543   75.981  257.580    2.126
  376.750    0.381    0.527   76.494  245.814    2.220
  377.000    0.387    0.511   76.943  233.106    2.257
  377.250    0.394    0.486   77.456  234.689    2.294
  377.500    0.399    0.476   78.280  230.016    2.293
  377.750    0.406    0.504   79.668  232.748    2.261
  378.000    0.414    0.542   81.557  241.110    2.255
  378.250    0.410    0.551   84.384  232.574    2.280
  378.500    0.395    0.536   80.077  226.648    2.358
  378.750    0.378    0.543   80.338  237.723    2.448
  379.000    0.369    0.546   82.227  239.621    2.541
  379.250    0.374    0.534   82.992  239.951    2.643
  379.500    0.364    0.504   82.688  242.684    2.671
  379.750    0.346    0.495   81.573  244.683    2.634
  380.000    0.346    0.491   78.705  246.059    2.658
  380.250    0.367    0.480   75.775  247.017    2.785
  380.500    0.382    0.465   77.789  248.911    3.086
  380.750    0.373    0.468   80.742  253.834    3.373
  381.000    0.301    0.465   78.375  254.581    3.631
  381.250    0.270    0.455   72.253  252.827    3.678
  381.500    0.233    0.446   66.319  248.048    3.531
  381.750    0.195    0.429   57.756  229.604    3.383
  382.000    0.196    0.393   47.692  221.800    3.260
  382.250    0.254    0.411   46.891  218.273    3.178
  382.500    0.268    0.424   48.153  215.997    3.135
  382.750    0.259    0.412   52.795  214.035    3.168
  383.000    0.255    0.402   57.562  212.489    3.264
  383.250    0.262    0.409   57.198  212.819    3.396
  383.500    0.260    0.412   56.960  214.616    3.465
  383.750    0.251    0.419   57.411  216.302    3.436
  384.000    0.242    0.425   57.297  217.674    3.343
  384.250    0.232    0.427   57.681  219.571    3.131
  384.500    0.246    0.423   58.756  222.200    2.834
  384.750    0.275    0.407   62.085  224.826    2.674
  385.000    0.304    0.415   66.852  229.748    2.370
  385.250    0.328    0.456   66.676  235.084    2.084
  385.500    0.402    0.527   66.375  239.379    2.106
  385.750    0.434    0.536   66.886  245.029    2.298
  386.000    0.476    0.518   67.898  258.400    2.590
  386.250    0.480    0.496   69.725  266.241    2.891
  386.500    0.456    0.478   64.041  250.719    3.366
  386.750    0.396    0.461   57.732  248.859    3.785
  387.000    0.362    0.425   55.614  224.784    4.356
  387.250    0.271    0.436   54.562  214.165    4.437
  387.500    0.273    0.445   55.326  214.497    4.392
  387.750    0.264    0.439   56.776  216.603    4.331
  388.000    0.253    0.428   58.914  218.392    4.262
  388.250    0.237    0.415   61.178  220.601    4.108
  388.500    0.249    0.401   61.941  222.498    3.951
  388.750    0.247    0.412   61.827  222.308    3.736
  389.000    0.238    0.410   62.027  221.389    3.480
  389.250    0.271    0.422   62.350  220.574    3.366
  389.500    0.343    0.497   61.674  219.653    3.370
  389.750    0.355    0.495   60.307  217.898    3.393
  390.000    0.302    0.466   59.255  214.161    3.404
  390.250    0.251    0.435   58.830  212.407    3.395
  390.500    0.206    0.439   59.089  213.887    3.380
  390.750    0.218    0.455   60.166  220.999    3.276
  391.000    0.297    0.471   61.678  228.631    3.134
  391.250    0.359    0.499   64.881  238.560    2.952
  391.500    0.384    0.523   72.028  242.542    2.796
  391.750    0.356    0.477   74.355  240.682    2.624
  392.000    0.328    0.444   75.242  230.793    2.750
  392.250    0.397    0.454   75.315  230.917    3.069
  392.500    0.490    0.524   76.579  247.415    3.317
  392.750    0.473    0.511   79.718  276.326    3.647
  393.000    0.447    0.423   80.481  247.765    3.956
  393.250    0.354    0.412   74.985  230.678    4.323
  393.500    0.277    0.407   67.236  222.145    4.183
  393.750    0.246    0.390   62.052  221.745    3.979
  394.000    0.242    0.386   59.059  222.390    3.870
  394.250    0.267    0.403   54.064  222.825    3.794
  394.500    0.258    0.408   50.133  222.949    3.693
  394.750    0.252    0.406   47.391  222.866    3.614
  395.000    0.253    0.396   48.216  222.882    3.542
  395.250    0.245    0.383   50.793  223.527    3.441
  395.500    0.235    0.383   54.998  223.338    3.341
  395.750    0.246    0.404   58.263  221.167    3.196
  396.000    0.268    0.409   56.584  218.369    3.097
  396.250    0.274    0.409   53.216  218.284    2.997
  396.500    0.280    0.418   54.604  220.702    2.943
  396.750    0.310    0.434   58.433  222.180    2.908
  397.000    0.380    0.454   59.947  222.408    2.928
  397.250    0.385    0.472   57.517  223.365    3.098
  397.500    0.363    0.457   54.775  227.035    3.279
  397.750    0.306    0.420   52.094  230.495    3.450
  398.000    0.287    0.411   50.541  221.960    3.615
  398.250    0.283    0.408   49.552  223.337    3.761
  398.500    0.279    0.408   49.251  223.980    3.943
  398.750    0.271    0.421   49.949  225.146    4.093
  399.000    0.256    0.426   52.590  225.584    4.289
  399.250    0.244    0.418   57.607  225.604    4.487
  399.500    0.231    0.414   63.690  225.516    4.579
  399.750    0.222    0.420   70.772  225.014    4.559
  400.000    0.225    0.408   71.660  223.781    4.237
  400.250    0.252    0.389   67.604  225.572    3.856
  400.500    0.319    0.373   67.927  226.216    3.509
  400.750    0.605    0.473   71.318  238.543    3.164
  401.000    0.631    0.534   74.521  283.413    2.869
  401.250    0.613    0.540   78.288  334.333    2.687
  401.500    0.575    0.548   82.741  296.802    2.763
  401.750    0.511    0.574   83.819  269.180    2.935
  402.000    0.448    0.525   79.885  252.093    3.171
  402.250    0.347    0.452   74.452  238.135    3.636
  402.500    0.322    0.409   77.093  228.766    4.224
  402.750    0.438    0.430   80.983  239.112    3.801
  403.000    0.428    0.432   64.849  244.136    3.394
  403.250    0.331    0.384   56.285  219.122    3.060
  403.500    0.288    0.355   38.962  213.302    2.844
  403.750    0.286    0.348   33.028  213.528    2.653
  404.000    0.294    0.356   30.723  218.971    2.562
  404.250    0.297    0.358   30.860  221.285    2.595
  404.500    0.299    0.361   35.314  222.345    2.704
  404.750    0.291    0.368   45.589  223.931    2.845
  405.000    0.243    0.395   61.246  225.304    3.039
  405.250    0.224    0.400   73.023  226.367    3.322
  405.500    0.194    0.393   78.041  227.114    3.646
  405.750    0.206    0.377   75.486  227.030    3.902
  406.000    0.223    0.373   65.235  226.425    4.066
  406.250    0.240    0.381   59.425  226.234    4.134
  406.500    0.223    0.381   60.625  225.730    4.171
  406.750    0.201    0.380   65.142  224.496    4.192
  407.000    0.193    0.391   73.353  223.785    4.157
  407.250    0.204    0.391   68.296  223.282    4.092
  407.500    0.226    0.368   67.805  222.780    4.050
  407.750    0.277    0.389   73.950  234.689    3.970
  408.000    0.437    0.453   79.719  252.648    3.648
  408.250    0.397    0.483   84.924  264.560    3.264
  408.500    0.324    0.452   89.128  257.902    2.773
  408.750    0.294    0.490   91.017  248.637    2.425
  409.000    0.317    0.538   86.460  241.980    2.405
  409.250    0.368    0.557   81.527  240.956    2.492
  409.500    0.396    0.594   84.918  242.748    2.830
  409.750    0.386    0.573   89.122  243.499    3.482
  410.000    0.346    0.533   88.070  237.778    3.886
  410.250    0.358    0.485   84.326  226.116    3.484
  410.500    0.383    0.450   81.584  238.650    3.238
  410.750    0.374    0.468   80.907  228.343    3.199
  411.000    0.402    0.514   84.924  246.720    3.246
  411.250    0.408    0.527   87.249  261.132    3.383
