~VERSION INFORMATION
 VERS.                 2.0:   CWLS LOG ASCII STANDARD -VERSION 2.0
 WRAP.                  NO:   ONE LINE PER DEPTH STEP
~WELL INFORMATION BLOCK
#MNEM.UNIT           DATA                    DESCRIPTION OF MNEMONIC
#---------    -------------------            -------------------------------
# Generated from Intellog Unique Number	CS_67_68/WELL/2170
WELL.         06-16-067-05W4                 : Well_name    - WELL
LOC .         00/06-16-067-05W4/0            : Location     - LOCATION
UWI .         00/06-16-067-05W4/0            : Uwi          - UNIQUE WELL ID
ENTR.         SP                             : Entered      - ENTERED BY
SRVC.         SCHLUMBERGER                   : Scn          - SERVICE COMPANY
STRT.M        325                            : top_depth    - START DEPTH
STOP.M        545                            : bot_depth    - STOP DEPTH
STEP.M        0.25                           : increment    - STEP LENGTH
 NULL. -999.2500:NULL Value
~CURVE INFORMATION BLOCK
#MNEM UNIT       ERCB CURVE CODE    CURVE DESCRIPTION
#-----------   ------------------   ----------------------------------
DEPT.M        00 001 00 00         : DEPTH        - DEPTH
ILD .OHMM     00 120 00 00         : RESD         - DEEP RESISTIVITY (DIL)
DPHI.V/V      00 890 00 00         : PHID         - DENSITY POROSITY (LIMESTONE)
NPHI.V/V      00 330 00 00         : PHIN         - NEUTRON POROSITY (LIMESTONE)
GR  .API      00 310 00 00         : GR           - GAMMA RAY
CALI.MM       00 280 01 00         : CAL          - CALIPER
~PARAMETER INFORMATION
#MNEM.UNIT           DATA             DESCRIPTION OF MNEMONIC
#---------         -----------     ------------------------------
GL  .M        656.66               : gl           - GROUND LEVEL ELEVATION
EREF.M        660.02               : kb           - ELEVATION OF DEPTH REFERENCE
DATM.M        660.02               : datum        - DATUM ELEVATION
TDD .M        550                  : tdd          - TOTAL DEPTH DRILLER
RUN .         ONE                  : Run          - RUN NUMBER
ENG .         BILL                 : Engineer     - RECORDING ENGINEER
WIT .         JIM                  : Witness      - WITNESSED BY
MUD .         GEL                  : Mud_type     - MUD TYPE
MATR.         LIMESTONE            : Logunit      - NEUTRON MATRIX
TMAX.C        24                   : BHT          - MAXIMUM RECORDED TEMPERATURE
BHTD.M        550.4                : BHTDEP       - MAXIMUM RECORDED TEMPERATURE
MATR.         1                    : LOGUNIT      - NEUTRON MATRIX
RMT .C        25                   : MDTP         - TEMPERATURE OF MUD
NEUT.         1                    : NEUTRON      - NEUTRON TYPE
RESI.         0                    : RESIST       - RESISTIVITY TYPE
RMC .OHMM     0.25                 : RMC          - RESISTIVITY OF MUD CAKE
RMF .OHMM     0.25                 : RMF          - RESISTIVITY OF MUD FILTRATE
SUFT.C        15                   : SUFT         - SURFACE TEMPERATURE
~A  DEPTH     RESD     PHID     PHIN       GR      CAL
# ...
  471.000    2.879    0.363    0.567   76.772  223.490
  471.250    3.361    0.359    0.529   76.179  221.994
  471.500    3.843    0.331    0.509   73.998  212.851
  471.750    4.144    0.309    0.495   71.878  206.771
  472.000    4.395    0.295    0.488   70.246  204.661
  472.250    4.522    0.318    0.477   68.493  207.654
  472.500    4.584    0.334    0.475   69.982  210.641
  472.750    4.577    0.322    0.504   73.244  212.204
  473.000    4.527    0.314    0.502   73.569  209.281
  473.250    4.445    0.311    0.492   73.343  209.521
  473.500    4.372    0.309    0.498   75.321  212.514
  473.750    4.244    0.313    0.520   78.522  213.867
  474.000    4.020    0.322    0.507   77.074  211.969
  474.250    3.822    0.315    0.493   75.567  212.918
  474.500    3.682    0.315    0.530   76.444  216.417
  474.750    3.181    0.333    0.528   77.074  220.937
  475.000    2.652    0.333    0.510   77.216  216.788
  475.250    2.231    0.314    0.494   81.274  212.542
  475.500    2.040    0.303    0.519   87.231  211.352
  475.750    1.917    0.303    0.524   90.551  215.566
  476.000    1.875    0.283    0.518   91.306  217.841
  476.250    1.912    0.264    0.513   91.142  220.221
  476.500    2.001    0.260    0.522   90.612  223.008
  476.750    2.086    0.273    0.535   89.041  224.677
  477.000    2.212    0.282    0.549   87.104  225.012
  477.250    2.320    0.290    0.564   88.043  224.432
  477.500    2.409    0.292    0.575   89.103  216.413
  477.750    2.475    0.290    0.523   88.697  210.842
  478.000    2.556    0.282    0.495   87.797  207.610
  478.250    2.620    0.291    0.501   88.061  204.891
  478.500    2.671    0.281    0.512   92.119  204.114
  478.750    2.717    0.268    0.519   94.464  204.553
  479.000    2.724    0.264    0.509   92.954  204.793
  479.250    2.720    0.264    0.498   91.446  204.927
  479.500    2.705    0.267    0.530   91.344  204.857
  479.750    2.691    0.269    0.539   91.425  204.994
  480.000    2.672    0.266    0.540   94.505  205.535
  480.250    2.599    0.252    0.537   98.317  206.796
  480.500    2.475    0.241    0.544  100.050  208.565
  480.750    2.372    0.246    0.546  100.497  209.615
  481.000    2.355    0.256    0.545  103.393  209.953
  481.250    2.521    0.262    0.533  102.803  209.681
  481.500    2.807    0.250    0.511   92.179  209.307
  481.750    3.108    0.230    0.485   84.736  209.343
  482.000    3.371    0.220    0.460   81.025  209.272
  482.250    3.582    0.216    0.469   86.489  209.409
  482.500    3.849    0.230    0.478   91.525  209.440
  482.750    4.135    0.240    0.486   91.180  209.270
  483.000    4.631    0.230    0.468   77.925  208.795
  483.250    5.507    0.226    0.432   66.445  208.018
  483.500    6.725    0.051    0.424   63.224  207.332
  483.750    7.560    0.028    0.390   62.820  206.351
  484.000    8.016    0.023    0.349   62.836  205.768
  484.250    8.005    0.044    0.330   62.797  204.991
  484.500    7.554    0.079    0.351   62.755  204.612
  484.750    7.089    0.132    0.368   64.917  204.242
  485.000    6.540    0.193    0.383   70.135  204.378
  485.250    6.949    0.247    0.394   75.355  205.022
  485.500    7.796    0.285    0.407   71.033  205.670
  485.750    9.628    0.308    0.419   61.268  206.312
  486.000   12.300    0.325    0.432   56.208  206.654
  486.250   14.656    0.334    0.435   50.601  206.687
  486.500   16.444    0.339    0.440   52.272  206.007
  486.750   17.372    0.332    0.435   54.742  205.528
  487.000   17.609    0.334    0.420   56.411  203.934
  487.250   16.933    0.343    0.412   61.263  203.454
  487.500   15.362    0.342    0.407   67.462  205.630
  487.750   13.573    0.335    0.402   75.987  205.968
  488.000   11.104    0.327    0.399   81.449  203.964
  488.250    8.948    0.318    0.395   85.139  203.286
  488.500    7.571    0.312    0.401   87.483  203.218
  488.750    6.194    0.307    0.427   82.365  202.943
  489.000    4.889    0.308    0.438   75.963  203.185
  489.250    4.336    0.308    0.445   76.414  203.524
  489.500    4.038    0.304    0.429   78.084  204.068
  489.750    3.898    0.306    0.389   79.633  204.509
  490.000    3.900    0.300    0.387   82.039  204.950
  490.250    4.035    0.287    0.395   86.219  205.389
  490.500    4.231    0.279    0.400   91.011  205.427
  490.750    4.470    0.273    0.412   95.434  205.455
  491.000    4.740    0.269    0.431   97.169  205.081
  491.250    5.065    0.270    0.430   92.478  204.506
  491.500    5.402    0.273    0.435   96.841  204.133
  491.750    5.631    0.278    0.447  101.938  204.472
  492.000    5.719    0.280    0.433   97.679  204.809
  492.250    5.657    0.265    0.412   91.213  205.453
  492.500    5.564    0.249    0.393   88.359  205.793
  492.750    5.473    0.241    0.383   90.582  205.828
  493.000    5.455    0.239    0.409   97.208  205.454
  493.250    5.571    0.264    0.442  100.652  204.881
  493.500    5.963    0.276    0.492   94.250  204.506
  493.750    6.431    0.248    0.382   87.113  204.436
  494.000    6.976    0.234    0.353   78.876  204.368
  494.250    7.624    0.249    0.377   69.049  204.601
  494.500    7.903    0.279    0.392   60.872  204.738
  494.750    7.936    0.298    0.382   47.985  204.467
  495.000    7.748    0.287    0.402   55.960  203.889
  495.250    7.563    0.286    0.419   61.728  203.622
  495.500    7.342    0.289    0.442   65.906  203.450
  495.750    7.047    0.279    0.455   69.597  203.173
  496.000    6.638    0.262    0.352   69.496  203.311
  496.250    6.300    0.242    0.331   76.794  203.443
  496.500    6.092    0.231    0.342   82.809  203.587
  496.750    6.015    0.228    0.354   85.950  203.817
  497.000    6.271    0.226    0.366   84.564  204.666
  497.250    6.854    0.240    0.377   81.768  205.720
  497.500    7.364    0.285    0.378   62.887  206.574
  497.750    8.093    0.293    0.367   56.120  206.398
  498.000    8.598    0.297    0.362   54.979  205.311
  498.250    9.274    0.297    0.363   59.340  204.638
  498.500   10.211    0.293    0.371   65.906  204.570
  498.750   11.392    0.283    0.384   70.575  204.700
  499.000   12.976    0.290    0.397   64.293  205.140
  499.250   14.101    0.314    0.400   61.317  206.601
  499.500   14.896    0.332    0.388   66.719  207.656
  499.750   14.902    0.328    0.392   71.695  207.996
  500.000   12.971    0.326    0.401   76.058  207.415
  500.250   10.631    0.328    0.409   81.033  205.819
  500.500    8.631    0.322    0.409   85.946  203.920
  500.750    7.114    0.298    0.388   90.863  203.135
  501.000    6.100    0.279    0.372   94.493  203.168
  501.250    5.430    0.261    0.358   97.385  203.812
  501.500    4.982    0.250    0.352   99.912  205.076
  501.750    5.088    0.245    0.374   99.750  205.818
  502.000    5.236    0.239    0.394   97.446  206.156
  502.250    5.378    0.239    0.402   95.388  205.888
  502.500    5.451    0.251    0.408   93.697  205.210
  502.750    5.567    0.254    0.384   92.918  204.628
  503.000    5.643    0.246    0.365   92.266  204.048
  503.250    5.817    0.247    0.362   92.228  203.878
  503.500    6.065    0.246    0.365   92.123  204.727
  503.750    6.529    0.244    0.364   90.859  205.985
  504.000    7.108    0.250    0.362   87.881  207.245
  504.250    8.173    0.264    0.367   76.646  207.683
  504.500    9.257    0.277    0.373   61.924  207.718
  504.750    9.965    0.298    0.388   50.934  207.342
  505.000   10.449    0.318    0.394   53.585  206.562
  505.250   10.571    0.325    0.379   63.453  206.291
  505.500    9.500    0.305    0.390   75.034  206.531
  505.750    7.713    0.263    0.384   81.722  206.764
  506.000    7.037    0.234    0.354   86.820  207.210
  506.250    6.480    0.217    0.326   85.127  207.546
  506.500    6.279    0.210    0.320   80.499  206.255
  506.750    6.153    0.205    0.314   76.542  204.353
  507.000    5.950    0.199    0.323   76.443  203.676
  507.250    5.679    0.236    0.351   78.239  203.911
