~VERSION INFORMATION
 VERS.                 2.0:   CWLS LOG ASCII STANDARD -VERSION 2.0
 WRAP.                  NO:   ONE LINE PER DEPTH STEP
~WELL INFORMATION BLOCK
#MNEM.UNIT           DATA                    DESCRIPTION OF MNEMONIC
#---------    -------------------            -------------------------------
# Generated from Intellog Unique Number	CW_79_81/WELL/591
NULL.         -999.25                        : NULL_VALUE
COMP .        INTERCITY GAS CORPORATION      :  COMPANY
WELL.         HOMESTEAD ET AL WEAVER         : Well_name    - WELL              
LOC .         07-21-080-01W5                 : Location     - LOCATION          
UWI .         00/07-21-080-01W5/0            : Uwi          - UNIQUE WELL ID    
ENTR.         MAX                            : Entered      - ENTERED BY        
SRVC.         SCHLUMBERGER                   : Scn          - SERVICE COMPANY   
DATE.         24 NOV 77                      : Date         - LOG DATE
STRT.M        225                            : top_depth    - START DEPTH       
STOP.M        490                            : bot_depth    - STOP DEPTH        
STEP.M        0.25                           : increment    - STEP LENGTH       
~CURVE INFORMATION BLOCK
#MNEM UNIT       ERCB CURVE CODE    CURVE DESCRIPTION
#-----------   ------------------   ----------------------------------
DEPT.M        00 001 00 00         : DEPTH        - DEPTH                       
ILD .OHMM     00 120 00 00         : RESD         - DEEP RESISTIVITY (DIL)      
NPHI.V/V      00 330 00 00         : PHIN         - NEUTRON POROSITY (SANDSTONE)
DPHI.V/V      00 890 00 00         : PHID         - DENSITY POROSITY (SANDSTONE)
CALI.MM       00 280 01 00         : CAL          - CALIPER                     
GR  .API      00 310 00 00         : GR           - GAMMA RAY                   
~PARAMETER INFORMATION       
#MNEM.UNIT           DATA             DESCRIPTION OF MNEMONIC
#---------         -----------     ------------------------------
GL  .M        570.6                : gl           - GROUND LEVEL ELEVATION      
EREF.M        574.3                : kb           - ELEVATION OF DEPTH REFERENCE
DATM.M        570.6                : datum        - DATUM ELEVATION             
TDD .M        512                  : tdd          - TOTAL DEPTH DRILLER         
RUN .         ONE                  : Run          - RUN NUMBER                  
ENG .         BILL                 : Engineer     - RECORDING ENGINEER          
WIT .         JIM                  : Witness      - WITNESSED BY                
MUD .         GEL                  : Mud_type     - MUD TYPE                    
MATR.         SANDSTONE            : Logunit      - NEUTRON MATRIX              
TMAX.C        36.3                 : BHT          - MAXIMUM RECORDED TEMPERATURE
BHTD.M        512                  : BHTDEP       - MAXIMUM RECORDED TEMPERATURE
RMT .C        17.5                 : MDTP         - TEMPERATURE OF MUD          
MUDD.KG/M     1120                 : MWT          - MUD DENSITY                 
NEUT.         1                    : NEUTRON      - NEUTRON TYPE                
RESI.         0                    : RESIST       - RESISTIVITY TYPE            
RM  .OHMM     16.4                 : RM           - RESISTIVITY OF MUD          
RMC .OHMM     0.25                 : RMC          - RESISTIVITY OF MUD CAKE     
RMF .OHMM     12.3                 : RMF          - RESISTIVITY OF MUD FILTRATE 
SUFT.C        4                    : SUFT         - SURFACE TEMPERATURE         
~A  DEPTH     RESD     PHIN     PHID      CAL       GR
# ...
  298.000   10.108    0.468    0.254  164.033   64.235
  298.250   11.632    0.440    0.126  164.572   60.021
  298.500   13.017    0.295    0.075  165.603   57.016
  298.750   15.118    0.259    0.084  166.142   56.128
  299.000   15.420    0.275    0.151  165.162   58.868
  299.250   14.066    0.324    0.182  163.182   63.424
  299.500   11.062    0.388    0.252  160.694   68.282
  299.750    9.815    0.477    0.324  159.213   71.927
  300.000    9.209    0.495    0.308  159.249   73.460
  300.250    9.219    0.485    0.310  160.288   72.876
  300.500    9.145    0.483    0.311  161.831   72.893
  300.750    8.987    0.473    0.308  162.866   72.612
  301.000    8.430    0.466    0.282  162.901   74.142
  301.250    7.551    0.470    0.267  163.940   76.277
  301.500    7.282    0.485    0.260  166.999   78.412
  301.750    6.897    0.494    0.251  169.546   79.640
  302.000    6.713    0.507    0.257  171.593   81.476
  302.250    6.239    0.522    0.263  172.640   82.701
  302.500    5.854    0.520    0.260  171.659   82.420
  302.750    6.141    0.516    0.257  170.175   81.532
  303.000    6.320    0.523    0.253  169.199   81.853
  303.250    6.269    0.496    0.252  170.750   83.988
  303.500    6.103    0.485    0.242  172.792   84.914
  303.750    5.886    0.484    0.236  176.355   86.140
  304.000    5.321    0.499    0.230  177.898   87.066
  304.250    4.854    0.509    0.218  178.437   86.787
  304.500    4.554    0.509    0.249  180.984   85.896
  304.750    4.434    0.526    0.267  183.027   85.313
  305.000    4.398    0.529    0.251  179.031   83.518
  305.250    4.569    0.506    0.244  170.504   82.627
  305.500    5.067    0.484    0.231  169.016   82.648
  305.750    5.464    0.484    0.204  169.047   82.667
  306.000    5.677    0.482    0.224  169.587   82.986
  306.250    6.065    0.479    0.218  169.622   84.519
  306.500    6.420    0.475    0.208  170.657   86.049
  306.750    6.546    0.472    0.198  171.192   87.882
  307.000    6.494    0.465    0.212  170.220   86.694
  307.250    6.381    0.476    0.216  171.263   85.803
  307.500    6.099    0.495    0.218  172.294   87.334
  307.750    6.050    0.519    0.227  171.322   85.841
  308.000    6.226    0.519    0.230  171.349   84.348
  308.250    6.590    0.494    0.231  171.892   84.372
  308.500    6.539    0.477    0.236  172.420   85.902
  308.750    6.191    0.465    0.245  173.963   90.151
  309.000    5.243    0.483    0.251  176.010   92.591
  309.250    4.085    0.527    0.252  179.072   91.398
  309.500    3.693    0.543    0.257  180.615   92.324
  309.750    3.766    0.538    0.267  175.604   89.622
  310.000    4.061    0.521    0.267  171.604   85.410
  310.250    4.180    0.501    0.252  171.643   85.124
  310.500    4.223    0.526    0.250  174.698   88.169
  310.750    4.151    0.534    0.277  177.745   93.327
  311.000    4.042    0.535    0.279  174.756   92.439
  311.250    4.008    0.532    0.284  168.737   87.923
  311.500    4.050    0.520    0.289  163.734   84.618
  311.750    4.327    0.515    0.281  162.757   84.940
  312.000    4.799    0.505    0.292  162.789   84.656
  312.250    5.319    0.497    0.297  162.820   81.951
  312.500    5.737    0.503    0.299  158.824   76.831
  312.750    5.850    0.510    0.301  158.852   72.619
  313.000    6.135    0.494    0.303  158.887   70.522
  313.250    6.615    0.487    0.300  158.410   67.820
  313.500    7.268    0.488    0.298  158.442   65.727
  313.750    7.837    0.508    0.311  158.477   66.648
  314.000    8.853    0.506    0.323  158.508   65.462
  314.250   10.092    0.529    0.330  159.547   66.388
  314.500   10.683    0.533    0.315  160.090   69.125
  314.750   10.497    0.519    0.309  160.618   71.863
  315.000    8.728    0.506    0.289  160.149   76.721
  315.250    7.963    0.496    0.267  161.188   77.949
  315.500    8.197    0.489    0.270  161.724   79.784
  315.750    8.595    0.509    0.290  160.747   76.475
  316.000    8.686    0.493    0.295  159.775   68.938
  316.250    8.686    0.486    0.301  158.294   69.559
  316.500    8.625    0.488    0.296  157.822   73.206
  316.750    8.243    0.498    0.289  157.849   73.527
  317.000    8.406    0.483    0.284  157.885   68.406
  317.250    8.898    0.482    0.308  157.912   64.797
  317.500    9.870    0.475    0.325  157.951   63.304
  317.750   10.062    0.465    0.325  157.979   63.026
  318.000   10.170    0.456    0.311  158.514   65.461
  318.250    9.538    0.457    0.297  159.557   69.107
  318.500    7.641    0.465    0.282  164.623   75.475
  318.750    7.168    0.476    0.240  168.186   80.031
  319.000    6.981    0.465    0.234  167.713   81.262
  319.250    6.795    0.474    0.232  167.245   82.792
  319.500    6.554    0.492    0.237  167.268   84.927
  319.750    6.323    0.494    0.232  167.307   85.249
  320.000    6.273    0.495    0.234  167.846   81.335
  320.250    6.577    0.490    0.272  168.878   77.423
  320.500    8.001    0.480    0.278  159.339   73.514
  320.750    9.208    0.460    0.286  159.367   69.603
  321.000   11.954    0.469    0.299  158.894   67.503
  321.250   16.259    0.467    0.300  158.929   66.617
  321.500   18.713    0.464    0.310  158.457   64.819
  321.750   19.082    0.469    0.299  157.984   62.426
  322.000   18.068    0.472    0.302  157.516   62.443
  322.250   17.270    0.464    0.323  157.551   60.950
  322.500   16.812    0.458    0.325  157.074   56.434
  322.750   16.525    0.455    0.322  156.094   53.729
  323.000   16.234    0.453    0.305  155.118   51.632
  323.250   15.664    0.446    0.294  154.145   50.746
  323.500   15.107    0.439    0.302  154.184   51.065
  323.750   14.577    0.433    0.308  154.212   51.993
  324.000   14.188    0.434    0.310  154.243   53.219
  324.250   13.942    0.451    0.314  154.274   54.449
  324.500   13.701    0.460    0.312  154.306   55.073
  324.750   13.464    0.460    0.332  154.333   55.094
  325.000   13.230    0.459    0.317  154.365   52.087
  325.250   13.003    0.449    0.307  154.904   51.504
  325.500   12.899    0.432    0.303  155.439   51.822
  325.750   12.793    0.431    0.301  155.466   53.660
  326.000   12.807    0.447    0.308  155.502   53.976
  326.250   12.822    0.451    0.320  155.537   53.693
  326.500   12.717    0.446    0.318  155.572   53.714
  326.750   12.381    0.440    0.312  155.096   55.549
  327.000   11.834    0.438    0.308  155.127   57.989
  327.250   11.310    0.464    0.305  154.651   60.119
  327.500   11.216    0.460    0.300  154.186   62.257
  327.750   11.230    0.452    0.297  154.213   62.578
  328.000   11.560    0.436    0.291  154.249   61.390
  328.250   12.581    0.414    0.228  155.792   58.988
  328.500   13.694    0.364    0.118  159.354   55.685
  328.750   14.901    0.290    0.059  162.405   54.190
  329.000   16.070    0.199    0.035  163.440   52.395
  329.250   17.489    0.192    0.052  162.975   51.807
  329.500   19.574    0.198    0.084  163.503   52.430
  329.750   20.911    0.211    0.091  163.534   52.752
  330.000   21.329    0.228    0.113  163.066   53.984
  330.250   21.548    0.245    0.119  162.097   56.422
  330.500   18.595    0.278    0.133  161.117   59.159
  330.750   15.176    0.371    0.212  160.140   60.690
  331.000   12.853    0.478    0.308  159.168   63.732
  331.250    8.713    0.473    0.302  159.195   67.379
  331.500    7.661    0.490    0.278  159.726   72.842
  331.750    6.925    0.510    0.273  160.766   79.814
  332.000    6.258    0.496    0.255  161.301   85.882
  332.250    4.787    0.489    0.241  163.863   91.643
  332.500    3.729    0.488    0.229  166.406   97.408
  332.750    3.278    0.485    0.224  166.942   94.706
  333.000    3.222    0.482    0.224  166.473   94.423
  333.250    3.286    0.484    0.233  165.996   96.862
  333.500    3.678    0.487    0.246  165.532   95.367
  333.750    4.558    0.488    0.244  165.051   92.063
  334.000    5.148    0.486    0.248  164.079   86.940
  334.250    5.500    0.477    0.246  163.102   83.333
