~VERSION INFORMATION
 VERS.                 2.0:   CWLS LOG ASCII STANDARD -VERSION 2.0
 WRAP.                  NO:   ONE LINE PER DEPTH STEP
~WELL INFORMATION BLOCK
#MNEM.UNIT           DATA                    DESCRIPTION OF MNEMONIC
#---------    -------------------            -------------------------------
# Generated from Intellog Unique Number	CW_70_72/WELL/2900
NULL.         -999.25                        : NULL_VALUE
WELL.         SUNCOR GAMBLER                 : Well_name    - WELL              
LOC .         06-24-070-21W4                 : Location     - LOCATION          
UWI .         00/06-24-070-21W4/0            : Uwi          - UNIQUE WELL ID    
ENTR.         MAX                            : Entered      - ENTERED BY        
SRVC.         SCHLUMBERGER                   : Scn          - SERVICE COMPANY   
DATE.         23 FEB 80                      : Date         - LOG DATE
STRT.M        385                            : top_depth    - START DEPTH       
STOP.M        555                            : bot_depth    - STOP DEPTH        
STEP.M        0.25                           : increment    - STEP LENGTH       
~CURVE INFORMATION BLOCK
#MNEM UNIT       ERCB CURVE CODE    CURVE DESCRIPTION
#-----------   ------------------   ----------------------------------
DEPT.M        00 001 00 00         : DEPTH        - DEPTH                       
ILD .OHMM     00 120 00 00         : RESD         - DEEP RESISTIVITY (DIL)      
NPHI.V/V      00 330 00 00         : PHIN         - NEUTRON POROSITY (SANDSTONE)
DPHI.V/V      00 890 00 00         : PHID         - DENSITY POROSITY (SANDSTONE)
CALI.MM       00 280 01 00         : CAL          - CALIPER                     
GR  .API      00 310 00 00         : GR           - GAMMA RAY                   
~PARAMETER INFORMATION       
#MNEM.UNIT           DATA             DESCRIPTION OF MNEMONIC
#---------         -----------     ------------------------------
GL  .M        645.78               : gl           - GROUND LEVEL ELEVATION      
EREF.M        649.13               : kb           - ELEVATION OF DEPTH REFERENCE
DATM.M        645.78               : datum        - DATUM ELEVATION             
TDD .M        569                  : tdd          - TOTAL DEPTH DRILLER         
RUN .         ONE                  : Run          - RUN NUMBER                  
ENG .         BILL                 : Engineer     - RECORDING ENGINEER          
WIT .         JIM                  : Witness      - WITNESSED BY                
MUD .         GEL                  : Mud_type     - MUD TYPE                    
MATR.         SANDSTONE            : Logunit      - NEUTRON MATRIX              
TMAX.C        39                   : BHT          - MAXIMUM RECORDED TEMPERATURE
BHTD.M        569                  : BHTDEP       - MAXIMUM RECORDED TEMPERATURE
RMT .C        12.2                 : MDTP         - TEMPERATURE OF MUD          
MUDD.KG/M     1050                 : MWT          - MUD DENSITY                 
NEUT.         1                    : NEUTRON      - NEUTRON TYPE                
RESI.         0                    : RESIST       - RESISTIVITY TYPE            
RM  .OHMM     3.03                 : RM           - RESISTIVITY OF MUD          
RMC .OHMM     0.25                 : RMC          - RESISTIVITY OF MUD CAKE     
RMF .OHMM     3.94                 : RMF          - RESISTIVITY OF MUD FILTRATE 
SUFT.C        -20                  : SUFT         - SURFACE TEMPERATURE         
~A  DEPTH     RESD     PHIN     PHID      CAL       GR
# ...
  458.000    3.333    0.438    0.313  197.343   54.803
  458.250    3.333    0.441    0.314  197.854   55.108
  458.500    3.334    0.455    0.308  197.869   55.118
  458.750    3.334    0.443    0.303  198.380   54.225
  459.000    3.304    0.423    0.305  199.395   53.934
  459.250    3.305    0.437    0.310  200.909   55.142
  459.500    3.305    0.484    0.308  201.920   56.649
  459.750    3.306    0.496    0.304  202.433   56.656
  460.000    3.306    0.459    0.307  202.446   56.366
  460.250    3.307    0.455    0.317  202.459   55.473
  460.500    3.307    0.453    0.326  202.472   54.280
  460.750    3.247    0.449    0.328  202.485   52.790
  461.000    3.188    0.447    0.329  201.500   51.898
  461.250    3.101    0.459    0.341  200.012   52.504
  461.500    3.017    0.477    0.354  199.027   51.914
  461.750    2.962    0.465    0.350  200.042   48.923
  462.000    2.962    0.447    0.346  201.554   48.930
  462.250    2.936    0.431    0.348  201.569   51.938
  462.500    2.855    0.457    0.342  201.580   54.346
  462.750    2.830    0.464    0.340  202.095   54.652
  463.000    2.830    0.467    0.343  202.105   53.461
  463.250    2.857    0.450    0.344  201.619   51.968
  463.500    2.857    0.442    0.339  201.134   51.377
  463.750    2.884    0.449    0.336  201.134   51.385
  464.000    2.912    0.444    0.334  201.162   51.695
  464.250    2.912    0.448    0.336  200.174   52.003
  464.500    2.912    0.464    0.338  200.187   52.309
  464.750    2.913    0.478    0.336  201.200   52.916
  465.000    2.914    0.468    0.333  201.213   53.224
  465.250    2.914    0.473    0.334  200.725   49.933
  465.500    2.914    0.477    0.330  200.239   48.441
  465.750    2.914    0.460    0.321  200.252   49.049
  466.000    2.943    0.448    0.324  200.266   49.057
  466.250    2.970    0.453    0.331  200.280   51.765
  466.500    2.998    0.450    0.333  200.293   55.671
  466.750    3.027    0.449    0.333  199.807   56.578
  467.000    3.027    0.457    0.331  199.318   55.988
  467.250    3.056    0.489    0.330  199.331   55.995
  467.500    3.085    0.497    0.329  199.348   56.602
  467.750    3.085    0.478    0.328  199.359   57.809
  468.000    3.086    0.468    0.327  199.376   58.417
  468.250    3.115    0.460    0.325  198.386   60.524
  468.500    3.144    0.461    0.323  197.897   64.132
  468.750    3.174    0.460    0.321  196.911   62.339
  469.000    3.204    0.493    0.317  196.426   61.449
  469.250    3.265    0.493    0.308  195.438   61.757
  469.500    3.296    0.464    0.305  192.956   62.964
  469.750    3.296    0.462    0.308  191.467   64.771
  470.000    3.297    0.470    0.315  190.480   67.478
  470.250    3.267    0.478    0.316  189.494   67.787
  470.500    3.178    0.477    0.298  189.507   67.793
  470.750    3.091    0.467    0.287  203.015   68.402
  471.000    2.898    0.420    0.268  230.517   71.407
  471.250    2.819    0.420    0.458  250.524   77.115
  471.500    2.819    0.446    0.472  228.049   75.323
  471.750    2.926    0.578    0.445  221.562   74.431
  472.000    3.151    0.536    0.229  206.581   74.739
  472.250    3.522    0.460    0.208  201.597   78.345
  472.500    4.048    0.446    0.219  200.111   80.452
  472.750    4.320    0.457    0.224  200.111   79.860
  473.000    4.442    0.465    0.220  199.639   78.069
  473.250    4.443    0.462    0.218  199.649   75.078
  473.500    4.444    0.464    0.225  200.665   71.488
  473.750    4.283    0.472    0.243  200.676   67.897
  474.000    4.166    0.476    0.256  200.691   64.007
  474.250    4.053    0.475    0.267  200.714   66.114
  474.500    4.016    0.461    0.270  200.717   70.620
  474.750    3.979    0.455    0.268  200.730   76.025
  475.000    4.017    0.447    0.251  200.741   81.131
  475.250    4.247    0.438    0.224  200.755   78.740
  475.500    4.660    0.450    0.187  200.755   70.352
  475.750    5.609    0.433    0.163  201.290   67.660
  476.000    7.271    0.351    0.141  201.294   64.670
  476.250    8.356    0.320    0.167  201.810   62.877
  476.500    9.965    0.339    0.174  201.820   61.686
  476.750   11.139    0.376    0.121  201.333   60.196
  477.000   11.141    0.340    0.028  201.346   54.805
  477.250   10.737    0.223    0.037  201.361   51.815
  477.500    9.789    0.256    0.149  201.377   55.121
  477.750    8.060    0.283    0.179  201.388   67.724
  478.000    6.760    0.395    0.241  201.400   73.729
  478.250    5.776    0.435    0.237  201.415   76.136
  478.500    4.890    0.457    0.245  201.929   76.144
  478.750    4.417    0.458    0.242  201.929   72.253
  479.000    4.179    0.450    0.244  201.952   68.664
  479.250    4.065    0.451    0.253  201.965   68.073
  479.500    3.991    0.450    0.237  201.980   68.680
  479.750    3.955    0.442    0.226  201.995   72.885
  480.000    3.956    0.432    0.231  202.009   74.693
  480.250    3.956    0.427    0.248  202.022   69.003
  480.500    3.957    0.459    0.250  202.034   68.113
  480.750    3.958    0.467    0.260  202.045   69.918
  481.000    3.958    0.453    0.268  202.558   72.026
  481.250    3.922    0.454    0.262  202.571   72.033
  481.500    3.923    0.484    0.237  202.586   75.640
  481.750    3.887    0.481    0.232  202.099   76.249
  482.000    3.852    0.472    0.248  202.111   74.157
  482.250    3.679    0.487    0.266  201.626   69.666
  482.500    3.578    0.495    0.286  202.138   67.875
  482.750    3.481    0.494    0.290  202.651   67.884
  483.000    3.417    0.486    0.290  202.668   66.393
  483.250    3.386    0.484    0.296  202.681   65.500
  483.500    3.325    0.480    0.301  202.691   65.507
  483.750    3.325    0.467    0.298  202.205   65.216
  484.000    3.295    0.461    0.290  202.219   64.024
  484.250    3.265    0.458    0.285  202.232   62.832
  484.500    3.266    0.468    0.282  202.743   60.442
  484.750    3.266    0.449    0.280  202.756   58.651
  485.000    3.297    0.446    0.283  202.771   58.359
  485.250    3.329    0.462    0.281  202.784   58.366
  485.500    3.360    0.463    0.283  203.298   57.777
  485.750    3.392    0.457    0.293  203.313   58.383
  486.000    3.424    0.462    0.293  202.823   60.191
  486.250    3.456    0.464    0.287  201.838   62.895
  486.500    3.489    0.463    0.283  201.850   67.102
  486.750    3.555    0.460    0.293  202.366   72.808
  487.000    3.656    0.461    0.295  202.877   79.414
  487.250    3.724    0.471    0.263  206.387   77.922
  487.500    3.760    0.477    0.245  205.905   70.134
  487.750    3.760    0.467    0.266  202.418   66.842
  488.000    3.692    0.460    0.305  200.432   59.353
  488.250    3.692    0.455    0.299  200.443   54.864
  488.500    3.659    0.450    0.295  200.956   53.671
  488.750    3.660    0.437    0.301  201.469   53.080
  489.000    3.729    0.429    0.307  201.982   53.386
  489.250    4.016    0.443    0.306  201.995   53.394
  489.500    4.406    0.458    0.273  202.508   53.402
  489.750    5.255    0.447    0.138  203.021   52.510
  490.000    6.444    0.402    0.009  204.037   46.222
  490.250    8.124    0.161    0.004  204.048   41.432
  490.500    9.779    0.171    0.023  205.063   42.640
  490.750   10.149    0.223    0.045  206.075   44.746
  491.000    9.514    0.249    0.061  207.590   48.952
  491.250    8.673    0.276    0.126  208.099   51.659
  491.500    7.480    0.303    0.195  206.116   51.667
  491.750    6.332    0.320    0.236  206.126   52.874
  492.000    5.214    0.344    0.261  210.138   54.381
  492.250    4.333    0.378    0.283  220.147   56.789
  492.500    3.914    0.432    0.299  220.165   55.897
  492.750    3.703    0.439    0.297  217.177   56.806
  493.000    3.636    0.444    0.299  212.692   58.612
  493.250    3.636    0.452    0.299  207.709   59.819
  493.500    3.603    0.466    0.299  206.221   59.828
  493.750    3.571    0.463    0.293  205.736   56.836
  494.000    3.571    0.452    0.294  205.247   52.947
  494.250    3.572    0.437    0.290  205.259   54.453
