~VERSION INFORMATION
 VERS.                 2.0:   CWLS LOG ASCII STANDARD -VERSION 2.0
 WRAP.                  NO:   ONE LINE PER DEPTH STEP
~WELL INFORMATION BLOCK
#MNEM.UNIT           DATA                    DESCRIPTION OF MNEMONIC
#---------    -------------------            -------------------------------
# Generated from Intellog Unique Number	CW_73_75/WELL/879
WELL.         CHEVRON ET AL DROWNED 07-36    : Well_name    - WELL
LOC .         00/07-36-075-23W4/0            : Location     - LOCATION
UWI .         00/07-36-075-23W4/0            : Uwi          - UNIQUE WELL ID
ENTR.         JAYE                           : Entered      - ENTERED BY
SRVC.         SCHLUMBERGER                   : Scn          - SERVICE COMPANY
DATE.         22 JAN 85                      : Date         - LOG DATE
STRT.M        411.48                         : top_depth    - START DEPTH
STOP.M        618.73                         : bot_depth    - STOP DEPTH
STEP.M        0.25                           : increment    - STEP LENGTH
 NULL. -999.2500:NULL Value
~CURVE INFORMATION BLOCK
#MNEM UNIT       ERCB CURVE CODE    CURVE DESCRIPTION
#-----------   ------------------   ----------------------------------
DEPT.M        00 001 00 00         : DEPTH        - DEPTH
ILD .OHMM     00 120 00 00         : RESD         - DEEP RESISTIVITY (DIL)
DPHI.V/V      00 890 00 00         : PHID         - DENSITY POROSITY (SANDSTONE)
NPHI.V/V      00 330 00 00         : PHIN         - NEUTRON POROSITY (SANDSTONE)
GR  .API      00 310 00 00         : GR           - GAMMA RAY
CALI.MM       00 280 01 00         : CAL          - CALIPER
~PARAMETER INFORMATION
#MNEM.UNIT           DATA             DESCRIPTION OF MNEMONIC
#---------         -----------     ------------------------------
GL  .M        678.058              : gl           - GROUND LEVEL ELEVATION
EREF.M        681.106              : kb           - ELEVATION OF DEPTH REFERENCE
DATM.M        678.058              : datum        - DATUM ELEVATION
TDD .M        626.974              : tdd          - TOTAL DEPTH DRILLER
RUN .         ONE                  : Run          - RUN NUMBER
MATR.         SANDSTONE            : Logunit      - NEUTRON MATRIX
TMAX.C        60                   : BHT          - MAXIMUM RECORDED TEMPERATURE
BHTD.M        627.583              : BHTDEP       - MAXIMUM RECORDED TEMPERATURE
RMT .C        11.1111              : MDTP         - TEMPERATURE OF MUD
MUDD.KG/M     0                    : MWT          - MUD DENSITY
NEUT.         1                    : NEUTRON      - NEUTRON TYPE
RESI.         0                    : RESIST       - RESISTIVITY TYPE
RM  .OHMM     0                    : RM           - RESISTIVITY OF MUD
RMC .OHMM     0                    : RMC          - RESISTIVITY OF MUD CAKE
RMF .OHMM     9.02                 : RMF          - RESISTIVITY OF MUD FILTRATE
SUFT.C        -17.7778             : SUFT         - SURFACE TEMPERATURE
~A  DEPTH     RESD     PHID     PHIN       GR      CAL
# ...
  593.980   59.444    0.262    0.304   43.519  206.070
  594.230   65.258    0.262    0.321   48.208  205.848
  594.480   70.728    0.256    0.338   54.019  205.808
  594.730   71.651    0.265    0.319   45.288  205.778
  594.980   63.414    0.281    0.311   43.916  205.850
  595.230   53.230    0.285    0.320   48.312  206.025
  595.480   42.845    0.275    0.348   58.895  206.090
  595.730   34.048    0.281    0.357   65.825  206.171
  595.980   26.182    0.292    0.357   70.401  206.054
  596.230   14.816    0.280    0.354   74.099  205.815
  596.480   12.167    0.263    0.353   79.078  205.479
  596.730   10.612    0.273    0.359   97.198  205.357
  596.980    9.903    0.285    0.393  110.895  206.137
  597.230    9.157    0.307    0.544  125.248  207.391
  597.480    9.059    0.323    0.542  127.700  208.570
  597.730    9.519    0.327    0.567  118.500  208.628
  597.980   10.038    0.321    0.504  106.063  208.702
  598.230   10.337    0.274    0.412  111.107  208.074
  598.480   10.396    0.300    0.486  116.446  207.361
  598.730   10.380    0.320    0.430  104.247  206.625
  598.980   10.156    0.302    0.384   95.867  206.014
  599.230    9.688    0.283    0.370   89.200  205.676
  599.480    9.040    0.278    0.383   95.012  205.152
  599.730    8.268    0.270    0.394  102.885  204.915
  599.980    7.701    0.266    0.427  112.932  204.899
  600.230    7.279    0.297    0.516  122.575  205.256
  600.480    7.307    0.333    0.579  127.854  206.332
  600.730    8.411    0.309    0.605  134.018  206.788
  600.980    9.577    0.294    0.619  141.066  207.260
  601.230   12.078    0.277    0.406  119.677  207.332
  601.480   14.740    0.234    0.360   87.869  206.710
  601.730   16.722    0.207    0.316   53.648  206.478
  601.980   19.355    0.240    0.276   46.977  206.155
  602.230   20.523    0.251    0.254   42.371  205.837
  602.480   21.446    0.254    0.229   38.996  205.701
  602.730   21.845    0.271    0.203   34.800  205.066
  602.980   20.237    0.319    0.186   29.660  204.650
  603.230   15.849    0.336    0.176   28.115  204.726
  603.480   12.299    0.330    0.168   33.044  204.584
  603.730    9.703    0.318    0.180   45.800  204.459
  603.980    7.668    0.301    0.206   63.091  204.127
  604.230    6.083    0.244    0.242   72.790  204.001
  604.480    4.781    0.232    0.283   80.133  204.070
  604.730    4.201    0.197    0.305   86.297  204.147
  604.980    3.772    0.205    0.330   78.567  204.121
  605.230    3.899    0.229    0.321   63.831  203.910
  605.480    4.464    0.266    0.306   57.048  203.875
  605.730    5.064    0.288    0.292   66.920  203.739
  605.980    5.652    0.228    0.291   78.973  203.606
  606.230    6.565    0.197    0.322   94.734  203.384
  606.480    7.641    0.173    0.320  129.746  202.967
  606.730    8.574    0.179    0.317  153.867  202.621
  606.980    9.158    0.169    0.361  172.572  202.306
  607.230    9.414    0.112    0.401  194.988  202.261
  607.480    9.660    0.093    0.588  206.745  202.434
  607.730    9.857    0.059    0.603  220.506  202.903
  607.980   10.170    0.043    0.564  225.964  203.582
  608.230   10.569    0.070    0.517  143.935  204.042
  608.480   10.985    0.077    0.462  133.968  204.819
  608.730   11.312    0.072    0.440  114.056  205.392
  608.980   11.565    0.082    0.420  111.270  206.354
  609.230   11.588    0.087    0.405  108.073  207.234
  609.480   11.381    0.085    0.388   97.636  207.593
  609.730   10.995    0.086    0.370   93.439  207.668
  609.980   10.680    0.081    0.349   91.777  207.632
  610.230   10.095    0.068    0.343   90.579  207.509
  610.480    9.541    0.082    0.342   87.325  206.983
  610.730    8.553    0.105    0.345   86.247  206.865
  610.980    6.985    0.112    0.349   86.761  206.723
  611.230    6.015    0.105    0.372   85.331  206.615
  611.480    5.562    0.112    0.417   91.261  206.775
  611.730    5.423    0.105    0.474   98.724  207.048
  611.980    5.306    0.156    0.509  108.183  207.207
  612.230    5.298    0.145    0.553  114.527  207.183
  612.480    5.318    0.129    0.584  113.153  207.062
  612.730    5.388    0.139    0.529  109.076  206.940
  612.980    5.488    0.135    0.511  106.761  206.792
  613.230    5.590    0.129    0.516  108.747  206.672
  613.480    5.684    0.122    0.522  112.852  206.441
  613.730    5.896    0.136    0.484  121.076  206.130
  613.980    6.028    0.161    0.460  125.712  205.690
  614.230    6.163    0.156    0.484  127.992  205.756
  614.480    6.278    0.153    0.509  128.562  205.842
  614.730    6.325    0.154    0.517  127.310  206.002
  614.980    6.396    0.173    0.555  127.000  206.369
  615.230    6.397    0.166    0.570  123.155  206.646
  615.480    6.363    0.167    0.432  117.073  206.625
  615.730    6.306    0.148    0.401  113.112  207.197
  615.980    6.205    0.127    0.395  111.330  207.848
  616.230    6.105    0.116    0.414  112.431  208.920
  616.480    5.941    0.141    0.384  111.177  209.787
  616.730    5.813    0.118    0.363  105.216  209.863
  616.980    5.627    0.097    0.350  106.553  209.735
  617.230    5.406    0.112    0.333  108.595  209.999
  617.480    5.271    0.086    0.317  106.753  209.877
  617.730    5.176    0.114    0.311  106.620  209.444
  617.980    5.177    0.119    0.315  108.427  209.317
  618.230    5.264    0.102    0.313  108.824  209.104
  618.480    5.412    0.100    0.309   98.561  209.064
  618.730    5.563    0.128    0.308   94.718  208.545
