~VERSION INFORMATION
 VERS.                 2.0:   CWLS LOG ASCII STANDARD -VERSION 2.0
 WRAP.                  NO:   ONE LINE PER DEPTH STEP
~WELL INFORMATION BLOCK
#MNEM.UNIT           DATA                    DESCRIPTION OF MNEMONIC
#---------    -------------------            -------------------------------
# Generated from Intellog Unique Number	CS_73_76/WELL/784
WELL.         ANR PRODUCTION COMPANY         : Well_name    - WELL
LOC .         00/09-17-073-18W4/0            : Location     - LOCATION
UWI .         00/09-17-073-18W4/0            : Uwi          - UNIQUE WELL ID
ENTR.         SP                             : Entered      - ENTERED BY
SRVC.         SCHLUMBERGER                   : Scn          - SERVICE COMPANY
STRT.M        225                            : top_depth    - START DEPTH
STOP.M        480                            : bot_depth    - STOP DEPTH
STEP.M        0.25                           : increment    - STEP LENGTH
 NULL. -999.2500:NULL Value
~CURVE INFORMATION BLOCK
#MNEM UNIT       ERCB CURVE CODE    CURVE DESCRIPTION
#-----------   ------------------   ----------------------------------
DEPT.M        00 001 00 00         : DEPTH        - DEPTH
ILD .OHMM     00 120 00 00         : RESD         - DEEP RESISTIVITY (DIL)
DPHI.V/V      00 890 00 00         : PHID         - DENSITY POROSITY (LIMESTONE)
NPHI.V/V      00 330 00 00         : PHIN         - NEUTRON POROSITY (LIMESTONE)
GR  .API      00 310 00 00         : GR           - GAMMA RAY
~PARAMETER INFORMATION
#MNEM.UNIT           DATA             DESCRIPTION OF MNEMONIC
#---------         -----------     ------------------------------
GL  .M        595.3                : gl           - GROUND LEVEL ELEVATION
EREF.M        599.2                : kb           - ELEVATION OF DEPTH REFERENCE
DATM.M        595.3                : datum        - DATUM ELEVATION
TDD .M        485                  : tdd          - TOTAL DEPTH DRILLER
RUN .         ONE                  : Run          - RUN NUMBER
ENG .         BILL                 : Engineer     - RECORDING ENGINEER
WIT .         JIM                  : Witness      - WITNESSED BY
MUD .         GEL                  : Mud_type     - MUD TYPE
MATR.         LIMESTONE            : Logunit      - NEUTRON MATRIX
TMAX.C        18                   : BHT          - MAXIMUM RECORDED TEMPERATURE
BHTD.M        485                  : BHTDEP       - MAXIMUM RECORDED TEMPERATURE
MATR.         1                    : LOGUNIT      - NEUTRON MATRIX
RMT .C        25                   : MDTP         - TEMPERATURE OF MUD
NEUT.         1                    : NEUTRON      - NEUTRON TYPE
RESI.         0                    : RESIST       - RESISTIVITY TYPE
RMC .OHMM     0.25                 : RMC          - RESISTIVITY OF MUD CAKE
RMF .OHMM     0.25                 : RMF          - RESISTIVITY OF MUD FILTRATE
SUFT.C        15                   : SUFT         - SURFACE TEMPERATURE
~A  DEPTH     RESD     PHID     PHIN       GR
# ...
  399.000    4.959    0.237    0.352   58.999
  399.250    5.248    0.229    0.355   57.771
  399.500    5.451    0.225    0.357   57.155
  399.750    5.453    0.224    0.353   57.150
  400.000    5.354    0.218    0.344   57.758
  400.250    4.880    0.214    0.340   58.980
  400.500    4.616    0.222    0.344   60.812
  400.750    4.129    0.225    0.350   62.033
  401.000    3.625    0.193    0.339   62.641
  401.250    3.366    0.196    0.333   63.861
  401.500    3.125    0.207    0.335   64.467
  401.750    3.068    0.211    0.358   63.851
  402.000    3.632    0.216    0.377   63.848
  402.250    3.915    0.227    0.377   63.233
  402.500    4.464    0.229    0.366   60.778
  402.750    4.723    0.216    0.346   60.163
  403.000    5.189    0.213    0.332   60.770
  403.250    5.388    0.211    0.319   61.990
  403.500    5.703    0.207    0.313   62.599
  403.750    5.705    0.206    0.316   63.205
  404.000    5.814    0.204    0.330   63.203
  404.250    5.709    0.204    0.336   62.587
  404.500    5.606    0.204    0.346   62.583
  404.750    5.404    0.210    0.354   63.191
  405.000    5.307    0.214    0.351   64.411
  405.250    5.210    0.222    0.336   65.020
  405.500    5.117    0.220    0.325   63.792
  405.750    5.118    0.216    0.321   64.399
  406.000    5.027    0.216    0.333   65.007
  406.250    5.028    0.222    0.343   65.002
  406.500    4.938    0.226    0.345   64.998
  406.750    4.849    0.232    0.341   64.384
  407.000    4.851    0.226    0.339   63.154
  407.250    4.590    0.221    0.327   61.925
  407.500    4.506    0.221    0.321   61.310
  407.750    4.426    0.225    0.332   60.080
  408.000    4.427    0.230    0.337   59.465
  408.250    4.348    0.229    0.321   58.236
  408.500    4.349    0.213    0.326   57.620
  408.750    4.271    0.201    0.344   57.004
  409.000    4.195    0.227    0.345   56.387
  409.250    4.197    0.258    0.329   56.384
  409.500    4.120    0.270    0.324   55.767
  409.750    4.046    0.273    0.323   54.539
  410.000    4.049    0.273    0.318   52.698
  410.250    4.050    0.286    0.321   50.858
  410.500    3.977    0.302    0.331   49.628
  410.750    3.980    0.310    0.331   48.400
  411.000    3.981    0.320    0.324   47.171
  411.250    3.983    0.325    0.311   45.943
  411.500    4.060    0.316    0.302   44.714
  411.750    4.139    0.309    0.304   44.098
  412.000    4.299    0.301    0.313   43.481
  412.250    4.300    0.319    0.331   42.866
  412.500    4.383    0.326    0.337   42.250
  412.750    4.468    0.342    0.342   43.470
  413.000    4.471    0.331    0.343   44.079
  413.250    4.389    0.306    0.329   44.685
  413.500    4.391    0.298    0.322   44.682
  413.750    4.233    0.311    0.318   44.677
  414.000    4.156    0.326    0.334   43.449
  414.250    4.082    0.336    0.347   40.384
  414.500    4.083    0.321    0.345   39.767
  414.750    4.085    0.319    0.342   40.376
  415.000    4.087    0.313    0.342   42.208
  415.250    4.244    0.308    0.352   42.816
  415.500    4.326    0.305    0.352   43.425
  415.750    4.578    0.301    0.350   44.645
  416.000    4.755    0.285    0.353   44.641
  416.250    4.847    0.275    0.342   45.249
  416.500    4.940    0.268    0.327   45.245
  416.750    4.852    0.274    0.316   43.405
  417.000    4.853    0.314    0.310   40.952
  417.250    4.591    0.315    0.333   41.559
  417.500    4.426    0.312    0.339   42.168
  417.750    4.345    0.311    0.338   43.388
  418.000    4.266    0.314    0.339   43.384
  418.250    4.191    0.322    0.338   42.767
  418.500    4.192    0.319    0.337   42.152
  418.750    4.195    0.316    0.347   40.921
  419.000    4.119    0.314    0.349   41.529
  419.250    4.122    0.318    0.338   42.139
  419.500    4.123    0.312    0.327   43.360
  419.750    4.125    0.307    0.325   45.804
  420.000    4.126    0.337    0.335   45.801
  420.250    4.129    0.332    0.338   45.183
  420.500    4.053    0.309    0.325   45.181
  420.750    4.056    0.298    0.317   45.787
  421.000    4.058    0.316    0.338   45.785
  421.250    4.059    0.310    0.360   45.168
  421.500    4.062    0.311    0.376   44.552
  421.750    4.140    0.317    0.363   45.772
  422.000    4.142    0.316    0.357   46.991
  422.250    4.144    0.310    0.344   47.600
  422.500    4.146    0.301    0.340   47.596
  422.750    4.148    0.297    0.337   47.592
  423.000    4.073    0.292    0.332   46.976
  423.250    3.999    0.297    0.332   45.748
  423.500    3.855    0.315    0.333   43.295
  423.750    3.716    0.299    0.338   43.291
  424.000    3.648    0.273    0.370   45.736
  424.250    3.516    0.242    0.387   54.302
  424.500    3.390    0.228    0.387   57.972
  424.750    3.329    0.210    0.371   61.642
  425.000    3.268    0.206    0.359   64.698
  425.250    3.209    0.223    0.365   65.918
  425.500    3.333    0.228    0.381   65.302
  425.750    3.397    0.237    0.378   65.299
  426.000    3.595    0.231    0.374   65.295
  426.250    3.734    0.225    0.384   66.515
  426.500    3.806    0.228    0.390   67.735
  426.750    3.879    0.225    0.394   68.342
  427.000    4.029    0.221    0.391   67.727
  427.250    4.106    0.231    0.385   66.498
  427.500    4.185    0.238    0.363   65.881
  427.750    4.267    0.232    0.352   66.490
  428.000    4.349    0.231    0.346   66.485
  428.250    4.433    0.224    0.352   66.481
  428.500    4.435    0.214    0.356   66.478
  428.750    4.355    0.204    0.354   64.636
  429.000    4.277    0.183    0.347   64.021
  429.250    4.200    0.171    0.341   62.178
  429.500    4.124    0.160    0.324   60.338
  429.750    4.126    0.177    0.315   59.723
  430.000    4.206    0.191    0.332   59.107
  430.250    4.288    0.201    0.340   60.939
  430.500    4.370    0.208    0.328   64.607
  430.750    4.454    0.207    0.331   65.217
  431.000    4.627    0.187    0.341   66.437
  431.250    4.628    0.168    0.351   67.045
  431.500    4.717    0.181    0.348   67.652
  431.750    4.809    0.180    0.339   68.261
  432.000    4.902    0.167    0.336   68.258
  432.250    5.091    0.152    0.339   66.417
  432.500    5.488    0.197    0.335   60.903
  432.750    6.028    0.228    0.324   56.001
  433.000    6.622    0.230    0.313   52.323
  433.250    7.005    0.226    0.280   50.483
  433.500    7.840    0.220    0.254   49.866
  433.750    8.774    0.210    0.244   49.862
  434.000    9.283    0.097    0.241   49.246
  434.250    9.822    0.078    0.258   49.242
  434.500    9.826    0.064    0.255   49.237
  434.750    8.789    0.045    0.246   48.621
  435.000    7.718    0.050    0.243   43.108
  435.250    7.299    0.102    0.308   43.104
  435.500    6.777    0.132    0.313   51.058
  435.750    6.412    0.139    0.318   58.401
  436.000    6.296    0.145    0.319   66.355
  436.250    6.299    0.149    0.323   67.576
  436.500    6.303    0.157    0.322   65.735
  436.750    6.424    0.164    0.317   64.507
  437.000    6.547    0.153    0.313   63.891
  437.250    6.677    0.147    0.312   63.275
  437.500    6.679    0.143    0.311   63.271
  437.750    6.558    0.147    0.312   63.266
  438.000    6.561    0.152    0.322   62.650
  438.250    6.442    0.161    0.339   63.258
  438.500    6.445    0.168    0.334   63.254
  438.750    6.448    0.175    0.331   62.638
  439.000    6.573    0.169    0.336   62.022
  439.250    6.700    0.158    0.335   63.854
  439.500    6.829    0.162    0.330   65.075
  439.750    6.963    0.168    0.328   65.070
  440.000    7.096    0.171    0.330   64.454
  440.250    7.100    0.167    0.322   63.838
  440.500    7.102    0.165    0.317   64.444
  440.750    7.106    0.169    0.314   65.665
  441.000    6.979    0.164    0.325   66.887
  441.250    6.981    0.156    0.333   68.106
  441.500    6.729    0.148    0.322   67.491
  441.750    6.607    0.157    0.321   66.874
  442.000    6.368    0.163    0.314   68.094
  442.250    6.254    0.166    0.300   68.702
