~VERSION INFORMATION
 VERS.                 2.0:   CWLS LOG ASCII STANDARD -VERSION 2.0
 WRAP.                  NO:   ONE LINE PER DEPTH STEP
~WELL INFORMATION BLOCK
#MNEM.UNIT           DATA                    DESCRIPTION OF MNEMONIC
#---------    -------------------            -------------------------------
# Generated from Intellog Unique Number	CX_WELLS/WELL/3164
LOC .         00/03-13-083-10W4/0            : Location     - LOCATION
UWI .         00/03-13-083-10W400            : Uwi          - UNIQUE WELL ID
ENTR.         DW                             : Entered      - ENTERED BY
SRVC.         SCHLUMBERGER                   : Scn          - SERVICE COMPANY
STRT.F        738.189                        : top_depth    - START DEPTH
STOP.F        1573.98                        : bot_depth    - STOP DEPTH
STEP.F        0.82                           : increment    - STEP LENGTH
 NULL. -999.2500:NULL Value
~CURVE INFORMATION BLOCK
#MNEM UNIT       ERCB CURVE CODE    CURVE DESCRIPTION
#-----------   ------------------   ----------------------------------
DEPT.F        00 001 00 00         : DEPTH        - DEPTH
NPHI.V/V      00 330 00 00         : PHIN         - NEUTRON POROSITY (SANDSTONE)
DPHI.V/V      00 890 00 00         : PHID         - DENSITY POROSITY (SANDSTONE)
GR  .API      00 310 00 00         : GR           - GAMMA RAY
ILD .OHMM     00 120 00 00         : RESD         - DEEP RESISTIVITY (DIL)
~PARAMETER INFORMATION
#MNEM.UNIT           DATA             DESCRIPTION OF MNEMONIC
#---------         -----------     ------------------------------
GL  .F        2341.54              : gl           - GROUND LEVEL ELEVATION
EREF.F        2354                 : kb           - ELEVATION OF DEPTH REFERENCE
DATM.F        2354                 : datum        - DATUM ELEVATION
TDD .F        1587.93              : tdd          - TOTAL DEPTH DRILLER
RUN .         ONE                  : Run          - RUN NUMBER
ENG .         BILL                 : Engineer     - RECORDING ENGINEER
WIT .         JIM                  : Witness      - WITNESSED BY
MUD .         GEL                  : Mud_type     - MUD TYPE
MATR.         SANDSTONE            : Logunit      - NEUTRON MATRIX
TMAX.F        69.8                 : BHT          - MAXIMUM RECORDED TEMPERATURE
BHTD.F        1587.93              : BHTDEP       - MAXIMUM RECORDED TEMPERATURE
MATR.         1                    : LOGUNIT      - NEUTRON MATRIX
RMT .F        77                   : MDTP         - TEMPERATURE OF MUD
NEUT.         1                    : NEUTRON      - NEUTRON TYPE
RESI.         0                    : RESIST       - RESISTIVITY TYPE
RMC .OHMM     0.25                 : RMC          - RESISTIVITY OF MUD CAKE
RMF .OHMM     0.25                 : RMF          - RESISTIVITY OF MUD FILTRATE
SUFT.F        59                   : SUFT         - SURFACE TEMPERATURE
~A  DEPTH     PHIN     PHID       GR     RESD
# ...
  880.906    0.383    0.332   31.750   26.084
  881.726    0.379    0.333   34.858   25.181
  882.546    0.358    0.321   42.126   23.833
  883.366    0.360    0.315   55.127   22.140
  884.186    0.384    0.324   63.806   19.819
  885.007    0.408    0.327   66.136   17.747
  885.827    0.419    0.315   73.775   17.773
  886.647    0.421    0.308   76.332   18.134
  887.467    0.442    0.321   74.297   18.497
  888.287    0.443    0.337   66.473   18.536
  889.108    0.432    0.336   62.650   18.550
  889.928    0.439    0.336   67.035   18.576
  890.748    0.443    0.344   69.337   18.961
  891.568    0.439    0.317   70.798   18.637
  892.388    0.414    0.319   67.142   17.318
  893.209    0.408    0.328   62.521   16.707
  894.029    0.413    0.320   62.612   15.818
  894.849    0.408    0.305   67.221   16.445
  895.669    0.421    0.299   71.092   17.089
  896.490    0.446    0.319   67.951   18.805
  897.310    0.390    0.341   56.802   19.187
  898.130    0.362    0.340   56.638   19.207
  898.950    0.394    0.317   62.281   19.228
  899.770    0.430    0.305   59.605   19.633
  900.591    0.455    0.328   55.500   20.403
  901.411    0.441    0.345   54.356   22.443
  902.231    0.436    0.352   53.572   22.459
  903.051    0.435    0.348   54.841   20.484
  903.871    0.417    0.337   61.122   17.343
  904.692    0.397    0.310   71.089   15.818
  905.512    0.398    0.269   80.184   15.248
  906.332    0.400    0.270   85.804   15.270
  907.152    0.403    0.278   86.603   17.436
  907.972    0.401    0.298   83.376   20.661
  908.793    0.401    0.323   77.616   22.718
  909.613    0.406    0.337   74.623   24.064
  910.433    0.409    0.342   79.488   24.116
  911.253    0.413    0.339   82.732   23.694
  912.073    0.428    0.345   67.535   22.858
  912.894    0.436    0.352   56.796   22.050
  913.714    0.435    0.348   62.595   20.118
  914.534    0.416    0.336   72.279   19.041
  915.354    0.391    0.330   76.271   18.362
  916.175    0.430    0.332   76.908   17.392
  916.995    0.439    0.337   76.449   16.467
  917.815    0.426    0.329   76.009   15.302
  918.635    0.413    0.317   76.692   14.478
  919.455    0.395    0.306   79.379   13.205
  920.276    0.395    0.289   82.363   11.821
  921.096    0.420    0.272   82.593   11.838
  921.916    0.436    0.274   86.454   12.539
  922.736    0.444    0.294   87.905   11.876
  923.556    0.453    0.311   84.291   10.828
  924.377    0.439    0.308   82.470    8.664
  925.197    0.391    0.289   85.989    7.471
  926.017    0.375    0.274   91.152    6.442
  926.837    0.397    0.259  106.635    5.455
  927.657    0.443    0.218  111.787    5.260
  928.478    0.481    0.206  111.168    4.710
  929.298    0.495    0.236  117.247    4.541
  930.118    0.502    0.222  116.199    4.143
  930.938    0.517    0.173  109.283    3.921
  931.759    0.504    0.185  123.381    3.511
  932.579    0.491    0.235  134.545    3.386
  933.399    0.516    0.262  128.853    3.329
  934.219    0.555    0.264  123.539    3.594
  935.039    0.561    0.272  127.910    3.804
  935.860    0.567    0.280  129.821    6.678
  936.680    0.542    0.278  131.867    8.063
  937.500    0.511    0.288  113.882    9.377
  938.320    0.503    0.315  120.691   10.707
  939.140    0.476    0.338  157.551   12.004
  939.961    0.409    0.343  156.267   12.710
  940.781    0.412    0.336  147.877   13.209
  941.601    0.417    0.308  117.494   13.473
  942.421    0.408    0.283   96.434   14.016
  943.241    0.411    0.279   91.893   14.031
  944.062    0.422    0.292   89.358   14.316
  944.882    0.424    0.307   93.021   14.607
  945.702    0.425    0.312   95.481   14.905
  946.522    0.418    0.304   87.961   15.208
  947.343    0.407    0.292   81.189   13.357
  948.163    0.397    0.297   80.980    9.734
  948.983    0.388    0.318   85.726    7.503
  949.803    0.383    0.316   96.048    7.658
  950.623    0.384    0.283  108.860    8.580
  951.444    0.390    0.245  120.331    9.793
  952.264    0.461    0.227  116.494   10.565
  953.084    0.486    0.261  101.825   12.064
  953.904    0.427    0.318   91.288   12.537
  954.724    0.430    0.319   89.718   13.038
  955.545    0.448    0.287   97.630   13.299
  956.365    0.428    0.268  105.838   13.830
  957.185    0.403    0.297  102.643   13.850
  958.005    0.423    0.342   90.950   13.870
  958.825    0.454    0.355   80.263   14.147
  959.646    0.439    0.347   73.474   13.905
  960.466    0.445    0.341   71.534   13.667
  961.286    0.456    0.343   73.140   12.705
  962.106    0.449    0.301   77.980   11.806
  962.927    0.430    0.253   83.590   11.389
  963.747    0.421    0.257   89.876   11.194
  964.567    0.421    0.282   97.570   11.207
  965.387    0.417    0.287  100.207   11.874
  966.207    0.427    0.277  102.911   12.111
  967.028    0.430    0.273  100.817   12.591
  967.848    0.420    0.288   95.577   12.609
  968.668    0.414    0.323   84.520   12.632
  969.488    0.418    0.356   63.937   12.185
  970.308    0.417    0.350   59.580   11.324
  971.129    0.409    0.320   70.360   10.924
  971.949    0.415    0.302   79.523   10.538
  972.769    0.414    0.296   81.693   10.354
  973.589    0.409    0.287   81.968    9.992
  974.409    0.426    0.281   83.108    9.639
  975.230    0.416    0.281   85.175    9.298
  976.050    0.398    0.281   86.991    8.970
  976.870    0.400    0.309   90.365    8.650
  977.690    0.423    0.346   94.460    8.193
  978.510    0.441    0.350   98.071    8.050
  979.331    0.441    0.317  102.215    7.481
  980.151    0.456    0.267  105.399    6.954
  980.971    0.469    0.255  107.635    6.465
  981.791    0.477    0.258  109.354    6.232
  982.612    0.487    0.250  110.622    5.900
  983.432    0.498    0.231  109.593    7.395
  984.252    0.506    0.229  103.930   10.176
  985.072    0.499    0.299   95.562   12.759
  985.892    0.473    0.329   88.839   14.029
  986.713    0.462    0.325   83.194   14.860
  987.533    0.465    0.321   80.622   14.075
  988.353    0.461    0.319   81.882   13.568
  989.173    0.455    0.317   82.800   11.929
  989.993    0.448    0.314   82.804   11.077
  990.814    0.446    0.316   81.991   10.103
  991.634    0.444    0.322   76.444    8.877
  992.454    0.445    0.316   89.825    7.802
  993.274    0.449    0.289  117.318    7.668
  994.094    0.448    0.268  117.949    7.676
  994.915    0.444    0.279  109.042    7.693
  995.735    0.435    0.287  103.109    7.847
  996.555    0.428    0.292  103.091    8.314
  997.375    0.444    0.300  103.067    8.477
  998.196    0.490    0.297   97.951    8.982
  999.016    0.532    0.282   93.121    9.338
  999.836    0.531    0.294   95.523    9.704
 1000.660    0.484    0.306   91.966   10.279
 1001.480    0.444    0.307   89.333   11.093
 1002.300    0.437    0.307   93.382   11.750
 1003.120    0.438    0.312   95.869   13.412
 1003.940    0.442    0.308   89.231   15.898
 1004.760    0.454    0.306   78.197   18.490
 1005.580    0.262    0.383   64.456   21.105
 1006.400    0.150    0.477   56.512   25.481
 1007.220    0.148    0.539   54.565   25.044
 1008.040    0.217    0.518   52.873   23.721
 1008.860    0.436    0.400   50.777   22.891
 1009.680    0.455    0.370   50.010   22.483
 1010.500    0.433    0.372   51.731   22.524
 1011.320    0.420    0.373   53.506   22.131
 1012.140    0.415    0.377   53.764   21.767
 1012.960    0.427    0.382   52.977   21.791
 1013.780    0.432    0.382   51.294   21.410
 1014.600    0.436    0.383   48.564   21.059
 1015.420    0.437    0.380   47.836   20.699
 1016.240    0.433    0.375   49.032   20.721
 1017.060    0.426    0.369   50.624   20.751
 1017.880    0.419    0.361   51.190   20.388
 1018.700    0.415    0.351   51.218   20.425
 1019.520    0.412    0.350   54.151   20.447
 1020.340    0.405    0.368   57.561   20.484
 1021.160    0.441    0.384   56.956   20.513
 1021.980    0.476    0.378   53.381   20.162
 1022.800    0.461    0.366   50.749   20.191
