~VERSION INFORMATION
 VERS.                 2.0:   CWLS LOG ASCII STANDARD -VERSION 2.0
 WRAP.                  NO:   ONE LINE PER DEPTH STEP
~WELL INFORMATION BLOCK
#MNEM.UNIT           DATA                    DESCRIPTION OF MNEMONIC
#---------    -------------------            -------------------------------
# Generated from Intellog Unique Number	CS_73_76/WELL/2914
WELL.         HOME HB LEISMER                : Well_name    - WELL
LOC .         00/07-35-075-08W4/0            : Location     - LOCATION
UWI .         00/07-35-075-08W4/0            : Uwi          - UNIQUE WELL ID
ENTR.         SP                             : Entered      - ENTERED BY
SRVC.         SCHLUMBERGER                   : Scn          - SERVICE COMPANY
STRT.M        235                            : top_depth    - START DEPTH
STOP.M        465                            : bot_depth    - STOP DEPTH
STEP.M        0.25                           : increment    - STEP LENGTH
 NULL. -999.2500:NULL Value
~CURVE INFORMATION BLOCK
#MNEM UNIT       ERCB CURVE CODE    CURVE DESCRIPTION
#-----------   ------------------   ----------------------------------
DEPT.M        00 001 00 00         : DEPTH        - DEPTH
ILD .OHMM     00 120 00 00         : RESD         - DEEP RESISTIVITY (DIL)
DPHI.V/V      00 890 00 00         : PHID         - DENSITY POROSITY (LIMESTONE)
NPHI.V/V      00 330 00 00         : PHIN         - NEUTRON POROSITY (LIMESTONE)
GR  .API      00 310 00 00         : GR           - GAMMA RAY
~PARAMETER INFORMATION
#MNEM.UNIT           DATA             DESCRIPTION OF MNEMONIC
#---------         -----------     ------------------------------
GL  .M        637.83               : gl           - GROUND LEVEL ELEVATION
EREF.M        641.29               : kb           - ELEVATION OF DEPTH REFERENCE
DATM.M        637.83               : datum        - DATUM ELEVATION
TDD .M        407                  : tdd          - TOTAL DEPTH DRILLER
RUN .         ONE                  : Run          - RUN NUMBER
ENG .         BILL                 : Engineer     - RECORDING ENGINEER
WIT .         JIM                  : Witness      - WITNESSED BY
MUD .         GEL                  : Mud_type     - MUD TYPE
MATR.         LIMESTONE            : Logunit      - NEUTRON MATRIX
TMAX.C        21                   : BHT          - MAXIMUM RECORDED TEMPERATURE
BHTD.M        407                  : BHTDEP       - MAXIMUM RECORDED TEMPERATURE
MATR.         1                    : LOGUNIT      - NEUTRON MATRIX
RMT .C        25                   : MDTP         - TEMPERATURE OF MUD
NEUT.         1                    : NEUTRON      - NEUTRON TYPE
RESI.         0                    : RESIST       - RESISTIVITY TYPE
RMC .OHMM     0.25                 : RMC          - RESISTIVITY OF MUD CAKE
RMF .OHMM     0.25                 : RMF          - RESISTIVITY OF MUD FILTRATE
SUFT.C        15                   : SUFT         - SURFACE TEMPERATURE
~A  DEPTH     RESD     PHID     PHIN       GR
# ...
  365.500    9.431    0.350    0.325   66.722
  365.750    9.426    0.345    0.334   62.457
  366.000    9.423    0.346    0.337   60.020
  366.250    9.421    0.360    0.346   55.145
  366.500    9.418    0.374    0.366   60.636
  366.750    9.415    0.356    0.390   61.859
  367.000    9.413    0.349    0.394   61.862
  367.250    9.411    0.348    0.376   61.864
  367.500    9.408    0.341    0.342   55.159
  367.750    9.403    0.335    0.381   64.918
  368.000    9.401    0.335    0.399   61.874
  368.250    9.397    0.335    0.382   61.266
  368.500    9.395    0.322    0.368   60.658
  368.750    9.392    0.307    0.355   57.613
  369.000    9.215    0.339    0.353   57.616
  369.250    9.213    0.370    0.405   60.668
  369.500    9.210    0.366    0.434   66.158
  369.750    9.380    0.348    0.433   62.503
  370.000    9.377    0.336    0.377   57.628
  370.250    9.374    0.331    0.356   58.240
  370.500    8.701    0.334    0.377   60.072
  370.750    8.538    0.337    0.367   63.734
  371.000    8.535    0.344    0.375   64.955
  371.250    8.533    0.346    0.351   58.862
  371.500    8.529    0.334    0.343   57.034
  371.750    8.369    0.338    0.362   61.915
  372.000    8.367    0.346    0.371   58.259
  372.250    8.365    0.349    0.377   54.604
  372.500    8.361    0.348    0.355   60.704
  372.750    8.359    0.363    0.342   57.658
  373.000    8.357    0.382    0.380   53.392
  373.250    8.512    0.393    0.402   58.883
  373.500    8.510    0.406    0.406   60.106
  373.750    8.665    0.407    0.401   57.670
  374.000    8.663    0.399    0.404   52.795
  374.250    8.823    0.368    0.436   52.187
  374.500    8.987    0.351    0.453   56.458
  374.750    9.153    0.349    0.415   55.242
  375.000    9.321    0.347    0.396   50.367
  375.250    9.319    0.341    0.404   60.735
  375.500    9.491    0.338    0.415   61.349
  375.750    9.489    0.337    0.422   60.131
  376.000    9.663    0.335    0.430   57.695
  376.250    9.661    0.339    0.422   52.819
  376.500    9.658    0.338    0.389   58.311
  376.750    9.656    0.337    0.396   60.143
  377.000    9.653    0.339    0.363   67.463
  377.250    9.831    0.336    0.341   66.856
  377.500    9.829    0.324    0.357   59.541
  377.750    9.823    0.317    0.374   52.837
  378.000    9.821    0.323    0.388   54.059
  378.250    9.818    0.335    0.397   59.550
  378.500    9.816    0.337    0.394   60.162
  378.750    9.812    0.338    0.393   66.263
  379.000    9.628    0.365    0.409   68.094
  379.250    9.625    0.385    0.383   63.829
  379.500    9.622    0.349    0.356   57.125
  379.750    9.800    0.339    0.338   53.469
  380.000    9.797    0.337    0.365   67.497
  380.250    9.613    0.336    0.388   67.501
  380.500    8.921    0.332    0.392   65.673
  380.750    8.918    0.332    0.384   63.846
  381.000    8.917    0.337    0.391   57.752
  381.250    8.914    0.327    0.390   55.315
  381.500    8.911    0.326    0.337   60.196
  381.750    8.909    0.329    0.316   60.809
  382.000    8.906    0.318    0.314   57.153
  382.250    8.903    0.325    0.363   54.717
  382.500    8.900    0.363    0.394   58.988
  382.750    8.734    0.364    0.415   63.259
  383.000    8.412    0.344    0.390   60.823
  383.250    7.806    0.331    0.351   68.752
  383.500    6.978    0.337    0.310   79.122
  383.750    6.722    0.360    0.285   92.539
  384.000    6.354    0.390    0.333   96.201
  384.250    6.235    0.313    0.395   90.106
  384.500    6.118    0.279    0.421   90.719
  384.750    6.232    0.246    0.409   96.209
  385.000    6.466    0.222    0.382  102.920
  385.250    6.964    0.215    0.369  102.313
  385.500    7.093    0.212    0.386   96.828
  385.750    7.224    0.216    0.373   92.562
  386.000    7.221    0.223    0.358   95.004
  386.250    7.219    0.229    0.382   99.885
  386.500    7.085    0.239    0.390   94.400
  386.750    7.628    0.232    0.395  100.501
  387.000    7.626    0.232    0.351   97.454
  387.250    7.624    0.234    0.369   93.188
  387.500    7.622    0.222    0.424   87.094
  387.750    7.621    0.220    0.451   81.609
  388.000    7.478    0.258    0.370   79.172
  388.250    7.475    0.287    0.339   85.273
  388.500    7.613    0.292    0.355   91.374
  388.750    7.470    0.292    0.365   91.376
  389.000    7.469    0.292    0.375   87.720
  389.250    7.465    0.292    0.380   95.041
  389.500    7.326    0.301    0.380  104.190
  389.750    7.189    0.300    0.367   99.315
  390.000    6.796    0.280    0.339   98.098
  390.250    6.425    0.246    0.349   97.491
  390.500    5.962    0.222    0.331   92.615
  390.750    5.637    0.223    0.314   90.180
  391.000    5.134    0.270    0.302   93.232
  391.250    4.590    0.305    0.331   93.844
  391.500    4.028    0.309    0.356   90.798
  391.750    3.470    0.256    0.386   87.142
  392.000    2.826    0.255    0.382   91.413
  392.250    2.574    0.296    0.404   96.294
  392.500    2.345    0.315    0.447   90.200
  392.750    2.217    0.306    0.486   84.715
  393.000    2.216    0.301    0.437   80.448
  393.250    2.257    0.290    0.424   85.940
  393.500    2.299    0.283    0.435   91.430
  393.750    2.430    0.282    0.449   95.701
  394.000    2.475    0.305    0.443  101.192
  394.250    2.521    0.294    0.421  104.853
  394.500    2.567    0.289    0.413  106.686
  394.750    2.663    0.283    0.444  106.079
  395.000    2.713    0.280    0.465  106.081
  395.250    2.815    0.271    0.504  106.084
  395.500    2.921    0.268    0.533   96.331
  395.750    3.146    0.262    0.457   89.626
  396.000    3.517    0.267    0.420   84.751
  396.250    4.157    0.260    0.410   90.851
  396.500    5.006    0.247    0.399   91.464
  396.750    5.596    0.239    0.389   90.248
  397.000    6.027    0.237    0.377   89.030
  397.250    6.371    0.249    0.371   86.594
  397.500    6.369    0.271    0.392   87.817
  397.750    6.250    0.278    0.397   92.088
  398.000    6.020    0.244    0.376  102.457
  398.250    5.482    0.180    0.322  109.777
  398.500    5.281    0.243    0.348  104.292
  398.750    4.809    0.271    0.357  102.465
  399.000    4.632    0.264    0.341  106.737
  399.250    4.461    0.237    0.331  103.691
  399.500    4.460    0.222    0.350   99.425
  399.750    4.459    0.228    0.334  106.136
  400.000    4.458    0.238    0.328  102.480
  400.250    4.293    0.224    0.346  100.653
  400.500    4.214    0.222    0.360  100.046
  400.750    3.629    0.223    0.371  103.707
  401.000    3.306    0.232    0.381  103.101
  401.250    2.692    0.245    0.362   97.615
  401.500    2.452    0.242    0.352  103.716
  401.750    2.112    0.244    0.368  109.817
  402.000    1.960    0.246    0.381  107.990
  402.250    1.888    0.248    0.377   98.237
  402.500    1.752    0.263    0.380   98.850
  402.750    1.752    0.259    0.396  101.901
  403.000    1.851    0.242    0.420  100.684
  403.250    1.957    0.243    0.430  104.346
  403.500    2.271    0.239    0.397  105.568
  403.750    2.446    0.245    0.391  104.961
  404.000    2.683    0.230    0.416  103.744
  404.250    2.785    0.225    0.419  104.357
  404.500    2.999    0.233    0.405  112.287
  404.750    3.170    0.245    0.394  111.071
  405.000    3.290    0.244    0.401  106.804
  405.250    3.609    0.243    0.392  109.857
  405.500    3.745    0.237    0.385  110.468
  405.750    3.815    0.236    0.390  108.642
  406.000    3.813    0.230    0.391  104.987
  406.250    3.884    0.231    0.369   97.062
  406.500    4.261    0.238    0.374   84.260
  406.750    4.505    0.230    0.440   93.409
  407.000    4.852    0.219    0.509   97.681
  407.250    5.843    0.120    0.390   90.976
  407.500    7.036    0.155    0.373   88.540
  407.750    8.164    0.202    0.355   85.494
  408.000    8.958    0.238    0.333   78.789
  408.250    9.124    0.269    0.330   79.402
  408.500    8.787    0.261    0.341   74.526
  408.750    8.621    0.254    0.373   70.261
