~VERSION INFORMATION
 VERS.                 2.0:   CWLS LOG ASCII STANDARD -VERSION 2.0
 WRAP.                  NO:   ONE LINE PER DEPTH STEP
~WELL INFORMATION BLOCK
#MNEM.UNIT           DATA                    DESCRIPTION OF MNEMONIC
#---------    -------------------            -------------------------------
# Generated from Intellog Unique Number	CW_79_81/WELL/502
WELL.         06-16-079-21W4                 : Well_name    - WELL
LOC .         00/06-16-079-21W4/0            : Location     - LOCATION
UWI .         00/06-16-079-21W4/0            : Uwi          - UNIQUE WELL ID
ENTR.         MAX                            : Entered      - ENTERED BY
SRVC.         SCHLUMBERGER                   : Scn          - SERVICE COMPANY
STRT.M        195                            : top_depth    - START DEPTH
STOP.M        425                            : bot_depth    - STOP DEPTH
STEP.M        0.25                           : increment    - STEP LENGTH
 NULL. -999.2500:NULL Value
~CURVE INFORMATION BLOCK
#MNEM UNIT       ERCB CURVE CODE    CURVE DESCRIPTION
#-----------   ------------------   ----------------------------------
DEPT.M        00 001 00 00         : DEPTH        - DEPTH
ILD .OHMM     00 120 00 00         : RESD         - DEEP RESISTIVITY (DIL)
NPHI.V/V      00 330 00 00         : PHIN         - NEUTRON POROSITY (SANDSTONE)
DPHI.V/V      00 890 00 00         : PHID         - DENSITY POROSITY (SANDSTONE)
CALI.MM       00 280 01 00         : CAL          - CALIPER
GR  .API      00 310 00 00         : GR           - GAMMA RAY
~PARAMETER INFORMATION
#MNEM.UNIT           DATA             DESCRIPTION OF MNEMONIC
#---------         -----------     ------------------------------
GL  .M        563.5                : gl           - GROUND LEVEL ELEVATION
EREF.M        566.8                : kb           - ELEVATION OF DEPTH REFERENCE
DATM.M        563.5                : datum        - DATUM ELEVATION
TDD .M        435                  : tdd          - TOTAL DEPTH DRILLER
RUN .         ONE                  : Run          - RUN NUMBER
ENG .         BILL                 : Engineer     - RECORDING ENGINEER
WIT .         JIM                  : Witness      - WITNESSED BY
MUD .         GEL                  : Mud_type     - MUD TYPE
MATR.         SANDSTONE            : Logunit      - NEUTRON MATRIX
TMAX.C        27.2                 : BHT          - MAXIMUM RECORDED TEMPERATURE
BHTD.M        435                  : BHTDEP       - MAXIMUM RECORDED TEMPERATURE
RMT .C        15.6                 : MDTP         - TEMPERATURE OF MUD
MUDD.KG/M     1130                 : MWT          - MUD DENSITY
NEUT.         1                    : NEUTRON      - NEUTRON TYPE
RESI.         0                    : RESIST       - RESISTIVITY TYPE
RM  .OHMM     5.35                 : RM           - RESISTIVITY OF MUD
RMC .OHMM     0.25                 : RMC          - RESISTIVITY OF MUD CAKE
RMF .OHMM     6                    : RMF          - RESISTIVITY OF MUD FILTRATE
SUFT.C        -5                   : SUFT         - SURFACE TEMPERATURE
~A  DEPTH     RESD     PHIN     PHID      CAL       GR
  195.000    9.224    0.512    0.294  183.644   78.390
  195.250   10.995    0.455    0.253  183.698   63.238
  195.500   18.239    0.316    0.233  183.274   55.529
  195.750   25.886    0.300    0.263  181.369   48.123
  196.000   35.092    0.272    0.240  178.462   43.102
  196.250   43.004    0.221    0.216  177.541   42.853
  196.500   42.657    0.238    0.208  176.612   38.134
  196.750   40.794    0.261    0.259  176.187   39.061
  197.000   38.304    0.304    0.290  175.267   39.402
  197.250   34.357    0.342    0.324  173.868   37.360
  197.500   31.677    0.368    0.341  172.947   38.899
  197.750   30.574    0.396    0.339  173.010   38.644
  198.000   30.327    0.398    0.324  173.101   36.299
  198.250   31.495    0.351    0.311  176.135   32.772
  198.500   35.869    0.291    0.310  178.690   34.013
  198.750   40.832    0.296    0.343  183.250   36.440
  199.000   52.870    0.350    0.323  184.831   37.079
  199.250   64.789    0.373    0.159  184.876   38.607
  199.500   72.422    0.335    0.146  179.992   41.349
  199.750   69.920    0.201    0.152  176.100   41.977
  200.000   67.462    0.157    0.166  174.168   42.021
  200.250   61.633    0.189    0.198  172.769   42.070
  200.500   60.587    0.224    0.224  173.817   43.002
  200.750   63.501    0.269    0.181  173.898   42.157
  201.000   64.176    0.252    0.197  173.971   41.301
  201.250   63.097    0.262    0.225  174.052   39.264
  201.500   60.323    0.263    0.243  171.642   41.399
  201.750   54.108    0.246    0.227  172.708   42.336
  202.000   48.518    0.270    0.268  171.299   41.188
  202.250   43.114    0.307    0.308  171.363   40.635
  202.500   40.855    0.342    0.323  174.415   38.593
  202.750   39.432    0.367    0.307  175.499   39.227
  203.000   39.120    0.333    0.295  174.560   40.771
  203.250   41.774    0.298    0.280  179.607   42.305
  203.500   47.568    0.251    0.242  178.190   42.641
  203.750   53.654    0.217    0.183  178.750   40.306
  204.000   58.893    0.205    0.152  174.362   38.556
  204.250   60.068    0.232    0.172  174.435   38.307
  204.500   53.370    0.260    0.216  178.977   40.431
  204.750   26.114    0.257    0.240  182.534   46.141
  205.000   17.460    0.238    0.192  184.593   53.931
  205.250   12.106    0.263    0.158  182.183   73.651
  205.500    8.476    0.302    0.175  180.260   87.412
  205.750    6.870    0.381    0.212  179.845   89.833
  206.000    5.830    0.463    0.280  183.890   93.756
  206.250    5.327    0.524    0.321  184.965   94.698
  206.500    5.327    0.532    0.299  185.543   94.439
  206.750    5.243    0.529    0.290  188.080   96.866
  207.000    5.243    0.534    0.298  189.155   96.915
  207.250    5.307    0.533    0.292  187.250   91.887
  207.500    5.611    0.529    0.286  186.817   82.992
  207.750    6.046    0.524    0.270  190.872   77.071
  208.000    7.902    0.509    0.261  191.432   64.004
  208.250   10.909    0.426    0.225  193.021   53.912
  208.500   13.490    0.381    0.288  196.073   40.547
  208.750   14.405    0.405    0.338  199.107   36.425
  209.000   14.034    0.442    0.365  201.663   36.761
  209.250   13.054    0.461    0.396  203.225   37.704
  209.500   11.816    0.472    0.401  205.789   38.934
  209.750   10.693    0.494    0.422  240.136   40.765
  210.000   10.135    0.507    0.435  260.587   44.687
  210.250   10.238    0.519    0.446  215.939   49.205
  210.500   10.253    0.509    0.351  191.190   49.845
  210.750    9.897    0.450    0.334  187.281   50.782
  211.000    9.729    0.447    0.330  183.887   51.427
  211.250    9.651    0.462    0.335  181.485   51.471
  211.500    9.666    0.472    0.352  180.555   50.924
  211.750    9.589    0.478    0.355  177.657   50.366
  212.000    9.510    0.451    0.354  177.721   50.111
  212.250    9.349    0.458    0.345  175.310   50.447
  212.500    9.193    0.460    0.347  173.893   51.694
  212.750    8.952    0.455    0.340  175.455   53.519
  213.000    7.955    0.454    0.321  180.494   57.436
  213.250    6.569    0.448    0.323  179.573   64.040
  213.500    5.229    0.465    0.296  175.203   80.775
  213.750    4.479    0.500    0.291  175.754   96.615
  214.000    3.801    0.541    0.296  176.332  102.028
  214.250    3.378    0.558    0.293  175.890  103.572
  214.500    3.114    0.570    0.285  175.963  102.711
  214.750    3.062    0.579    0.284  177.047  104.249
  215.000    3.123    0.564    0.283  177.625  106.974
  215.250    3.184    0.532    0.275  178.176  106.720
  215.500    3.400    0.522    0.269  178.754  104.987
  215.750    3.597    0.528    0.271  179.810  103.827
  216.000    3.701    0.526    0.265  182.384  103.280
  216.250    3.741    0.520    0.266  182.457  102.425
  216.500    3.746    0.527    0.274  180.543  103.963
  216.750    3.750    0.552    0.281  180.119  103.108
  217.000    3.754    0.572    0.272  180.679  100.171
  217.250    3.760    0.568    0.270  180.751   99.023
  217.500    3.799    0.571    0.273  180.842   95.789
  217.750    3.873    0.556    0.265  180.896   89.879
  218.000    4.137    0.523    0.262  180.481   84.256
  218.250    4.498    0.497    0.281  178.567   81.022
  218.500    5.122    0.492    0.294  179.642   80.778
  218.750    5.831    0.474    0.304  185.665   79.023
  219.000    7.552    0.462    0.334  201.646   75.198
  219.250    9.423    0.449    0.357  189.791   74.050
  219.500   10.438    0.431    0.322  177.936   77.073
  219.750   10.643    0.415    0.311  172.555   85.460
  220.000   10.463    0.423    0.291  176.601   89.376
  220.250   10.006    0.447    0.267  183.626   92.400
  220.500    9.659    0.459    0.275  178.741   88.570
  220.750   10.312    0.463    0.282  179.310   83.846
  221.000   11.010    0.456    0.290  173.415   79.420
  221.250   10.927    0.452    0.306  168.539   72.610
  221.500   10.937    0.451    0.314  168.115   67.589
  221.750   11.256    0.444    0.319  168.179   62.865
  222.000   13.296    0.439    0.325  167.745   57.843
  222.250   14.729    0.444    0.311  166.843   56.099
  222.500   15.021    0.453    0.288  166.906   56.142
  222.750   14.500    0.460    0.281  166.979   56.484
  223.000   13.241    0.458    0.287  167.557   58.618
  223.250   11.984    0.446    0.305  168.117   58.060
  223.500   11.675    0.438    0.314  169.183   54.826
  223.750   12.128    0.433    0.323  170.257   54.285
  224.000   14.724    0.430    0.323  169.346   53.424
  224.250   15.575    0.426    0.326  169.436   50.785
  224.500   17.899    0.423    0.331  170.971   47.860
  224.750   20.947    0.419    0.337  170.547   46.712
  225.000   27.372    0.416    0.340  169.645   46.447
  225.250   28.172    0.404    0.343  171.695   48.581
  225.500   27.441    0.414    0.343  173.266   49.231
  225.750   25.069    0.423    0.345  170.855   48.072
  226.000   23.110    0.410    0.349  172.914   46.632
  226.250   24.678    0.409    0.345  168.012   49.357
  226.500   25.391    0.426    0.342  164.608   49.693
  226.750   24.732    0.439    0.335  165.177   50.039
  227.000   23.013    0.443    0.352  164.275   50.386
  227.250   20.636    0.446    0.358  164.329   49.828
  227.500   17.515    0.455    0.346  166.397   54.347
  227.750   12.488    0.460    0.344  169.449   55.588
  228.000   12.735    0.460    0.363  172.510   56.525
  228.250   13.229    0.463    0.377  177.043   59.250
  228.500   12.886    0.441    0.364  180.610   63.167
  228.750   11.989    0.407    0.344  174.714   69.170
  229.000   10.949    0.428    0.304  169.315   76.966
  229.250    9.730    0.435    0.316  170.895   77.014
  229.500    9.566    0.451    0.332  170.959   77.350
  229.750    9.935    0.449    0.359  171.537   69.647
  230.000   11.629    0.430    0.334  171.609   63.434
  230.250   16.056    0.402    0.326  172.684   61.088
  230.500   16.833    0.396    0.318  169.262   65.010
  230.750   16.397    0.396    0.320  165.859   70.720
  231.000   14.838    0.396    0.305  165.931   75.239
  231.250   12.139    0.400    0.265  167.006   77.064
