~VERSION INFORMATION
 VERS.                 2.0:   CWLS LOG ASCII STANDARD -VERSION 2.0
 WRAP.                  NO:   ONE LINE PER DEPTH STEP
~WELL INFORMATION BLOCK
#MNEM.UNIT           DATA                    DESCRIPTION OF MNEMONIC
#---------    -------------------            -------------------------------
# Generated from Intellog Unique Number	CW_79_81/WELL/532
WELL.         HB AMOCO PELICAN               : Well_name    - WELL
LOC .         00/07-01-079-24W4/0            : Location     - LOCATION
UWI .         00/07-01-079-24W4/0            : Uwi          - UNIQUE WELL ID
ENTR.         MAX                            : Entered      - ENTERED BY
SRVC.         WESTERN ATLAS                  : Scn          - SERVICE COMPANY
STRT.M        304.8                          : top_depth    - START DEPTH
STOP.M        524.3                          : bot_depth    - STOP DEPTH
STEP.M        0.25                           : increment    - STEP LENGTH
 NULL. -999.2500:NULL Value
~CURVE INFORMATION BLOCK
#MNEM UNIT       ERCB CURVE CODE    CURVE DESCRIPTION
#-----------   ------------------   ----------------------------------
DEPT.M        00 001 00 00         : DEPTH        - DEPTH
ILD .OHMM     00 120 00 00         : RESD         - DEEP RESISTIVITY (DIL)
NPHI.V/V      00 330 00 00         : PHIN         - NEUTRON POROSITY (SANDSTONE)
DPHI.V/V      00 890 00 00         : PHID         - DENSITY POROSITY (SANDSTONE)
CALI.MM       00 280 01 00         : CAL          - CALIPER
GR  .API      00 310 00 00         : GR           - GAMMA RAY
~PARAMETER INFORMATION
#MNEM.UNIT           DATA             DESCRIPTION OF MNEMONIC
#---------         -----------     ------------------------------
GL  .M        583.387              : gl           - GROUND LEVEL ELEVATION
EREF.M        587.045              : kb           - ELEVATION OF DEPTH REFERENCE
DATM.M        583.387              : datum        - DATUM ELEVATION
TDD .M        484.937              : tdd          - TOTAL DEPTH DRILLER
RUN .         ONE                  : Run          - RUN NUMBER
ENG .         BILL                 : Engineer     - RECORDING ENGINEER
WIT .         JIM                  : Witness      - WITNESSED BY
MUD .         GEL                  : Mud_type     - MUD TYPE
MATR.         SANDSTONE            : Logunit      - NEUTRON MATRIX
TMAX.C        43.3333              : BHT          - MAXIMUM RECORDED TEMPERATURE
BHTD.M        484.937              : BHTDEP       - MAXIMUM RECORDED TEMPERATURE
RMT .C        20                   : MDTP         - TEMPERATURE OF MUD
MUDD.KG/M     9200                 : MWT          - MUD DENSITY
NEUT.         1                    : NEUTRON      - NEUTRON TYPE
RESI.         0                    : RESIST       - RESISTIVITY TYPE
RM  .OHMM     1.6                  : RM           - RESISTIVITY OF MUD
RMC .OHMM     0.25                 : RMC          - RESISTIVITY OF MUD CAKE
RMF .OHMM     1.6                  : RMF          - RESISTIVITY OF MUD FILTRATE
SUFT.C        -20.5556             : SUFT         - SURFACE TEMPERATURE
~A  DEPTH     RESD     PHIN     PHID      CAL       GR
# ...
  487.300    9.951    0.407    0.349  176.478   84.922
  487.550    9.001    0.422    0.375  178.563   73.283
  487.800    7.998    0.422    0.390  181.180   70.033
  488.050    7.303    0.428    0.405  178.710   73.665
  488.300    6.548    0.440    0.420  179.789   79.986
  488.550    5.925    0.440    0.423  183.396   84.821
  488.800    5.615    0.443    0.412  189.038   87.254
  489.050    5.727    0.444    0.371  192.146   89.090
  489.300    6.061    0.443    0.394  204.388   87.935
  489.550    6.473    0.444    0.385  196.856   86.472
  489.800    6.977    0.444    0.348  194.386   83.217
  490.050    7.661    0.405    0.323  192.922   81.159
  490.300    7.958    0.312    0.152  184.376   82.096
  490.550    8.117    0.309    0.148  178.856   86.930
  490.800    7.837    0.342    0.242  177.400   91.166
  491.050    7.289    0.364    0.294  183.059   94.797
  491.300    6.780    0.377    0.308  187.671  100.226
  491.550    6.544    0.384    0.322  199.406   98.168
  491.800    6.797    0.382    0.316  204.542   89.823
  492.050    8.185    0.376    0.296  210.691   87.760
  492.300    8.902    0.368    0.269  198.588   83.607
  492.550   11.751    0.289    0.199  184.963   79.758
  492.800   14.145    0.271    0.217  177.930   76.512
  493.050   15.532    0.258    0.228  173.424   72.943
  493.300   14.584    0.262    0.231  171.469   72.083
  493.550   12.256    0.287    0.237  171.534   76.319
  493.800   10.889    0.301    0.239  172.156   82.046
  494.050   10.131    0.307    0.234  173.194   85.982
  494.300    9.688    0.314    0.216  173.194   88.721
  494.550    9.623    0.326    0.190  173.864   91.145
  494.800    9.628    0.328    0.217  174.396   91.188
  495.050   10.185    0.325    0.257  174.461   85.233
  495.300   10.779    0.312    0.257  174.526   78.994
  495.550   10.792    0.291    0.242  174.592   80.520
  495.800   11.423    0.278    0.241  174.673   87.450
  496.050   14.666    0.252    0.256  174.739   88.986
  496.300   18.316    0.197    0.243  177.331   79.742
  496.550   23.089    0.142    0.175  176.897   73.488
  496.800   27.539    0.126    0.059  176.897   64.543
  497.050   29.416    0.118    0.028  177.052   57.994
  497.300   28.652    0.113    0.010  176.071   56.541
  497.550   26.167    0.108    0.024  176.071   57.772
  497.800   18.805    0.107    0.052  176.209   66.195
  498.050   14.026    0.182    0.083  175.776   77.920
  498.300   10.954    0.219    0.109  175.841   80.050
  498.550    9.294    0.243    0.143  175.399   86.087
  498.800    8.488    0.284    0.169  175.456   93.007
  499.050    8.192    0.301    0.208  175.522   94.249
  499.300    8.127    0.320    0.246  177.116   97.890
  499.550    8.214    0.376    0.270  180.723   99.121
  499.800    8.379    0.352    0.281  182.816   98.860
  500.050    8.466    0.314    0.262  181.892   96.798
  500.300    8.325    0.285    0.239  180.419   90.848
  500.550    8.108    0.270    0.188  177.451   87.293
  500.800    7.754    0.269    0.188  175.995   78.943
  501.050    7.347    0.282    0.188  176.068   77.784
  501.300    6.834    0.285    0.185  176.624   78.421
  501.550    6.299    0.304    0.185  178.219   80.261
  501.800    6.193    0.327    0.203  179.298   85.695
  502.050    6.434    0.344    0.264  180.369   91.123
  502.300    6.434    0.402    0.312  181.449   92.069
  502.550    7.761    0.425    0.357  181.522   89.703
  502.800    8.056    0.410    0.381  178.030   75.663
  503.050    8.766    0.394    0.368  175.053   72.413
  503.300    9.107    0.369    0.332  175.053   68.858
  503.550    9.119    0.336    0.291  174.178   68.892
  503.800    8.966    0.312    0.250  173.752   68.631
  504.050    8.734    0.280    0.257  173.801   67.472
  504.300    8.350    0.279    0.262  173.801   66.013
  504.550    7.840    0.283    0.247  173.956   69.346
  504.800    7.227    0.281    0.232  173.490   77.174
  505.050    6.784    0.281    0.220  173.571   83.800
  505.300    6.668    0.284    0.205  173.637   87.736
  505.550    6.867    0.288    0.187  173.694   90.469
  505.800    7.132    0.303    0.201  174.781   94.999
  506.050    7.547    0.312    0.266  174.847   97.438
  506.300    7.913    0.319    0.305  174.920   99.872
  506.550    8.148    0.375    0.316  174.462  101.707
  506.800    8.009    0.363    0.314  175.034  103.243
  507.050    7.519    0.329    0.301  175.607  104.180
  507.300    6.930    0.310    0.154  176.195  103.619
  507.550    6.628    0.294    0.130  176.195  101.861
  507.800    6.575    0.282    0.111  176.833   99.804
  508.050    6.646    0.282    0.143  176.898   98.051
  508.300    7.032    0.284    0.171  176.971   96.887
  508.550    7.511    0.283    0.185  177.020   97.230
  508.800    7.662    0.284    0.185  177.094   97.263
  509.050    7.600    0.289    0.182  177.159   97.316
  509.300    7.611    0.292    0.162  177.739   98.852
  509.550    7.621    0.297    0.141  177.739   98.282
  509.800    7.701    0.304    0.057  177.854   94.727
  510.050    7.714    0.315    0.124  178.434   93.274
  510.300    7.651    0.316    0.152  179.522   93.906
  510.550    7.387    0.304    0.170  179.587   95.142
  510.800    6.621    0.311    0.183  179.644   95.181
  511.050    5.936    0.314    0.180  179.219   97.320
  511.300    5.522    0.330    0.165  178.270   97.653
  511.550    5.184    0.346    0.167  177.305  101.295
  511.800    4.959    0.350    0.163  177.378  101.328
  512.050    4.787    0.344    0.150  176.985  100.768
  512.300    4.748    0.343    0.153  177.002   98.711
  512.550    4.713    0.342    0.152  177.067   97.851
  512.800    4.718    0.344    0.158  177.189   99.387
  513.050    4.680    0.350    0.160  176.698  102.429
  513.300    4.687    0.349    0.164  176.764  103.960
  513.550    4.566    0.334    0.179  176.322  104.003
  513.800    4.447    0.338    0.188  175.872  104.641
  514.050    4.331    0.340    0.195  175.937  104.979
  514.300    3.993    0.328    0.195  176.003  106.814
  514.550    3.418    0.325    0.192  176.084  105.350
  514.800    3.094    0.329    0.174  176.648  101.805
  515.050    2.905    0.344    0.140  177.212  100.038
  515.300    2.908    0.342    0.115  177.294  100.675
  515.550    3.021    0.343    0.049  177.367  103.109
  515.800    3.257    0.337    0.083  177.424  106.446
  516.050    3.543    0.330    0.108  177.490  104.693
  516.300    3.925    0.327    0.157  177.555  103.534
  516.550    4.310    0.337    0.164  177.113  103.568
  516.800    4.357    0.334    0.150  177.179  106.905
  517.050    4.322    0.340    0.127  176.729  109.933
  517.300    4.450    0.341    0.100  175.788  113.569
  517.550    4.579    0.336    0.079  173.318  113.907
  517.800    4.891    0.328    0.080  170.349  104.359
  518.050    5.036    0.326    0.071  168.877   84.331
  518.300    5.088    0.328    0.110  167.438   57.421
  518.550    5.048    0.311    0.257  166.996   69.736
  518.800    4.918    0.295    0.262  166.546   82.660
  519.050    4.834    0.276    0.238  167.118   85.388
  519.300    4.625    0.277    0.210  168.206   90.218
  519.550    4.545    0.290    0.185  168.770   92.053
  519.800    4.551    0.298    0.177  168.843   87.001
  520.050    4.686    0.299    0.164  167.894   82.249
  520.300    4.958    0.296    0.169  167.445   79.593
  520.550    5.199    0.290    0.136  166.504   65.254
  520.800    5.500    0.262    0.086  167.068   53.016
  521.050    5.985    0.240    0.140  167.133   53.059
  521.300    6.391    0.246    0.179  166.193   51.895
  521.550    7.214    0.243    0.187  164.737   49.239
  521.800    7.995    0.239    0.172  165.309   36.103
  522.050    8.539    0.229    0.071  166.388   33.441
  522.300    8.951    0.223    0.040  167.468   34.084
  522.550    9.133    0.213    0.018  169.054   38.618
  522.800    9.143    0.206    0.054  169.626   45.539
  523.050    9.157    0.190    0.147  167.672   48.581
  523.300    9.338    0.186    0.149  166.723   45.616
  523.550    9.881    0.204    0.093  166.273   42.960
