~VERSION INFORMATION
 VERS.                 2.0:   CWLS LOG ASCII STANDARD -VERSION 2.0
 WRAP.                  NO:   ONE LINE PER DEPTH STEP
~WELL INFORMATION BLOCK
#MNEM.UNIT           DATA                    DESCRIPTION OF MNEMONIC
#---------    -------------------            -------------------------------
# Generated from Intellog Unique Number	CS_77_79/WELL/865
WELL.         CWWE THORNBURY                 : Well_name    - WELL
LOC .         00/05-31-079-13W4/0            : Location     - LOCATION
UWI .         00/05-31-079-13W4/0            : Uwi          - UNIQUE WELL ID
ENTR.         JHS                            : Entered      - ENTERED BY
SRVC.         SCHLUMBERGER                   : Scn          - SERVICE COMPANY
STRT.M        245                            : top_depth    - START DEPTH
STOP.M        510                            : bot_depth    - STOP DEPTH
STEP.M        0.25                           : increment    - STEP LENGTH
 NULL. -999.2500:NULL Value
~CURVE INFORMATION BLOCK
#MNEM UNIT       ERCB CURVE CODE    CURVE DESCRIPTION
#-----------   ------------------   ----------------------------------
DEPT.M        00 001 00 00         : DEPTH        - DEPTH
DPHI.V/V      00 890 00 00         : PHID         - DENSITY POROSITY (LIMESTONE)
NPHI.V/V      00 330 00 00         : PHIN         - NEUTRON POROSITY (LIMESTONE)
GR  .API      00 310 00 00         : GR           - GAMMA RAY
ILD .OHMM     00 120 00 00         : RESD         - DEEP RESISTIVITY (DIL)
RHOB.KG/M3    00 350 00 00         : DENS         - BULK DENSITY
~PARAMETER INFORMATION
#MNEM.UNIT           DATA             DESCRIPTION OF MNEMONIC
#---------         -----------     ------------------------------
GL  .M        694.2                : gl           - GROUND LEVEL ELEVATION
EREF.M        698                  : kb           - ELEVATION OF DEPTH REFERENCE
DATM.M        698                  : datum        - DATUM ELEVATION
TDD .M        510                  : tdd          - TOTAL DEPTH DRILLER
RUN .         ONE                  : Run          - RUN NUMBER
ENG .         BILL                 : Engineer     - RECORDING ENGINEER
WIT .         JIM                  : Witness      - WITNESSED BY
MUD .         GEL                  : Mud_type     - MUD TYPE
MATR.         LIMESTONE            : Logunit      - NEUTRON MATRIX
TMAX.C        22                   : BHT          - MAXIMUM RECORDED TEMPERATURE
BHTD.M        510                  : BHTDEP       - MAXIMUM RECORDED TEMPERATURE
MATR.         1                    : LOGUNIT      - NEUTRON MATRIX
RMT .C        25                   : MDTP         - TEMPERATURE OF MUD
NEUT.         1                    : NEUTRON      - NEUTRON TYPE
RESI.         0                    : RESIST       - RESISTIVITY TYPE
RMC .OHMM     0.25                 : RMC          - RESISTIVITY OF MUD CAKE
RMF .OHMM     0.25                 : RMF          - RESISTIVITY OF MUD FILTRATE
SUFT.C        15                   : SUFT         - SURFACE TEMPERATURE
~A  DEPTH     PHID     PHIN       GR     RESD     DENS
  245.000    0.211    0.521  110.980    3.665    0.000
  245.250    0.225    0.524  114.647    3.599    0.000
  245.500    0.259    0.539  121.362    3.279    0.000
  245.750    0.288    0.562  122.589    2.986    0.000
  246.000    0.283    0.573  120.768    2.933    0.000
  246.250    0.281    0.552  118.336    3.105    0.000
  246.500    0.282    0.521  117.736    3.480    0.000
  246.750    0.283    0.513  117.132    3.549    0.000
  247.000    0.278    0.543  116.531    3.551    0.000
  247.250    0.260    0.545  120.198    3.487    0.000
  247.500    0.253    0.536  122.644    3.361    0.000
  247.750    0.260    0.519  122.651    3.302    0.000
  248.000    0.269    0.516  118.392    3.303    0.000
  248.250    0.269    0.541  112.911    3.498    0.000
  248.500    0.259    0.522  115.967    4.148    0.000
  248.750    0.251    0.480  120.854    4.149    0.000
  249.000    0.239    0.464  105.008    4.000    0.000
  249.250    0.240    0.462   95.259    4.078    0.000
  249.500    0.239    0.461   90.389    5.312    0.000
  249.750    0.201    0.449   87.958    7.050    0.000
  250.000    0.151    0.412   82.477    9.357    0.000
  250.250    0.061    0.385   66.631   10.096    0.000
  250.500    0.022    0.405   58.102    9.371    0.000
  250.750    0.049    0.428   83.720    8.067    0.000
  251.000    0.209    0.438  101.411    6.441    0.000
  251.250    0.254    0.443  105.690    4.861    0.000
  251.500    0.266    0.450  104.477    4.264    0.000
  251.750    0.265    0.462  103.265    3.957    0.000
  252.000    0.257    0.481  102.053    3.815    0.000
  252.250    0.241    0.495  100.841    3.818    0.000
  252.500    0.249    0.467  102.068    3.821    0.000
  252.750    0.253    0.457  106.955    3.823    0.000
  253.000    0.241    0.476  104.523    3.755    0.000
  253.250    0.245    0.492  100.873    3.829    0.000
  253.500    0.261    0.483   97.222    3.980    0.000
  253.750    0.273    0.469   94.182    4.135    0.000
  254.000    0.262    0.468   91.751    4.378    0.000
  254.250    0.253    0.468   94.198    4.549    0.000
  254.500    0.257    0.463   97.864    4.469    0.000
  254.750    0.260    0.446   97.871    4.388    0.000
  255.000    0.261    0.426  100.927    4.151    0.000
  255.250    0.264    0.423  105.204    4.077    0.000
  255.500    0.267    0.447  105.212    4.079    0.000
  255.750    0.264    0.462   98.512    4.160    0.000
  256.000    0.252    0.469  102.789    4.242    0.000
  256.250    0.251    0.480  105.846    4.327    0.000
  256.500    0.259    0.496   99.145    4.249    0.000
  256.750    0.257    0.479   93.666    4.334    0.000
  257.000    0.243    0.442   97.331    4.337    0.000
  257.250    0.238    0.421  105.876    4.340    0.000
  257.500    0.245    0.442  111.371    4.182    0.000
  257.750    0.241    0.474  113.819    3.956    0.000
  258.000    0.240    0.473  110.778    3.813    0.000
  258.250    0.251    0.497  106.517    3.815    0.000
  258.500    0.258    0.526  119.330    3.747    0.000
  258.750    0.253    0.535  118.729    3.680    0.000
  259.000    0.251    0.510  113.249    3.547    0.000
  259.250    0.256    0.505  115.086    3.483    0.000
  259.500    0.264    0.512  115.704    3.357    0.000
  259.750    0.270    0.522  115.712    3.176    0.000
  260.000    0.274    0.532  119.989    3.060    0.000
  260.250    0.271    0.519  119.997    2.950    0.000
  260.500    0.257    0.505  115.126    2.897    0.000
  260.750    0.251    0.500  112.694    2.899    0.000
  261.000    0.263    0.513  115.144    2.901    0.000
  261.250    0.281    0.519  116.368    2.958    0.000
  261.500    0.284    0.523  116.986    3.017    0.000
  261.750    0.271    0.530  114.555    3.020    0.000
  262.000    0.258    0.527  112.732    3.021    0.000
  262.250    0.255    0.519  110.913    2.967    0.000
  262.500    0.259    0.524  109.699    2.860    0.000
  262.750    0.268    0.514  107.879    2.862    0.000
  263.000    0.265    0.514  105.446    2.919    0.000
  263.250    0.257    0.544  107.284    2.977    0.000
  263.500    0.247    0.542  116.438    3.036    0.000
  263.750    0.245    0.531  117.057    3.037    0.000
  264.000    0.249    0.524  114.015    3.040    0.000
  264.250    0.256    0.509  109.145    3.042    0.000
  264.500    0.264    0.513  111.593    3.044    0.000
  264.750    0.264    0.546  114.040    3.163    0.000
  265.000    0.259    0.553  114.047    3.288    0.000
  265.250    0.251    0.547  113.447    3.229    0.000
  265.500    0.251    0.547  112.844    3.170    0.000
  265.750    0.262    0.563  112.241    3.056    0.000
  266.000    0.269    0.541  112.860    3.001    0.000
  266.250    0.259    0.542  112.866    3.003    0.000
  266.500    0.260    0.527  112.873    3.006    0.000
  266.750    0.269    0.508  111.662    3.008    0.000
  267.000    0.265    0.488  109.231    3.068    0.000
  267.250    0.271    0.515  104.971    3.070    0.000
  267.500    0.280    0.535  101.931    3.130    0.000
  267.750    0.273    0.524  103.156    3.315    0.000
  268.000    0.270    0.511  106.214    3.317    0.000
  268.250    0.282    0.508  106.223    3.198    0.000
  268.500    0.273    0.503  105.010    3.140    0.000
  268.750    0.268    0.530  104.410    3.084    0.000
  269.000    0.271    0.538  103.197    3.029    0.000
  269.250    0.277    0.529  101.986    2.975    0.000
  269.500    0.276    0.520  100.164    2.867    0.000
  269.750    0.275    0.511   97.122    2.816    0.000
  270.000    0.273    0.503   97.129    2.818    0.000
  270.250    0.276    0.500   95.918    2.768    0.000
  270.500    0.278    0.539  102.025    2.667    0.000
  270.750    0.293    0.562  106.301    2.523    0.000
  271.000    0.293    0.577  108.139    2.431    0.000
  271.250    0.294    0.582  106.926    2.387    0.000
  271.500    0.301    0.560  103.886    2.389    0.000
  271.750    0.310    0.549  102.066    2.437    0.000
  272.000    0.309    0.553  105.120    2.532    0.000
  272.250    0.309    0.565  113.665    2.535    0.000
  272.500    0.300    0.584  111.842    2.584    0.000
  272.750    0.291    0.570  104.535    2.491    0.000
  273.000    0.288    0.547  100.274    2.493    0.000
  273.250    0.272    0.548   97.842    2.541    0.000
  273.500    0.220    0.561   94.800    2.641    0.000
  273.750    0.191    0.517   88.711    2.850    0.000
  274.000    0.230    0.500   90.549    2.906    0.000
  274.250    0.283    0.517   90.555    2.964    0.000
  274.500    0.288    0.537   91.174    2.966    0.000
  274.750    0.285    0.551   99.719    2.913    0.000
  275.000    0.285    0.542  107.655    3.027    0.000
  275.250    0.290    0.522  107.662    3.146    0.000
  275.500    0.286    0.527  104.620    3.268    0.000
  275.750    0.274    0.532  105.239    3.526    0.000
  276.000    0.263    0.499  110.734    3.664    0.000
  276.250    0.259    0.481  113.181    3.881    0.000
  276.500    0.251    0.494  107.091    3.884    0.000
  276.750    0.251    0.515  101.610    3.814    0.000
  277.000    0.265    0.490  111.375    3.676    0.000
  277.250    0.270    0.496  113.821    3.543    0.000
  277.500    0.268    0.537  110.171    3.289    0.000
  277.750    0.259    0.544  104.081    3.229    0.000
  278.000    0.252    0.516  102.259    3.112    0.000
  278.250    0.243    0.496  104.098    3.115    0.000
  278.500    0.237    0.496  107.156    3.177    0.000
  278.750    0.229    0.524  107.770    3.363    0.000
  279.000    0.229    0.544  107.782    3.630    0.000
  279.250    0.237    0.539  109.616    3.632    0.000
  279.500    0.247    0.530  111.453    3.704    0.000
  279.750    0.260    0.517  109.632    3.637    0.000
  280.000    0.276    0.506  104.762    3.507    0.000
  280.250    0.274    0.511  102.329    3.443    0.000
  280.500    0.262    0.558  101.730    3.319    0.000
  280.750    0.262    0.576  106.005    3.260    0.000
  281.000    0.264    0.544  109.061    3.262    0.000
  281.250    0.254    0.520  107.239    3.265    0.000
