~VERSION INFORMATION
 VERS.                 2.0:   CWLS LOG ASCII STANDARD -VERSION 2.0
 WRAP.                  NO:   ONE LINE PER DEPTH STEP
~WELL INFORMATION BLOCK
#MNEM.UNIT           DATA                    DESCRIPTION OF MNEMONIC
#---------    -------------------            -------------------------------
# Generated from Intellog Unique Number	CS_73_76/WELL/1079
WELL.         PETROFINA CANADA LTD.          : Well_name    - WELL
LOC .         00/06-25-075-12W4/0            : Location     - LOCATION
UWI .         00/06-25-075-12W4/0            : Uwi          - UNIQUE WELL ID
ENTR.         SP                             : Entered      - ENTERED BY
SRVC.         SCHLUMBERGER                   : Scn          - SERVICE COMPANY
STRT.M        298.704                        : top_depth    - START DEPTH
STOP.M        525.204                        : bot_depth    - STOP DEPTH
STEP.M        0.25                           : increment    - STEP LENGTH
 NULL. -999.2500:NULL Value
~CURVE INFORMATION BLOCK
#MNEM UNIT       ERCB CURVE CODE    CURVE DESCRIPTION
#-----------   ------------------   ----------------------------------
DEPT.M        00 001 00 00         : DEPTH        - DEPTH
GR  .API      00 310 00 00         : GR           - GAMMA RAY
DPHI.V/V      00 890 00 00         : PHID         - DENSITY POROSITY (SANDSTONE)
NPHI.V/V      00 330 00 00         : PHIN         - NEUTRON POROSITY (SANDSTONE)
ILD .OHMM     00 120 00 00         : RESD         - DEEP RESISTIVITY (DIL)
~PARAMETER INFORMATION
#MNEM.UNIT           DATA             DESCRIPTION OF MNEMONIC
#---------         -----------     ------------------------------
GL  .M        669.524              : gl           - GROUND LEVEL ELEVATION
EREF.M        672.602              : kb           - ELEVATION OF DEPTH REFERENCE
DATM.M        669.524              : datum        - DATUM ELEVATION
TDD .M        560.832              : tdd          - TOTAL DEPTH DRILLER
RUN .         ONE                  : Run          - RUN NUMBER
ENG .         BILL                 : Engineer     - RECORDING ENGINEER
WIT .         JIM                  : Witness      - WITNESSED BY
MUD .         GEL                  : Mud_type     - MUD TYPE
MATR.         SANDSTONE            : Logunit      - NEUTRON MATRIX
TMAX.C        16.6667              : BHT          - MAXIMUM RECORDED TEMPERATURE
BHTD.M        560.832              : BHTDEP       - MAXIMUM RECORDED TEMPERATURE
MATR.         1                    : LOGUNIT      - NEUTRON MATRIX
RMT .C        25                   : MDTP         - TEMPERATURE OF MUD
NEUT.         1                    : NEUTRON      - NEUTRON TYPE
RESI.         0                    : RESIST       - RESISTIVITY TYPE
RMC .OHMM     0.25                 : RMC          - RESISTIVITY OF MUD CAKE
RMF .OHMM     0.25                 : RMF          - RESISTIVITY OF MUD FILTRATE
SUFT.C        15                   : SUFT         - SURFACE TEMPERATURE
~A  DEPTH       GR     PHID     PHIN     RESD
# ...
  385.704   91.269    0.260    0.494    7.749
  385.954   92.237    0.259    0.488    8.198
  386.204   97.087    0.247    0.483    8.245
  386.454  100.828    0.236    0.509    7.938
  386.704  105.068    0.234    0.535    6.244
  386.954  109.117    0.245    0.562    5.042
  387.204  109.360    0.246    0.581    3.462
  387.454  106.545    0.234    0.599    3.546
  387.704  104.212    0.227    0.590    3.992
  387.954  101.701    0.230    0.544    4.471
  388.204   98.434    0.239    0.518    5.258
  388.454   96.447    0.248    0.511    6.211
  388.704   94.145    0.257    0.498    6.816
  388.954   91.127    0.273    0.496    7.291
  389.204   89.714    0.286    0.492    7.345
  389.454   88.020    0.294    0.487    8.020
  389.704   87.113    0.297    0.487    7.962
  389.954   87.100    0.298    0.488    7.964
  390.204   87.989    0.294    0.490    8.013
  390.454   88.984    0.289    0.493    8.110
  390.704   88.763    0.292    0.499    8.211
  390.954   86.413    0.283    0.489    8.551
  391.204   85.987    0.242    0.461    9.200
  391.454   84.229    0.207    0.398   10.463
  391.704   78.761    0.194    0.359   11.953
  391.954   75.174    0.155    0.316   13.065
  392.204   77.428    0.083    0.298   13.834
  392.454   85.389    0.131    0.327   13.577
  392.704   90.920    0.232    0.392   11.419
  392.954   93.199    0.269    0.470   10.233
  393.204   94.552    0.279    0.487    9.214
  393.454   95.566    0.288    0.486    8.378
  393.704   96.569    0.285    0.489    8.060
  393.954   96.998    0.278    0.488    7.963
  394.204   92.825    0.273    0.491    7.962
  394.454   92.517    0.269    0.481    7.961
  394.704   95.048    0.260    0.475    7.971
  394.954   96.787    0.249    0.478    7.804
  395.204   97.832    0.237    0.488    7.822
  395.454   98.878    0.235    0.498    7.694
  395.704   98.924    0.243    0.498    7.674
  395.954   98.251    0.252    0.507    7.662
  396.204   98.855    0.263    0.517    7.524
  396.454   99.894    0.269    0.536    7.528
  396.704  101.933    0.259    0.523    7.530
  396.954  102.515    0.250    0.523    7.383
  397.204  102.227    0.247    0.530    7.390
  397.454  100.728    0.245    0.523    7.398
  397.704   99.795    0.248    0.513    7.246
  397.954   98.057    0.239    0.499    7.257
  398.204   97.667    0.224    0.489    7.259
  398.454   97.928    0.223    0.482    7.272
  398.704   98.966    0.229    0.496    7.115
  398.954   97.561    0.223    0.519    7.123
  399.204   93.697    0.222    0.534    7.068
  399.454   92.134    0.231    0.532    6.990
  399.704   93.636    0.240    0.515    6.762
  399.954   97.947    0.248    0.498    6.741
  400.204  100.167    0.238    0.497    6.738
  400.454   96.137    0.238    0.504    6.737
  400.704   95.309    0.243    0.496    6.731
  400.954   97.018    0.236    0.481    6.856
  401.204   97.890    0.242    0.474    6.849
  401.454   96.439    0.239    0.479    7.006
  401.704   95.977    0.233    0.492    6.983
  401.954   97.163    0.235    0.499    7.140
  402.204   97.689    0.241    0.504    7.127
  402.454   96.664    0.245    0.511    7.126
  402.704   95.468    0.250    0.520    7.124
  402.954   93.425    0.239    0.503    7.124
  403.204   92.615    0.227    0.491    6.986
  403.454   96.546    0.229    0.481    6.995
  403.704   99.533    0.215    0.480    6.996
  403.954  101.673    0.216    0.482    6.981
  404.204  101.084    0.224    0.486    7.133
  404.454   97.520    0.223    0.486    7.248
  404.704   94.454    0.222    0.475    7.245
  404.954   96.160    0.225    0.465    7.413
  405.204   98.573    0.228    0.457    7.278
  405.454  102.319    0.233    0.454    7.160
  405.704  105.255    0.231    0.465    6.854
  405.954  106.843    0.242    0.472    6.435
  406.204  106.734    0.248    0.483    5.989
  406.454  106.974    0.240    0.506    5.392
  406.704  110.093    0.243    0.543    4.521
  406.954  111.394    0.247    0.567    3.958
  407.204  112.444    0.251    0.589    3.408
  407.454  112.109    0.256    0.601    2.886
  407.704  111.807    0.264    0.604    2.619
  407.954  110.766    0.270    0.608    2.386
  408.204  108.318    0.272    0.602    2.453
  408.454  104.984    0.266    0.577    2.794
  408.704  101.466    0.263    0.544    3.304
  408.954   98.294    0.257    0.504    4.049
  409.204   96.635    0.259    0.487    4.756
  409.454   96.067    0.244    0.492    5.394
  409.704   95.194    0.248    0.490    6.008
  409.954   90.771    0.263    0.485    6.372
  410.204   84.234    0.269    0.481    6.370
  410.454   78.113    0.280    0.488    6.353
  410.704   73.293    0.295    0.487    6.255
  410.954   68.844    0.307    0.479    6.199
  411.204   66.070    0.316    0.473    6.151
  411.454   64.131    0.328    0.472    6.049
  411.704   61.756    0.334    0.475    6.035
  411.954   59.383    0.341    0.467    6.032
  412.204   59.470    0.336    0.460    6.032
  412.454   62.443    0.341    0.466    6.032
  412.704   64.418    0.334    0.469    6.032
  412.954   65.006    0.325    0.467    6.032
  413.204   65.875    0.314    0.471    6.033
  413.454   66.233    0.324    0.475    6.032
  413.704   66.647    0.327    0.474    6.028
  413.954   65.668    0.326    0.466    6.007
  414.204   64.624    0.321    0.459    6.025
  414.454   63.583    0.317    0.450    5.907
  414.704   62.638    0.325    0.445    5.921
  414.954   63.717    0.333    0.444    5.922
  415.204   64.700    0.327    0.442    5.922
  415.454   65.697    0.323    0.440    5.922
  415.704   65.742    0.322    0.441    5.923
  415.954   64.996    0.328    0.447    5.925
  416.204   65.669    0.319    0.455    5.921
  416.454   67.064    0.315    0.463    6.042
  416.704   66.166    0.314    0.468    6.023
  416.954   65.135    0.305    0.468    6.245
  417.204   64.961    0.304    0.459    6.244
  417.454   67.247    0.313    0.456    6.383
  417.704   68.666    0.315    0.452    6.577
  417.954   69.492    0.316    0.446    6.788
  418.204   68.733    0.308    0.439    7.153
  418.454   67.249    0.293    0.429    7.481
  418.704   65.938    0.272    0.422    7.802
  418.954   64.528    0.242    0.394    7.981
  419.204   64.928    0.236    0.386    8.154
  419.454   66.108    0.287    0.437    7.925
  419.704   67.552    0.324    0.461    7.836
  419.954   69.609    0.328    0.464    7.587
  420.204   70.873    0.319    0.468    7.522
  420.454   72.893    0.320    0.469    7.414
  420.704   75.592    0.325    0.468    7.271
  420.954   77.496    0.326    0.475    7.131
  421.204   78.463    0.328    0.482    7.037
  421.454   79.464    0.329    0.480    6.763
  421.704   80.462    0.323    0.477    6.624
  421.954   82.374    0.323    0.483    6.420
  422.204   83.593    0.324    0.477    6.265
  422.454   85.334    0.323    0.478    6.152
  422.704   84.042    0.321    0.485    6.081
  422.954   84.480    0.314    0.491    6.042
  423.204   87.067    0.305    0.487    6.033
  423.454   88.784    0.294    0.485    6.228
  423.704   89.740    0.286    0.487    6.278
  423.954   90.748    0.272    0.478    6.495
  424.204   91.832    0.270    0.467    6.562
  424.454   91.368    0.264    0.482    6.635
  424.704   88.576    0.255    0.490    6.759
  424.954   84.125    0.267    0.485    6.754
  425.204   79.225    0.275    0.478    6.753
  425.454   76.420    0.282    0.475    6.664
  425.704   75.008    0.296    0.482    6.606
  425.954   75.592    0.311    0.494    6.388
  426.204   77.585    0.325    0.510    6.327
  426.454   79.524    0.321    0.521    6.129
  426.704   79.928    0.326    0.515    5.935
  426.954   79.677    0.324    0.510    5.886
  427.204   78.647    0.327    0.517    5.709
  427.454   77.125    0.323    0.519    5.623
  427.704   76.002    0.328    0.514    5.566
  427.954   75.696    0.327    0.524    5.504
  428.204   75.469    0.332    0.531    5.513
  428.454   78.809    0.329    0.535    5.392
  428.704   79.354    0.327    0.518    5.402
  428.954   79.955    0.324    0.505    5.578
