~VERSION INFORMATION
 VERS.                 2.0:   CWLS LOG ASCII STANDARD -VERSION 2.0
 WRAP.                  NO:   ONE LINE PER DEPTH STEP
~WELL INFORMATION BLOCK
#MNEM.UNIT           DATA                    DESCRIPTION OF MNEMONIC
#---------    -------------------            -------------------------------
# Generated from Intellog Unique Number	CS_73_76/WELL/2180
WELL.         WAINOCO OIL AND GAS COMPAN     : Well_name    - WELL
LOC .         00/07-34-074-12W4/0            : Location     - LOCATION
UWI .         00/07-34-074-12W4/0            : Uwi          - UNIQUE WELL ID
ENTR.         SP                             : Entered      - ENTERED BY
SRVC.         SCHLUMBERGER                   : Scn          - SERVICE COMPANY
STRT.M        290                            : top_depth    - START DEPTH
STOP.M        520                            : bot_depth    - STOP DEPTH
STEP.M        0.25                           : increment    - STEP LENGTH
 NULL. -999.2500:NULL Value
~CURVE INFORMATION BLOCK
#MNEM UNIT       ERCB CURVE CODE    CURVE DESCRIPTION
#-----------   ------------------   ----------------------------------
DEPT.M        00 001 00 00         : DEPTH        - DEPTH
ILD .OHMM     00 120 00 00         : RESD         - DEEP RESISTIVITY (DIL)
DPHI.V/V      00 890 00 00         : PHID         - DENSITY POROSITY (LIMESTONE)
NPHI.V/V      00 330 00 00         : PHIN         - NEUTRON POROSITY (LIMESTONE)
GR  .API      00 310 00 00         : GR           - GAMMA RAY
~PARAMETER INFORMATION
#MNEM.UNIT           DATA             DESCRIPTION OF MNEMONIC
#---------         -----------     ------------------------------
GL  .M        661.49               : gl           - GROUND LEVEL ELEVATION
EREF.M        664.75               : kb           - ELEVATION OF DEPTH REFERENCE
DATM.M        661.49               : datum        - DATUM ELEVATION
TDD .M        530                  : tdd          - TOTAL DEPTH DRILLER
RUN .         ONE                  : Run          - RUN NUMBER
ENG .         BILL                 : Engineer     - RECORDING ENGINEER
WIT .         JIM                  : Witness      - WITNESSED BY
MUD .         GEL                  : Mud_type     - MUD TYPE
MATR.         LIMESTONE            : Logunit      - NEUTRON MATRIX
TMAX.C        22                   : BHT          - MAXIMUM RECORDED TEMPERATURE
BHTD.M        530                  : BHTDEP       - MAXIMUM RECORDED TEMPERATURE
MATR.         1                    : LOGUNIT      - NEUTRON MATRIX
RMT .C        25                   : MDTP         - TEMPERATURE OF MUD
NEUT.         1                    : NEUTRON      - NEUTRON TYPE
RESI.         0                    : RESIST       - RESISTIVITY TYPE
RMC .OHMM     0.25                 : RMC          - RESISTIVITY OF MUD CAKE
RMF .OHMM     0.25                 : RMF          - RESISTIVITY OF MUD FILTRATE
SUFT.C        15                   : SUFT         - SURFACE TEMPERATURE
~A  DEPTH     RESD     PHID     PHIN       GR
# ...
  333.500    8.201    0.281    0.430  124.748
  333.750    8.206    0.290    0.433  126.579
  334.000    8.211    0.292    0.436  120.452
  334.250    8.371    0.293    0.431  113.101
  334.500    8.698    0.283    0.425  106.363
  334.750    8.868    0.266    0.415   97.787
  335.000    9.217    0.249    0.412   89.824
  335.250    9.760    0.234    0.406   96.555
  335.500   10.336    0.227    0.404  102.059
  335.750   10.342    0.227    0.413  104.505
  336.000    9.963    0.237    0.419  108.784
  336.250    9.781    0.243    0.425  111.229
  336.500    9.424    0.252    0.427  111.838
  336.750    9.081    0.254    0.417  109.997
  337.000    9.084    0.253    0.418  106.319
  337.250    9.090    0.259    0.420  104.479
  337.500    9.270    0.261    0.425  102.025
  337.750    9.451    0.239    0.431   98.958
  338.000   10.201    0.216    0.425   98.342
  338.250   10.600    0.213    0.404   98.951
  338.500   10.807    0.201    0.398   98.946
  338.750   10.813    0.205    0.400   98.942
  339.000   10.419    0.234    0.411  102.610
  339.250   10.038    0.242    0.426  103.832
  339.500    9.669    0.244    0.436  101.990
  339.750    9.315    0.250    0.445  100.760
  340.000    8.974    0.259    0.445  104.430
  340.250    8.485    0.259    0.446  109.324
  340.500    8.329    0.253    0.448  108.094
  340.750    7.876    0.249    0.452  108.091
  341.000    7.878    0.249    0.448  109.311
  341.250    7.591    0.259    0.440  109.919
  341.500    7.453    0.264    0.434  113.588
  341.750    7.457    0.274    0.437  117.254
  342.000    7.321    0.284    0.441  118.476
  342.250    7.324    0.280    0.434  115.411
  342.500    7.469    0.275    0.426  113.570
  342.750    7.761    0.269    0.423  113.565
  343.000    8.220    0.260    0.424  112.336
  343.250    8.381    0.252    0.418  114.782
  343.500    8.709    0.247    0.415  110.490
  343.750    9.051    0.253    0.421  108.651
  344.000    9.228    0.265    0.418  105.585
  344.250    9.411    0.267    0.410  101.906
  344.500    9.596    0.264    0.415  100.067
  344.750    9.972    0.262    0.430   99.450
  345.000   10.560    0.256    0.434   96.381
  345.250   11.183    0.246    0.442   95.766
  345.500   11.402    0.235    0.436   98.212
  345.750   11.628    0.213    0.435  101.268
  346.000   11.415    0.176    0.438  103.712
  346.250   10.792    0.161    0.430  104.934
  346.500   10.011    0.171    0.438  108.602
  346.750    9.286    0.192    0.441  114.107
  347.000    8.614    0.216    0.438  115.941
  347.250    7.990    0.226    0.436  117.771
  347.500    7.699    0.227    0.439  117.156
  347.750    7.702    0.226    0.443  115.315
  348.000    8.004    0.247    0.446  113.473
  348.250    8.318    0.264    0.443  113.470
  348.500    8.809    0.273    0.434  111.017
  348.750    9.152    0.286    0.424  107.951
  349.000    9.511    0.293    0.420  102.436
  349.250    9.884    0.301    0.419  101.208
  349.500   10.079    0.309    0.422   97.529
  349.750   10.276    0.317    0.427   95.689
  350.000   10.282    0.317    0.425   95.073
  350.250   10.485    0.307    0.422   92.616
  350.500   10.491    0.293    0.414   92.614
  350.750   10.698    0.376    0.411   90.772
  351.000   11.115    0.432    0.418   88.932
  351.250   11.997    0.464    0.438   81.581
  351.500   13.196    0.529    0.580   67.496
  351.750   14.243    0.607    0.616   55.247
  352.000   14.797    0.643    0.633   32.590
  352.250   15.377    0.664    0.595   28.300
  352.500   15.682    0.632    0.501   41.151
  352.750   15.689    0.433    0.402   50.943
  353.000   15.405    0.304    0.382   61.348
  353.250   15.123    0.283    0.376   69.301
  353.500   14.849    0.290    0.384   71.135
  353.750   14.581    0.305    0.391   71.130
  354.000   14.312    0.306    0.392   67.450
  354.250   14.320    0.287    0.383   64.998
  354.500   14.063    0.299    0.376   62.544
  354.750   13.804    0.304    0.381   61.929
  355.000   13.555    0.331    0.394   61.313
  355.250   12.814    0.367    0.421   62.532
  355.500   12.345    0.396    0.440   68.037
  355.750   11.891    0.411    0.453   69.871
  356.000   11.677    0.402    0.427   72.927
  356.250   11.684    0.357    0.401   71.086
  356.500   11.688    0.341    0.383   68.633
  356.750   12.146    0.340    0.377   64.955
  357.000   12.623    0.341    0.375   65.563
  357.250   12.869    0.349    0.377   65.557
  357.500   13.123    0.364    0.381   65.555
  357.750   13.132    0.368    0.383   63.714
  358.000   13.140    0.364    0.383   63.097
  358.250   12.900    0.357    0.383   64.929
  358.500   12.667    0.348    0.383   68.596
  358.750   12.433    0.345    0.386   71.043
  359.000   12.209    0.335    0.395   74.712
  359.250   11.988    0.327    0.402   75.320
  359.500   11.768    0.314    0.407   77.152
  359.750   11.555    0.307    0.412   81.433
  360.000   11.346    0.281    0.407   84.490
  360.250   11.350    0.266    0.410   85.098
  360.500   10.935    0.256    0.417   83.256
  360.750   10.736    0.246    0.428   83.251
  361.000   10.342    0.239    0.438   85.084
  361.250    9.777    0.239    0.446   86.916
  361.500    9.070    0.243    0.433   89.974
  361.750    8.413    0.238    0.426   89.357
  362.000    8.105    0.243    0.422   87.516
  362.250    8.264    0.251    0.423   88.736
  362.500    8.588    0.256    0.437   88.120
  362.750    8.758    0.267    0.442   86.890
  363.000    9.101    0.278    0.452   88.723
  363.250    9.281    0.272    0.457   94.229
  363.500    9.285    0.258    0.447  100.958
  363.750    9.289    0.248    0.441  102.179
  364.000    9.296    0.230    0.426  102.175
  364.250    9.127    0.228    0.420  101.558
  364.500    8.961    0.237    0.421  100.941
  364.750    8.964    0.243    0.422  101.549
  365.000    8.972    0.256    0.421  103.382
  365.250    8.978    0.270    0.416  104.602
  365.500    9.154    0.266    0.409   97.250
  365.750    9.334    0.259    0.405   91.736
  366.000    9.517    0.251    0.398   88.059
  366.250    9.705    0.239    0.395   83.768
  366.500    9.709    0.248    0.400   80.704
  366.750    9.901    0.260    0.406   79.474
  367.000   10.094    0.268    0.408   77.632
  367.250   10.294    0.288    0.406   74.566
  367.500   10.298    0.303    0.404   73.951
  367.750   10.304    0.311    0.404   72.110
  368.000   10.309    0.313    0.406   70.881
  368.250   10.123    0.312    0.409   74.550
  368.500    9.752    0.307    0.414   79.442
  368.750    9.219    0.301    0.420   80.664
  369.000    8.392    0.301    0.425   86.169
  369.250    7.933    0.296    0.432   86.164
  369.500    7.221    0.280    0.429   84.937
  369.750    6.574    0.274    0.423   83.707
  370.000    6.214    0.259    0.427   85.538
  370.250    5.874    0.252    0.429   88.595
  370.500    5.659    0.246    0.439   90.429
  370.750    5.557    0.254    0.455   92.874
  371.000    5.665    0.263    0.464   96.542
  371.250    5.777    0.266    0.469  100.212
  371.500    6.002    0.266    0.463  102.656
  371.750    6.357    0.259    0.458  102.651
  372.000    6.732    0.248    0.452   98.974
  372.250    6.996    0.235    0.456   97.133
  372.500    7.270    0.226    0.461   98.353
  372.750    7.412    0.222    0.462  105.695
  373.000    7.558    0.222    0.462  108.139
  373.250    7.421    0.221    0.462  107.523
  373.500    7.285    0.225    0.462  105.070
  373.750    6.889    0.219    0.460  103.842
  374.000    6.762    0.211    0.455  105.061
  374.250    6.515    0.209    0.452  108.117
  374.500    6.278    0.212    0.452  109.949
  374.750    6.163    0.217    0.458  109.946
  375.000    6.050    0.217    0.460  108.105
  375.250    6.169    0.227    0.463  106.876
  375.500    6.173    0.235    0.465  106.260
  375.750    6.294    0.233    0.461  108.092
  376.000    6.297    0.221    0.449  108.088
  376.250    5.841    0.233    0.454  105.022
  376.500    4.930    0.240    0.462  102.568
  376.750    4.160    0.242    0.477  101.952
