~VERSION INFORMATION
 VERS.                 2.0:   CWLS LOG ASCII STANDARD -VERSION 2.0
 WRAP.                  NO:   ONE LINE PER DEPTH STEP
~WELL INFORMATION BLOCK
#MNEM.UNIT           DATA                    DESCRIPTION OF MNEMONIC
#---------    -------------------            -------------------------------
# Generated from Intellog Unique Number	CS_71_72/WELL/769
WELL.         PEX PHILLIPS AEC GRIST         : Well_name    - WELL
LOC .         00/06-12-072-08W4/0            : Location     - LOCATION
UWI .         00/06-12-072-08W4/0            : Uwi          - UNIQUE WELL ID
ENTR.         SP                             : Entered      - ENTERED BY
SRVC.         SCHLUMBERGER                   : Scn          - SERVICE COMPANY
STRT.M        310                            : top_depth    - START DEPTH
STOP.M        535                            : bot_depth    - STOP DEPTH
STEP.M        0.25                           : increment    - STEP LENGTH
 NULL. -999.2500:NULL Value
~CURVE INFORMATION BLOCK
#MNEM UNIT       ERCB CURVE CODE    CURVE DESCRIPTION
#-----------   ------------------   ----------------------------------
DEPT.M        00 001 00 00         : DEPTH        - DEPTH
ILD .OHMM     00 120 00 00         : RESD         - DEEP RESISTIVITY (DIL)
DPHI.V/V      00 890 00 00         : PHID         - DENSITY POROSITY (LIMESTONE)
NPHI.V/V      00 330 00 00         : PHIN         - NEUTRON POROSITY (LIMESTONE)
GR  .API      00 310 00 00         : GR           - GAMMA RAY
~PARAMETER INFORMATION
#MNEM.UNIT           DATA             DESCRIPTION OF MNEMONIC
#---------         -----------     ------------------------------
GL  .M        675.8                : gl           - GROUND LEVEL ELEVATION
EREF.M        679.3                : kb           - ELEVATION OF DEPTH REFERENCE
DATM.M        675.8                : datum        - DATUM ELEVATION
TDD .M        544                  : tdd          - TOTAL DEPTH DRILLER
RUN .         ONE                  : Run          - RUN NUMBER
ENG .         BILL                 : Engineer     - RECORDING ENGINEER
WIT .         JIM                  : Witness      - WITNESSED BY
MUD .         GEL                  : Mud_type     - MUD TYPE
MATR.         LIMESTONE            : Logunit      - NEUTRON MATRIX
TMAX.C        22.5                 : BHT          - MAXIMUM RECORDED TEMPERATURE
BHTD.M        544                  : BHTDEP       - MAXIMUM RECORDED TEMPERATURE
MATR.         1                    : LOGUNIT      - NEUTRON MATRIX
RMT .C        25                   : MDTP         - TEMPERATURE OF MUD
NEUT.         1                    : NEUTRON      - NEUTRON TYPE
RESI.         0                    : RESIST       - RESISTIVITY TYPE
RMC .OHMM     0.25                 : RMC          - RESISTIVITY OF MUD CAKE
RMF .OHMM     0.25                 : RMF          - RESISTIVITY OF MUD FILTRATE
SUFT.C        15                   : SUFT         - SURFACE TEMPERATURE
~A  DEPTH     RESD     PHID     PHIN       GR
# ...
  353.500   11.376    0.227    0.441   85.073
  353.750   10.763    0.254    0.459   83.250
  354.000    9.994    0.274    0.407   83.869
  354.250    9.107    0.267    0.401   94.245
  354.500    8.613    0.217    0.410  101.570
  354.750    7.849    0.195    0.434  107.066
  355.000    7.564    0.179    0.443  110.733
  355.250    7.157    0.190    0.447  108.303
  355.500    7.028    0.206    0.452  104.043
  355.750    7.168    0.215    0.460   99.786
  356.000    7.735    0.215    0.480   96.139
  356.250    8.035    0.228    0.505   93.705
  356.500    9.349    0.251    0.515   91.275
  356.750    9.712    0.277    0.485   88.846
  357.000   10.481    0.273    0.468   88.853
  357.250   10.685    0.266    0.457   88.863
  357.500   10.897    0.260    0.456   90.091
  357.750   10.903    0.244    0.455   90.710
  358.000   10.917    0.230    0.452   90.109
  358.250   10.927    0.232    0.442   88.900
  358.500   10.935    0.246    0.423   87.686
  358.750   10.943    0.259    0.415   87.694
  359.000   10.746    0.267    0.409   91.971
  359.250   10.552    0.260    0.424   93.811
  359.500   10.171    0.261    0.416   90.770
  359.750   10.182    0.261    0.404   86.510
  360.000   10.384    0.245    0.399   88.349
  360.250   10.589    0.227    0.404   90.796
  360.500   10.595    0.221    0.432   88.978
  360.750   10.604    0.236    0.458   85.938
  361.000   10.033    0.250    0.480   84.116
  361.250    9.491    0.258    0.470   82.905
  361.500    9.147    0.241    0.452   85.963
  361.750    8.654    0.233    0.474   87.800
  362.000    8.037    0.230    0.498   85.372
  362.250    7.744    0.224    0.491   85.379
  362.500    6.798    0.222    0.496   87.217
  362.750    6.195    0.230    0.476   92.105
  363.000    6.083    0.223    0.473   98.820
  363.250    5.974    0.212    0.471  103.096
  363.500    6.326    0.208    0.490  105.544
  363.750    6.697    0.213    0.473  100.678
  364.000    7.504    0.239    0.459   95.807
  364.250    7.944    0.272    0.447   88.499
  364.500    8.569    0.250    0.454   85.461
  364.750    9.247    0.248    0.483   83.640
  365.000    9.788    0.262    0.493   82.425
  365.250   10.564    0.221    0.465   81.214
  365.500   10.975    0.169    0.456   79.396
  365.750   11.191    0.193    0.455   78.185
  366.000   11.418    0.241    0.463   75.755
  366.250   11.428    0.264    0.496   73.934
  366.500   11.435    0.281    0.514   73.941
  366.750   11.443    0.285    0.480   70.902
  367.000   11.450    0.300    0.454   66.642
  367.250   11.248    0.307    0.438   63.602
  367.500   11.255    0.303    0.428   63.612
  367.750   11.476    0.287    0.432   67.281
  368.000   11.491    0.284    0.439   70.949
  368.250   11.720    0.284    0.435   72.785
  368.500   11.951    0.300    0.432   72.793
  368.750   11.960    0.298    0.428   71.582
  369.000   11.972    0.307    0.431   68.544
  369.250   12.207    0.322    0.432   66.115
  369.500   12.217    0.330    0.424   64.900
  369.750   11.999    0.335    0.408   64.910
  370.000   12.008    0.320    0.401   67.967
  370.250   11.792    0.313    0.417   71.026
  370.500   11.800    0.292    0.430   74.088
  370.750   11.590    0.281    0.419   74.702
  371.000   11.383    0.261    0.414   75.321
  371.250   11.179    0.254    0.417   74.719
  371.500   10.581    0.270    0.436   73.510
  371.750   10.197    0.274    0.466   72.910
  372.000    9.828    0.274    0.438   72.306
  372.250    8.788    0.275    0.433   70.489
  372.500    7.712    0.282    0.441   74.155
  372.750    7.160    0.271    0.428   79.651
  373.000    7.302    0.240    0.434   83.928
  373.250    7.878    0.229    0.462   86.374
  373.500    8.992    0.281    0.478   83.947
  373.750    9.886    0.329    0.488   78.466
  374.000   10.270    0.349    0.499   68.719
  374.250   10.672    0.364    0.451   58.970
  374.500   10.884    0.358    0.436   53.492
  374.750   11.102    0.346    0.428   51.672
  375.000   11.111    0.342    0.433   49.242
  375.250   11.330    0.336    0.442   48.033
  375.500   11.553    0.326    0.468   49.258
  375.750   11.562    0.321    0.461   51.706
  376.000   11.791    0.322    0.423   53.543
  376.250   11.799    0.320    0.406   53.551
  376.500   11.593    0.316    0.419   55.391
  376.750   11.381    0.315    0.443   61.498
  377.000   10.767    0.319    0.467   60.287
  377.250   10.576    0.314    0.436   58.467
  377.500   11.413    0.303    0.409   65.793
  377.750   12.083    0.278    0.387   70.068
  378.000   12.793    0.252    0.397   73.736
  378.250   13.295    0.460    0.464   70.086
  378.500   13.813    0.513    0.595   60.341
  378.750   14.354    0.536    0.611   53.031
  379.000   14.637    0.503    0.556   45.722
  379.250   14.646    0.313    0.396   42.073
  379.500   14.118    0.301    0.392   39.645
  379.750   13.865    0.321    0.409   39.040
  380.000   13.621    0.329    0.419   39.663
  380.250   13.377    0.343    0.416   40.280
  380.500   13.143    0.346    0.408   40.897
  380.750   13.151    0.344    0.414   41.520
  381.000   13.411    0.343    0.416   42.747
  381.250   13.420    0.341    0.414   43.363
  381.500   13.190    0.340    0.410   43.980
  381.750   13.199    0.340    0.408   44.598
  382.000   13.207    0.335    0.401   45.221
  382.250   13.216    0.329    0.401   45.229
  382.500   13.225    0.324    0.403   45.234
  382.750   12.996    0.323    0.409   43.415
  383.000   13.007    0.330    0.425   42.203
  383.250   13.017    0.341    0.437   46.482
  383.500   13.028    0.345    0.442   48.929
  383.750   13.537    0.336    0.417   47.718
  384.000   13.298    0.334    0.396   44.680
  384.250   13.308    0.343    0.417   46.519
  384.500   13.318    0.354    0.439   47.747
  384.750   13.081    0.358    0.449   46.534
  385.000   13.089    0.351    0.443   45.322
  385.250   13.097    0.342    0.434   47.162
  385.500   12.862    0.339    0.427   49.609
  385.750   12.879    0.341    0.423   50.837
  386.000   12.647    0.352    0.426   53.898
  386.250   12.656    0.362    0.433   53.904
  386.500   12.428    0.362    0.443   53.913
  386.750   12.443    0.352    0.445   53.922
  387.000   12.449    0.350    0.451   52.101
  387.250   12.464    0.348    0.465   55.160
  387.500   12.238    0.352    0.472   55.169
  387.750   12.252    0.353    0.475   53.348
  388.000   12.033    0.357    0.463   52.136
  388.250   12.041    0.365    0.448   53.367
  388.500   12.051    0.365    0.443   53.983
  388.750   12.063    0.365    0.446   53.993
  389.000   12.073    0.365    0.451   53.392
  389.250   11.858    0.367    0.458   52.789
  389.500   11.869    0.348    0.468   52.803
  389.750   11.879    0.342    0.469   52.807
  390.000   11.887    0.329    0.472   54.037
  390.250   11.675    0.329    0.457   57.095
  390.500   11.685    0.345    0.438   58.932
  390.750   11.475    0.349    0.428   58.332
  391.000   11.483    0.353    0.444   55.290
  391.250   11.494    0.358    0.462   51.642
  391.500   11.502    0.360    0.478   52.868
  391.750   11.302    0.354    0.449   50.440
  392.000   11.308    0.351    0.441   46.181
  392.250   11.103    0.359    0.439   44.358
  392.500   11.115    0.364    0.440   51.685
  392.750   10.919    0.353    0.467   56.571
  393.000   10.524    0.348    0.472   55.361
  393.250    9.771    0.350    0.455   50.490
  393.500    9.241    0.342    0.452   51.719
  393.750    8.264    0.339    0.462   54.167
  394.000    7.118    0.348    0.464   52.351
  394.250    6.364    0.353    0.468   52.355
  394.500    5.909    0.359    0.470   57.243
  394.750    5.803    0.350    0.458   63.350
  395.000    5.389    0.343    0.470   67.627
  395.250    4.818    0.341    0.521   67.027
  395.500    4.074    0.337    0.500   62.768
  395.750    3.509    0.334    0.483   61.555
  396.000    3.137    0.332    0.489   68.882
  396.250    2.805    0.315    0.512   81.697
  396.500    2.556    0.301    0.520   92.681
  396.750    2.418    0.278    0.534   98.788
