~VERSION INFORMATION
 VERS.                 2.0:   CWLS LOG ASCII STANDARD -VERSION 2.0
 WRAP.                  NO:   ONE LINE PER DEPTH STEP
~WELL INFORMATION BLOCK
#MNEM.UNIT           DATA                    DESCRIPTION OF MNEMONIC
#---------    -------------------            -------------------------------
# Generated from Intellog Unique Number	CS_77_79/WELL/870
WELL.         NORCEN                         : Well_name    - WELL
LOC .         00/06-11-077-13W4/0            : Location     - LOCATION
UWI .         00/06-11-077-13W4/0            : Uwi          - UNIQUE WELL ID
ENTR.         SP                             : Entered      - ENTERED BY
SRVC.         SCHLUMBERGER                   : Scn          - SERVICE COMPANY
STRT.M        274.32                         : top_depth    - START DEPTH
STOP.M        517.82                         : bot_depth    - STOP DEPTH
STEP.M        0.25                           : increment    - STEP LENGTH
 NULL. -999.2500:NULL Value
~CURVE INFORMATION BLOCK
#MNEM UNIT       ERCB CURVE CODE    CURVE DESCRIPTION
#-----------   ------------------   ----------------------------------
DEPT.M        00 001 00 00         : DEPTH        - DEPTH
GR  .API      00 310 00 00         : GR           - GAMMA RAY
DPHI.V/V      00 890 00 00         : PHID         - DENSITY POROSITY (SANDSTONE)
NPHI.V/V      00 330 00 00         : PHIN         - NEUTRON POROSITY (SANDSTONE)
ILD .OHMM     00 120 00 00         : RESD         - DEEP RESISTIVITY (DIL)
~PARAMETER INFORMATION
#MNEM.UNIT           DATA             DESCRIPTION OF MNEMONIC
#---------         -----------     ------------------------------
GL  .M        677.692              : gl           - GROUND LEVEL ELEVATION
EREF.M        681.045              : kb           - ELEVATION OF DEPTH REFERENCE
DATM.M        677.692              : datum        - DATUM ELEVATION
TDD .M        524.256              : tdd          - TOTAL DEPTH DRILLER
RUN .         ONE                  : Run          - RUN NUMBER
ENG .         BILL                 : Engineer     - RECORDING ENGINEER
WIT .         JIM                  : Witness      - WITNESSED BY
MUD .         GEL                  : Mud_type     - MUD TYPE
MATR.         SANDSTONE            : Logunit      - NEUTRON MATRIX
TMAX.C        23.8889              : BHT          - MAXIMUM RECORDED TEMPERATURE
BHTD.M        524.256              : BHTDEP       - MAXIMUM RECORDED TEMPERATURE
MATR.         1                    : LOGUNIT      - NEUTRON MATRIX
RMT .C        25                   : MDTP         - TEMPERATURE OF MUD
NEUT.         1                    : NEUTRON      - NEUTRON TYPE
RESI.         0                    : RESIST       - RESISTIVITY TYPE
RMC .OHMM     0.25                 : RMC          - RESISTIVITY OF MUD CAKE
RMF .OHMM     0.25                 : RMF          - RESISTIVITY OF MUD FILTRATE
SUFT.C        15                   : SUFT         - SURFACE TEMPERATURE
~A  DEPTH       GR     PHID     PHIN     RESD
# ...
  317.820  112.082    0.212    0.445   11.600
  318.070  110.930    0.220    0.449   11.748
  318.320  108.184    0.224    0.446   11.936
  318.570  101.665    0.239    0.442   12.582
  318.820   94.116    0.263    0.442   13.371
  319.070   85.363    0.273    0.430   13.819
  319.320   80.091    0.275    0.425   13.992
  319.570   77.717    0.272    0.440   14.649
  319.820   75.404    0.266    0.438   15.426
  320.070   73.191    0.270    0.418   15.889
  320.320   72.677    0.274    0.407   16.099
  320.570   73.673    0.275    0.406   16.451
  320.820   77.787    0.271    0.411   16.418
  321.070   85.439    0.251    0.416   16.240
  321.320   94.168    0.218    0.428   14.865
  321.570  102.616    0.198    0.442   12.347
  321.820  111.534    0.202    0.453   10.771
  322.070  116.286    0.201    0.465    9.943
  322.320  117.594    0.177    0.458    9.030
  322.570  115.581    0.182    0.475    8.470
  322.820  114.591    0.190    0.486    8.129
  323.070  115.614    0.200    0.496    7.260
  323.320  117.229    0.204    0.506    6.669
  323.570  114.071    0.193    0.517    6.301
  323.820  110.673    0.186    0.509    6.627
  324.070  107.352    0.202    0.499    6.846
  324.320  106.508    0.190    0.505    7.059
  324.570  105.981    0.191    0.502    7.036
  324.820  105.264    0.206    0.513    7.181
  325.070  105.316    0.224    0.484    7.456
  325.320  104.895    0.235    0.470    7.676
  325.570  104.584    0.224    0.454    8.153
  325.820  103.514    0.213    0.453    8.945
  326.070  102.567    0.228    0.458    9.715
  326.320   99.790    0.240    0.465   10.296
  326.570   96.417    0.252    0.456   10.608
  326.820   91.991    0.249    0.452   10.538
  327.070   90.620    0.245    0.456   10.180
  327.320   88.696    0.266    0.462    9.674
  327.570   85.479    0.270    0.474    9.538
  327.820   81.425    0.282    0.487    9.875
  328.070   77.103    0.295    0.494   10.733
  328.320   71.253    0.306    0.496   11.129
  328.570   68.704    0.267    0.506   10.838
  328.820   72.062    0.212    0.509   10.578
  329.070   75.330    0.234    0.513   11.130
  329.320   72.382    0.273    0.500   12.894
  329.570   62.922    0.307    0.497   14.166
  329.820   51.941    0.306    0.514   17.503
  330.070   46.221    0.269    0.484   19.759
  330.320   48.610    0.280    0.430   21.697
  330.570   51.176    0.283    0.416   23.307
  330.820   52.797    0.284    0.410   23.797
  331.070   51.987    0.279    0.403   23.268
  331.320   51.001    0.291    0.414   22.841
  331.570   49.949    0.296    0.418   22.895
  331.820   49.818    0.298    0.429   22.368
  332.070   49.184    0.297    0.433   22.415
  332.320   49.152    0.291    0.426   22.636
  332.570   49.105    0.285    0.410   22.726
  332.820   49.665    0.279    0.405   22.760
  333.070   50.005    0.271    0.410   22.805
  333.320   50.347    0.281    0.407   22.815
  333.570   51.391    0.293    0.409   22.802
  333.820   52.408    0.293    0.412   22.642
  334.070   52.714    0.304    0.414   22.385
  334.320   54.636    0.313    0.422   22.388
  334.570   54.758    0.325    0.424   22.493
  334.820   53.286    0.330    0.425   22.805
  335.070   54.368    0.321    0.414   22.335
  335.320   53.655    0.327    0.413   22.360
  335.570   53.741    0.322    0.407   22.368
  335.820   55.463    0.303    0.408   22.584
  336.070   55.517    0.296    0.420   22.768
  336.320   53.821    0.299    0.411   22.775
  336.570   54.460    0.298    0.406   22.773
  336.820   55.105    0.297    0.409   22.774
  337.070   55.237    0.299    0.422   22.439
  337.320   54.317    0.287    0.431   22.340
  337.570   55.004    0.277    0.426   22.331
  337.820   55.342    0.294    0.418   21.929
  338.070   53.648    0.313    0.423   21.462
  338.320   53.749    0.325    0.419   21.505
  338.570   53.771    0.313    0.414   21.501
  338.820   52.865    0.312    0.407   21.497
  339.070   51.358    0.315    0.413   21.493
  339.320   50.374    0.323    0.416   21.492
  339.570   49.414    0.334    0.427   21.498
  339.820   49.361    0.329    0.430   21.150
  340.070   51.377    0.321    0.436   20.938
  340.320   53.664    0.315    0.435   20.697
  340.570   53.005    0.309    0.433   20.404
  340.820   53.220    0.314    0.440   20.317
  341.070   53.629    0.329    0.443   20.290
  341.320   53.244    0.320    0.441   20.706
  341.570   53.097    0.323    0.431   20.674
  341.820   54.689    0.324    0.429   20.669
  342.070   56.803    0.321    0.431   20.704
  342.320   56.403    0.310    0.431   20.245
  342.570   54.381    0.305    0.436   20.310
  342.820   52.340    0.319    0.437   19.851
  343.070   51.062    0.325    0.425   19.871
  343.320   50.056    0.320    0.415   19.258
  343.570   49.216    0.327    0.415   18.799
  343.820   49.259    0.333    0.429   18.446
  344.070   49.635    0.342    0.440   18.459
  344.320   49.497    0.328    0.437   18.490
  344.570   48.613    0.327    0.441   17.792
  344.820   48.885    0.328    0.450   17.742
  345.070   50.826    0.328    0.453   18.131
  345.320   52.857    0.327    0.444   18.066
  345.570   51.982    0.326    0.446   18.464
  345.820   50.366    0.325    0.444   18.430
  346.070   51.507    0.330    0.436   18.428
  346.320   51.297    0.333    0.434   18.461
  346.570   50.929    0.327    0.444   18.080
  346.820   48.813    0.330    0.449   18.480
  347.070   47.715    0.326    0.454   18.046
  347.320   46.685    0.331    0.457   18.067
  347.570   46.696    0.326    0.451   18.433
  347.820   46.764    0.312    0.441   18.388
  348.070   47.841    0.318    0.432   18.726
  348.320   48.167    0.324    0.424   18.701
  348.570   48.362    0.328    0.415   19.128
  348.820   47.324    0.319    0.410   19.091
  349.070   46.275    0.325    0.407   19.056
  349.320   45.998    0.319    0.417   19.471
  349.570   45.919    0.318    0.431   19.443
  349.820   46.639    0.325    0.438   19.444
  350.070   46.566    0.327    0.432   19.442
  350.320   46.571    0.329    0.431   19.400
  350.570   46.742    0.329    0.435   19.840
  350.820   47.105    0.316    0.436   19.802
  351.070   49.933    0.314    0.436   20.035
  351.320   54.332    0.312    0.440   20.240
  351.570   57.657    0.298    0.438   20.530
  351.820   61.686    0.297    0.436   20.943
  352.070   64.878    0.293    0.438   21.404
  352.320   64.240    0.282    0.446   21.736
  352.570   62.337    0.291    0.453   21.721
  352.820   60.368    0.303    0.455   21.716
  353.070   60.432    0.302    0.460   21.712
  353.320   60.550    0.288    0.461   21.701
  353.570   61.596    0.279    0.452   21.706
  353.820   61.523    0.281    0.448   21.314
  354.070   61.124    0.289    0.449   20.882
  354.320   59.735    0.297    0.450   20.536
  354.570   58.710    0.292    0.451   20.518
  354.820   58.514    0.298    0.449   20.506
  355.070   58.498    0.296    0.443   20.499
  355.320   58.552    0.283    0.444   20.456
  355.570   57.853    0.274    0.450   20.889
  355.820   57.008    0.244    0.439   21.488
  356.070   55.131    0.183    0.410   22.427
  356.320   54.170    0.039    0.374   23.403
  356.570   53.098    0.000    0.162   26.060
  356.820   52.818    0.000    0.156   30.912
  357.070   51.765   -0.000    0.150   37.117
  357.320   49.707   -0.000    0.146   45.212
  357.570   48.512   -0.000    0.139   53.222
  357.820   48.044    0.000    0.131   59.174
  358.070   48.102    0.000    0.126   63.088
  358.320   47.374    0.000    0.125   65.645
  358.570   47.467   -0.000    0.122   68.990
  358.820   46.543    0.005    0.124   69.606
  359.070   45.590    0.006    0.127   70.330
  359.320   46.167    0.000    0.130   70.596
  359.570   47.006    0.000    0.134   67.203
  359.820   47.975   -0.000    0.138   64.023
  360.070   49.383    0.002    0.143   58.821
  360.320   50.683    0.015    0.147   53.247
  360.570   52.175    0.038    0.150   48.575
  360.820   52.296    0.051    0.153   43.747
  361.070   50.815    0.067    0.162   41.164
