~VERSION INFORMATION
 VERS.                 2.0:   CWLS LOG ASCII STANDARD -VERSION 2.0
 WRAP.                  NO:   ONE LINE PER DEPTH STEP
~WELL INFORMATION BLOCK
#MNEM.UNIT           DATA                    DESCRIPTION OF MNEMONIC
#---------    -------------------            -------------------------------
# Generated from Intellog Unique Number	CW_82_90/WELL/3416
WELL.         PARA ET AL LIEGE               : Well_name    - WELL
LOC .         00/04-36-090-20W4/0            : Location     - LOCATION
UWI .         00/04-36-090-20W4/0            : Uwi          - UNIQUE WELL ID
ENTR.         MAX                            : Entered      - ENTERED BY
SRVC.         COMPUTALOG                     : Scn          - SERVICE COMPANY
STRT.M        75                             : top_depth    - START DEPTH
STOP.M        237                            : bot_depth    - STOP DEPTH
STEP.M        0.25                           : increment    - STEP LENGTH
 NULL. -999.2500:NULL Value
~CURVE INFORMATION BLOCK
#MNEM UNIT       ERCB CURVE CODE    CURVE DESCRIPTION
#-----------   ------------------   ----------------------------------
DEPT.M        00 001 00 00         : DEPTH        - DEPTH
GR  .API      00 310 00 00         : GR           - GAMMA RAY
CALI.MM       00 280 01 00         : CAL          - CALIPER
DPHI.V/V      00 890 00 00         : PHID         - DENSITY POROSITY (SANDSTONE)
NPHI.V/V      00 330 00 00         : PHIN         - NEUTRON POROSITY (SANDSTONE)
ILD .OHMM     00 120 00 00         : RESD         - DEEP RESISTIVITY (DIL)
~PARAMETER INFORMATION
#MNEM.UNIT           DATA             DESCRIPTION OF MNEMONIC
#---------         -----------     ------------------------------
GL  .M        517.6                : gl           - GROUND LEVEL ELEVATION
EREF.M        520.7                : kb           - ELEVATION OF DEPTH REFERENCE
DATM.M        517.6                : datum        - DATUM ELEVATION
TDD .M        238.1                : tdd          - TOTAL DEPTH DRILLER
RUN .         ONE                  : Run          - RUN NUMBER
ENG .         BILL                 : Engineer     - RECORDING ENGINEER
WIT .         JIM                  : Witness      - WITNESSED BY
MUD .         GEL                  : Mud_type     - MUD TYPE
MATR.         SANDSTONE            : Logunit      - NEUTRON MATRIX
TMAX.C        18                   : BHT          - MAXIMUM RECORDED TEMPERATURE
BHTD.M        238.1                : BHTDEP       - MAXIMUM RECORDED TEMPERATURE
MATR.         1                    : LOGUNIT      - NEUTRON MATRIX
RMT .C        16.7                 : MDTP         - TEMPERATURE OF MUD
NEUT.         1                    : NEUTRON      - NEUTRON TYPE
RESI.         0                    : RESIST       - RESISTIVITY TYPE
RMC .OHMM     3.07                 : RMC          - RESISTIVITY OF MUD CAKE
RMF .OHMM     3.05                 : RMF          - RESISTIVITY OF MUD FILTRATE
SUFT.C        -10                  : SUFT         - SURFACE TEMPERATURE
~A  DEPTH       GR      CAL     PHID     PHIN     RESD
# ...
  184.500  145.224  170.425    0.214    0.429    5.406
  184.750  130.271  170.446    0.188    0.424    5.396
  185.000  102.407  168.513    0.134    0.397    6.231
  185.250  100.660  167.066    0.092    0.384    7.598
  185.500  112.413  165.629    0.127    0.369    9.432
  185.750  119.180  165.652    0.154    0.367   10.986
  186.000  112.736  166.651    0.154    0.371   11.904
  186.250  109.230  167.164    0.117    0.380   11.882
  186.500  112.764  165.234    0.120    0.385   11.864
  186.750  120.703  165.746    0.168    0.389   11.735
  187.000  120.716  166.745    0.185    0.406   11.612
  187.250  121.317  167.264    0.182    0.418   11.177
  187.500  124.562  167.287    0.175    0.415   11.363
  187.750  112.250  166.819    0.120    0.400   11.981
  188.000  100.526  164.886    0.069    0.363   13.098
  188.250   89.094  162.956    0.041    0.325   14.450
  188.500   98.500  161.998    0.078    0.317   16.230
  188.750  117.882  161.044    0.122    0.327   16.806
  189.000  122.006  160.092    0.186    0.344   17.554
  189.250  119.379  159.630    0.198    0.364   17.524
  189.500  114.991  159.656    0.199    0.364   17.025
  189.750  112.658  159.674    0.197    0.335   16.997
  190.000  109.738  159.697    0.200    0.317   17.433
  190.250  105.643  160.213    0.195    0.296   18.716
  190.500   98.908  160.236    0.140    0.292   20.101
  190.750   85.424  160.257    0.099    0.283   22.995
  191.000   70.470  160.284    0.086    0.267   27.028
  191.250   71.368  160.307    0.137    0.251   30.370
  191.500   71.382  160.331    0.156    0.238   34.118
  191.750   67.873  160.354    0.065    0.222   37.639
  192.000   63.779  160.378    0.031    0.208   41.157
  192.250   61.152  160.401    0.024    0.195   44.184
  192.500   59.699  160.425    0.029    0.184   46.141
  192.750   60.887  160.448    0.031    0.194   47.355
  193.000   61.488  160.475    0.029    0.198   49.025
  193.250   61.504  160.498    0.028    0.194   49.830
  193.500   61.811  161.011    0.040    0.197   49.737
  193.750   64.762  161.524    0.085    0.217   47.031
  194.000   67.417  161.550    0.122    0.249   43.259
  194.250   70.365  161.571    0.105    0.265   40.906
  194.500   74.486  161.594    0.087    0.274   37.269
  194.750   73.328  161.618    0.069    0.271   35.242
  195.000   68.060  161.647    0.036    0.256   34.543
  195.250   70.422  161.668    0.028    0.242   35.452
  195.500   73.961  161.691    0.020    0.232   37.375
  195.750   75.732  161.721    0.028    0.226   39.029
  196.000   77.507  161.739    0.062    0.234   38.279
  196.250   85.740  161.762    0.154    0.284   34.891
  196.500  100.426  162.275    0.182    0.312   30.675
  196.750  107.777  162.793    0.174    0.342   24.179
  197.000  108.086  162.814    0.135    0.366   18.212
  197.250  105.459  163.816    0.070    0.376   15.723
  197.500  103.419  164.823    0.091    0.383   14.329
  197.750  108.715  165.822    0.166    0.388   13.797
  198.000  119.000  166.824    0.184    0.388   13.650
  198.250  115.788  167.336    0.172    0.385   13.752
  198.500  111.105  166.868    0.142    0.389   14.108
  198.750  111.121  165.919    0.136    0.389   14.470
  199.000  113.778  164.475    0.169    0.384   14.845
  199.250  115.551  164.499    0.181    0.378   14.956
  199.500  119.380  164.523    0.185    0.391   14.924
  199.750  120.277  164.546    0.192    0.399   14.768
  200.000  119.117  164.570    0.153    0.396   14.607
  200.250  111.500  164.104    0.090    0.395   14.716
  200.500  107.701  164.131    0.133    0.395   14.967
  200.750  113.289  164.151    0.173    0.382   14.942
  201.000  120.641  164.178    0.183    0.388   14.648
  201.250  122.417  164.198    0.181    0.402   14.099
  201.500  120.671  164.711    0.174    0.421   13.695
  201.750  116.577  164.245    0.145    0.418   13.305
  202.000  112.774  164.269    0.083    0.411   13.165
  202.250  108.973  163.803    0.074    0.399   13.024
  202.500  110.161  162.855    0.129    0.395   12.883
  202.750  116.048  163.364    0.155    0.389   12.978
  203.000  118.410  165.344    0.170    0.383   13.075
  203.250  121.357  166.346    0.180    0.396   13.172
  203.500  113.154  166.865    0.074    0.401   13.631
  203.750   97.909  165.415    0.044    0.400   13.863
  204.000  107.020  164.949    0.121    0.417   14.352
  204.250  125.817  165.465    0.155    0.401   14.325
  204.500  130.526  166.956    0.179    0.395   13.791
  204.750  127.314  167.958    0.184    0.402   13.038
  205.000  127.621  167.492    0.172    0.402   12.215
  205.250  130.275  167.026    0.150    0.396   11.760
  205.500  121.192  164.610    0.048    0.388   11.529
  205.750  110.055  164.631    0.074    0.390   11.510
  206.000  111.830  165.144    0.125    0.393   11.805
  206.250  121.236  166.148    0.173    0.381   11.896
  206.500  126.532  165.680    0.183    0.390   11.977
  206.750  131.242  166.682    0.179    0.394   11.849
  207.000  136.832  167.197    0.171    0.372   11.834
  207.250  140.075  167.707    0.165    0.349   12.251
  207.500  133.632  168.219    0.167    0.355   12.452
  207.750  134.235  168.735    0.167    0.352   13.009
  208.000  133.955  167.780    0.156    0.339   13.840
  208.250  129.861  167.315    0.089    0.327   15.130
  208.500  119.898  167.341    0.040    0.312   16.099
  208.750  105.826  166.876    0.003    0.295   17.919
  209.000  107.308  165.429    0.035    0.302   18.551
  209.250  117.299  165.456    0.147    0.323   19.031
  209.500  136.976  166.457    0.184    0.358   18.832
  209.750  133.763  166.478    0.180    0.368   17.169
  210.000  135.833  165.529    0.173    0.371   14.158
  210.250  137.899  165.553    0.175    0.374   13.880
  210.500  141.143  165.576    0.184    0.377   13.735
  210.750  145.851  165.600    0.194    0.384   13.223
  211.000  140.291  166.113    0.199    0.395   11.004
  211.250  135.903  167.114    0.200    0.409   10.500
  211.500  138.265  167.627    0.197    0.425    9.835
  211.750  141.507  169.607    0.190    0.440    9.555
  212.000  138.587  170.609    0.152    0.422    9.449
  212.250  127.743  165.747    0.086    0.394    9.610
  212.500  122.769  166.254    0.112    0.392    9.949
  212.750  130.412  167.262    0.163    0.389   10.114
  213.000  143.634  168.257    0.175    0.400   10.002
  213.250  148.930  169.262    0.181    0.415    9.897
  213.500  149.239  169.286    0.187    0.418    9.355
  213.750  144.850  169.309    0.189    0.417    8.683
  214.000  138.995  169.339    0.189    0.417    8.363
  214.250  134.607  168.867    0.185    0.418    8.051
  214.500  131.102  168.894    0.173    0.419    7.748
  214.750  132.290  167.936    0.165    0.414    7.667
  215.000  140.814  166.492    0.167    0.406    7.792
  215.250  144.349  164.070    0.156    0.398    8.139
  215.500  136.440  163.605    0.068    0.384    8.581
  215.750  119.141  163.145    0.015    0.375    9.216
  216.000  120.035  162.191    0.033    0.369   10.259
  216.250  147.047  162.700    0.110    0.355   11.633
  216.500  144.128  163.702    0.155    0.353   13.066
  216.750  130.642  164.704    0.169    0.360   14.284
  217.000  121.266  165.708    0.193    0.359   15.616
  217.250  113.650  164.754    0.225    0.350   17.072
  217.500   93.416  163.799    0.260    0.339   18.162
  217.750   71.715  162.848    0.282    0.336   20.215
  218.000   50.012  161.890    0.311    0.330   21.706
  218.250   43.278  160.452    0.317    0.342   23.735
  218.500   46.227  159.981    0.304    0.361   26.190
  218.750   49.763  160.004    0.279    0.358   30.511
  219.000   48.311  159.050    0.290    0.352   36.196
  219.250   44.509  158.587    0.289    0.348   47.460
  219.500   41.295  158.617    0.274    0.346   57.335
  219.750   36.029  159.123    0.276    0.350   67.389
  220.000   36.923  159.639    0.278    0.345   69.765
  220.250   38.109  159.662    0.280    0.341   69.663
  220.500   39.299  159.689    0.281    0.338   68.281
  220.750   41.369  159.707    0.281    0.338   66.955
