~VERSION INFORMATION
 VERS.                 2.0:   CWLS LOG ASCII STANDARD -VERSION 2.0
 WRAP.                  NO:   ONE LINE PER DEPTH STEP
~WELL INFORMATION BLOCK
#MNEM.UNIT           DATA                    DESCRIPTION OF MNEMONIC
#---------    -------------------            -------------------------------
# Generated from Intellog Unique Number	CS_67_68/WELL/776
WELL.         FISHER CREEK                   : Well_name    - WELL
LOC .         00/07-27-068-06W4/0            : Location     - LOCATION
UWI .         00/07-27-068-06W4/0            : Uwi          - UNIQUE WELL ID
ENTR.         SP                             : Entered      - ENTERED BY
SRVC.         SCHLUMBERGER                   : Scn          - SERVICE COMPANY
STRT.M        360                            : top_depth    - START DEPTH
STOP.M        580                            : bot_depth    - STOP DEPTH
STEP.M        0.25                           : increment    - STEP LENGTH
 NULL. -999.2500:NULL Value
~CURVE INFORMATION BLOCK
#MNEM UNIT       ERCB CURVE CODE    CURVE DESCRIPTION
#-----------   ------------------   ----------------------------------
DEPT.M        00 001 00 00         : DEPTH        - DEPTH
ILD .OHMM     00 120 00 00         : RESD         - DEEP RESISTIVITY (DIL)
DPHI.V/V      00 890 00 00         : PHID         - DENSITY POROSITY (LIMESTONE)
NPHI.V/V      00 330 00 00         : PHIN         - NEUTRON POROSITY (LIMESTONE)
GR  .API      00 310 00 00         : GR           - GAMMA RAY
~PARAMETER INFORMATION
#MNEM.UNIT           DATA             DESCRIPTION OF MNEMONIC
#---------         -----------     ------------------------------
GL  .M        704.1                : gl           - GROUND LEVEL ELEVATION
EREF.M        707.7                : kb           - ELEVATION OF DEPTH REFERENCE
DATM.M        704.1                : datum        - DATUM ELEVATION
TDD .M        582                  : tdd          - TOTAL DEPTH DRILLER
RUN .         ONE                  : Run          - RUN NUMBER
ENG .         BILL                 : Engineer     - RECORDING ENGINEER
WIT .         JIM                  : Witness      - WITNESSED BY
MUD .         GEL                  : Mud_type     - MUD TYPE
MATR.         LIMESTONE            : Logunit      - NEUTRON MATRIX
TMAX.C        18                   : BHT          - MAXIMUM RECORDED TEMPERATURE
BHTD.M        582                  : BHTDEP       - MAXIMUM RECORDED TEMPERATURE
MATR.         1                    : LOGUNIT      - NEUTRON MATRIX
RMT .C        25                   : MDTP         - TEMPERATURE OF MUD
NEUT.         1                    : NEUTRON      - NEUTRON TYPE
RESI.         0                    : RESIST       - RESISTIVITY TYPE
RMC .OHMM     0.25                 : RMC          - RESISTIVITY OF MUD CAKE
RMF .OHMM     0.25                 : RMF          - RESISTIVITY OF MUD FILTRATE
SUFT.C        15                   : SUFT         - SURFACE TEMPERATURE
~A  DEPTH     RESD     PHID     PHIN       GR
  360.000    3.527    0.222    0.505   90.757
  360.250    3.536    0.219    0.496   93.354
  360.500    3.518    0.235    0.484   97.244
  360.750    3.462    0.239    0.496   98.055
  361.000    3.374    0.240    0.509   95.546
  361.250    3.156    0.241    0.505   93.036
  361.500    3.013    0.252    0.494   91.264
  361.750    2.898    0.254    0.505   91.894
  362.000    2.868    0.256    0.512   95.597
  362.250    2.897    0.265    0.518   98.379
  362.500    2.976    0.267    0.508   95.377
  362.750    3.169    0.264    0.506   92.438
  363.000    3.298    0.257    0.500   91.957
  363.250    3.401    0.251    0.488   95.230
  363.500    3.482    0.251    0.476   91.678
  363.750    3.523    0.245    0.465   89.289
  364.000    3.558    0.234    0.474   88.316
  364.250    3.411    0.243    0.493   92.392
  364.500    3.318    0.257    0.501   95.972
  364.750    3.258    0.260    0.500   96.722
  365.000    3.183    0.268    0.504   93.106
  365.250    3.137    0.297    0.521   91.458
  365.500    3.098    0.304    0.541   91.039
  365.750    3.071    0.300    0.561   91.667
  366.000    3.062    0.306    0.575   92.049
  366.250    3.098    0.240    0.585   86.586
  366.500    3.496    0.211    0.595   80.571
  366.750    4.174    0.260    0.423   76.646
  367.000    4.873    0.281    0.383   77.273
  367.250    5.217    0.292    0.397   79.992
  367.500    5.575    0.295    0.404   82.344
  367.750    5.792    0.294    0.410   80.633
  368.000    5.829    0.294    0.408   75.169
  368.250    5.747    0.295    0.383   70.999
  368.500    5.643    0.306    0.369   68.121
  368.750    5.552    0.227    0.393   72.439
  369.000    5.556    0.227    0.401   67.899
  369.250    5.591    0.228    0.383   65.329
  369.500    5.628    0.250    0.384   67.556
  369.750    5.652    0.299    0.399   59.816
  370.000    5.624    0.324    0.412   52.507
  370.250    5.523    0.330    0.420   48.274
  370.500    5.454    0.310    0.394   46.996
  370.750    5.346    0.291    0.370   49.468
  371.000    5.250    0.279    0.355   59.081
  371.250    5.156    0.288    0.378   63.277
  371.500    5.111    0.300    0.382   59.290
  371.750    5.096    0.309    0.385   56.534
  372.000    5.128    0.310    0.397   55.994
  372.250    5.229    0.311    0.392   57.176
  372.500    5.413    0.315    0.409   58.912
  372.750    5.539    0.323    0.423   61.324
  373.000    5.680    0.311    0.412   64.044
  373.250    5.857    0.287    0.402   71.256
  373.500    5.962    0.268    0.406   78.529
  373.750    6.044    0.255    0.405   85.802
  374.000    6.164    0.241    0.407   90.737
  374.250    6.214    0.230    0.419   91.304
  374.500    6.241    0.243    0.400   86.088
  374.750    6.118    0.261    0.396   83.700
  375.000    5.940    0.282    0.409   82.236
  375.250    5.790    0.291    0.415   84.587
  375.500    5.708    0.294    0.430   85.400
  375.750    5.722    0.293    0.444   84.305
  376.000    5.747    0.305    0.450   83.764
  376.250    5.828    0.312    0.431   85.254
  376.500    5.953    0.314    0.429   89.636
  376.750    6.026    0.315    0.419   95.371
  377.000    5.928    0.332    0.405   92.307
  377.250    5.607    0.396    0.431   86.168
  377.500    5.098    0.448    0.522   82.674
  377.750    4.858    0.406    0.612   82.132
  378.000    4.744    0.286    0.598   90.330
  378.250    4.837    0.251    0.490   93.049
  378.500    4.914    0.240    0.472   93.429
  378.750    4.954    0.247    0.501   93.874
  379.000    5.015    0.270    0.518   93.640
  379.250    5.047    0.111    0.528   89.038
  379.500    5.069    0.192    0.453   84.990
  379.750    5.091    0.246    0.485   84.941
  380.000    5.123    0.293    0.508   74.002
  380.250    5.137    0.311    0.523   67.061
  380.500    5.168    0.324    0.471   65.721
  380.750    5.260    0.331    0.450   68.567
  381.000    5.333    0.346    0.443   70.239
  381.250    5.449    0.329    0.432   76.527
  381.500    5.641    0.316    0.422   80.663
  381.750    5.762    0.305    0.417   83.321
  382.000    5.886    0.316    0.436   79.214
  382.250    5.978    0.325    0.443   77.811
  382.500    6.073    0.311    0.456   82.806
  382.750    6.158    0.294    0.465   91.005
  383.000    6.162    0.240    0.434   95.199
  383.250    6.086    0.239    0.412   98.535
  383.500    5.778    0.254    0.451  100.701
  383.750    5.506    0.265    0.493   88.407
  384.000    5.257    0.283    0.519   72.915
  384.250    5.192    0.332    0.543   50.162
  384.500    5.166    0.349    0.540   37.007
  384.750    5.131    0.342    0.497   30.191
  385.000    5.096    0.340    0.446   40.480
  385.250    5.061    0.340    0.406   47.693
  385.500    5.036    0.339    0.409   53.121
  385.750    5.002    0.337    0.418   55.961
  386.000    4.986    0.343    0.424   53.575
  386.250    5.018    0.345    0.429   53.218
  386.500    5.107    0.342    0.431   54.709
  386.750    5.178    0.333    0.421   55.766
  387.000    5.231    0.333    0.404   59.226
  387.250    5.224    0.344    0.393   66.007
  387.500    5.219    0.348    0.412   71.189
  387.750    5.192    0.344    0.428   74.955
  388.000    5.284    0.334    0.433   73.552
  388.250    5.398    0.318    0.424   74.856
  388.500    5.578    0.302    0.403   78.376
  388.750    5.730    0.287    0.417   81.776
  389.000    5.842    0.280    0.433   83.632
  389.250    5.879    0.274    0.440   76.139
  389.500    5.763    0.255    0.430   68.584
  389.750    5.670    0.254    0.421   73.397
  390.000    5.547    0.269    0.433   78.946
  390.250    5.438    0.277    0.440   83.081
  390.500    5.400    0.271    0.442   74.110
  390.750    5.384    0.295    0.441   69.203
  391.000    5.429    0.330    0.441   70.506
  391.250    5.463    0.339    0.435   73.474
  391.500    5.498    0.338    0.442   75.271
  391.750    5.521    0.320    0.455   76.575
  392.000    5.568    0.296    0.452   77.881
  392.250    5.634    0.287    0.442   78.569
  392.500    5.680    0.280    0.431   78.398
  392.750    5.781    0.297    0.427   76.872
  393.000    5.828    0.314    0.450   74.362
  393.250    5.713    0.327    0.457   71.424
  393.500    5.579    0.343    0.452   70.327
  393.750    5.489    0.345    0.442   69.601
  394.000    5.473    0.339    0.456   68.322
  394.250    5.466    0.336    0.472   65.505
  394.500    5.480    0.341    0.473   63.979
  394.750    5.442    0.353    0.469   64.238
  395.000    5.385    0.358    0.462   64.437
  395.250    5.369    0.357    0.455   66.663
  395.500    5.362    0.349    0.449   73.075
  395.750    5.397    0.352    0.441   73.703
  396.000    5.493    0.325    0.450   72.793
  396.250    5.578    0.281    0.458   75.267
  396.500    5.829    0.265    0.463   78.481
  396.750    6.206    0.282    0.446   82.737
  397.000    6.657    0.307    0.428   80.413
  397.250    7.669    0.181    0.483   67.997
  397.500    9.330   -0.002    0.245   59.087
  397.750   10.790   -0.012    0.209   50.978
  398.000   11.508    0.103    0.189   56.222
  398.250   10.484    0.214    0.377   64.420
  398.500    8.943    0.262    0.436   69.476
  398.750    7.935    0.297    0.454   73.920
  399.000    6.936    0.310    0.445   76.394
  399.250    6.295    0.300    0.460   78.377
  399.500    5.954    0.289    0.473   79.558
  399.750    5.858    0.278    0.466   81.230
  400.000    5.952    0.272    0.457   85.922
  400.250    6.079    0.267    0.467   88.025
  400.500    6.412    0.260    0.477   85.638
  400.750    6.637    0.255    0.470   84.912
  401.000    6.567    0.254    0.469   86.710
  401.250    6.200    0.268    0.471   88.631
  401.500    5.964    0.262    0.466   89.627
  401.750    5.857    0.266    0.473   90.749
  402.000    5.850    0.282    0.480   90.825
  402.250    5.843    0.282    0.470   90.835
  402.500    5.814    0.267    0.460   90.786
  402.750    5.796    0.249    0.462   90.552
  403.000    5.725    0.257    0.479   91.181
  403.250    5.728    0.292    0.490   92.056
