~VERSION INFORMATION
 VERS.                 2.0:   CWLS LOG ASCII STANDARD -VERSION 2.0
 WRAP.                  NO:   ONE LINE PER DEPTH STEP
~WELL INFORMATION BLOCK
#MNEM.UNIT           DATA                    DESCRIPTION OF MNEMONIC
#---------    -------------------            -------------------------------
# Generated from Intellog Unique Number	CW_70_72/WELL/693
NULL.         -999.25                        : NULL_VALUE
WELL.         AMOCO MIAMI B-1 SPURFIELD 06-2 : Well_name    - WELL              
LOC .         06-22-071-02W5                 : Location     - LOCATION          
UWI .         00/06-22-071-02W5/0            : Uwi          - UNIQUE WELL ID    
ENTR.         JAYE                           : Entered      - ENTERED BY        
SRVC.         SCHLUMBERGER                   : Scn          - SERVICE COMPANY   
DATE.         12 MAR 75                      : Date         - LOG DATE          
STRT.M        365.76                         : top_depth    - START DEPTH       
STOP.M        615.76                         : bot_depth    - STOP DEPTH        
STEP.M        0.25                           : increment    - STEP LENGTH       
~CURVE INFORMATION BLOCK
#MNEM UNIT       ERCB CURVE CODE    CURVE DESCRIPTION
#-----------   ------------------   ----------------------------------
DEPT.M        00 001 00 00         : DEPTH        - DEPTH                       
DPHI.V/V      00 890 00 00         : PHID         - DENSITY POROSITY (SANDSTONE)
NPHI.V/V      00 330 00 00         : PHIN         - NEUTRON POROSITY (SANDSTONE)
GR  .API      00 310 00 00         : GR           - GAMMA RAY                   
CALI.MM       00 280 01 00         : CAL          - CALIPER                     
ILD .OHMM     00 120 00 00         : RESD         - DEEP RESISTIVITY (DIL)      
~PARAMETER INFORMATION       
#MNEM.UNIT           DATA             DESCRIPTION OF MNEMONIC
#---------         -----------     ------------------------------
GL  .M        584.911              : gl           - GROUND LEVEL ELEVATION      
EREF.M        589.026              : kb           - ELEVATION OF DEPTH REFERENCE
DATM.M        584.911              : datum        - DATUM ELEVATION             
TDD .M        614.172              : tdd          - TOTAL DEPTH DRILLER         
RUN .         ONE                  : Run          - RUN NUMBER                  
ENG .         JENSEN               : Engineer     - RECORDING ENGINEER          
WIT .         GIBSON               : Witness      - WITNESSED BY                
BASE.         R.D.                 : Branch       - HOME BASE OF LOGGING UNIT   
MATR.         SANDSTONE            : Logunit      - NEUTRON MATRIX              
TMAX.C        32.2222              : BHT          - MAXIMUM RECORDED TEMPERATURE
BHTD.M        613.867              : BHTDEP       - MAXIMUM RECORDED TEMPERATURE
RMT .C        23.3333              : MDTP         - TEMPERATURE OF MUD          
MUDD.KG/M     0                    : MWT          - MUD DENSITY                 
NEUT.         1                    : NEUTRON      - NEUTRON TYPE                
RESI.         0                    : RESIST       - RESISTIVITY TYPE            
RM  .OHMM     2                    : RM           - RESISTIVITY OF MUD          
RMC .OHMM     0                    : RMC          - RESISTIVITY OF MUD CAKE     
RMF .OHMM     1.95                 : RMF          - RESISTIVITY OF MUD FILTRATE 
SUFT.C        -17.7778             : SUFT         - SURFACE TEMPERATURE         
~A  DEPTH     PHID     PHIN       GR      CAL     RESD
# ...
  438.760    0.267    0.452   63.544  214.241    2.532
  439.010    0.257    0.447   63.551  214.286    2.500
  439.260    0.266    0.439   64.541  214.816    2.469
  439.510    0.271    0.430   65.838  214.733    2.424
  439.760    0.255    0.434   63.147  214.111    2.407
  440.010    0.270    0.441   61.258  212.892    2.403
  440.260    0.273    0.447   62.616  212.174    2.421
  440.510    0.267    0.460   65.015  211.780    2.386
  440.760    0.282    0.455   67.531  211.690    2.283
  441.010    0.311    0.448   69.805  212.520    2.082
  441.260    0.331    0.499   72.261  214.513    1.899
  441.510    0.357    0.538   75.643  225.534    1.813
  441.760    0.345    0.577   80.001  253.345    1.899
  442.010    0.359    0.577   82.092  253.553    2.115
  442.260    0.324    0.525   85.043  239.891    2.462
  442.510    0.229    0.480   87.257  221.650    2.979
  442.760    0.189    0.434   86.156  210.774    3.379
  443.010    0.162    0.445   82.804  214.213    3.769
  443.260    0.173    0.467   78.396  221.070    3.970
  443.510    0.186    0.462   74.119  221.591    3.949
  443.760    0.191    0.445   69.230  220.776    3.744
  444.010    0.222    0.429   65.073  220.174    3.536
  444.260    0.232    0.414   64.103  218.734    3.358
  444.510    0.234    0.411   62.391  217.204    3.249
  444.760    0.236    0.428   60.380  214.712    3.120
  445.010    0.256    0.443   59.843  213.385    3.036
  445.260    0.276    0.461   60.087  212.565    3.003
  445.510    0.296    0.475   60.839  212.151    3.026
  445.760    0.290    0.478   63.544  211.669    3.106
  446.010    0.278    0.460   67.040  211.067    3.188
  446.260    0.254    0.442   72.685  210.969    3.272
  446.510    0.222    0.449   79.003  211.177    3.365
  446.760    0.207    0.462   84.953  213.498    3.416
  447.010    0.186    0.464   80.977  221.387    3.474
  447.260    0.180    0.479   76.458  223.060    3.481
  447.510    0.193    0.479   72.174  222.238    3.502
  447.760    0.208    0.461   68.819  220.818    3.528
  448.010    0.221    0.440   68.030  217.404    3.562
  448.260    0.231    0.456   68.102  216.692    3.589
  448.510    0.241    0.463   69.272  217.121    3.643
  448.760    0.225    0.471   71.914  216.824    3.664
  449.010    0.198    0.484   70.147  214.766    3.652
  449.260    0.217    0.483   63.845  212.918    3.612
  449.510    0.242    0.465   58.897  211.580    3.380
  449.760    0.243    0.442   55.898  214.912    3.077
  450.010    0.225    0.419   59.215  214.822    2.734
  450.260    0.262    0.425   62.169  212.870    2.489
  450.510    0.314    0.449   58.562  208.742    2.131
  450.760    0.362    0.455   56.855  195.479    2.050
  451.010    0.369    0.457   57.903  180.140    2.128
  451.260    0.347    0.469   59.630  172.061    2.238
  451.510    0.329    0.473   63.067  172.689    2.335
  451.760    0.292    0.454   66.808  178.735    2.446
  452.010    0.265    0.458   64.798  192.540    2.433
  452.260    0.297    0.448   60.703  199.304    2.443
  452.510    0.290    0.432   62.793  205.853    2.489
  452.760    0.307    0.430   63.541  210.328    2.579
  453.010    0.295    0.434   61.892  211.372    2.701
  453.260    0.283    0.441   61.170  211.699    2.888
  453.510    0.309    0.445   60.444  211.188    3.104
  453.760    0.359    0.456   58.002  211.314    3.647
  454.010    0.428    0.495   53.355  211.536    4.743
  454.260    0.526    0.554   40.135  211.448    5.868
  454.510    0.581    0.600   24.217  211.656    7.534
  454.760    0.613    0.631   26.485  211.582    9.150
  455.010    0.629    0.630   30.606  213.047    7.607
  455.260    0.459    0.564   38.635  214.724    6.151
  455.510    0.405    0.490   45.814  215.365    4.910
  455.760    0.272    0.405   51.453  214.858    4.205
  456.010    0.232    0.395   47.726  214.552    3.607
  456.260    0.242    0.384   44.185  214.564    3.259
  456.510    0.264    0.384   44.859  214.790    2.983
  456.760    0.273    0.393   46.651  214.907    2.766
  457.010    0.272    0.404   49.354  214.915    2.608
  457.260    0.283    0.404   51.571  214.915    2.490
  457.510    0.283    0.402   51.270  214.735    2.370
  457.760    0.275    0.391   50.055  214.548    2.301
  458.010    0.278    0.388   49.077  214.256    2.243
  458.260    0.299    0.393   48.287  214.380    2.206
  458.510    0.309    0.403   48.303  214.374    2.282
  458.760    0.315    0.399   49.721  214.408    2.290
  459.010    0.312    0.396   52.547  214.106    2.274
  459.260    0.299    0.399   54.091  213.811    2.275
  459.510    0.291    0.398   53.976  213.100    2.275
  459.760    0.296    0.396   49.758  212.500    2.284
  460.010    0.296    0.394   49.887  212.302    2.272
  460.260    0.285    0.399   51.793  212.316    2.260
  460.510    0.281    0.414   54.190  212.127    2.248
  460.760    0.306    0.431   54.015  211.932    2.248
  461.010    0.311    0.431   53.294  211.328    2.245
  461.260    0.305    0.418   54.463  211.329    2.233
  461.510    0.312    0.404   55.209  211.142    2.221
  461.760    0.320    0.425   55.700  211.264    2.205
  462.010    0.326    0.450   56.017  211.170    2.193
  462.260    0.317    0.448   57.126  210.780    2.166
  462.510    0.306    0.437   57.264  210.792    2.158
  462.760    0.310    0.434   54.578  211.018    2.147
  463.010    0.312    0.438   52.260  212.265    2.151
  463.260    0.315    0.431   53.184  215.190    2.144
  463.510    0.309    0.445   54.115  217.692    2.140
  463.760    0.317    0.453   54.367  218.320    2.133
  464.010    0.315    0.445   53.515  217.202    2.133
  464.260    0.304    0.433   51.933  214.428    2.126
  464.510    0.296    0.423   52.307  211.214    2.126
  464.760    0.308    0.420   53.417  210.604    2.131
  465.010    0.314    0.419   53.239  211.238    2.135
  465.260    0.307    0.432   52.644  211.576    2.124
  465.510    0.298    0.456   52.593  212.100    2.113
  465.760    0.310    0.456   52.658  212.014    2.105
  466.010    0.312    0.447   51.067  211.816    2.106
  466.260    0.300    0.434   50.106  211.226    2.102
  466.510    0.313    0.429   49.249  211.022    2.091
  466.760    0.321    0.422   49.758  211.152    2.092
  467.010    0.319    0.409   52.642  211.149    2.104
  467.260    0.318    0.416   53.511  211.279    2.237
  467.510    0.323    0.431   51.063  211.503    2.532
  467.760    0.315    0.446   51.751  211.418    3.081
  468.010    0.299    0.423   51.147  211.317    3.833
  468.260    0.251    0.288   47.294  211.655    4.849
  468.510    0.174    0.224   43.570  213.632    5.878
  468.760    0.107    0.244   44.618  216.333    5.450
  469.010    0.105    0.284   46.344  217.915    4.033
  469.260    0.151    0.358   48.497  211.501    3.207
  469.510    0.286    0.432   49.973  206.535    2.495
  469.760    0.322    0.446   50.962  205.188    2.152
  470.010    0.318    0.447   51.460  205.316    1.909
  470.260    0.315    0.451   51.837  205.330    1.787
  470.510    0.317    0.454   53.313  205.653    1.800
  470.760    0.320    0.444   53.569  206.408    1.824
  471.010    0.320    0.436   50.945  208.076    1.852
  471.260    0.317    0.444   46.360  211.097    1.883
  471.510    0.325    0.453   45.696  213.590    1.912
  471.760    0.315    0.467   47.297  214.133    1.941
  472.010    0.328    0.453   49.326  214.136    1.970
  472.260    0.340    0.444   51.478  214.276    1.989
  472.510    0.335    0.441   52.219  214.588    2.004
  472.760    0.322    0.438   53.145  215.131    2.008
  473.010    0.313    0.432   54.443  213.903    2.020
  473.260    0.319    0.426   55.675  210.908    2.065
  473.510    0.314    0.416   60.833  211.132    2.216
  473.760    0.310    0.438   58.697  209.591    2.468
  474.010    0.306    0.446   57.051  207.630    2.653
  474.260    0.294    0.442   57.854  207.230    2.948
  474.510    0.266    0.430   58.657  207.645    3.229
  474.760    0.241    0.421   60.131  207.888    3.290
  475.010    0.272    0.482   61.795  208.526    3.130
