~VERSION INFORMATION
 VERS.                 2.0:   CWLS LOG ASCII STANDARD -VERSION 2.0
 WRAP.                  NO:   ONE LINE PER DEPTH STEP
~WELL INFORMATION BLOCK
#MNEM.UNIT           DATA                    DESCRIPTION OF MNEMONIC
#---------    -------------------            -------------------------------
# Generated from Intellog Unique Number	CW_73_75/WELL/3521
WELL.         G&W ET AL SPUR                 : Well_name    - WELL
LOC .         00/08-05-073-02W5/0            : Location     - LOCATION
UWI .         00/08-05-073-02W5/0            : Uwi          - UNIQUE WELL ID
ENTR.         TOM                            : Entered      - ENTERED BY
SRVC.         SCHLUMBERGER                   : Scn          - SERVICE COMPANY
STRT.M        350                            : top_depth    - START DEPTH
STOP.M        600                            : bot_depth    - STOP DEPTH
STEP.M        0.25                           : increment    - STEP LENGTH
 NULL. -999.2500:NULL Value
~CURVE INFORMATION BLOCK
#MNEM UNIT       ERCB CURVE CODE    CURVE DESCRIPTION
#-----------   ------------------   ----------------------------------
DEPT.M        00 001 00 00         : DEPTH        - DEPTH
GR  .API      00 310 00 00         : GR           - GAMMA RAY
NPHI.V/V      00 330 00 00         : PHIN         - NEUTRON POROSITY (SANDSTONE)
DPHI.V/V      00 890 00 00         : PHID         - DENSITY POROSITY (SANDSTONE)
ILD .OHMM     00 120 00 00         : RESD         - DEEP RESISTIVITY (DIL)
~PARAMETER INFORMATION
#MNEM.UNIT           DATA             DESCRIPTION OF MNEMONIC
#---------         -----------     ------------------------------
GL  .M        601.5                : gl           - GROUND LEVEL ELEVATION
EREF.M        604.3                : kb           - ELEVATION OF DEPTH REFERENCE
DATM.M        604.3                : datum        - DATUM ELEVATION
TDD .M        604                  : tdd          - TOTAL DEPTH DRILLER
RUN .         ONE                  : Run          - RUN NUMBER
ENG .         BILL                 : Engineer     - RECORDING ENGINEER
WIT .         JIM                  : Witness      - WITNESSED BY
MUD .         GEL                  : Mud_type     - MUD TYPE
MATR.         SANDSTONE            : Logunit      - NEUTRON MATRIX
TMAX.C        28                   : BHT          - MAXIMUM RECORDED TEMPERATURE
BHTD.M        604                  : BHTDEP       - MAXIMUM RECORDED TEMPERATURE
RMT .C        17                   : MDTP         - TEMPERATURE OF MUD
MUDD.KG/M     1100                 : MWT          - MUD DENSITY
NEUT.         1                    : NEUTRON      - NEUTRON TYPE
RESI.         0                    : RESIST       - RESISTIVITY TYPE
RM  .OHMM     4.5                  : RM           - RESISTIVITY OF MUD
RMC .OHMM     0                    : RMC          - RESISTIVITY OF MUD CAKE
RMF .OHMM     2.744                : RMF          - RESISTIVITY OF MUD FILTRATE
SUFT.C        15                   : SUFT         - SURFACE TEMPERATURE
~A  DEPTH       GR     PHIN     PHID     RESD
# ...
  524.000   92.895    0.406    0.178    5.276
  524.250   93.422    0.403    0.179    5.271
  524.500   95.125    0.392    0.184    5.264
  524.750   96.248    0.382    0.191    5.064
  525.000   93.788    0.373    0.209    4.967
  525.250   89.553    0.371    0.200    4.960
  525.500   83.509    0.352    0.184    5.536
  525.750   79.257    0.337    0.186    6.179
  526.000   74.969    0.316    0.184    6.894
  526.250   75.496    0.297    0.170    6.637
  526.500   78.411    0.322    0.160    6.040
  526.750   82.557    0.349    0.155    5.813
  527.000   87.861    0.377    0.154    5.391
  527.250   89.582    0.395    0.154    4.906
  527.500   87.104    0.389    0.155    4.636
  527.750   87.033    0.380    0.155    4.380
  528.000   88.174    0.379    0.157    4.136
  528.250   89.298    0.382    0.157    4.055
  528.500   90.421    0.388    0.157    4.051
  528.750   90.350    0.390    0.157    4.045
  529.000   90.858    0.391    0.160    4.039
  529.250   90.805    0.391    0.167    4.108
  529.500   91.296    0.390    0.176    4.259
  529.750   91.260    0.390    0.190    4.414
  530.000   89.362    0.395    0.199    4.575
  530.250   87.499    0.400    0.211    4.743
  530.500   85.021    0.405    0.214    4.915
  530.750   82.578    0.403    0.214    5.091
  531.000   80.733    0.396    0.212    5.181
  531.250   80.662    0.390    0.211    5.472
  531.500   81.785    0.383    0.208    5.993
  531.750   81.714    0.355    0.206    6.325
  532.000   79.218    0.348    0.198    6.439
  532.250   75.563    0.338    0.185    6.669
  532.500   71.329    0.287    0.142    7.046
  532.750   65.285    0.215    0.106    7.719
  533.000   57.413    0.216    0.025    8.616
  533.250   55.550    0.288    0.022    9.979
  533.500   57.886    0.319    0.028   12.679
  533.750   64.403    0.322    0.062   15.814
  534.000   72.097    0.345    0.111   15.498
  534.250   79.194    0.353    0.137   14.378
  534.500   83.268    0.361    0.161   12.849
  534.750   84.427    0.373    0.181    9.538
  535.000   86.148    0.378    0.185    8.680
  535.250   86.656    0.366    0.188    8.206
  535.500   87.218    0.363    0.189    7.064
  535.750   88.939    0.369    0.190    6.197
  536.000   93.646    0.375    0.180    5.536
  536.250   99.548    0.398    0.169    5.042
  536.500  103.640    0.405    0.171    4.676
  536.750  102.374    0.381    0.172    4.417
  537.000   99.914    0.376    0.173    4.248
  537.250   97.472    0.372    0.173    4.168
  537.500   97.400    0.377    0.172    4.161
  537.750   97.909    0.393    0.170    4.234
  538.000   98.453    0.392    0.168    4.386
  538.250   98.382    0.385    0.170    4.465
  538.500   97.696    0.380    0.177    4.626
  538.750   97.027    0.374    0.182    4.794
  539.000   95.164    0.367    0.182    4.876
  539.250   91.492    0.358    0.179    5.052
  539.500   89.646    0.349    0.177    5.234
  539.750   87.783    0.354    0.172    5.134
  540.000   85.920    0.361    0.162    5.224
  540.250   83.460    0.369    0.149    5.218
  540.500   80.982    0.374    0.145    5.210
  540.750   82.703    0.379    0.152    5.299
  541.000   85.039    0.388    0.155    5.295
  541.250   89.149    0.385    0.152    5.387
  541.500   89.675    0.381    0.149    5.380
  541.750   87.215    0.375    0.144    5.474
  542.000   83.542    0.371    0.139    5.567
  542.250   84.050    0.366    0.142    5.560
  542.500   85.174    0.359    0.145    5.553
  542.750   87.492    0.354    0.150    5.246
  543.000   89.248    0.353    0.156    4.865
  543.250   93.358    0.358    0.160    4.857
  543.500   96.853    0.365    0.165    4.852
  543.750   98.592    0.374    0.169    4.936
  544.000   96.729    0.387    0.167    5.116
  544.250   96.640    0.381    0.160    5.207
  544.500   97.746    0.359    0.154    5.295
  544.750   98.905    0.351    0.143    5.486
  545.000   98.236    0.342    0.136    5.481
  545.250   94.546    0.348    0.136    5.574
  545.500   90.311    0.357    0.139    5.671
  545.750   89.625    0.368    0.139    5.664
  546.000   90.766    0.374    0.137    5.762
  546.250   93.664    0.384    0.133    5.755
  546.500   96.000    0.392    0.136    5.747
  546.750   99.513    0.388    0.144    5.738
  547.000  102.446    0.378    0.153    5.734
  547.250  105.361    0.366    0.154    5.834
  547.500  103.498    0.359    0.154    5.823
  547.750   98.034    0.350    0.155    5.817
  548.000   91.990    0.343    0.156    5.809
  548.250   86.543    0.340    0.161    6.605
  548.500   79.866    0.341    0.168    7.106
  548.750   76.790    0.344    0.176    8.384
  549.000   75.560    0.348    0.187   11.687
  549.250   74.892    0.357    0.196   12.108
  549.500   77.790    0.368    0.211   12.557
  549.750   80.108    0.369    0.210   12.536
  550.000   78.842    0.372    0.204   12.057
  550.250   74.608    0.368    0.202   11.398
  550.500   72.727    0.363    0.197   10.373
  550.750   73.868    0.358    0.197   10.172
  551.000   76.748    0.348    0.199    9.973
  551.250   77.310    0.336    0.198   10.146
  551.500   77.239    0.323    0.192   10.130
  551.750   75.955    0.312    0.182   10.502
  552.000   76.481    0.305    0.143   10.677
  552.250   78.799    0.293    0.139   10.870
  552.500   81.733    0.300    0.119   11.472
  552.750   87.634    0.329    0.125   11.675
  553.000   97.717    0.348    0.146   12.096
  553.250  110.189    0.356    0.143   12.084
  553.500  105.955    0.332    0.120   11.001
  553.750   87.947    0.320    0.109    8.633
  554.000   80.709    0.285    0.093    7.571
  554.250   74.049    0.279    0.083    7.024
  554.500   76.368    0.323    0.106    7.012
  554.750   82.885    0.353    0.131    7.005
  555.000   88.189    0.365    0.142    7.260
  555.250   91.684    0.334    0.168    8.103
  555.500   91.033    0.287    0.167    9.382
  555.750   84.989    0.312    0.138    9.727
  556.000   86.710    0.356    0.114    9.711
  556.250   92.612    0.369    0.112    8.681
  556.500   94.297    0.370    0.136    7.758
  556.750   92.470    0.342    0.136    6.681
  557.000   88.218    0.318    0.134    6.194
  557.250   82.753    0.292    0.121    5.957
  557.500   77.306    0.273    0.100    5.953
  557.750   71.859    0.264    0.074    6.056
  558.000   74.160    0.309    0.072    6.635
  558.250   76.496    0.336    0.102    7.544
  558.500   79.411    0.345    0.106    8.114
  558.750   84.716    0.350    0.106    7.806
  559.000   88.826    0.341    0.110    7.375
  559.250   90.529    0.339    0.113    6.839
  559.500   89.843    0.333    0.121    6.584
  559.750   88.595    0.329    0.125    6.218
  560.000   86.732    0.326    0.126    6.206
  560.250   86.063    0.326    0.126    6.318
  560.500   86.589    0.326    0.126    6.425
  560.750   88.310    0.326    0.124    6.421
  561.000   89.451    0.321    0.122    6.653
  561.250   89.380    0.315    0.119    6.644
  561.500   88.694    0.305    0.115    6.884
  561.750   86.813    0.299    0.113    6.879
  562.000   85.566    0.295    0.103    7.130
  562.250   84.282    0.294    0.095    7.387
  562.500   84.211    0.296    0.087    7.653
  562.750   85.950    0.301    0.082    7.648
  563.000   90.674    0.311    0.090    7.498
  563.250  100.757    0.323    0.110    6.824
  563.500  104.867    0.343    0.118    6.098
  563.750  105.973    0.388    0.150    5.449
  564.000  102.898    0.450    0.179    4.781
  564.250  100.473    0.500    0.214    3.823
  564.500   98.013    0.512    0.227    2.735
  564.750   97.942    0.511    0.235    2.269
  565.000   99.065    0.506    0.241    2.028
  565.250  103.175    0.500    0.232    1.812
  565.500  106.091    0.492    0.224    1.712
  565.750  107.214    0.478    0.211    1.647
  566.000  105.333    0.465    0.198    1.676
  566.250  104.683    0.460    0.191    1.737
  566.500  104.014    0.458    0.187    1.903
  566.750  105.102    0.455    0.160    2.124
  567.000  105.067    0.453    0.137    2.461
  567.250  102.606    0.452    0.105    3.069
