~VERSION INFORMATION
 VERS.                 2.0:   CWLS LOG ASCII STANDARD -VERSION 2.0
 WRAP.                  NO:   ONE LINE PER DEPTH STEP
~WELL INFORMATION BLOCK
#MNEM.UNIT           DATA                    DESCRIPTION OF MNEMONIC
#---------    -------------------            -------------------------------
# Generated from Intellog Unique Number	CW_82_90/WELL/529
WELL.         ANDEX WABASCA 06-23            : Well_name    - WELL
LOC .         00/06-23-082-22W4/0            : Location     - LOCATION
UWI .         00/06-23-082-22W4/0            : Uwi          - UNIQUE WELL ID
ENTR.         JAYE                           : Entered      - ENTERED BY
SRVC.         SCHLUMBERGER                   : Scn          - SERVICE COMPANY
DATE.         30 JAN 74                      : Date         - LOG DATE
STRT.M        228.6                          : top_depth    - START DEPTH
STOP.M        435.85                         : bot_depth    - STOP DEPTH
STEP.M        0.25                           : increment    - STEP LENGTH
 NULL. -999.2500:NULL Value
~CURVE INFORMATION BLOCK
#MNEM UNIT       ERCB CURVE CODE    CURVE DESCRIPTION
#-----------   ------------------   ----------------------------------
DEPT.M        00 001 00 00         : DEPTH        - DEPTH
GR  .API      00 310 00 00         : GR           - GAMMA RAY
NPHI.V/V      00 330 00 00         : PHIN         - NEUTRON POROSITY (SANDSTONE)
DPHI.V/V      00 890 00 00         : PHID         - DENSITY POROSITY (SANDSTONE)
CALI.MM       00 280 01 00         : CAL          - CALIPER
ILD .OHMM     00 120 00 00         : RESD         - DEEP RESISTIVITY (DIL)
~PARAMETER INFORMATION
#MNEM.UNIT           DATA             DESCRIPTION OF MNEMONIC
#---------         -----------     ------------------------------
GL  .M        622.554              : gl           - GROUND LEVEL ELEVATION
EREF.M        626.364              : kb           - ELEVATION OF DEPTH REFERENCE
DATM.M        622.554              : datum        - DATUM ELEVATION
TDD .M        448.97               : tdd          - TOTAL DEPTH DRILLER
RUN .         ONE                  : Run          - RUN NUMBER
ENG .         HITCHNER             : Engineer     - RECORDING ENGINEER
WIT .         SAYERS               : Witness      - WITNESSED BY
BASE.         EDMONTON             : Branch       - HOME BASE OF LOGGING UNIT
MUD .         GEL CHEM             : Mud_type     - MUD TYPE
MATR.         SANDSTONE            : Logunit      - NEUTRON MATRIX
TMAX.C        21.6667              : BHT          - MAXIMUM RECORDED TEMPERATURE
BHTD.M        448.97               : BHTDEP       - MAXIMUM RECORDED TEMPERATURE
RMT .C        15                   : MDTP         - TEMPERATURE OF MUD
MUDD.KG/M     1000                 : MWT          - MUD DENSITY
NEUT.         1                    : NEUTRON      - NEUTRON TYPE
RESI.         0                    : RESIST       - RESISTIVITY TYPE
RM  .OHMM     7.42                 : RM           - RESISTIVITY OF MUD
RMC .OHMM     0.25                 : RMC          - RESISTIVITY OF MUD CAKE
RMF .OHMM     7.35                 : RMF          - RESISTIVITY OF MUD FILTRATE
SUFT.C        4                    : SUFT         - SURFACE TEMPERATURE
~A  DEPTH       GR     PHIN     PHID      CAL     RESD
  228.600   95.633    0.586    0.284  178.484    3.036
  228.850   97.050    0.584    0.271  176.655    2.954
  229.100   95.661    0.582    0.259  176.371    2.918
  229.350   93.481    0.580    0.264  173.103    2.940
  229.600   91.118    0.579    0.270  172.612    3.206
  229.850   88.207    0.579    0.250  171.607    3.727
  230.100   84.014    0.576    0.250  170.915    4.223
  230.350   75.251    0.560    0.262  171.863    4.698
  230.600   64.904    0.509    0.254  172.507    6.817
  230.850   54.739    0.486    0.253  169.137    9.640
  231.100   44.757    0.426    0.274  164.423   12.170
  231.350   39.529    0.440    0.303  163.419   15.448
  231.600   38.690    0.510    0.334  157.780   16.936
  231.850   36.875    0.525    0.345  153.996   17.067
  232.100   38.900    0.531    0.355  151.658   17.551
  232.350   39.036    0.536    0.353  151.380   18.212
  232.600   38.258    0.523    0.353  151.701   19.108
  232.850   37.967    0.493    0.348  152.553   20.418
  233.100   36.457    0.512    0.339  152.890   22.634
  233.350   35.557    0.524    0.356  153.528   25.041
  233.600   33.560    0.535    0.359  154.693   28.583
  233.850   35.341    0.539    0.359  155.743   36.549
  234.100   37.306    0.537    0.354  156.806   48.389
  234.350   35.612    0.494    0.359  157.444   54.428
  234.600   32.762    0.475    0.357  157.778   56.377
  234.850   32.227    0.476    0.350  157.797   57.548
  235.100   31.997    0.469    0.342  159.469   58.000
  235.350   31.588    0.483    0.347  161.764   59.855
  235.600   34.342    0.491    0.346  163.128   62.684
  235.850   35.087    0.498    0.346  163.665   65.646
  236.100   34.187    0.489    0.353  164.101   68.000
  236.350   34.688    0.477    0.354  165.979   70.178
  236.600   35.252    0.469    0.354  167.655   76.518
  236.850   36.423    0.467    0.355  168.913   73.930
  237.100   38.633    0.472    0.355  169.039   65.898
  237.350   40.900    0.509    0.350  169.475   54.792
  237.600   41.707    0.550    0.351  170.738   47.343
  237.850   43.001    0.547    0.354  171.587   41.360
  238.100   42.832    0.536    0.364  172.230   36.331
  238.350   41.627    0.557    0.358  171.739   31.393
  238.600   41.336    0.568    0.358  170.733   27.881
  238.850   42.508    0.527    0.358  166.640   24.944
  239.100   42.278    0.526    0.353  165.536   21.911
  239.350   41.317    0.563    0.351  166.695   19.318
  239.600   42.185    0.578    0.356  167.232   21.729
  239.850   42.625    0.578    0.349  160.154   25.121
  240.100   40.812    0.567    0.353  157.812   28.050
  240.350   39.853    0.547    0.358  156.806   30.196
  240.600   40.660    0.527    0.362  156.525   29.551
  240.850   40.364    0.539    0.368  157.885   25.628
  241.100   41.780    0.510    0.366  160.279   22.184
  241.350   43.867    0.522    0.360  156.395   22.813
  241.600   45.770    0.524    0.356  155.805   23.586
  241.850   44.809    0.515    0.358  155.719   26.529
  242.100   44.519    0.512    0.363  155.950   30.226
  242.350   44.227    0.528    0.360  155.564   33.504
  242.600   45.156    0.526    0.367  155.897   36.596
  242.850   45.047    0.548    0.360  156.746   37.634
  243.100   44.452    0.558    0.357  157.596   36.895
  243.350   45.014    0.553    0.365  157.619   37.730
  243.600   45.089    0.527    0.374  157.748   39.371
  243.850   44.433    0.510    0.362  157.570   37.623
  244.100   43.654    0.522    0.364  157.696   35.953
  244.350   43.181    0.542    0.360  157.411   36.835
  244.600   42.526    0.557    0.355  156.925   35.526
  244.850   42.112    0.551    0.351  157.053   34.575
  245.100   44.079    0.521    0.356  157.178   33.102
  245.350   43.785    0.492    0.348  157.003   31.809
  245.600   43.555    0.505    0.323  156.409   31.189
  245.850   43.508    0.521    0.308  156.327   30.801
  246.100   43.645    0.510    0.332  156.455   29.814
  246.350   43.904    0.527    0.338  156.586   30.827
  246.600   44.587    0.541    0.352  156.710   32.581
  246.850   45.332    0.556    0.355  156.735   34.563
  247.100   46.138    0.570    0.366  156.759   36.328
  247.350   45.482    0.577    0.372  156.476   38.893
  247.600   48.118    0.568    0.373  156.298   38.623
  247.850   48.801    0.543    0.372  156.530   34.113
  248.100   47.108    0.521    0.367  156.860   25.834
  248.350   49.317    0.500    0.352  157.918   22.200
  248.600   49.025    0.493    0.333  158.664   20.868
  248.850   45.322    0.483    0.333  157.659   19.616
  249.100   47.228    0.455    0.329  155.521   20.696
  249.350   49.311    0.480    0.330  154.515   23.320
  249.600   50.910    0.505    0.348  153.921   26.619
  249.850   52.390    0.530    0.361  153.125   29.290
  250.100   51.060    0.539    0.369  152.530   32.466
  250.350   51.318    0.554    0.361  151.939   37.468
  250.600   52.673    0.564    0.369  151.656   40.777
  250.850   54.210    0.553    0.373  150.662   43.020
  251.100   54.469    0.519    0.372  150.476   39.996
  251.350   55.274    0.505    0.369  150.187   25.734
  251.600   60.531    0.501    0.364  149.903   16.168
  251.850   68.651    0.494    0.350  149.722    9.864
  252.100   90.668    0.463    0.317  150.156    7.907
  252.350   99.277    0.547    0.243  155.332    5.575
  252.600   99.839    0.571    0.252  161.845    4.560
  252.850  100.645    0.597    0.256  165.265    4.294
  253.100   99.928    0.597    0.235  164.467    4.497
  253.350   98.785    0.600    0.226  164.286    4.624
  253.600   96.360    0.571    0.214  165.237    4.790
  253.850   93.509    0.506    0.223  165.676    4.998
  254.100   97.061    0.485    0.220  165.392    5.168
  254.350   99.693    0.478    0.216  164.903    5.333
  254.600  104.286    0.483    0.211  162.146    5.444
  254.850  105.391    0.484    0.219  164.848    5.486
  255.100  105.160    0.490    0.214  164.980    5.509
  255.350  101.943    0.498    0.211  165.104    5.470
  255.600  104.099    0.516    0.201  164.822    5.413
  255.850  104.592    0.534    0.196  164.437    5.405
  256.100  104.607    0.555    0.216  164.361    5.437
  256.350  100.417    0.567    0.223  164.381    5.570
  256.600   97.380    0.533    0.228  163.996    5.656
  256.850   98.796    0.490    0.223  163.713    5.710
  257.100   98.872    0.467    0.206  163.532    5.807
  257.350   98.520    0.474    0.207  163.348    5.982
  257.600   99.390    0.492    0.209  162.858    5.886
  257.850  102.144    0.505    0.195  162.061    5.792
  258.100  103.864    0.506    0.200  161.775    5.679
  258.350  102.050    0.498    0.212  161.492    5.629
  258.600  100.906    0.490    0.227  161.207    5.642
  258.850   98.970    0.502    0.225  160.925    5.749
  259.100   98.436    0.516    0.224  160.851    5.783
  259.350   97.169    0.520    0.222  160.975    5.806
  259.600   96.392    0.510    0.215  161.720    5.873
  259.850   94.942    0.525    0.214  163.599    5.930
  260.100   94.285    0.563    0.221  165.785    5.922
  260.350   93.446    0.572    0.231  168.077    5.923
  260.600   94.314    0.519    0.255  171.501    5.839
  260.850   94.144    0.505    0.248  166.272    5.715
  261.100   88.554    0.505    0.249  162.592    5.614
  261.350   85.639    0.512    0.251  156.542    5.524
  261.600   83.519    0.544    0.251  153.481    5.711
  261.850   76.585    0.559    0.248  156.491    6.003
  262.100   68.918    0.575    0.243  158.677    6.666
  262.350   63.447    0.531    0.242  152.626    7.778
  262.600   64.621    0.543    0.249  151.724   10.242
  262.850   61.038    0.555    0.363  148.867   13.634
  263.100   52.702    0.491    0.372  147.347   16.745
  263.350   50.461    0.465    0.364  152.628   19.043
  263.600   49.864    0.447    0.369  151.722   19.726
  263.850   49.513    0.454    0.371  146.289   18.989
  264.100   46.421    0.473    0.370  148.168   18.414
  264.350   47.772    0.487    0.364  149.121   17.989
  264.600   49.801    0.486    0.365  148.220   17.832
  264.850   48.349    0.474    0.362  143.612   17.806
