~VERSION INFORMATION
 VERS.                 2.0:   CWLS LOG ASCII STANDARD -VERSION 2.0
 WRAP.                  NO:   ONE LINE PER DEPTH STEP
~WELL INFORMATION BLOCK
#MNEM.UNIT           DATA                    DESCRIPTION OF MNEMONIC
#---------    -------------------            -------------------------------
# Generated from Intellog Unique Number	CC_80_83/WELL/2296
NULL.         -999.25                        : NULL_VALUE
WELL.         AMOCO B-2A SURMONT             : Well_name    - WELL
LOC .         07-16-083-09W4                 : Location     - LOCATION          
UWI .         00/07-16-083-09W400            : Uwi          - UNIQUE WELL ID    
ENTR.         DW                             : Entered      - ENTERED BY        
SRVC.         SCHLUMBERGER                   : Scn          - SERVICE COMPANY   
DATE.         27 MAR 74                      : Date         - LOG DATE
STRT.M        259.08                         : top_depth    - START DEPTH       
STOP.M        466.35                         : bot_depth    - STOP DEPTH        
STEP.M        0.305                          : increment    - STEP LENGTH       
~CURVE INFORMATION BLOCK
#MNEM UNIT       ERCB CURVE CODE    CURVE DESCRIPTION
#-----------   ------------------   ----------------------------------
DEPT.M        00 001 00 00         : DEPTH        - DEPTH                       
DPHI.V/V      00 890 00 00         : PHID         - DENSITY POROSITY (LIMESTONE)
NPHI.V/V      00 330 00 00         : PHIN         - NEUTRON POROSITY (LIMESTONE)
GR  .API      00 310 00 00         : GR           - GAMMA RAY                   
ILD .OHMM     00 120 00 00         : RESD         - DEEP RESISTIVITY (DIL)      
~PARAMETER INFORMATION       
#MNEM.UNIT           DATA             DESCRIPTION OF MNEMONIC
#---------         -----------     ------------------------------
GL  .M        732.739              : gl           - GROUND LEVEL ELEVATION      
EREF.M        736.397              : kb           - ELEVATION OF DEPTH REFERENCE
DATM.M        736.397              : datum        - DATUM ELEVATION             
TDD .M        466.954              : tdd          - TOTAL DEPTH DRILLER         
RUN .         ONE                  : Run          - RUN NUMBER                  
ENG .         BILL                 : Engineer     - RECORDING ENGINEER          
WIT .         JIM                  : Witness      - WITNESSED BY                
MUD .         GEL                  : Mud_type     - MUD TYPE                    
MATR.         LIMESTONE            : Logunit      - NEUTRON MATRIX              
TMAX.C        23.3333              : BHT          - MAXIMUM RECORDED TEMPERATURE
BHTD.M        466.954              : BHTDEP       - MAXIMUM RECORDED TEMPERATURE
MATR.         1                    : LOGUNIT      - NEUTRON MATRIX              
RMT .C        25                   : MDTP         - TEMPERATURE OF MUD          
NEUT.         1                    : NEUTRON      - NEUTRON TYPE                
RESI.         0                    : RESIST       - RESISTIVITY TYPE            
RMC .OHMM     0.25                 : RMC          - RESISTIVITY OF MUD CAKE     
RMF .OHMM     0.25                 : RMF          - RESISTIVITY OF MUD FILTRATE 
SUFT.C        15                   : SUFT         - SURFACE TEMPERATURE         
~A  DEPTH     PHID     PHIN       GR     RESD
# ...
  418.191    0.191    0.435   96.360    9.938
  418.495    0.204    0.438   96.978    9.392
  418.800    0.236    0.442   95.164    9.210
  419.105    0.256    0.445   92.136    9.910
  419.410    0.272    0.417   90.930   10.466
  419.715    0.256    0.399   92.153   10.852
  420.019    0.229    0.424   89.735   10.447
  420.324    0.238    0.453   79.422    8.357
  420.629    0.238    0.437   79.432    6.812
  420.934    0.227    0.460   83.691    5.450
  421.239    0.244    0.472   87.341    4.610
  421.543    0.223    0.493   88.565    4.120
  421.848    0.245    0.506   91.006    4.516
  422.153    0.231    0.511   93.444    5.532
  422.458    0.209    0.505   94.665    7.295
  422.763    0.201    0.493   94.672    9.270
  423.068    0.211    0.472   97.110   10.162
  423.372    0.218    0.447   99.550   11.770
  423.677    0.214    0.436   97.129   12.664
  423.982    0.275    0.404   88.031   13.627
  424.287    0.298    0.372   81.967   14.660
  424.592    0.314    0.366   81.369   15.197
  424.896    0.312    0.375   81.379   14.902
  425.201    0.265    0.366   78.960   14.353
  425.506    0.176    0.380   76.538   12.592
  425.811    0.201    0.420   74.726   11.053
  426.116    0.181    0.427   69.270    9.524
  426.420    0.144    0.429   65.029    7.908
  426.725    0.206    0.465   72.932    6.940
  427.030    0.190    0.482   78.406    6.558
  427.335    0.176    0.493   85.093    6.430
  427.640    0.180    0.498   90.565    6.547
  427.944    0.182    0.485   95.433    7.044
  428.249    0.185    0.493   99.693    7.579
  428.554    0.193    0.483  101.522    8.153
  428.859    0.202    0.432  103.352    7.994
  429.164    0.190    0.428  102.149    7.556
  429.469    0.186    0.441  102.159    5.720
  429.773    0.179    0.462  103.987    3.280
  430.078    0.205    0.489  106.425    2.878
  430.383    0.243    0.546  105.219    2.670
  430.688    0.254    0.581   94.907    2.619
  430.993    0.225    0.535   91.272    3.208
  431.297    0.214    0.474   88.245    4.229
  431.602    0.219    0.443   84.610    5.086
  431.907    0.211    0.417   79.156    6.114
  432.212    0.209    0.429   78.558    6.579
  432.517    0.230    0.436   79.781    6.695
  432.821    0.234    0.432   80.399    5.875
  433.126    0.230    0.425   79.798    4.700
  433.431    0.236    0.441   85.878    3.557
  433.736    0.220    0.497   87.101    3.425
  434.041    0.215    0.509   86.505    3.551
  434.345    0.232    0.504   90.155    4.430
  434.650    0.217    0.490   92.594    4.947
  434.955    0.187    0.428   91.997    5.625
  435.260    0.138    0.406   90.789    5.833
  435.565    0.184    0.446   85.334    5.412
  435.870    0.217    0.507   82.307    4.172
  436.174    0.229    0.482   80.496    3.528
  436.479    0.238    0.470   85.362    3.154
  436.784    0.245    0.503   94.479    2.981
  437.089    0.212    0.524   97.522    2.869
  437.394    0.211    0.509   99.354    2.920
  437.698    0.213    0.484   99.971    3.029
  438.003    0.210    0.473  100.587    3.382
  438.308    0.178    0.479  100.597    3.846
  438.613    0.185    0.483  100.603    4.215
  438.918    0.198    0.497  101.826    4.369
  439.222    0.202    0.505  103.658    4.284
  439.527    0.200    0.488  103.668    4.203
  439.832    0.150    0.460  101.854    4.121
  440.137    0.159    0.463  100.040    3.968
  440.442    0.172    0.483   97.014    3.819
  440.746    0.152    0.477   92.166    3.818
  441.051    0.196    0.496   93.998    4.031
  441.356    0.199    0.489   97.647    4.338
  441.661    0.210    0.458  102.515    4.842
  441.966    0.224    0.425  104.344    5.407
  442.271    0.242    0.425  104.963    6.381
  442.575    0.259    0.432  101.934    7.394
  442.880    0.289    0.390   88.584    8.889
  443.185    0.340    0.331   80.700   11.088
  443.490    0.324    0.326   81.317   11.931
  443.795    0.281    0.368   77.683   12.137
  444.099    0.253    0.387   76.479   11.908
  444.404    0.235    0.386   80.737   11.043
  444.709    0.224    0.374   83.175   10.635
  445.014    0.231    0.387   82.578   10.047
  445.319    0.247    0.387   80.159    9.858
  445.623    0.252    0.376   78.955   10.221
  445.928    0.224    0.380   79.568   10.796
  446.233    0.217    0.395   82.614   11.402
  446.538    0.215    0.381   86.871   12.268
  446.843    0.227    0.375   92.345   13.695
  447.147    0.153    0.350   94.782   14.199
  447.452    0.102    0.303   88.720   14.183
  447.757    0.070    0.292   80.228   13.912
  448.062    0.170    0.359   70.521   12.906
  448.367    0.169    0.376   63.245   11.757
  448.672    0.168    0.388   66.290   10.128
  448.976    0.165    0.393   77.834    9.571
  449.281    0.174    0.396   89.382    9.213
  449.586    0.159    0.388   93.031    9.206
  449.891    0.179    0.372   94.864    9.372
  450.196    0.173    0.372  101.551    9.536
  450.500    0.192    0.383  109.454    9.704
  450.805    0.203    0.373  110.070    9.877
  451.110    0.191    0.364  111.901   10.053
  451.415    0.177    0.366  111.909   10.226
  451.720    0.157    0.389  106.453   10.217
  452.024    0.147    0.399   99.782   10.209
  452.329    0.147    0.393  101.006   10.201
  452.634    0.161    0.402  107.087   10.194
  452.939    0.168    0.417  106.488    9.996
  453.244    0.141    0.418  107.105    9.807
  453.548    0.127    0.404  111.970    9.618
  453.853    0.129    0.404  104.087    9.256
  454.158    0.150    0.406   97.419    9.079
  454.463    0.160    0.402   97.427    9.071
  454.768    0.152    0.386  101.079    9.061
  455.073    0.137    0.397  102.910    9.055
  455.377    0.144    0.406  102.312    9.049
  455.682    0.189    0.402   99.891    9.038
  455.987    0.182    0.383   97.470    9.198
  456.292    0.167    0.392   95.660    9.715
  456.597    0.178    0.395   96.274   10.451
  456.901    0.150    0.398   95.069   11.246
  457.206    0.161    0.394   92.648   12.792
  457.511    0.192    0.390   93.873   15.665
  457.816    0.237    0.414   95.096   19.911
  458.121    0.263    0.473   95.105   25.303
  458.425    0.295    0.448   89.648   30.990
  458.730    0.317    0.430   65.371   38.659
  459.035    0.301    0.423   53.237   46.481
  459.340    0.275    0.442   46.568   66.017
  459.645    0.255    0.471   46.575   82.359
  459.949    0.247    0.477   50.834   88.613
  460.254    0.301    0.453   55.093   79.220
  460.559    0.313    0.423   54.496   54.661
  460.864    0.322    0.424   12.610   38.414
  461.169    0.324    0.437    6.549   29.073
  461.474    0.292    0.446    6.558   29.591
  461.778    0.290    0.446    6.565   38.311
  462.083    0.278    0.437    7.184   64.274
  462.388    0.325    0.450    7.189   84.772
  462.693    0.314    0.463    7.807   81.598
  462.998    0.302    0.465    8.424   51.328
  463.302    0.269    0.465    9.645   37.436
  463.607    0.235    0.464   17.547   27.810
  463.912    0.217    0.464   61.880   23.957
  464.217    0.206    0.464   62.497   22.227
  464.522    0.218    0.464   61.294   21.802
  464.826    0.226    0.465   60.692   22.186
  465.131    0.218    0.466   60.098   21.757
  465.436    0.237    0.467   59.496   21.742
  465.741    0.235    0.470   60.113   22.126
  466.046    0.184    0.470   60.121   22.517
  466.350    0.209    0.468   60.132   22.500
