~VERSION INFORMATION
 VERS.                 2.0:   CWLS LOG ASCII STANDARD -VERSION 2.0
 WRAP.                  NO:   ONE LINE PER DEPTH STEP
~WELL INFORMATION BLOCK
#MNEM.UNIT           DATA                    DESCRIPTION OF MNEMONIC
#---------    -------------------            -------------------------------
# Generated from Intellog Unique Number	CW_70_72/WELL/3013
NULL.         -999.25                        : NULL_VALUE
WELL.         MESA MEYER 06-33               : Well_name    - WELL              
LOC .         06-33-070-24W4                 : Location     - LOCATION          
UWI .         00/06-33-070-24W4/0            : Uwi          - UNIQUE WELL ID    
ENTR.         J                              : Entered      - ENTERED BY        
SRVC.         SCHLUMBERGER                   : Scn          - SERVICE COMPANY   
DATE.         20 FEB 76                      : Date         - LOG DATE          
STRT.M        390.144                        : top_depth    - START DEPTH       
STOP.M        606.644                        : bot_depth    - STOP DEPTH        
STEP.M        0.25                           : increment    - STEP LENGTH       
~CURVE INFORMATION BLOCK
#MNEM UNIT       ERCB CURVE CODE    CURVE DESCRIPTION
#-----------   ------------------   ----------------------------------
DEPT.M        00 001 00 00         : DEPTH        - DEPTH                       
ILD .OHMM     00 120 00 00         : RESD         - DEEP RESISTIVITY (DIL)      
CALI.MM       00 280 01 00         : CAL          - CALIPER                     
GR  .API      00 310 00 00         : GR           - GAMMA RAY                   
NPHI.V/V      00 330 00 00         : PHIN         - NEUTRON POROSITY (SANDSTONE)
DPHI.V/V      00 890 00 00         : PHID         - DENSITY POROSITY (SANDSTONE)
~PARAMETER INFORMATION       
#MNEM.UNIT           DATA             DESCRIPTION OF MNEMONIC
#---------         -----------     ------------------------------
GL  .M        601.98               : gl           - GROUND LEVEL ELEVATION      
EREF.M        605.638              : kb           - ELEVATION OF DEPTH REFERENCE
DATM.M        601.98               : datum        - DATUM ELEVATION             
TDD .M        624.84               : tdd          - TOTAL DEPTH DRILLER         
RUN .         ONE                  : Run          - RUN NUMBER                  
ENG .         SLUSARCHUK           : Engineer     - RECORDING ENGINEER          
WIT .         HOVER                : Witness      - WITNESSED BY                
BASE.         EDM                  : Branch       - HOME BASE OF LOGGING UNIT   
MUD .         GEL CHEM             : Mud_type     - MUD TYPE                    
MATR.         SANDSTONE            : Logunit      - NEUTRON MATRIX              
TMAX.C        28.3333              : BHT          - MAXIMUM RECORDED TEMPERATURE
BHTD.M        625.45               : BHTDEP       - MAXIMUM RECORDED TEMPERATURE
RMT .C        16.1111              : MDTP         - TEMPERATURE OF MUD          
MUDD.KG/M     1080                 : MWT          - MUD DENSITY                 
NEUT.         1                    : NEUTRON      - NEUTRON TYPE                
RESI.         0                    : RESIST       - RESISTIVITY TYPE            
RM  .OHMM     4.6                  : RM           - RESISTIVITY OF MUD          
RMC .OHMM     0.25                 : RMC          - RESISTIVITY OF MUD CAKE     
RMF .OHMM     4.22                 : RMF          - RESISTIVITY OF MUD FILTRATE 
SUFT.C        -17.7778             : SUFT         - SURFACE TEMPERATURE         
~A  DEPTH     RESD      CAL       GR     PHIN     PHID
# ...
  499.644    3.062  159.738   74.195    0.430    0.251
  499.894    2.817  159.969   76.753    0.419    0.261
  500.144    2.612  159.988   79.746    0.412    0.249
  500.394    2.513  159.486   81.555    0.405    0.237
  500.644    2.441  158.247   83.182    0.406    0.251
  500.894    2.394  157.113   78.230    0.428    0.263
  501.144    2.364  155.876   73.713    0.427    0.267
  501.394    2.366  155.162   72.047    0.428    0.266
  501.644    2.413  154.547   71.816    0.450    0.253
  501.894    2.492  154.462   73.379    0.444    0.269
  502.144    2.541  154.693   75.317    0.431    0.250
  502.394    2.529  155.980   76.195    0.456    0.239
  502.644    2.498  157.468   77.947    0.451    0.246
  502.894    2.487  159.490   78.577    0.437    0.261
  503.144    2.536  160.667   77.661    0.424    0.253
  503.394    2.624  161.846   74.320    0.417    0.268
  503.644    2.960  162.706   74.320    0.399    0.266
  503.894    3.376  162.833   72.677    0.405    0.203
  504.144    3.676  161.503   70.883    0.397    0.157
  504.394    3.755  161.091   68.350    0.353    0.121
  504.644    3.607  159.011   69.546    0.318    0.110
  504.894    3.324  155.889   72.225    0.328    0.143
  505.144    2.985  155.264   74.781    0.395    0.235
  505.394    2.641  153.918   73.986    0.424    0.254
  505.644    2.449  153.309   72.013    0.441    0.260
  505.894    2.405  152.402   70.166    0.435    0.267
  506.144    2.517  152.304   69.618    0.405    0.274
  506.394    2.803  152.111   70.624    0.392    0.241
  506.644    3.126  152.111   71.071    0.404    0.247
  506.894    3.606  153.006   71.396    0.422    0.261
  507.144    3.781  153.437   71.035    0.424    0.234
  507.394    3.538  159.041   70.862    0.410    0.201
  507.644    3.225  160.310   71.929    0.366    0.176
  507.894    3.000  157.810   73.183    0.355    0.178
  508.144    2.844  154.787   74.622    0.362    0.209
  508.394    2.794  154.913   76.805    0.378    0.250
  508.644    2.796  156.194   80.482    0.395    0.265
  508.894    2.867  159.050   85.210    0.406    0.213
  509.144    2.984  161.910   92.606    0.399    0.204
  509.394    3.112  163.930  101.867    0.390    0.190
  509.644    3.185  164.162  111.934    0.407    0.180
  509.894    3.176  163.235  110.023    0.422    0.195
  510.144    3.143  161.783  103.209    0.422    0.212
  510.394    3.134  159.914   98.876    0.421    0.230
  510.644    3.148  159.212   97.833    0.417    0.223
  510.894    3.223  159.325  100.768    0.412    0.207
  511.144    3.348  160.190  102.767    0.412    0.187
  511.394    3.458  160.734  104.390    0.413    0.199
  511.644    3.566  161.912  106.201    0.419    0.191
  511.894    3.671  162.457  108.074    0.428    0.179
  512.144    3.779  163.745  109.824    0.423    0.185
  512.394    3.839  164.393  111.761    0.412    0.190
  512.644    3.877  165.148  114.876    0.411    0.177
  512.894    3.932  165.488  119.171    0.416    0.163
  513.144    3.979  165.488  119.307    0.424    0.182
  513.394    4.012  165.488  115.039    0.442    0.183
  513.644    4.038  165.458  114.493    0.452    0.150
  513.894    4.041  165.257  112.953    0.433    0.131
  514.144    4.015  165.066  112.034    0.422    0.149
  514.394    3.972  164.877  112.979    0.402    0.170
  514.644    3.953  164.877  114.792    0.395    0.180
  514.894    3.898  164.877  116.540    0.409    0.185
  515.144    4.073  164.877  113.761    0.419    0.160
  515.394    3.918  164.977  112.470    0.428    0.150
  515.644    3.922  165.098  114.904    0.420    0.159
  515.894    3.970  165.006  117.149    0.412    0.184
  516.144    3.951  164.926  120.637    0.417    0.169
  516.394    3.917  164.926  118.663    0.412    0.153
  516.644    3.898  164.872  114.953    0.400    0.143
  516.894    3.894  165.093  114.221    0.404    0.142
  517.144    3.853  164.906  114.543    0.418    0.149
  517.394    3.828  165.032  114.928    0.406    0.170
  517.644    3.816  164.632  115.812    0.399    0.181
  517.894    3.856  165.178  116.753    0.402    0.191
  518.144    3.903  165.731  118.565    0.407    0.151
  518.394    3.949  165.953  120.937    0.411    0.162
  518.644    3.945  166.084  122.998    0.406    0.182
  518.894    3.955  165.679  123.011    0.402    0.185
  519.144    3.959  165.178  120.292    0.402    0.184
  519.394    3.955  165.304  117.201    0.405    0.190
  519.644    4.017  164.801  113.366    0.406    0.172
  519.894    4.119  164.293  114.370    0.406    0.182
  520.144    4.303  163.479  110.970    0.409    0.200
  520.394    4.581  162.662  102.605    0.415    0.193
  520.644    4.923  162.470   96.907    0.421    0.171
  520.894    5.239  162.276   95.368    0.404    0.156
  521.144    5.651  162.094  100.283    0.395    0.178
  521.394    6.016  162.007  103.896    0.418    0.190
  521.644    5.831  161.813  103.662    0.435    0.168
  521.894    5.286  161.729  101.004    0.422    0.156
  522.144    4.946  162.071   99.092    0.413    0.169
  522.394    4.733  162.299  100.658    0.409    0.161
  522.644    4.623  162.426  103.027    0.405    0.177
  522.894    4.515  162.659  107.077    0.416    0.170
  523.144    4.370  162.785  110.750    0.411    0.156
  523.394    4.261  163.123  113.243    0.406    0.151
  523.644    4.153  163.674  107.546    0.394    0.145
  523.894    4.027  163.674  104.455    0.378    0.136
  524.144    3.993  164.980  111.481    0.359    0.124
  524.394    4.072  165.200  119.499    0.365    0.099
  524.644    4.262  166.488  125.719    0.388    0.128
  524.894    4.436  166.715  127.344    0.405    0.150
  525.144    4.600  167.383  120.220    0.413    0.164
  525.394    4.734  167.285  110.800    0.424    0.148
  525.644    5.106  166.681  103.178    0.416    0.152
  525.894    5.467  166.280  104.866    0.372    0.165
  526.144    5.723  166.344  107.487    0.360    0.159
  526.394    5.768  166.210  107.560    0.374    0.148
  526.644    5.708  165.853  107.700    0.394    0.119
  526.894    5.473  162.628  110.565    0.410    0.112
  527.144    5.219  163.198  116.721    0.425    0.122
  527.394    5.069  163.571  109.103    0.410    0.110
  527.644    4.960  164.113  106.629    0.385    0.122
  527.894    4.853  163.397  112.849    0.368    0.118
  528.144    4.647  162.893  123.103    0.379    0.130
  528.394    4.445  163.337  125.224    0.409    0.154
  528.644    4.334  163.984  118.039    0.429    0.166
  528.894    4.328  164.951  115.567    0.435    0.177
  529.144    4.340  165.078  116.634    0.433    0.165
  529.394    4.367  164.898  117.330    0.428    0.148
  529.644    4.413  164.815  114.178    0.429    0.142
  529.894    4.465  165.145  112.639    0.429    0.165
  530.144    4.587  165.799  113.520    0.429    0.169
  530.394    4.704  165.398  109.252    0.427    0.168
  530.644    4.752  165.526  109.450    0.426    0.147
  530.894    4.801  165.861  116.972    0.415    0.136
  531.144    4.805  166.302  119.714    0.402    0.147
  531.394    4.826  166.846  121.963    0.408    0.161
  531.644    4.857  167.082  123.091    0.404    0.157
  531.894    4.870  167.414  124.097    0.407    0.148
  532.144    4.892  167.966  122.557    0.417    0.147
  532.394    4.915  167.984  120.154    0.423    0.152
  532.644    4.910  168.011  118.735    0.424    0.143
  532.894    4.932  168.028  116.081    0.421    0.137
  533.144    4.944  168.362  114.044    0.416    0.132
  533.394    4.921  168.803  113.559    0.398    0.123
  533.644    4.870  168.618  122.075    0.385    0.109
  533.894    4.802  168.115  125.313    0.381    0.089
  534.144    4.725  167.188  126.194    0.407    0.125
  534.394    4.685  165.527  123.290    0.418    0.147
  534.644    4.672  163.974  118.711    0.410    0.155
  534.894    4.649  163.681  115.248    0.397    0.170
  535.144    4.662  163.681  112.901    0.391    0.182
  535.394    4.657  164.466  112.977    0.384    0.161
  535.644    4.669  164.479  111.873    0.378    0.150
  535.894    4.690  164.180  110.580    0.394    0.142
