~VERSION INFORMATION
 VERS.                 2.0:   CWLS LOG ASCII STANDARD -VERSION 2.0
 WRAP.                  NO:   ONE LINE PER DEPTH STEP
~WELL INFORMATION BLOCK
#MNEM.UNIT           DATA                    DESCRIPTION OF MNEMONIC
#---------    -------------------            -------------------------------
# Generated from Intellog Unique Number	CS_77_79/WELL/844
WELL.         HOME OIL COMPANY LIMITED       : Well_name    - WELL
LOC .         00/03-12-077-08W4/0            : Location     - LOCATION
UWI .         00/03-12-077-08W4/0            : Uwi          - UNIQUE WELL ID
ENTR.         SP                             : Entered      - ENTERED BY
SRVC.         SCHLUMBERGER                   : Scn          - SERVICE COMPANY
STRT.M        140.25                         : top_depth    - START DEPTH
STOP.M        370.00                         : bot_depth    - STOP DEPTH
STEP.M        0.25                           : increment    - STEP LENGTH
 NULL. -999.2500:NULL Value
~CURVE INFORMATION BLOCK
#MNEM UNIT       ERCB CURVE CODE    CURVE DESCRIPTION
#-----------   ------------------   ----------------------------------
DEPT.M        00 001 00 00         : DEPTH        - DEPTH
ILD .OHMM     00 120 00 00         : RESD         - DEEP RESISTIVITY (DIL)
DPHI.V/V      00 890 00 00         : PHID         - DENSITY POROSITY (LIMESTONE)
NPHI.V/V      00 330 00 00         : PHIN         - NEUTRON POROSITY (LIMESTONE)
GR  .API      00 310 00 00         : GR           - GAMMA RAY
~PARAMETER INFORMATION
#MNEM.UNIT           DATA             DESCRIPTION OF MNEMONIC
#---------         -----------     ------------------------------
GL  .M        564                  : gl           - GROUND LEVEL ELEVATION
EREF.M        567.5                : kb           - ELEVATION OF DEPTH REFERENCE
DATM.M        564                  : datum        - DATUM ELEVATION
TDD .M        375.1                : tdd          - TOTAL DEPTH DRILLER
RUN .         ONE                  : Run          - RUN NUMBER
ENG .         BILL                 : Engineer     - RECORDING ENGINEER
WIT .         JIM                  : Witness      - WITNESSED BY
MUD .         GEL                  : Mud_type     - MUD TYPE
MATR.         LIMESTONE            : Logunit      - NEUTRON MATRIX
TMAX.C        16.5                 : BHT          - MAXIMUM RECORDED TEMPERATURE
BHTD.M        375.1                : BHTDEP       - MAXIMUM RECORDED TEMPERATURE
MATR.         1                    : LOGUNIT      - NEUTRON MATRIX
RMT .C        25                   : MDTP         - TEMPERATURE OF MUD
NEUT.         1                    : NEUTRON      - NEUTRON TYPE
RESI.         0                    : RESIST       - RESISTIVITY TYPE
RMC .OHMM     0.25                 : RMC          - RESISTIVITY OF MUD CAKE
RMF .OHMM     0.25                 : RMF          - RESISTIVITY OF MUD FILTRATE
SUFT.C        15                   : SUFT         - SURFACE TEMPERATURE
~A  DEPTH     RESD     PHID     PHIN       GR
  140.250    2.668    0.293    0.586   97.594
  140.500    2.717    0.291    0.581   97.597
  140.750    2.766    0.299    0.586   97.598
  141.000    2.817    0.296    0.577   96.999
  141.250    2.869    0.287    0.575   96.398
  141.500    2.869    0.280    0.582   98.811
  141.750    2.921    0.286    0.582   99.415
  142.000    2.920    0.261    0.581  100.621
  142.250    2.974    0.258    0.588  103.636
  142.500    3.028    0.266    0.593  102.432
  142.750    3.028    0.264    0.590  103.640
  143.000    3.027    0.263    0.586  107.859
  143.250    3.026    0.269    0.588  109.669
  143.500    3.082    0.262    0.588  109.068
  143.750    3.081    0.240    0.586  109.070
  144.000    3.138    0.232    0.573  107.265
  144.250    3.255    0.246    0.561  103.652
  144.500    3.377    0.252    0.549  104.258
  144.750    3.504    0.255    0.541  104.259
  145.000    3.702    0.234    0.541  104.261
  145.250    3.841    0.220    0.553  101.854
  145.500    3.912    0.141    0.551  102.459
  145.750    4.058    0.077    0.540  102.461
  146.000    4.057    0.114    0.519  103.667
  146.250    4.056    0.151    0.524  102.465
  146.500    3.980    0.234    0.537  104.878
  146.750    3.835    0.243    0.548  104.879
  147.000    3.763    0.227    0.565  103.677
  147.250    3.693    0.228    0.549  102.474
  147.500    3.761    0.237    0.530  101.874
  147.750    3.902    0.237    0.541  100.671
  148.000    3.974    0.230    0.548   98.865
  148.250    4.278    0.242    0.537   94.651
  148.500    4.606    0.230    0.527   90.437
  148.750    5.050    0.231    0.539   88.631
  149.000    5.338    0.223    0.533   84.416
  149.250    5.537    0.139    0.493   80.804
  149.500    5.640    0.151    0.450   92.854
  149.750    5.638    0.179    0.480   97.074
  150.000    5.533    0.226    0.490   98.280
  150.250    5.233    0.244    0.504   99.487
  150.500    4.948    0.226    0.511   99.490
  150.750    5.039    0.234    0.520   98.889
  151.000    5.425    0.225    0.524   98.289
  151.250    6.527    0.213    0.490   98.894
  151.500    8.302    0.235    0.465   99.498
  151.750   10.957    0.264    0.470  104.922
  152.000   13.182    0.273    0.462  104.924
  152.250   13.930    0.263    0.453  106.131
  152.500   13.927    0.250    0.442  112.759
  152.750   13.666    0.241    0.437  117.581
  153.000   13.166    0.203    0.421  118.788
  153.250   12.683    0.217    0.415  114.573
  153.500   12.448    0.239    0.423  112.768
  153.750   12.443    0.251    0.433  111.566
  154.000   12.673    0.259    0.435  109.158
  154.250   13.148    0.231    0.443  101.329
  154.500   14.419    0.238    0.448   94.705
  154.750   14.960    0.252    0.434   92.297
  155.000   16.104    0.264    0.424   85.672
  155.250   17.020    0.273    0.429   80.855
  155.500   18.324    0.275    0.430   84.472
  155.750   19.364    0.268    0.431   85.679
  156.000   19.002    0.262    0.442   84.477
  156.250   18.649    0.264    0.447   82.068
  156.500   17.966    0.257    0.458   82.071
  156.750   17.308    0.235    0.467   86.892
  157.000   16.369    0.222    0.472   88.099
  157.250   15.769    0.182    0.449   80.872
  157.500   16.057    0.200    0.433   68.826
  157.750   17.612    0.222    0.421   50.153
  158.000   21.188    0.237    0.404   33.891
  158.250   24.565    0.273    0.383   28.471
  158.500   31.828    0.282    0.364   23.654
  158.750   39.005    0.271    0.347   22.451
  159.000   41.992    0.262    0.348   22.453
  159.250   44.380    0.268    0.354   23.058
  159.500   46.036    0.285    0.362   23.663
  159.750   46.029    0.275    0.363   24.869
  160.000   44.342    0.285    0.364   31.498
  160.250   41.930    0.295    0.384   38.730
  160.500   41.149    0.310    0.422   42.948
  160.750   40.380    0.333    0.472   47.771
  161.000   40.373    0.340    0.437   49.580
  161.250   41.880    0.311    0.425   50.786
  161.500   43.452    0.310    0.408   51.391
  161.750   45.072    0.292    0.388   50.790
  162.000   45.064    0.281    0.378   50.793
  162.250   44.224    0.299    0.382   49.590
  162.500   43.400    0.305    0.389   47.182
  162.750   42.594    0.312    0.395   48.389
  163.000   41.803    0.315    0.378   49.596
  163.250   41.789    0.289    0.378   50.803
  163.500   40.258    0.299    0.387   53.215
  163.750   38.782    0.306    0.396   54.422
  164.000   37.360    0.311    0.404   53.822
  164.250   36.665    0.304    0.412   54.427
  164.500   35.324    0.307    0.413   55.633
  164.750   32.786    0.304    0.412   56.840
  165.000   31.588    0.312    0.422   57.444
  165.250   30.430    0.318    0.425   59.255
  165.500   30.426    0.293    0.432   59.257
  165.750   29.858    0.280    0.437   59.258
  166.000   29.302    0.279    0.418   58.056
  166.250   28.754    0.291    0.420   57.455
  166.500   28.749    0.309    0.425   56.855
  166.750   28.212    0.333    0.422   61.074
  167.000   27.178    0.319    0.420   65.293
  167.250   25.701    0.304    0.431   69.513
  167.500   24.759    0.303    0.440   72.526
  167.750   24.297    0.306    0.429   76.143
  168.000   22.979    0.297    0.419   79.760
  168.250   20.941    0.288    0.425   82.171
  168.500   19.441    0.283    0.426   85.186
  168.750   16.451    0.270    0.417   91.814
  169.000   12.928    0.252    0.412  105.070
  169.250    9.973    0.221    0.443  121.337
  169.500    7.837    0.171    0.503  124.351
  169.750    6.274    0.179    0.524  119.535
  170.000    5.211    0.168    0.529  116.524
  170.250    4.662    0.141    0.536  119.539
  170.500    4.328    0.156    0.530  120.144
  170.750    4.092    0.188    0.525  115.327
  171.000    4.017    0.200    0.520  111.112
  171.250    4.167    0.203    0.527  108.101
  171.500    4.486    0.218    0.538  100.875
  171.750    5.201    0.244    0.527   93.647
  172.000    6.865    0.269    0.496   79.794
  172.250    8.413    0.280    0.485   72.567
  172.500   13.117    0.284    0.464   69.557
  172.750   18.301    0.299    0.441   69.560
  173.000   20.829    0.301    0.440   70.165
  173.250   21.212    0.305    0.449   71.371
  173.500   20.815    0.296    0.454   71.975
  173.750   19.684    0.288    0.423   73.787
  174.000   17.610    0.228    0.418   74.391
  174.250   15.752    0.177    0.415   74.995
  174.500   15.176    0.221    0.420   74.996
  174.750   15.172    0.260    0.431   74.396
  175.000   16.638    0.294    0.438   73.796
  175.250   17.585    0.305    0.437   75.606
  175.500   18.244    0.293    0.448   79.825
  175.750   18.927    0.293    0.444   82.236
  176.000   19.274    0.282    0.432   85.852
  176.250   18.228    0.274    0.437   94.289
  176.500   14.864    0.270    0.447  101.520
  176.750   11.898    0.263    0.441  110.559
  177.000   10.257    0.245    0.435  120.801
  177.250    8.842    0.217    0.445  126.827
  177.500    8.059    0.219    0.479  126.831
  177.750    7.077    0.179    0.508  127.435
  178.000    6.449    0.166    0.527  129.846
  178.250    5.877    0.164    0.528  131.054
  178.500    5.767    0.175    0.518  130.453
  178.750    5.766    0.166    0.502  129.251
  179.000    6.562    0.154    0.484  129.855
  179.250    7.331    0.166    0.479  128.652
  179.500    8.190    0.181    0.480  126.245
  179.750    9.150    0.225    0.477  122.030
  180.000   10.222    0.252    0.461  110.586
  180.250   11.633    0.267    0.456  104.564
  180.500   12.525    0.284    0.445  102.759
  180.750   13.237    0.295    0.436  103.364
  181.000   13.732    0.284    0.441  106.378
  181.250   13.476    0.253    0.448  109.995
  181.500   12.510    0.252    0.450  107.587
  181.750   11.831    0.245    0.457  106.987
  182.000   11.827    0.261    0.450  108.796
  182.250   12.046    0.249    0.443  110.003
  182.500   12.967    0.260    0.437  107.595
  182.750   13.454    0.254    0.435  100.971
  183.000   15.029    0.240    0.443   89.527
  183.250   16.790    0.253    0.449   80.493
  183.500   18.077    0.278    0.433   69.652
