~VERSION INFORMATION
 VERS.                 2.0:   CWLS LOG ASCII STANDARD -VERSION 2.0
 WRAP.                  NO:   ONE LINE PER DEPTH STEP
~WELL INFORMATION BLOCK
#MNEM.UNIT           DATA                    DESCRIPTION OF MNEMONIC
#---------    -------------------            -------------------------------
# Generated from Intellog Unique Number	CW_76_78/WELL/3586
WELL.         06-28-076-19W4                 : Well_name    - WELL
LOC .         00/06-28-076-19W4/0            : Location     - LOCATION
UWI .         00/06-28-076-19W4/0            : Uwi          - UNIQUE WELL ID
ENTR.         JOETTE                         : Entered      - ENTERED BY
SRVC.         SCHLUMBERGER                   : Scn          - SERVICE COMPANY
DATE.         08-26-92                       : Date         - LOG DATE
STRT.M        185                            : top_depth    - START DEPTH
STOP.M        445                            : bot_depth    - STOP DEPTH
STEP.M        0.25                           : increment    - STEP LENGTH
 NULL. -999.2500:NULL Value
~CURVE INFORMATION BLOCK
#MNEM UNIT       ERCB CURVE CODE    CURVE DESCRIPTION
#-----------   ------------------   ----------------------------------
DEPT.M        00 001 00 00         : DEPTH        - DEPTH
ILD .OHMM     00 120 00 00         : RESD         - DEEP RESISTIVITY (DIL)
DPHI.V/V      00 890 00 00         : PHID         - DENSITY POROSITY (SANDSTONE)
NPHI.V/V      00 330 00 00         : PHIN         - NEUTRON POROSITY (SANDSTONE)
GR  .API      00 310 00 00         : GR           - GAMMA RAY
~PARAMETER INFORMATION
#MNEM.UNIT           DATA             DESCRIPTION OF MNEMONIC
#---------         -----------     ------------------------------
GL  .M        573.1                : gl           - GROUND LEVEL ELEVATION
EREF.M        576.4                : kb           - ELEVATION OF DEPTH REFERENCE
DATM.M        576.4                : datum        - DATUM ELEVATION
TDD .M        448                  : tdd          - TOTAL DEPTH DRILLER
RUN .         \                    : Run          - RUN NUMBER
ENG .         BILL                 : Engineer     - RECORDING ENGINEER
WIT .         JIM                  : Witness      - WITNESSED BY
MUD .         GEL                  : Mud_type     - MUD TYPE
MATR.         SANDSTONE            : Logunit      - NEUTRON MATRIX
TMAX.C        23                   : BHT          - MAXIMUM RECORDED TEMPERATURE
BHTD.M        448                  : BHTDEP       - MAXIMUM RECORDED TEMPERATURE
MATR.         1                    : LOGUNIT      - NEUTRON MATRIX
RMT .C        19                   : MDTP         - TEMPERATURE OF MUD
NEUT.         1                    : NEUTRON      - NEUTRON TYPE
RESI.         0                    : RESIST       - RESISTIVITY TYPE
RMC .OHMM     3.53                 : RMC          - RESISTIVITY OF MUD CAKE
RMF .OHMM     7.87                 : RMF          - RESISTIVITY OF MUD FILTRATE
SUFT.C        5                    : SUFT         - SURFACE TEMPERATURE
~A  DEPTH     RESD     PHID     PHIN       GR
# ...
  272.000    7.421    0.281    0.460  103.866
  272.250    6.653    0.272    0.467  111.425
  272.500    6.415    0.269    0.465  111.428
  272.750    6.188    0.269    0.463   99.225
  273.000    6.189    0.303    0.463   88.765
  273.250    6.910    0.335    0.469   77.724
  273.500    9.970    0.336    0.475   67.846
  273.750   10.731    0.327    0.480   61.456
  274.000   12.657    0.319    0.472   59.133
  274.250   14.660    0.315    0.463   59.718
  274.500   15.778    0.324    0.444   63.789
  274.750   14.405    0.330    0.461   69.023
  275.000   12.678    0.313    0.467   75.419
  275.250    8.795    0.294    0.461   81.816
  275.500    8.029    0.270    0.455   84.145
  275.750    7.197    0.263    0.459   84.147
  276.000    6.815    0.289    0.464   85.312
  276.250    6.817    0.297    0.466   85.896
  276.500    6.696    0.293    0.466   84.737
  276.750    6.457    0.284    0.466   81.833
  277.000    5.896    0.278    0.465   79.511
  277.250    5.686    0.280    0.464   77.189
  277.500    5.483    0.281    0.461   74.285
  277.750    5.386    0.286    0.462   69.057
  278.000    5.693    0.294    0.477   74.290
  278.250    6.127    0.265    0.497   77.781
  278.500    9.169    0.093    0.415   74.877
  278.750   10.427    0.117    0.359   65.580
  279.000   11.431    0.195    0.367   56.284
  279.250   12.080    0.326    0.414   58.612
  279.500   13.244    0.334    0.440   60.939
  279.750   14.787    0.308    0.458   60.942
  280.000   16.813    0.255    0.455   58.620
  280.250   20.951    0.206    0.443   55.717
  280.500   22.554    0.099    0.423   53.976
  280.750   20.589    0.073    0.414   52.817
  281.000   18.794    0.209    0.422   51.076
  281.250   15.657    0.338    0.466   48.172
  281.500   13.529    0.349    0.482   48.175
  281.750   11.271    0.347    0.482   51.665
  282.000    9.562    0.342    0.477   58.642
  282.250    8.264    0.337    0.472   69.689
  282.500    7.825    0.331    0.464   73.179
  282.750    7.276    0.320    0.457   76.088
  283.000    7.278    0.301    0.455   75.510
  283.250    7.416    0.300    0.455   73.769
  283.500    7.695    0.300    0.455   73.772
  283.750    7.985    0.289    0.454   76.099
  284.000    8.439    0.281    0.449   80.752
  284.250    8.757    0.288    0.455   85.406
  284.500    8.924    0.316    0.466   81.920
  284.750    8.925    0.329    0.474   75.529
  285.000    8.929    0.337    0.474   73.207
  285.250    8.772    0.314    0.472   79.604
  285.500    8.459    0.309    0.467   79.026
  285.750    8.011    0.306    0.465   77.866
  286.000    7.585    0.296    0.462   80.776
  286.250    7.183    0.268    0.462   84.266
  286.500    6.678    0.296    0.463   88.338
  286.750    6.324    0.299    0.466   88.341
  287.000    6.099    0.290    0.463   87.762
  287.250    5.882    0.265    0.452   84.858
  287.500    6.332    0.256    0.439   83.698
  287.750    6.942    0.255    0.459   91.839
  288.000    7.072    0.251    0.471   94.748
  288.250    7.206    0.243    0.472   95.332
  288.500    7.208    0.234    0.463   95.334
  288.750    7.080    0.270    0.461   95.337
  289.000    6.828    0.272    0.462   94.759
  289.250    6.010    0.250    0.463   93.018
  289.500    5.690    0.229    0.461   95.928
  289.750    5.195    0.217    0.455   97.093
  290.000    4.919    0.204    0.445   95.352
  290.250    4.490    0.224    0.430   93.610
  290.500    3.952    0.274    0.440   95.357
  290.750    3.674    0.288    0.447   98.266
  291.000    3.479    0.305    0.450   95.364
  291.250    3.356    0.317    0.447   93.042
  291.500    3.237    0.321    0.443   88.975
  291.750    3.237    0.318    0.440   83.747
  292.000    3.422    0.315    0.440   88.981
  292.250    3.891    0.319    0.441   96.540
  292.500    4.506    0.326    0.449  101.192
  292.750    5.315    0.333    0.451   93.639
  293.000    6.044    0.332    0.447   84.342
  293.250    6.749    0.322    0.441   76.207
  293.500    7.264    0.308    0.438   65.748
  293.750    7.819    0.356    0.447   58.194
  294.000    8.264    0.358    0.455   56.453
  294.250    8.734    0.357    0.449   57.619
  294.500    9.065    0.357    0.440   54.715
  294.750    9.234    0.343    0.433   49.487
  295.000    9.408    0.311    0.435   48.327
  295.250    9.586    0.307    0.444   46.587
  295.500    9.590    0.312    0.447   47.171
  295.750    9.593    0.318    0.451   48.336
  296.000    9.423    0.324    0.455   49.501
  296.250    9.087    0.333    0.460   54.155
  296.500    8.765    0.352    0.462   57.063
  296.750    8.454    0.357    0.464   58.809
  297.000    8.456    0.339    0.466   58.231
  297.250    8.306    0.338    0.463   58.233
  297.500    8.159    0.340    0.463   62.306
  297.750    8.163    0.340    0.466   64.052
  298.000    8.164    0.335    0.468   58.243
  298.250    8.168    0.323    0.468   58.246
  298.500    8.171    0.307    0.467   60.574
  298.750    8.026    0.295    0.464   61.738
  299.000    7.740    0.295    0.458   62.904
  299.250    7.198    0.294    0.457   62.907
  299.500    6.941    0.291    0.457   66.397
  299.750    6.454    0.279    0.458   72.212
  300.000    6.110    0.261    0.459   75.702
  300.250    5.894    0.256    0.456   74.543
  300.500    6.344    0.258    0.447   70.477
  300.750    6.704    0.260    0.446   72.223
  301.000    7.624    0.262    0.447   72.807
  301.250    8.206    0.260    0.447   69.323
  301.500    9.163    0.258    0.447   60.607
  301.750    9.508    0.268    0.446   51.892
  302.000   10.235    0.294    0.446   48.406
  302.250   10.427    0.298    0.451   50.153
  302.500   10.432    0.300    0.455   55.387
  302.750   10.060    0.306    0.464   58.297
  303.000    9.526    0.314    0.465   58.299
  303.250    9.021    0.311    0.462   60.046
  303.500    8.387    0.272    0.454   66.442
  303.750    7.657    0.262    0.451   75.164
  304.000    7.119    0.262    0.456   79.235
  304.250    6.499    0.276    0.463   75.170
  304.500    6.995    0.284    0.472   75.754
  304.750    7.954    0.281    0.468   79.244
  305.000    8.722    0.274    0.461   76.922
  305.250    9.050    0.268    0.451   69.949
  305.500    9.740    0.274    0.446   61.233
  305.750   11.075    0.307    0.456   52.518
  306.000   12.594    0.322    0.464   44.383
  306.250   15.409    0.334    0.470   43.223
  306.500   18.514    0.330    0.475   44.389
  306.750   20.298    0.328    0.475   44.974
  307.000   21.448    0.323    0.475   44.975
  307.250   23.519    0.320    0.475   44.397
  307.500   23.524    0.324    0.476   43.820
  307.750   23.535    0.331    0.478   43.822
  308.000   23.115    0.330    0.481   43.826
  308.250   21.493    0.329    0.482   44.409
  308.500   19.982    0.326    0.480   46.737
  308.750   16.646    0.324    0.476   49.065
  309.000   13.368    0.323    0.474   49.648
  309.250   12.893    0.323    0.469   48.488
  309.500   13.379    0.331    0.467   46.167
  309.750   14.140    0.337    0.468   47.332
  310.000   14.945    0.336    0.474   49.660
  310.250   13.394    0.321    0.474   50.825
  310.500   10.956    0.215    0.468   45.015
  310.750    9.467    0.269    0.423   45.019
  311.000    7.887    0.295    0.471   47.928
  311.250    7.069    0.328    0.480   49.675
  311.500    9.138    0.331    0.479   49.677
  311.750   12.029    0.325    0.469   48.517
  312.000   14.189    0.208    0.452   46.195
  312.250   14.194    0.146    0.423   42.711
  312.500   12.960    0.184    0.441   43.295
  312.750   12.048    0.326    0.452   45.041
  313.000   10.604    0.337    0.475   47.950
  313.250    8.996    0.335    0.483   48.534
  313.500    7.775    0.330    0.487   47.955
  313.750    7.636    0.327    0.485   47.377
  314.000    7.780    0.326    0.483   47.380
  314.250    7.783    0.327    0.482   47.382
  314.500    7.930    0.331    0.481   47.967
  314.750    8.079    0.338    0.480   47.970
  315.000    8.384    0.340    0.480   48.554
  315.250    9.192    0.337    0.480   46.232
