~V
VERS. 2.00: Ver 2.00
WRAP. NO:
VEND. PRIZM:GeoGraphix
~W
STRT.M 125.0000:START DEPTH
STOP.M 325.0000:STOP DEPTH
STEP.M 0.2500:STEP
NULL. -999.2500:NULL VALUE
WELL. 00/06-21-082-05W4/0 :WELL
COMP. :COMPANY
UWI. 00_06-21-082-05W4_0:UNIQUE WELL ID
FLD. :FIELD
CNTY. :COUNTY
STAT. :STATE
CTRY. :COUNTRY
PDAT. :PERMANENT DATUM
LMF. :LOG MEASURED FROM
DMF. :DRILLING MEASURED FROM
LOC1. :LOCATION LINE 1
LOC2. :LOCATION LINE 2
LOC3. :LOCATION LINE 3
SEC. :SECTION
TWP. :TOWNSHIP
RAN. :RANGE
SRVC. :Logging Company
BASE. :Logging Unit Location
ENG. :Logging Engineer
WITN. :Witnessed By
RUN. :Run No.
MUD_TYPE. :Type Fluid in Hole
MUDS. :Source of Mud Sample
RMFS. :Source of Mud Filtrate
RMCS. :Source of Mud Cake
LOC. :LOCATION
DATE. :LOG DATE
~C
DEPT.M :DEPTH
NPHI. :NPHI
GR.API :GR
DPHI. :Created by graphical digitiser entry.
ILD.Ohmm :ILD
~P
EKB. -999.2500:ELEVATION OF KELLY BUSHING
EDF. -999.2500:ELEVATION OF DRILLING FLOOR
EGL. -999.2500:ELEVATION OF GROUND LEVEL
EPD. -999.2500:ELEVATION OF PERMANENT DATUM
APD. -999.2500:LMF DISTANCE ABOVE PERMANENT DATUM
LAT. -999.2500:LATITUDE OF WELL LOCATION
LONG. -999.2500:LONGITUDE OF WELL LOCATION
TDD. -999.2500:Total Depth Driller
TDL. -999.2500:Total Depth Logger
LCSG1. -999.2500:Depth of Casing from Logger
CSIZE. -999.2500:Casing Size
CWT. -999.2500:Casing Weight
BS. -999.2500:Bit Size
TLI. 125.1000:Top Logged Interval
BLI. 324.9000:Bottom Logged Interval
MRT. 0.0000:Maximum Recorded Temperature
WMUD. -999.2500:Drilling Mud Density
DFV. -999.2500:Drilling Mud Viscosity
PH. -999.2500:Drilling Mud pH
DFL. -999.2500:Drilling Mud Fluid Loss
RM. -999.2500:Resistivity of Drilling Fluid
RMT. -999.2500:Measured Temp. of Drilling Fluid
RMF. -999.2500:Resistivity of Drilling Fluid Filtrate
RMFT. -999.2500:Measured Temp. of Drilling Fluid Filtrate
RMC. -999.2500:Resistivity of Mud Cake
RMCT. -999.2500:Measured Temp. of Mud Cake
PHImax.V/V 0.3900:Maximum allowable Porosity
RwBnd.OHMM 0.1500:Bound Water Resistivity
RhoHy.KG/MT 1000.0000:Hydrocarbon Bulk density
SwCutoff.V/V 0.7000:Water Saturation Cutoff
PHINsh.V/V 0.4800:New Description
Rw.OHMM 1.0000:Formation Water Resistivity
Rshl.OHMM 5.0000:Resistivity shale
Trw.DEGC 25.0000:Rw measured at Lab conditions
ShaleCutoff.V/V 0.4000:New Description
GRcln.API 45.0000:Gamma Ray clean
RhoM.KG/MT 2650.0000:Bulk Density Matrix
GRshl.API 90.0000:Gamma Ray shale
m. 2.0000:Archie "m"
n. 2.0000:Archie "n"
GasTol.V/V 0.0500:Gas Tollerance
BHTemp.DEGC 25.0000:Bottom Hole Temperature
BHTDepth.M 1000.0000:Bottom Hole Depth
PHIDsh.US/MT 0.1800:New Description
a. 1.0000:Archie "a"
Gas Tol.V/V 0.0500:Gas Tollerance
RhoF.KG/MT 1000.0000:Bulk Density Fluid
RhoShl.KG/MT 2300.0000:Bulk Density Shale
TarCutoff.V/V 0.0300:New Description
SurfTemp.DEGC 10.0000:New Description
HIshl.V/V 0.4000:Neutron Hydrogen Index shale
NULL. -999.2500:
~A
# ...
  268.0000     0.4271    57.5490     0.3008     1.4532 
  268.2500     0.4463    58.1960     0.2882     1.3919 
  268.5000     0.4551    54.0232     0.2976     1.3099 
  268.7500     0.4495    46.3412     0.3191     1.2215 
  269.0000     0.4407    41.4997     0.3411     1.1339 
  269.2500     0.4307    39.9504     0.3564     1.0490 
  269.5000     0.4197    40.5939     0.3609     0.9720 
  269.7500     0.4087    41.2384     0.3561     0.9101 
  270.0000     0.4041    39.0577     0.3512     0.8720 
  270.2500     0.3934    36.6156     0.3528     0.8487 
  270.5000     0.3921    35.2765     0.3472     0.8461 
  270.7500     0.3930    35.1516     0.3383     0.8531 
  271.0000     0.3933    36.2265     0.3280     0.8675 
  271.2500     0.3948    38.4036     0.3199     0.8901 
  271.5000     0.4050    41.5438     0.3236     0.9192 
  271.7500     0.4068    46.1581     0.3325     0.9597 
  272.0000     0.4145    52.2381     0.3359     1.0097 
  272.2500     0.4237    56.8571     0.3268     1.0532 
  272.5000     0.4301    58.3811     0.3109     1.0751 
  272.7500     0.4301    56.1031     0.2998     1.0645 
  273.0000     0.4213    49.8773     0.3045     1.0177 
  273.2500     0.4212    42.2353     0.3176     0.9434 
  273.5000     0.4313    39.2359     0.3237     0.8632 
  273.7500     0.4309    37.7565     0.3320     0.7869 
  274.0000     0.4221    36.8835     0.3395     0.7281 
  274.2500     0.4162    36.9372     0.3402     0.7004 
  274.5000     0.4193    38.4981     0.3363     0.7139 
  274.7500     0.4089    40.8350     0.3291     0.7508 
  275.0000     0.4002    44.3252     0.3213     0.8365 
  275.2500     0.3998    50.1669     0.3111     0.9871 
  275.5000     0.4105    58.7050     0.2949     1.1963 
  275.7500     0.4306    69.1510     0.2716     1.4385 
  276.0000     0.4527    79.3026     0.2466     1.6723 
  276.2500     0.4635    82.4974     0.2418     1.8705 
  276.5000     0.4431    79.7262     0.2531     2.0516 
  276.7500     0.4532    81.3572     0.2542     2.2167 
  277.0000     0.4862    87.8565     0.2461     2.3681 
  277.2500     0.5179    94.7911     0.2474     2.5036 
  277.5000     0.5601    97.8318     0.2851     2.6087 
  277.7500     0.5881    98.3913     0.3198     2.6160 
  278.0000     0.6294   100.1893     0.3548     2.5391 
  278.2500     0.6393   103.3436     0.3666     2.4589 
  278.5000     0.6300   105.3389     0.3481     2.4018 
  278.7500     0.6280   104.4144     0.3214     2.3674 
  279.0000     0.6333   102.9516     0.3512     2.3567 
  279.2500     0.5752   106.4436     0.3445     2.4301 
  279.5000     0.5415   107.3253     0.2969     2.5525 
  279.7500     0.5214   104.5076     0.2646     2.7011 
  280.0000     0.4927   100.1112     0.2455     2.8594 
  280.2500     0.4522    97.0969     0.2192     3.0187 
  280.5000     0.4462    96.8967     0.1883     3.1797 
  280.7500     0.4417    97.8281     0.1854     3.3132 
  281.0000     0.4362    97.0337     0.1881     3.3917 
  281.2500     0.4320    95.1812     0.1917     3.4520 
  281.5000     0.4313    93.6773     0.1938     3.5271 
  281.7500     0.4349    93.6516     0.1942     3.6333 
  282.0000     0.4412    94.9417     0.1929     3.7586 
  282.2500     0.4289    94.4592     0.1879     3.8867 
  282.5000     0.4182    93.2158     0.1872     4.0182 
  282.7500     0.4091    91.1049     0.1853     4.1479 
  283.0000     0.4012    88.0720     0.1833     4.2592 
  283.2500     0.3970    83.8724     0.1816     4.3208 
  283.5000     0.4054    77.8288     0.1730     4.2815 
  283.7500     0.4161    69.4990     0.1718     3.9870 
  284.0000     0.4236    60.7790     0.1819     3.5691 
  284.2500     0.4018    51.9375     0.1946     3.2854 
  284.5000     0.3490    42.8399     0.1985     3.2234 
  284.7500     0.2886    34.3024     0.1842     3.4116 
  285.0000     0.2697    29.4468     0.1489     3.9302 
  285.2500     0.2714    33.3097     0.1317     4.8609 
  285.5000     0.2800    35.1502     0.1082     6.0640 
  285.7500     0.2790    33.0455     0.0844     7.2842 
  286.0000     0.2490    27.6472     0.0655     8.4358 
  286.2500     0.1975    21.8203     0.0530     9.5834 
  286.5000     0.1898    20.2823     0.0423    10.9228 
  286.7500     0.1853    21.3460     0.0366    11.7729 
  287.0000     0.1867    22.6476     0.0418    11.8888 
  287.2500     0.1916    23.6045     0.0618    11.7294 
  287.5000     0.1980    23.8256     0.0997    11.5611 
  287.7500     0.2051    23.1659     0.1541    11.4181 
  288.0000     0.2118    21.7810     0.2136    11.0620 
  288.2500     0.2087    21.5577     0.2719     9.1244 
  288.5000     0.2127    22.3230     0.2967     6.8481 
  288.7500     0.2201    24.2669     0.2598     5.5195 
  289.0000     0.2253    26.8079     0.1858     5.2924 
  289.2500     0.2225    28.8057     0.1166     5.7466 
  289.5000     0.2072    28.7734     0.0755     6.4472 
  289.7500     0.2027    28.7087     0.0572     7.2084 
  290.0000     0.2150    30.4217     0.0474     7.2273 
  290.2500     0.2383    34.7585     0.0460     6.3599 
  290.5000     0.2849    42.2028     0.0571     5.3023 
  290.7500     0.3534    50.6359     0.0817     4.8379 
  291.0000     0.3972    53.0990     0.1110     5.0833 
  291.2500     0.3103    42.9762     0.1205     5.7942 
  291.5000     0.2234    31.6985     0.1022     8.2027 
  291.7500     0.1761    23.1381     0.0722    12.1831 
  292.0000     0.1622    18.9774     0.0472    15.8657 
  292.2500     0.1591    18.7391     0.0348    17.6394 
  292.5000     0.1583    19.8151     0.0234    18.1527 
  292.7500     0.1580    18.9234     0.0054    17.7021 
  293.0000     0.1588    17.5234     0.0022    17.0014 
  293.2500     0.1596    16.7876     0.0059    16.3881 
  293.5000     0.1605    17.0860     0.0093    15.9551 
  293.7500     0.1617    18.0879     0.0090    15.6761 
  294.0000     0.1619    18.8630     0.0078    15.5299 
  294.2500     0.1622    19.3593     0.0215    15.8425 
  294.5000     0.1610    19.7552     0.0292    16.3905 
  294.7500     0.1587    19.8808     0.0374    17.1014 
  295.0000     0.1562    19.7164     0.0421    17.9545 
  295.2500     0.1554    19.3721     0.0377    18.9402 
  295.5000     0.1590    19.0669     0.0264    20.0204 
  295.7500     0.1640    18.9168     0.0177    21.3580 
  296.0000     0.1627    18.7144     0.0136    22.8466 
  296.2500     0.1585    18.1567     0.0103    24.6003 
  296.5000     0.1552    17.2793     0.0141    26.5367 
  296.7500     0.1546    16.3275     0.0287    28.4525 
  297.0000     0.1543    15.6290     0.0406    30.1003 
  297.2500     0.1516    14.1426     0.0264    31.3386 
  297.5000     0.1479    12.8826     0.0128    31.9425 
  297.7500     0.1440    13.8925     0.0037    31.6614 
  298.0000     0.1413    16.7093     0.0030    30.7400 
  298.2500     0.1417    19.9005     0.0114    29.5287 
  298.5000     0.1465    22.6013     0.0235    28.0937 
  298.7500     0.1532    24.8284     0.0209    26.7732 
  299.0000     0.1590    26.6826     0.0220    25.6371 
  299.2500     0.1621    27.7747     0.0158    24.6679 
  299.5000     0.1645    27.9801     0.0068    23.9712 
  299.7500     0.1686    27.5178     0.0034    23.5956 
  300.0000     0.1737    27.0292     0.0058    23.3528 
  300.2500     0.1751    28.1228     0.0069    23.1470 
  300.5000     0.1730    28.6530     0.0124    23.2427 
  300.7500     0.1694    28.1786     0.0082    23.7915 
  301.0000     0.1653    27.3336     0.0010    24.7631 
  301.2500     0.1605    27.0240     0.0011    26.2136 
  301.5000     0.1541    27.6245     0.0065    28.5545 
  301.7500     0.1535    29.2751     0.0139    31.8482 
  302.0000     0.1483    30.2517     0.0083    34.8416 
  302.2500     0.1376    28.6840     0.0030    36.4064 
  302.5000     0.1237    25.6043     0.0016    36.0281 
  302.7500     0.1148    23.9009     0.0021    33.5445 
  303.0000     0.1276    27.2697     0.0000    28.8859 
  303.2500     0.1602    35.6244     0.0000    26.0702 
  303.5000     0.1885    40.9202     0.0000    25.0803 
