~VERSION INFORMATION
 VERS.                 2.0:   CWLS LOG ASCII STANDARD -VERSION 2.0
 WRAP.                  NO:   ONE LINE PER DEPTH STEP
~WELL INFORMATION BLOCK
#MNEM.UNIT           DATA                    DESCRIPTION OF MNEMONIC
#---------    -------------------            -------------------------------
# Generated from Intellog Unique Number	CW_82_90/WELL/619
WELL.         07-11-082-25W4                 : Well_name    - WELL
LOC .         00/07-11-082-25W4/0            : Location     - LOCATION
UWI .         00/07-11-082-25W4/0            : Uwi          - UNIQUE WELL ID
ENTR.         JAYE                           : Entered      - ENTERED BY
SRVC.         SCHLUMBERGER                   : Scn          - SERVICE COMPANY
DATE.         10 MAR 77                      : Date         - LOG DATE
STRT.M        225.552                        : top_depth    - START DEPTH
STOP.M        450.802                        : bot_depth    - STOP DEPTH
STEP.M        0.25                           : increment    - STEP LENGTH
 NULL. -999.2500:NULL Value
~CURVE INFORMATION BLOCK
#MNEM UNIT       ERCB CURVE CODE    CURVE DESCRIPTION
#-----------   ------------------   ----------------------------------
DEPT.M        00 001 00 00         : DEPTH        - DEPTH
CALI.MM       00 280 01 00         : CAL          - CALIPER
GR  .API      00 310 00 00         : GR           - GAMMA RAY
NPHI.V/V      00 330 00 00         : PHIN         - NEUTRON POROSITY (SANDSTONE)
DPHI.V/V      00 890 00 00         : PHID         - DENSITY POROSITY (SANDSTONE)
ILD .OHMM     00 120 00 00         : RESD         - DEEP RESISTIVITY (DIL)
~PARAMETER INFORMATION
#MNEM.UNIT           DATA             DESCRIPTION OF MNEMONIC
#---------         -----------     ------------------------------
GL  .M        580.339              : gl           - GROUND LEVEL ELEVATION
EREF.M        583.387              : kb           - ELEVATION OF DEPTH REFERENCE
DATM.M        580.339              : datum        - DATUM ELEVATION
TDD .M        452.933              : tdd          - TOTAL DEPTH DRILLER
RUN .         ONE                  : Run          - RUN NUMBER
BASE.         EDMONTON             : Branch       - HOME BASE OF LOGGING UNIT
MATR.         SANDSTONE            : Logunit      - NEUTRON MATRIX
TMAX.C        17.2222              : BHT          - MAXIMUM RECORDED TEMPERATURE
BHTD.M        452.933              : BHTDEP       - MAXIMUM RECORDED TEMPERATURE
RMT .C        9.44444              : MDTP         - TEMPERATURE OF MUD
MUDD.KG/M     1100                 : MWT          - MUD DENSITY
NEUT.         1                    : NEUTRON      - NEUTRON TYPE
RESI.         0                    : RESIST       - RESISTIVITY TYPE
RM  .OHMM     6.3                  : RM           - RESISTIVITY OF MUD
RMC .OHMM     0.25                 : RMC          - RESISTIVITY OF MUD CAKE
RMF .OHMM     0.25                 : RMF          - RESISTIVITY OF MUD FILTRATE
SUFT.C        4                    : SUFT         - SURFACE TEMPERATURE
~A  DEPTH      CAL       GR     PHIN     PHID     RESD
# ...
  371.552  166.971   90.915    0.300    0.065   23.661
  371.802  167.633   97.520    0.338    0.075   25.850
  372.052  167.336  106.136    0.371    0.164   26.305
  372.302  166.191  105.712    0.418    0.221   23.956
  372.552  164.731  110.872    0.410    0.213   20.037
  372.802  164.324  114.717    0.408    0.206   18.282
  373.052  164.350  114.292    0.410    0.192   17.184
  373.302  164.369  112.106    0.406    0.191   16.842
  373.552  164.500  112.497    0.399    0.178   16.799
  373.802  164.309  116.341    0.395    0.182   16.659
  374.052  164.863  119.808    0.399    0.166   16.553
  374.302  165.635  120.701    0.411    0.165   16.285
  374.552  165.866  122.097    0.430    0.197   15.582
  374.802  166.104  126.065    0.442    0.207   14.880
  375.052  166.126  127.774    0.437    0.169   14.493
  375.302  166.152  124.209    0.429    0.155   14.375
  375.552  166.066  123.909    0.433    0.159   14.197
  375.802  166.515  123.106    0.443    0.165   14.189
  376.052  167.174  122.994    0.468    0.175   14.127
  376.302  167.627  121.061    0.451    0.159   14.010
  376.552  167.965  123.587    0.433    0.173   13.917
  376.802  168.201  124.981    0.445    0.192   13.911
  377.052  168.443  121.291    0.451    0.210   13.822
  377.302  168.035  121.806    0.423    0.172   13.871
  377.552  167.632  124.961    0.424    0.162   13.862
  377.802  167.657  125.790    0.430    0.175   13.858
  378.052  167.577  121.284    0.443    0.172   13.850
  378.302  167.596  120.920    0.439    0.171   13.926
  378.552  167.302  121.309    0.427    0.180   14.086
  378.802  167.430  124.401    0.428    0.202   14.190
  379.052  167.771  124.101    0.435    0.186   14.351
  379.302  167.796  114.633    0.428    0.189   14.516
  379.552  167.711  113.642    0.419    0.191   14.626
  379.802  167.524  114.785    0.421    0.190   14.879
  380.052  167.651  118.379    0.432    0.175   14.874
  380.302  168.104  123.477    0.448    0.163   14.747
  380.552  167.910  125.813    0.435    0.160   14.568
  380.802  168.147  125.326    0.432    0.156   14.443
  381.052  168.594  126.343    0.431    0.170   14.408
  381.302  169.151  126.044    0.425    0.171   14.374
  381.552  169.277  125.931    0.425    0.149   14.338
  381.802  168.877  125.380    0.434    0.155   14.303
  382.052  168.693  127.341    0.466    0.181   14.238
  382.302  168.708  125.721    0.457    0.188   14.119
  382.552  168.309  123.538    0.436    0.140   13.971
  382.802  168.016  123.363    0.425    0.129   13.971
  383.052  168.035  127.396    0.432    0.164   13.971
  383.302  167.950  130.484    0.440    0.184   13.895
  383.552  167.870  126.293    0.435    0.161   13.863
  383.802  167.894  124.736    0.425    0.158   13.966
  384.052  167.914  125.566    0.419    0.152   14.435
  384.302  168.045  128.153    0.423    0.186   14.805
  384.552  168.281  127.226    0.423    0.189   15.096
  384.802  168.623  127.490    0.421    0.187   16.389
  385.052  169.287  128.823    0.427    0.170   15.473
  385.302  169.731  129.276    0.426    0.173   15.313
  385.552  169.859  128.598    0.420    0.189   15.065
  385.802  169.779  128.298    0.419    0.196   14.734
  386.052  170.230  128.312    0.436    0.173   14.043
  386.302  171.315  124.119    0.489    0.176   13.518
  386.552  171.764  121.683    0.458    0.171   13.012
  386.802  171.889  128.164    0.436    0.188   12.676
  387.052  171.593  136.090    0.420    0.161   12.348
  387.302  171.089  139.683    0.411    0.162   11.980
  387.552  170.472  138.251    0.417    0.180   11.928
  387.802  169.219  132.803    0.428    0.187   12.328
  388.052  168.182  128.548    0.441    0.177   12.847
  388.302  167.668  125.609    0.431    0.159   14.063
  388.552  166.208  116.457    0.407    0.142   15.276
  388.802  165.269  118.541    0.376    0.177   17.607
  389.052  163.914  118.932    0.376    0.259   20.134
  389.302  162.981  110.217    0.370    0.259   22.216
  389.552  162.686   92.462    0.365    0.249   24.368
  389.802  162.387   86.071    0.354    0.214   26.105
  390.052  163.156   81.752    0.347    0.164   28.355
  390.302  164.132   79.568    0.344    0.119   30.133
  390.552  165.331   77.260    0.336    0.102   29.882
  390.802  165.349   77.713    0.332    0.147   28.255
  391.052  164.950   84.067    0.340    0.244   26.458
  391.302  163.800   90.173    0.361    0.275   23.388
  391.552  162.873   92.382    0.381    0.271   21.174
  391.802  162.570   91.706    0.402    0.235   19.514
  392.052  162.381   90.150    0.413    0.239   18.236
  392.302  162.517   90.415    0.401    0.232   17.108
  392.552  162.648   85.971    0.397    0.239   16.177
  392.802  162.143   87.616    0.409    0.237   15.206
  393.052  162.054   87.567    0.425    0.232   14.697
  393.302  162.077   88.524    0.435    0.233   14.203
  393.552  161.886   91.927    0.439    0.237   13.891
  393.802  161.798   97.466    0.437    0.250   13.693
  394.052  161.832   94.968    0.427    0.247   13.390
  394.302  162.486   94.605    0.421    0.242   13.305
  394.552  163.569   96.125    0.419    0.230   13.298
  394.802  164.569   97.646    0.427    0.215   13.239
  395.052  164.469   98.475    0.431    0.239   13.259
  395.302  164.176   98.491    0.424    0.233   13.571
  395.552  164.176   97.813    0.414    0.207   14.423
  395.802  164.176   96.005    0.403    0.174   16.657
  396.052  163.292   93.005    0.393    0.164   17.597
  396.302  162.776   94.652    0.378    0.179   17.589
  396.552  162.164   98.056    0.397    0.212   17.201
  396.802  161.758  102.716    0.431    0.217   15.947
  397.052  161.461  104.803    0.455    0.216   15.139
  397.302  161.064  102.366    0.450    0.201   15.072
  397.552  160.873   97.233    0.435    0.195   16.113
  397.802  160.895   89.020    0.413    0.177   17.192
  398.052  160.706   89.787    0.403    0.161   18.307
  398.302  161.256   92.061    0.388    0.168   19.611
  398.552  161.812   94.586    0.405    0.192   20.434
  398.802  162.368   97.299    0.428    0.217   20.302
  399.052  162.608   93.734    0.399    0.186   19.816
  399.302  163.055   93.748    0.382    0.172   18.226
  399.552  163.055   96.587    0.389    0.192   19.028
  399.802  163.957   99.175    0.394    0.206   19.514
  400.052  163.866   95.107    0.376    0.201   21.491
  400.302  163.888   90.349    0.349    0.072   30.907
  400.552  164.445   83.708    0.263    0.031   30.907
  400.802  164.379   84.285    0.243    0.061   31.072
  401.052  164.176   89.323    0.304    0.157   38.230
  401.302  163.343   98.817    0.336    0.210   31.413
  401.552  162.407  105.362    0.382    0.210   28.046
  401.802  161.687  105.374    0.378    0.152   24.405
  402.052  162.881  104.698    0.363    0.118   20.738
  402.302  165.363  106.281    0.373    0.094   18.262
  402.552  165.584  111.569    0.408    0.169   16.596
  402.802  166.249  119.997    0.424    0.189   15.978
  403.052  166.269  118.566    0.418    0.190   15.288
  403.302  165.665  115.440    0.416    0.194   14.835
  403.552  165.576  115.830    0.419    0.192   14.623
  403.802  165.386  116.095    0.409    0.184   15.236
  404.052  165.722  113.472    0.392    0.168   16.191
  404.302  166.599  109.718    0.394    0.136   16.904
  404.552  166.940  105.336    0.393    0.142   17.508
  404.802  167.399  104.535    0.383    0.138   18.169
  405.052  167.410  111.455    0.363    0.140   18.820
  405.302  167.540  118.563    0.363    0.150   18.407
  405.552  167.779  122.973    0.407    0.136   16.763
  405.802  167.797  128.134    0.439    0.137   15.478
  406.052  167.938  127.520    0.449    0.158   15.079
  406.302  167.738  129.417    0.439    0.159   14.543
  406.552  167.552  133.826    0.419    0.143   14.056
  406.802  166.835  141.186    0.422    0.142   13.664
  407.052  166.959  141.702    0.414    0.179   13.363
  407.302  167.620  137.007    0.407    0.175   13.277
  407.552  167.747  136.896    0.406    0.182   13.297
  407.802  167.879  135.212    0.409    0.154   13.476
