~VERSION INFORMATION
 VERS.                 2.0:   CWLS LOG ASCII STANDARD -VERSION 2.0
 WRAP.                  NO:   ONE LINE PER DEPTH STEP
~WELL INFORMATION BLOCK
#MNEM.UNIT           DATA                    DESCRIPTION OF MNEMONIC
#---------    -------------------            -------------------------------
# Generated from Intellog Unique Number	CX_WELLS/WELL/4044
WELL.         AMOCO KERBRY                   : Well_name    - WELL
LOC .         00/07-19-074-05W4/0            : Location     - LOCATION
UWI .         00/07-19-074-05W4/0            : Uwi          - UNIQUE WELL ID
ENTR.         T                              : Entered      - ENTERED BY
SRVC.         SCHLUMBERGER                   : Scn          - SERVICE COMPANY
STRT.F        850                            : top_depth    - START DEPTH
STOP.F        1630.02                        : bot_depth    - STOP DEPTH
STEP.F        0.82                           : increment    - STEP LENGTH
 NULL. -999.2500:NULL Value
~CURVE INFORMATION BLOCK
#MNEM UNIT       ERCB CURVE CODE    CURVE DESCRIPTION
#-----------   ------------------   ----------------------------------
DEPT.F        00 001 00 00         : DEPTH        - DEPTH
GR  .API      00 310 00 00         : GR           - GAMMA RAY
NPHI.V/V      00 330 00 00         : PHIN         - NEUTRON POROSITY (SANDSTONE)
DPHI.V/V      00 890 00 00         : PHID         - DENSITY POROSITY (SANDSTONE)
ILD .OHMM     00 120 00 00         : RESD         - DEEP RESISTIVITY (DIL)
~PARAMETER INFORMATION
#MNEM.UNIT           DATA             DESCRIPTION OF MNEMONIC
#---------         -----------     ------------------------------
GL  .F        2144                 : gl           - GROUND LEVEL ELEVATION
EREF.F        2156                 : kb           - ELEVATION OF DEPTH REFERENCE
DATM.F        2156                 : datum        - DATUM ELEVATION
TDD .F        1677                 : tdd          - TOTAL DEPTH DRILLER
RUN .         ONE                  : Run          - RUN NUMBER
ENG .         BILL                 : Engineer     - RECORDING ENGINEER
WIT .         JIM                  : Witness      - WITNESSED BY
MUD .         GEL                  : Mud_type     - MUD TYPE
MATR.         SANDSTONE            : Logunit      - NEUTRON MATRIX
TMAX.F        62.6                 : BHT          - MAXIMUM RECORDED TEMPERATURE
BHTD.F        1677                 : BHTDEP       - MAXIMUM RECORDED TEMPERATURE
MATR.         1                    : LOGUNIT      - NEUTRON MATRIX
RMT .F        77                   : MDTP         - TEMPERATURE OF MUD
NEUT.         1                    : NEUTRON      - NEUTRON TYPE
RESI.         5.6                  : RESIST       - RESISTIVITY TYPE
RMC .OHMM     5.2                  : RMC          - RESISTIVITY OF MUD CAKE
RMF .OHMM     4.2                  : RMF          - RESISTIVITY OF MUD FILTRATE
SUFT.F        59                   : SUFT         - SURFACE TEMPERATURE
~A  DEPTH       GR     PHIN     PHID     RESD
# ...
  992.717  102.632    0.346    0.259    5.971
  993.537  100.107    0.346    0.252    5.973
  994.357  100.121    0.346    0.252    5.975
  995.177  101.404    0.348    0.252    6.088
  995.997  103.962    0.354    0.252    6.090
  996.818  104.604    0.357    0.248    6.320
  997.638  105.255    0.360    0.242    6.439
  998.458  104.000    0.362    0.234    6.561
  999.278  103.382    0.363    0.232    6.563
 1000.100  104.023    0.366    0.222    6.565
 1000.920  105.313    0.371    0.219    6.449
 1001.740  105.323    0.374    0.221    6.452
 1002.560  105.333    0.379    0.222    6.453
 1003.380  104.078    0.382    0.224    6.576
 1004.200  104.091    0.380    0.230    6.699
 1005.020  104.739    0.371    0.235    6.825
 1005.840  102.853    0.365    0.243    6.828
 1006.660   99.055    0.360    0.251    6.706
 1007.480   94.627    0.356    0.257    6.586
 1008.300   93.372    0.355    0.259    6.352
 1009.120   93.389    0.349    0.253    6.238
 1009.940   93.399    0.348    0.250    6.127
 1010.760   93.412    0.355    0.250    6.018
 1011.580   92.798    0.357    0.254    5.911
 1012.400   92.170    0.362    0.252    5.912
 1013.220   93.457    0.362    0.240    5.807
 1014.040   94.743    0.360    0.234    5.809
 1014.860   96.019    0.359    0.229    5.602
 1015.680   96.670    0.356    0.229    5.402
 1016.500   97.956    0.351    0.234    5.209
 1017.320   99.235    0.350    0.236    5.023
 1018.140   99.880    0.346    0.240    5.026
 1018.960  100.528    0.345    0.244    5.027
 1019.780   95.465    0.346    0.246    5.029
 1020.600   87.864    0.346    0.251    5.031
 1021.420   81.536    0.346    0.251    5.032
 1022.240   80.918    0.344    0.252    4.943
 1023.060   80.294    0.337    0.252    4.944
 1023.880   79.038    0.329    0.261    4.946
 1024.700   78.417    0.331    0.274    4.948
 1025.520   79.069    0.335    0.284    4.950
 1026.350   79.075    0.342    0.283    4.951
 1027.170   76.551    0.346    0.275    4.863
 1027.990   74.026    0.351    0.267    4.605
 1028.810   75.309    0.335    0.262    4.522
 1029.630   77.861    0.332    0.252    4.281
 1030.450   79.781    0.337    0.247    4.053
 1031.270   81.698    0.341    0.242    3.838
 1032.090   82.978    0.346    0.238    3.633
 1032.910   85.533    0.348    0.247    3.569
 1033.730   86.812    0.349    0.250    3.570
 1034.550   87.467    0.349    0.245    3.638
 1035.370   87.474    0.349    0.241    3.774
 1036.190   87.488    0.349    0.239    4.063
 1037.010   87.504    0.352    0.239    4.217
 1037.830   87.515    0.354    0.237    4.377
 1038.650   87.532    0.357    0.238    4.378
 1039.470   87.552    0.359    0.244    4.300
 1040.290   87.555    0.359    0.255    4.223
 1041.110   86.934    0.359    0.263    4.072
 1041.930   86.314    0.360    0.268    4.000
 1042.750   86.327    0.358    0.276    4.002
 1043.570   85.072    0.355    0.282    4.003
 1044.390   85.085    0.349    0.292    3.931
 1045.210   83.829    0.345    0.297    3.791
 1046.030   83.212    0.346    0.302    3.524
 1046.850   81.960    0.348    0.303    3.398
 1047.670   81.967    0.341    0.306    3.159
 1048.490   80.711    0.338    0.309    2.883
 1049.310   78.821    0.338    0.314    2.729
 1050.130   75.662    0.339    0.320    2.446
 1050.950   71.868    0.344    0.325    2.192
 1051.770   71.882    0.346    0.312    2.113
 1052.590   72.530    0.350    0.291    2.001
 1053.410   72.543    0.350    0.282    2.002
 1054.230   71.288    0.351    0.289    2.077
 1055.050   70.667    0.352    0.295    2.117
 1055.870   71.318    0.356    0.303    2.118
 1056.690   71.963    0.357    0.307    2.118
 1057.510   71.977    0.361    0.305    2.080
 1058.330   70.721    0.363    0.313    2.043
 1059.150   68.831    0.367    0.326    2.007
 1059.970   68.210    0.367    0.340    1.935
 1060.790   68.861    0.368    0.347    1.901
 1061.610   69.506    0.368    0.346    1.833
 1062.430   69.523    0.368    0.345    1.833
 1063.250   68.899    0.367    0.343    1.768
 1064.070   67.015    0.367    0.341    1.705
 1064.900   65.757    0.359    0.340    1.675
 1065.720   65.767    0.354    0.340    1.615
 1066.540   67.053    0.354    0.338    1.586
 1067.360   68.973    0.354    0.337    1.558
 1068.180   69.615    0.354    0.335    1.502
 1069.000   70.263    0.357    0.337    1.475
 1069.820   70.918    0.357    0.338    1.449
 1070.640   71.562    0.354    0.339    1.423
 1071.460   72.211    0.353    0.339    1.398
 1072.280   71.590    0.352    0.339    1.373
 1073.100   70.331    0.351    0.338    1.373
 1073.920   68.441    0.350    0.334    1.349
 1074.740   68.454    0.349    0.327    1.349
 1075.560   71.644    0.349    0.324    1.325
 1076.380   74.830    0.349    0.327    1.326
 1077.200   76.748    0.350    0.329    1.302
 1078.020   74.858    0.350    0.329    1.303
 1078.840   74.233    0.350    0.326    1.303
 1079.660   72.981    0.352    0.323    1.304
 1080.480   72.995    0.356    0.323    1.304
 1081.300   73.639    0.359    0.323    1.304
 1082.120   73.656    0.360    0.323    1.305
 1082.940   73.032    0.359    0.324    1.305
 1083.760   71.783    0.354    0.324    1.306
 1084.580   71.793    0.353    0.320    1.306
 1085.400   72.438    0.351    0.312    1.331
 1086.220   74.362    0.351    0.311    1.331
 1087.040   75.003    0.351    0.309    1.357
 1087.860   75.017    0.355    0.303    1.357
 1088.680   74.406    0.349    0.250    1.383
 1089.500   74.413    0.331    0.156    1.409
 1090.320   74.427    0.291    0.078    1.462
 1091.140   73.809    0.231    0.087    1.545
 1091.960   73.816    0.213    0.098    1.758
 1092.780   69.387    0.207    0.113    1.999
 1093.600   68.135    0.213    0.148    2.274
 1094.420   67.514    0.247    0.214    2.941
 1095.240   68.797    0.293    0.262    3.804
 1096.060   71.345    0.324    0.298    4.830
 1096.880   73.897    0.352    0.325    6.974
 1097.700   73.911    0.362    0.325    7.933
 1098.520   71.389    0.365    0.311    4.331
 1099.340   70.765    0.368    0.308    2.322
 1100.160   69.510    0.369    0.308    1.830
 1100.980   69.526    0.369    0.306    1.581
 1101.800   70.175    0.371    0.303    1.497
 1102.620   71.457    0.372    0.304    1.443
 1103.440   72.740    0.374    0.308    1.418
 1104.270   74.023    0.377    0.310    1.418
 1105.090   75.302    0.378    0.310    1.418
 1105.910   75.957    0.378    0.302    1.419
 1106.730   76.602    0.377    0.291    1.419
 1107.550   77.246    0.373    0.285    1.446
 1108.370   78.532    0.372    0.280    1.474
 1109.190   79.177    0.373    0.270    1.501
 1110.010   79.825    0.373    0.270    1.530
 1110.830   79.839    0.373    0.271    1.559
 1111.650   79.853    0.372    0.269    1.559
 1112.470   80.504    0.368    0.265    1.560
 1113.290   83.052    0.367    0.260    1.560
 1114.110   93.222    0.366    0.244    1.590
 1114.930   98.947    0.366    0.237    1.650
 1115.750   99.598    0.364    0.242    1.776
 1116.570   99.609    0.360    0.247    1.983
 1117.390   99.622    0.359    0.250    2.256
 1118.210   98.367    0.356    0.251    2.384
 1119.030   95.842    0.354    0.253    2.520
 1119.850   90.779    0.351    0.256    2.615
 1120.670   83.812    0.350    0.261    2.569
 1121.490   83.826    0.350    0.260    2.477
 1122.310   86.378    0.351    0.253    2.302
 1123.130   88.933    0.355    0.251    2.180
 1123.950   92.754    0.360    0.255    2.141
 1124.770   96.575    0.367    0.262    2.103
 1125.590   99.765    0.366    0.271    2.104
 1126.410  100.406    0.366    0.277    2.104
 1127.230   98.516    0.367    0.268    2.105
 1128.050   93.453    0.369    0.265    2.106
 1128.870   87.759    0.370    0.267    2.107
 1129.690   88.404    0.370    0.273    2.146
 1130.510   90.956    0.371    0.275    2.187
 1131.330   89.700    0.375    0.279    2.229
 1132.150   86.541    0.376    0.287    2.229
 1132.970   80.847    0.373    0.292    2.230
 1133.790   77.684    0.366    0.292    2.231
 1134.610   77.698    0.365    0.289    2.231
