~VERSION INFORMATION
 VERS.                 2.0:   CWLS LOG ASCII STANDARD -VERSION 2.0
 WRAP.                  NO:   ONE LINE PER DEPTH STEP
~WELL INFORMATION BLOCK
#MNEM.UNIT           DATA                    DESCRIPTION OF MNEMONIC
#---------    -------------------            -------------------------------
# Generated from Intellog Unique Number	CW_70_72/WELL/2901
NULL.         -999.25                        : NULL_VALUE
COMP .        HOME OIL CO LTD                :  COMPANY
WELL.         SCURRY ET AL DOUCETTE          : Well_name    - WELL              
LOC .         06-29-077-02W5                 : Location     - LOCATION          
UWI .         00/06-29-077-02W5/0            : Uwi          - UNIQUE WELL ID    
ENTR.         MAX                            : Entered      - ENTERED BY        
SRVC.         COMPUTALOG                     : Scn          - SERVICE COMPANY   
DATE.         24 NOV 77                      : Date         - LOG DATE
STRT.M        375                            : top_depth    - START DEPTH       
STOP.M        625                            : bot_depth    - STOP DEPTH        
STEP.M        0.25                           : increment    - STEP LENGTH       
~CURVE INFORMATION BLOCK
#MNEM UNIT       ERCB CURVE CODE    CURVE DESCRIPTION
#-----------   ------------------   ----------------------------------
DEPT.M        00 001 00 00         : DEPTH        - DEPTH                       
ILD .OHMM     00 120 00 00         : RESD         - DEEP RESISTIVITY (DIL)      
NPHI.V/V      00 330 00 00         : PHIN         - NEUTRON POROSITY (SANDSTONE)
DPHI.V/V      00 890 00 00         : PHID         - DENSITY POROSITY (SANDSTONE)
CALI.MM       00 280 01 00         : CAL          - CALIPER                     
GR  .API      00 310 00 00         : GR           - GAMMA RAY                   
~PARAMETER INFORMATION       
#MNEM.UNIT           DATA             DESCRIPTION OF MNEMONIC
#---------         -----------     ------------------------------
GL  .M        678.3                : gl           - GROUND LEVEL ELEVATION      
EREF.M        683.7                : kb           - ELEVATION OF DEPTH REFERENCE
DATM.M        678.3                : datum        - DATUM ELEVATION             
TDD .M        639                  : tdd          - TOTAL DEPTH DRILLER         
RUN .         ONE                  : Run          - RUN NUMBER                  
ENG .         BILL                 : Engineer     - RECORDING ENGINEER          
WIT .         JIM                  : Witness      - WITNESSED BY                
MUD .         GEL                  : Mud_type     - MUD TYPE                    
MATR.         SANDSTONE            : Logunit      - NEUTRON MATRIX              
TMAX.C        36                   : BHT          - MAXIMUM RECORDED TEMPERATURE
BHTD.M        639                  : BHTDEP       - MAXIMUM RECORDED TEMPERATURE
RMT .C        12.5                 : MDTP         - TEMPERATURE OF MUD          
MUDD.KG/M     1160                 : MWT          - MUD DENSITY                 
NEUT.         1                    : NEUTRON      - NEUTRON TYPE                
RESI.         0                    : RESIST       - RESISTIVITY TYPE            
RM  .OHMM     5.1                  : RM           - RESISTIVITY OF MUD          
RMC .OHMM     5                    : RMC          - RESISTIVITY OF MUD CAKE     
RMF .OHMM     4                    : RMF          - RESISTIVITY OF MUD FILTRATE 
SUFT.C        -10                  : SUFT         - SURFACE TEMPERATURE         
~A  DEPTH     RESD     PHIN     PHID      CAL       GR
# ...
  594.000    5.781    0.352    0.269  202.424   61.935
  594.250    5.720    0.355    0.267  202.311   62.461
  594.500    5.610    0.355    0.263  201.695   61.196
  594.750    5.652    0.350    0.257  199.643   60.551
  595.000    5.849    0.335    0.248  196.587   60.491
  595.250    6.163    0.311    0.230  195.497   61.000
  595.500    6.551    0.298    0.215  195.843   60.045
  595.750    7.090    0.294    0.187  196.246   57.927
  596.000    7.669    0.288    0.175  196.118   58.436
  596.250    7.591    0.280    0.144  196.019   64.827
  596.500    7.120    0.284    0.058  195.891   71.779
  596.750    6.559    0.311    0.087  196.266   79.333
  597.000    6.043    0.361    0.178  197.114   87.188
  597.250    5.617    0.388    0.191  198.465   92.383
  597.500    5.314    0.391    0.202  201.753   94.356
  597.750    5.307    0.388    0.205  203.592   96.355
  598.000    5.204    0.389    0.188  203.019   98.336
  598.250    5.059    0.389    0.166  202.891  101.782
  598.500    4.919    0.392    0.148  202.777  106.115
  598.750    4.780    0.397    0.161  202.649  111.025
  599.000    4.647    0.400    0.171  202.522  105.669
  599.250    4.558    0.400    0.169  201.934  102.664
  599.500    4.549    0.396    0.152  201.806  103.190
  599.750    4.542    0.395    0.133  202.683  107.523
  600.000    4.495    0.400    0.141  204.995  112.424
  600.250    4.449    0.407    0.162  204.882  109.436
  600.500    4.443    0.413    0.177  205.242  107.603
  600.750    4.397    0.416    0.178  206.593  111.333
  601.000    4.390    0.422    0.187  206.508  105.124
  601.250    4.423    0.425    0.210  206.868  101.240
  601.500    4.617    0.423    0.221  207.214   97.658
  601.750    4.737    0.407    0.236  207.602   91.139
  602.000    4.815    0.402    0.239  207.475   85.205
  602.250    4.850    0.404    0.224  207.863   87.773
  602.500    4.631    0.446    0.239  207.750   88.282
  602.750    4.382    0.451    0.226  207.636   97.300
  603.000    4.298    0.463    0.193  207.006  111.891
  603.250    4.298    0.473    0.183  207.395  115.044
  603.500    4.283    0.474    0.209  209.721  105.303
  603.750    4.393    0.476    0.205  211.532   92.626
  604.000    4.548    0.436    0.169  210.470   82.007
  604.250    4.966    0.411    0.151  208.893   83.111
  604.500    5.470    0.389    0.177  208.262  101.508
  604.750    5.661    0.406    0.242  209.139  112.275
  605.000    5.654    0.390    0.225  209.514  108.107
  605.250    5.695    0.366    0.204  209.874   99.831
  605.500    5.895    0.355    0.195  210.248   94.776
  605.750    5.885    0.356    0.190  210.135   95.862
  606.000    5.722    0.372    0.194  210.523   99.911
  606.250    5.610    0.398    0.201  211.874  105.691
  606.500    5.553    0.402    0.209  212.722  103.866
  606.750    5.695    0.404    0.217  213.083  102.325
  607.000    5.893    0.405    0.226  212.969  101.688
  607.250    6.043    0.404    0.235  210.903   98.390
  607.500    6.200    0.381    0.250  207.861   93.335
  607.750    6.590    0.371    0.249  206.269   86.825
  608.000    7.069    0.366    0.258  205.165   83.811
  608.250    7.581    0.349    0.266  205.080   84.337
  608.500    7.704    0.322    0.233  205.454   88.954
  608.750    8.048    0.309    0.150  205.312   93.279
  609.000    8.630    0.293    0.139  205.213   95.855
  609.250    9.013    0.296    0.153  207.052   95.778
  609.500    9.079    0.311    0.164  208.388   96.588
  609.750    8.905    0.334    0.172  208.274  100.034
  610.000    8.425    0.342    0.182  208.663   99.673
  610.250    7.763    0.355    0.204  208.550   93.447
  610.500    7.479    0.351    0.217  205.465   87.229
  610.750    7.464    0.330    0.223  204.404   81.296
  611.000    7.389    0.322    0.224  202.338   78.575
  611.250    7.377    0.320    0.210  203.172   77.637
  611.500    7.171    0.317    0.204  205.011   78.723
  611.750    6.786    0.320    0.194  205.385   81.600
  612.000    6.364    0.328    0.197  204.783   84.443
  612.250    6.075    0.334    0.213  203.191   82.635
  612.500    5.961    0.340    0.235  202.590   68.494
  612.750    5.845    0.343    0.250  202.490   64.025
  613.000    5.835    0.346    0.270  202.348   64.835
  613.250    5.827    0.345    0.279  201.761   68.574
  613.500    5.923    0.343    0.281  201.647   67.920
  613.750    6.131    0.349    0.285  201.031   68.127
  614.000    6.131    0.353    0.289  200.932   71.590
  614.250    6.219    0.353    0.294  200.330   73.279
  614.500    5.889    0.351    0.281  200.131   75.261
  614.750    5.423    0.346    0.266  200.103   77.243
  615.000    5.131    0.342    0.263  199.961   76.287
  615.250    4.990    0.342    0.259  200.335   76.228
  615.500    4.937    0.341    0.257  200.724   77.038
  615.750    4.880    0.335    0.242  201.572   81.655
  616.000    4.966    0.327    0.203  201.947   86.256
  616.250    5.185    0.319    0.185  202.307   88.547
  616.500    5.464    0.314    0.172  204.160   90.236
  616.750    5.704    0.313    0.156  204.032   90.151
  617.000    5.593    0.315    0.170  203.431   90.091
  617.250    5.391    0.324    0.168  203.791   99.997
  617.500    5.102    0.340    0.164  204.682  116.620
  617.750    5.233    0.353    0.183  206.994  125.647
  618.000    5.463    0.366    0.192  207.857  136.999
  618.250    5.503    0.370    0.189  207.743  131.367
  618.500    5.207    0.368    0.190  207.615  126.605
  618.750    4.885    0.367    0.185  206.540  120.672
  619.000    4.457    0.366    0.164  206.426  115.918
  619.250    4.334    0.362    0.131  208.236  113.206
  619.500    4.289    0.362    0.096  209.099  110.210
  619.750    4.439    0.366    0.122  209.488  106.903
  620.000    4.718    0.374    0.177  207.422  104.208
  620.250    5.198    0.367    0.184  204.366   99.446
  620.500    5.191    0.354    0.183  202.788   94.098
  620.750    4.783    0.354    0.181  202.674   93.151
  621.000    4.525    0.370    0.188  202.072   96.890
  621.250    4.320    0.410    0.190  201.457  103.273
  621.500    4.016    0.434    0.197  200.841  103.196
  621.750    3.666    0.450    0.200  200.727  105.471
  622.000    3.470    0.458    0.198  200.628  108.331
  622.250    3.343    0.458    0.184  200.026  107.091
  622.500    3.398    0.454    0.139  198.922   99.108
  622.750    3.644    0.447    0.091  197.832  102.563
  623.000    4.052    0.400    0.111  197.719   94.579
  623.250    5.339    0.334    0.157  197.117   71.351
  623.500   10.713    0.164    0.094  196.989   50.475
  623.750   14.629    0.129    0.029  196.876   29.598
  624.000   19.278    0.096   -0.010  197.738   23.665
  624.250   24.507    0.085   -0.013  198.099   20.350
  624.500   26.051    0.108    0.018  197.999   19.412
  624.750   26.482    0.161    0.051  196.407   20.230
  625.000   25.968    0.181    0.068  195.317   21.334
