~VERSION INFORMATION
 VERS.                 2.0:   CWLS LOG ASCII STANDARD -VERSION 2.0
 WRAP.                  NO:   ONE LINE PER DEPTH STEP
~WELL INFORMATION BLOCK
#MNEM.UNIT           DATA                    DESCRIPTION OF MNEMONIC
#---------    -------------------            -------------------------------
# Generated from Intellog Unique Number	CS_71_72/WELL/812
WELL.         BVX ET AL NIXON                : Well_name    - WELL
LOC .         00/07-15-072-15W4/0            : Location     - LOCATION
UWI .         00/07-15-072-15W4/0            : Uwi          - UNIQUE WELL ID
ENTR.         SP                             : Entered      - ENTERED BY
SRVC.         SCHLUMBERGER                   : Scn          - SERVICE COMPANY
STRT.M        280                            : top_depth    - START DEPTH
STOP.M        466                            : bot_depth    - STOP DEPTH
STEP.M        0.25                           : increment    - STEP LENGTH
 NULL. -999.2500:NULL Value
~CURVE INFORMATION BLOCK
#MNEM UNIT       ERCB CURVE CODE    CURVE DESCRIPTION
#-----------   ------------------   ----------------------------------
DEPT.M        00 001 00 00         : DEPTH        - DEPTH
ILD .OHMM     00 120 00 00         : RESD         - DEEP RESISTIVITY (DIL)
DPHI.V/V      00 890 00 00         : PHID         - DENSITY POROSITY (LIMESTONE)
NPHI.V/V      00 330 00 00         : PHIN         - NEUTRON POROSITY (LIMESTONE)
GR  .API      00 310 00 00         : GR           - GAMMA RAY
~PARAMETER INFORMATION
#MNEM.UNIT           DATA             DESCRIPTION OF MNEMONIC
#---------         -----------     ------------------------------
GL  .M        603.39               : gl           - GROUND LEVEL ELEVATION
EREF.M        606.89               : kb           - ELEVATION OF DEPTH REFERENCE
DATM.M        603.39               : datum        - DATUM ELEVATION
TDD .M        471.95               : tdd          - TOTAL DEPTH DRILLER
RUN .         ONE                  : Run          - RUN NUMBER
ENG .         BILL                 : Engineer     - RECORDING ENGINEER
WIT .         JIM                  : Witness      - WITNESSED BY
MUD .         GEL                  : Mud_type     - MUD TYPE
MATR.         LIMESTONE            : Logunit      - NEUTRON MATRIX
TMAX.C        21                   : BHT          - MAXIMUM RECORDED TEMPERATURE
BHTD.M        471.95               : BHTDEP       - MAXIMUM RECORDED TEMPERATURE
MATR.         1                    : LOGUNIT      - NEUTRON MATRIX
RMT .C        25                   : MDTP         - TEMPERATURE OF MUD
NEUT.         1                    : NEUTRON      - NEUTRON TYPE
RESI.         0                    : RESIST       - RESISTIVITY TYPE
RMC .OHMM     0.25                 : RMC          - RESISTIVITY OF MUD CAKE
RMF .OHMM     0.25                 : RMF          - RESISTIVITY OF MUD FILTRATE
SUFT.C        15                   : SUFT         - SURFACE TEMPERATURE
~A  DEPTH     RESD     PHID     PHIN       GR
# ...
  367.000    5.398    0.205    0.425   93.733
  367.250    5.397    0.199    0.412   94.936
  367.500    5.396    0.196    0.412   94.331
  367.750    5.295    0.192    0.420   93.124
  368.000    5.294    0.194    0.413   91.314
  368.250    5.292    0.205    0.411   88.902
  368.500    5.194    0.198    0.418   87.093
  368.750    5.193    0.170    0.424   90.102
  369.000    5.192    0.174    0.423   93.714
  369.250    5.190    0.178    0.437   96.121
  369.500    5.190    0.180    0.425   95.517
  369.750    5.093    0.178    0.422   93.706
  370.000    5.092    0.180    0.414   93.705
  370.250    5.090    0.186    0.412   93.099
  370.500    5.090    0.181    0.417   93.097
  370.750    4.995    0.175    0.425   93.095
  371.000    4.812    0.172    0.431   92.489
  371.250    4.635    0.186    0.434   91.885
  371.500    4.549    0.197    0.422   90.678
  371.750    4.633    0.203    0.420   88.266
  372.000    4.808    0.209    0.438   86.456
  372.250    4.988    0.205    0.441   86.454
  372.500    5.081    0.207    0.409   87.054
  372.750    5.175    0.210    0.397   87.051
  373.000    5.173    0.221    0.393   85.844
  373.250    5.077    0.235    0.389   82.227
  373.500    5.076    0.240    0.387   81.020
  373.750    4.982    0.245    0.388   79.210
  374.000    4.799    0.261    0.387   76.798
  374.250    4.798    0.278    0.383   74.385
  374.500    4.796    0.289    0.382   73.782
  374.750    4.885    0.308    0.385   74.381
  375.000    4.976    0.291    0.396   74.980
  375.250    5.260    0.076    0.390   74.978
  375.500    5.770    0.039    0.337   74.374
  375.750    6.570   -0.001    0.151   65.938
  376.000    8.518   -0.017    0.116   53.887
  376.250   12.578   -0.024    0.090   50.873
  376.500   16.925   -0.024    0.065   48.461
  376.750   19.631   -0.012    0.068   47.254
  377.000   16.918    0.016    0.120   53.877
  377.250   11.035    0.062    0.169   62.309
  377.500    8.197    0.116    0.216   71.342
  377.750    6.088    0.176    0.264   75.557
  378.000    5.345    0.245    0.308   76.760
  378.250    5.054    0.252    0.348   76.155
  378.500    4.869    0.236    0.379   73.139
  378.750    4.868    0.241    0.402   71.932
  379.000    4.867    0.251    0.401   71.328
  379.250    4.957    0.258    0.407   70.723
  379.500    4.956    0.259    0.411   71.323
  379.750    4.955    0.244    0.417   74.332
  380.000    4.954    0.253    0.423   76.137
  380.250    4.861    0.272    0.417   78.544
  380.500    4.860    0.279    0.429   79.747
  380.750    4.950    0.285    0.436   80.348
  381.000    4.858    0.279    0.441   78.537
  381.250    4.856    0.249    0.416   77.330
  381.500    4.593    0.240    0.406   77.930
  381.750    4.592    0.234    0.418   81.542
  382.000    4.506    0.228    0.419   83.347
  382.250    4.505    0.223    0.412   83.345
  382.500    4.504    0.211    0.405   82.740
  382.750    4.503    0.209    0.412   82.135
  383.000    4.587    0.208    0.411   80.326
  383.250    4.586    0.220    0.401   77.913
  383.500    4.584    0.251    0.402   74.899
  383.750    4.583    0.271    0.407   71.281
  384.000    4.582    0.215    0.401   69.471
  384.250    4.497    0.190    0.393   67.662
  384.500    4.496    0.167    0.389   65.853
  384.750    4.412    0.169    0.384   70.067
  385.000    4.411    0.219    0.384   73.077
  385.250    4.410    0.243    0.393   76.086
  385.500    4.410    0.256    0.398   77.891
  385.750    4.408    0.267    0.393   79.094
  386.000    4.408    0.275    0.387   80.898
  386.250    4.325    0.283    0.396   80.896
  386.500    4.324    0.280    0.387   80.893
  386.750    4.323    0.283    0.396   80.289
  387.000    4.404    0.284    0.398   79.081
  387.250    4.402    0.268    0.389   79.079
  387.500    4.402    0.265    0.393   78.475
  387.750    4.401    0.261    0.401   77.267
  388.000    4.319    0.254    0.409   76.662
  388.250    4.318    0.256    0.399   76.057
  388.500    4.317    0.262    0.407   77.260
  388.750    4.316    0.257    0.413   79.065
  389.000    4.235    0.254    0.417   80.869
  389.250    4.235    0.249    0.410   81.470
  389.500    4.156    0.246    0.405   82.070
  389.750    3.930    0.239    0.403   80.862
  390.000    3.786    0.213    0.407   80.257
  390.250    3.514    0.216    0.417   80.858
  390.500    3.385    0.234    0.428   83.265
  390.750    3.084    0.227    0.444   87.479
  391.000    2.971    0.230    0.459   91.693
  391.250    2.657    0.247    0.480   93.498
  391.500    2.513    0.259    0.484   94.700
  391.750    2.466    0.266    0.475   98.915
  392.000    2.420    0.256    0.472  100.117
  392.250    2.511    0.253    0.458  100.115
  392.500    2.755    0.260    0.451   98.908
  392.750    2.912    0.239    0.461   97.701
  393.000    3.194    0.222    0.433   94.685
  393.250    3.504    0.216    0.417   94.081
  393.500    3.774    0.209    0.409   95.283
  393.750    3.989    0.204    0.405   97.088
  394.000    4.217    0.196    0.406   96.484
  394.250    4.457    0.198    0.416   93.469
  394.500    4.540    0.213    0.420   89.250
  394.750    4.710    0.199    0.410   86.838
  395.000    4.709    0.189    0.414   85.631
  395.250    4.708    0.196    0.421   88.639
  395.500    4.707    0.216    0.412   89.240
  395.750    4.706    0.224    0.405   88.032
  396.000    4.618    0.224    0.410   88.633
  396.250    4.618    0.224    0.418   89.835
  396.500    4.617    0.226    0.411   90.436
  396.750    4.447    0.235    0.418   90.433
  397.000    4.205    0.244    0.423   89.226
  397.250    4.127    0.260    0.428   85.608
  397.500    3.975    0.276    0.417   83.799
  397.750    3.901    0.290    0.412   83.797
  398.000    3.829    0.296    0.406   84.397
  398.250    3.758    0.297    0.394   83.190
  398.500    3.688    0.307    0.389   73.548
  398.750    3.619    0.313    0.380   68.727
  399.000    3.552    0.308    0.380   65.110
  399.250    3.551    0.297    0.381   63.299
  399.500    3.550    0.285    0.374   62.092
  399.750    3.549    0.277    0.370   60.283
  400.000    3.549    0.277    0.366   59.076
  400.250    3.548    0.281    0.362   58.471
  400.500    3.547    0.282    0.359   59.070
  400.750    3.613    0.277    0.371   60.272
  401.000    3.545    0.283    0.363   61.475
  401.250    3.544    0.287    0.368   62.678
  401.500    3.544    0.294    0.381   63.881
  401.750    3.478    0.299    0.385   67.492
  402.000    3.542    0.311    0.398   68.695
  402.250    3.608    0.273    0.396   69.898
  402.500    3.675    0.252    0.389   69.293
  402.750    3.743    0.232    0.386   67.483
  403.000    3.812    0.249    0.382   66.276
  403.250    3.811    0.259    0.377   66.876
  403.500    3.810    0.259    0.390   69.283
  403.750    3.739    0.261    0.392   72.894
  404.000    3.738    0.248    0.397   74.699
  404.250    3.737    0.236    0.402   75.903
  404.500    3.737    0.224    0.396   79.514
  404.750    3.877    0.231    0.388   80.717
  405.000    3.949    0.248    0.387   78.907
  405.250    4.097    0.264    0.404   77.097
  405.500    4.252    0.252    0.415   81.312
  405.750    4.251    0.230    0.422   83.719
  406.000    4.329    0.217    0.416   81.307
  406.250    4.329    0.180    0.411   79.498
  406.500    4.248    0.166    0.403   77.688
  406.750    4.017    0.194    0.397   79.493
  407.000    3.526    0.214    0.415   82.501
  407.250    2.928    0.234    0.420   84.306
  407.500    2.523    0.230    0.417   85.508
  407.750    1.982    0.237    0.420   86.110
  408.000    1.646    0.236    0.428   87.915
  408.250    1.418    0.242    0.422   86.707
  408.500    1.444    0.223    0.436   84.897
  408.750    1.527    0.194    0.439   86.099
  409.000    1.738    0.177    0.427   86.097
  409.250    1.872    0.179    0.417   84.288
  409.500    2.212    0.195    0.411   83.081
  409.750    2.518    0.208    0.408   83.681
  410.000    2.814    0.201    0.409   84.883
  410.250    2.975    0.214    0.420   86.688
