~VERSION INFORMATION
 VERS.                 2.0:   CWLS LOG ASCII STANDARD -VERSION 2.0
 WRAP.                  NO:   ONE LINE PER DEPTH STEP
~WELL INFORMATION BLOCK
#MNEM.UNIT           DATA                    DESCRIPTION OF MNEMONIC
#---------    -------------------            -------------------------------
# Generated from Intellog Unique Number	CW_76_78/WELL/620
WELL.         PACIFIC MARTENCK 07-16         : Well_name    - WELL
LOC .         00/07-16-077-04W5/0            : Location     - LOCATION
UWI .         00/07-16-077-04W5/0            : Uwi          - UNIQUE WELL ID
ENTR.         JAYE                           : Entered      - ENTERED BY
SRVC.         SCHLUMBERGER                   : Scn          - SERVICE COMPANY
DATE.         14 FEB 78                      : Date         - LOG DATE
STRT.M        405.384                        : top_depth    - START DEPTH
STOP.M        637.134                        : bot_depth    - STOP DEPTH
STEP.M        0.25                           : increment    - STEP LENGTH
 NULL. -999.2500:NULL Value
~CURVE INFORMATION BLOCK
#MNEM UNIT       ERCB CURVE CODE    CURVE DESCRIPTION
#-----------   ------------------   ----------------------------------
DEPT.M        00 001 00 00         : DEPTH        - DEPTH
ILD .OHMM     00 120 00 00         : RESD         - DEEP RESISTIVITY (DIL)
DPHI.V/V      00 890 00 00         : PHID         - DENSITY POROSITY (SANDSTONE)
NPHI.V/V      00 330 00 00         : PHIN         - NEUTRON POROSITY (SANDSTONE)
GR  .API      00 310 00 00         : GR           - GAMMA RAY
CALI.MM       00 280 01 00         : CAL          - CALIPER
~PARAMETER INFORMATION
#MNEM.UNIT           DATA             DESCRIPTION OF MNEMONIC
#---------         -----------     ------------------------------
GL  .M        690.982              : gl           - GROUND LEVEL ELEVATION
EREF.M        694.334              : kb           - ELEVATION OF DEPTH REFERENCE
DATM.M        690.982              : datum        - DATUM ELEVATION
TDD .M        648.614              : tdd          - TOTAL DEPTH DRILLER
RUN .         ONE                  : Run          - RUN NUMBER
ENG .         DALV                 : Engineer     - RECORDING ENGINEER
WIT .         MEZEL                : Witness      - WITNESSED BY
BASE.         EDM                  : Branch       - HOME BASE OF LOGGING UNIT
MUD .         GEL CHEM             : Mud_type     - MUD TYPE
MATR.         SANDSTONE            : Logunit      - NEUTRON MATRIX
TMAX.C        0                    : BHT          - MAXIMUM RECORDED TEMPERATURE
BHTD.M        648                  : BHTDEP       - MAXIMUM RECORDED TEMPERATURE
RMT .C        14.4444              : MDTP         - TEMPERATURE OF MUD
MUDD.KG/M     1116                 : MWT          - MUD DENSITY
NEUT.         1                    : NEUTRON      - NEUTRON TYPE
RESI.         0                    : RESIST       - RESISTIVITY TYPE
RM  .OHMM     3.94                 : RM           - RESISTIVITY OF MUD
RMC .OHMM     0                    : RMC          - RESISTIVITY OF MUD CAKE
RMF .OHMM     0                    : RMF          - RESISTIVITY OF MUD FILTRATE
SUFT.C        -17                  : SUFT         - SURFACE TEMPERATURE
~A  DEPTH     RESD     PHID     PHIN       GR      CAL
# ...
  514.884    7.014    0.275    0.450   82.369  162.543
  515.134    7.104    0.282    0.443   82.933  162.236
  515.384    7.115    0.281    0.445   82.379  161.823
  515.634    6.954    0.273    0.453   79.715  161.727
  515.884    6.633    0.264    0.462   78.416  161.524
  516.134    6.459    0.250    0.463   79.228  161.323
  516.384    6.325    0.253    0.459   81.342  161.119
  516.634    6.264    0.261    0.449   84.016  160.812
  516.884    6.227    0.270    0.448   86.193  160.820
  517.134    6.132    0.270    0.454   87.439  160.408
  517.384    5.938    0.261    0.465   87.319  159.995
  517.634    5.717    0.244    0.476   84.345  159.898
  517.884    5.599    0.244    0.483   83.109  160.011
  518.134    5.524    0.261    0.499   78.769  160.124
  518.384    5.595    0.262    0.486   69.340  160.448
  518.634    5.818    0.266    0.460   63.697  160.455
  518.884    6.141    0.276    0.439   63.702  160.673
  519.134    6.385    0.277    0.426   63.892  161.207
  519.384    6.565    0.276    0.436   63.339  161.951
  519.634    6.539    0.301    0.440   62.475  161.958
  519.884    6.343    0.295    0.440   61.424  160.916
  520.134    6.051    0.285    0.440   60.002  159.978
  520.384    5.739    0.293    0.440   59.261  159.461
  520.634    5.505    0.302    0.440   61.377  159.049
  520.884    5.271    0.293    0.427   64.794  159.581
  521.134    5.066    0.294    0.403   67.902  160.535
  521.384    4.896    0.276    0.412   70.576  161.700
  521.634    5.406    0.236    0.428   71.139  162.758
  521.884    6.718    0.204    0.409   65.744  163.922
  522.134    7.529    0.179    0.294   62.335  164.666
  522.384    7.359    0.047    0.222   64.574  165.094
  522.634    6.673    0.067    0.290   70.599  165.207
  522.884    6.017    0.093    0.419   76.376  165.215
  523.134    5.549    0.232    0.448   79.608  165.328
  523.384    5.475    0.224    0.451   76.447  165.441
  523.634    5.844    0.179    0.442   73.162  165.554
  523.884    6.123    0.140    0.328   69.009  165.458
  524.134    6.179    0.068    0.249   75.034  164.414
  524.384    5.709    0.100    0.311   80.624  163.056
  524.634    5.334    0.132    0.432   80.753  162.748
  524.884    5.079    0.235    0.445   78.710  162.756
  525.134    5.039    0.236    0.438   80.266  163.816
  525.384    5.181    0.231    0.425   81.698  164.979
  525.634    5.267    0.225    0.414   84.061  166.353
  525.884    5.305    0.220    0.404   87.231  166.992
  526.134    5.264    0.257    0.424   88.849  167.105
  526.384    5.155    0.262    0.487   88.543  167.008
  526.634    5.001    0.251    0.495   86.811  167.121
  526.884    4.934    0.235    0.484   82.099  167.129
  527.134    4.905    0.234    0.463   78.194  167.453
  527.384    4.866    0.226    0.466   78.198  167.670
  527.634    4.966    0.239    0.443   82.237  167.363
  527.884    5.106    0.222    0.431   86.400  166.846
  528.134    5.270    0.189    0.420   88.576  167.064
  528.384    5.521    0.197    0.414   88.519  167.177
  528.634    5.860    0.205    0.419   87.221  167.396
  528.884    6.209    0.225    0.416   86.295  167.507
  529.134    6.480    0.218    0.409   84.376  167.411
  529.384    6.601    0.201    0.398   84.069  167.420
  529.634    6.344    0.186    0.389   86.308  167.532
  529.884    5.709    0.181    0.396   88.051  167.120
  530.134    5.325    0.210    0.431   88.676  166.812
  530.384    4.911    0.195    0.420   87.129  166.190
  530.634    4.667    0.195    0.438   85.086  165.147
  530.884    4.502    0.243    0.466   85.153  164.208
  531.134    4.351    0.262    0.458   86.957  163.481
  531.384    4.293    0.266    0.456   88.638  163.174
  531.634    4.291    0.250    0.464   90.380  163.181
  531.884    4.314    0.244    0.470   93.488  163.505
  532.134    4.353    0.223    0.473   89.893  163.723
  532.384    4.368    0.234    0.472   88.905  164.046
  532.634    4.399    0.224    0.470   92.943  164.264
  532.884    4.439    0.213    0.469   98.099  164.378
  533.134    4.455    0.203    0.470   97.049  164.281
  533.384    4.470    0.201    0.454   98.047  164.184
  533.634    4.469    0.208    0.445  100.906  164.086
  533.884    4.467    0.203    0.440   97.870  164.094
  534.134    4.465    0.200    0.440   97.502  164.207
  534.384    4.481    0.213    0.452   97.879  164.741
  534.634    4.496    0.193    0.465   97.822  165.484
  534.884    4.478    0.184    0.463   97.517  166.228
  535.134    4.468    0.162    0.456   97.956  166.656
  535.384    4.509    0.158    0.450   98.394  166.980
  535.634    4.653    0.182    0.446   99.392  166.777
  535.884    4.847    0.202    0.456   98.528  166.680
  536.134    4.975    0.214    0.467   96.547  166.477
  536.384    5.058    0.224    0.475   94.938  166.275
  536.634    5.161    0.237    0.462   95.315  166.389
  536.884    5.247    0.206    0.447   96.375  166.396
  537.134    5.295    0.187    0.438   94.766  166.826
  537.384    5.303    0.192    0.428   94.708  167.358
  537.634    5.301    0.181    0.423   94.962  167.682
  537.884    5.280    0.176    0.452   93.787  168.215
  538.134    5.278    0.192    0.457   93.357  168.539
  538.384    5.256    0.194    0.460   93.858  168.651
  538.634    5.206    0.198    0.454   98.828  168.975
  538.884    5.165    0.184    0.438  104.480  168.982
  539.134    5.134    0.165    0.429  104.858  169.411
  539.384    5.123    0.150    0.427  104.304  169.840
  539.634    5.121    0.165    0.444  103.502  170.057
  539.884    5.110    0.177    0.451  102.638  170.171
  540.134    5.127    0.183    0.453  103.883  170.073
  540.384    5.155    0.171    0.456  104.323  170.187
  540.634    5.202    0.155    0.465  103.396  170.194
  540.884    5.298    0.184    0.470  100.857  169.783
  541.134    5.427    0.195    0.467   98.565  169.054
  541.384    5.539    0.205    0.459   95.777  167.801
  541.634    5.610    0.212    0.453   88.768  165.076
  541.884    5.746    0.218    0.451   88.711  164.244
  542.134    5.831    0.221    0.449   91.571  164.147
  542.384    5.884    0.213    0.443   93.375  164.156
  542.634    5.904    0.221    0.440   94.187  163.848
  542.884    5.902    0.228    0.437   94.378  163.645
  543.134    5.856    0.219    0.438   94.010  163.444
  543.384    5.800    0.208    0.439   93.146  163.451
  543.634    5.711    0.205    0.434   91.599  163.354
  543.884    5.551    0.222    0.435   91.355  163.257
  544.134    5.305    0.232    0.439   91.484  163.159
  544.384    5.118    0.230    0.444   92.172  163.062
  544.634    4.891    0.227    0.444   93.604  162.755
  544.884    4.665    0.222    0.441   95.222  163.078
  545.134    4.500    0.216    0.435   96.220  164.242
  545.384    4.407    0.202    0.441   97.280  165.512
  545.634    4.397    0.212    0.458   97.409  165.835
  545.884    4.446    0.201    0.473   97.103  166.053
  546.134    4.580    0.220    0.485   96.984  166.376
  546.384    4.753    0.218    0.492   97.236  166.386
  546.634    4.850    0.201    0.483   99.848  166.392
  546.884    4.804    0.228    0.474  102.521  166.610
  547.134    4.634    0.210    0.466  102.029  167.038
  547.384    4.403    0.183    0.469   99.986  167.047
  547.634    4.410    0.176    0.484  100.240  166.740
  547.884    4.518    0.188    0.471  100.492  166.432
  548.134    4.823    0.185    0.454  100.559  165.914
  548.384    5.158    0.240    0.456   96.343  165.081
  548.634    5.558    0.256    0.488   88.466  162.673
  548.884    5.933    0.266    0.498   83.258  160.999
  549.134    6.169    0.264    0.489   84.255  160.482
  549.384    6.213    0.260    0.478   83.267  159.859
  549.634    6.199    0.258    0.467   81.347  158.606
  549.884    6.151    0.249    0.464   82.718  157.668
  550.134    6.080    0.252    0.469   85.081  157.570
  550.384    5.976    0.260    0.474   86.016  157.894
  550.634    5.820    0.263    0.475   85.649  158.007
  550.884    5.656    0.248    0.474   85.468  157.700
  551.134    5.529    0.262    0.465   86.278  157.392
