~VERSION INFORMATION
 VERS.                 2.0:   CWLS LOG ASCII STANDARD -VERSION 2.0
 WRAP.                  NO:   ONE LINE PER DEPTH STEP
~WELL INFORMATION BLOCK
#MNEM.UNIT           DATA                    DESCRIPTION OF MNEMONIC
#---------    -------------------            -------------------------------
# Generated from Intellog Unique Number	CN_94_101/WELL/3208
NULL.         -999.25                        : NULL_VALUE
WELL.         NORTHSTAR ET AL ELLS           : Well_name    - WELL              
LOC .         05-09-095-16W4                 : Location     - LOCATION          
UWI .         00/05-09-095-16W400            : Uwi          - UNIQUE WELL ID    
ENTR.         JOETTE                         : Entered      - ENTERED BY        
SRVC.         HALLIBURTON                    : Scn          - SERVICE COMPANY   
DATE.         14 MAR 90                      : Date         - LOG DATE          
STRT.M        150                            : top_depth    - START DEPTH       
STOP.M        270                            : bot_depth    - STOP DEPTH        
STEP.M        0.25                           : increment    - STEP LENGTH       
~CURVE INFORMATION BLOCK
#MNEM UNIT       ERCB CURVE CODE    CURVE DESCRIPTION
#-----------   ------------------   ----------------------------------
DEPT.M        00 001 00 00         : DEPTH        - DEPTH                       
GR  .API      00 310 00 00         : GR           - GAMMA RAY                   
NPHI.V/V      00 330 00 00         : PHIN         - NEUTRON POROSITY (SANDSTONE)
DPHI.V/V      00 890 00 00         : PHID         - DENSITY POROSITY (SANDSTONE)
ILD .OHMM     00 120 00 00         : RESD         - DEEP RESISTIVITY (DIL)      
~PARAMETER INFORMATION       
#MNEM.UNIT           DATA             DESCRIPTION OF MNEMONIC
#---------         -----------     ------------------------------
GL  .M        534.8                : gl           - GROUND LEVEL ELEVATION      
EREF.M        538.4                : kb           - ELEVATION OF DEPTH REFERENCE
DATM.M        538.4                : datum        - DATUM ELEVATION             
TDD .M        283.5                : tdd          - TOTAL DEPTH DRILLER         
RUN .         ONE                  : Run          - RUN NUMBER                  
ENG .         JO                   : Engineer     - RECORDING ENGINEER          
WIT .         TIM                  : Witness      - WITNESSED BY                
MUD .         GEL                  : Mud_type     - MUD TYPE                    
MATR.         SANDSTONE            : Logunit      - NEUTRON MATRIX              
TMAX.C        35                   : BHT          - MAXIMUM RECORDED TEMPERATURE
BHTD.M        283.5                : BHTDEP       - MAXIMUM RECORDED TEMPERATURE
RMT .C        15                   : MDTP         - TEMPERATURE OF MUD          
MUDD.KG/M     1040                 : MWT          - MUD DENSITY                 
NEUT.         1                    : NEUTRON      - NEUTRON TYPE                
RESI.         0                    : RESIST       - RESISTIVITY TYPE            
RM  .OHMM     0.28                 : RM           - RESISTIVITY OF MUD          
RMC .OHMM     0.35                 : RMC          - RESISTIVITY OF MUD CAKE     
RMF .OHMM     0.3                  : RMF          - RESISTIVITY OF MUD FILTRATE 
SUFT.C        4                    : SUFT         - SURFACE TEMPERATURE         
~A  DEPTH       GR     PHIN     PHID     RESD
  150.000  112.099    0.534    0.293    3.185
  150.250  112.640    0.516    0.290    3.613
  150.500  110.247    0.521    0.285    4.490
  150.750  105.507    0.531    0.290    5.285
  151.000  101.952    0.511    0.329    6.449
  151.250   96.038    0.498    0.364    8.161
  151.500   83.658    0.487    0.382    8.451
  151.750   81.265    0.452    0.371    8.439
  152.000   77.698    0.422    0.344    8.434
  152.250   74.707    0.431    0.330    8.272
  152.500   74.074    0.447    0.325    7.543
  152.750   75.201    0.449    0.288    7.005
  153.000   76.927    0.445    0.258    6.271
  153.250   83.336    0.461    0.217    5.932
  153.500   89.745    0.482    0.262    5.507
  153.750   93.231    0.471    0.288    5.304
  154.000   96.694    0.448    0.303    5.204
  154.250   97.246    0.440    0.292    5.010
  154.500   97.787    0.447    0.279    5.190
  154.750   99.502    0.480    0.275    5.377
  155.000   99.456    0.491    0.310    5.987
  155.250   94.129    0.465    0.330    6.205
  155.500   88.215    0.468    0.298    6.666
  155.750   84.637    0.472    0.289    7.159
  156.000   81.082    0.465    0.284    7.416
  156.250   75.731    0.462    0.277    7.679
  156.500   77.446    0.468    0.267    7.536
  156.750   87.387    0.468    0.195    6.274
  157.000   89.101    0.468    0.159    5.037
  157.250   91.414    0.475    0.170    4.349
  157.500   94.888    0.488    0.229    3.894
  157.750   98.950    0.504    0.289    3.751
  158.000  105.946    0.515    0.314    3.746
  158.250  106.498    0.517    0.356    3.952
  158.500  103.495    0.507    0.350    4.401
  158.750  104.634    0.490    0.315    4.560
  159.000  105.186    0.467    0.295    4.722
  159.250  105.727    0.457    0.268    4.892
  159.500  104.508    0.481    0.247    4.976
  159.750  104.462    0.495    0.233    4.970
  160.000  107.338    0.503    0.233    4.962
  160.250  104.957    0.502    0.239    4.870
  160.500  103.725    0.513    0.248    4.864
  160.750  104.853    0.515    0.264    4.855
  161.000  105.992    0.509    0.277    4.852
  161.250   91.852    0.494    0.272    4.848
  161.500   86.525    0.457    0.199    4.666
  161.750   89.999    0.448    0.138    4.664
  162.000  107.569    0.444    0.132    4.491
  162.250  110.457    0.491    0.172    4.324
  162.500  108.650    0.500    0.233    4.243
  162.750  107.431    0.511    0.256    4.160
  163.000  106.211    0.498    0.275    4.309
  163.250  103.807    0.489    0.302    4.890
  163.500  100.838    0.489    0.310    6.187
  163.750   97.858    0.496    0.258    6.893
  164.000   87.239    0.501    0.247    7.140
  164.250   86.019    0.490    0.250    7.131
  164.500   88.309    0.479    0.286    6.868
  164.750   89.425    0.470    0.312    6.615
  165.000   90.575    0.466    0.305    6.255
  165.250   91.703    0.463    0.301    5.914
  165.500   91.657    0.475    0.297    5.595
  165.750   89.839    0.490    0.268    5.795
  166.000   88.620    0.479    0.272    6.458
  166.250   87.400    0.467    0.306    6.936
  166.500   87.941    0.463    0.381    6.930
  166.750   90.242    0.459    0.397    6.554
  167.000   91.393    0.470    0.417    6.084
  167.250   96.041    0.477    0.306    5.446
  167.500  101.276    0.492    0.264    5.249
  167.750  104.153    0.506    0.278    4.871
  168.000  100.597    0.500    0.300    4.694
  168.250   95.270    0.511    0.288    5.043
  168.500   88.770    0.523    0.284    5.517
  168.750   76.977    0.508    0.291    6.146
  169.000   66.955    0.471    0.280    7.104
  169.250   64.539    0.457    0.257    8.358
  169.500   65.103    0.458    0.250    8.499
  169.750   67.979    0.476    0.258    8.338
  170.000   70.292    0.474    0.277    7.743
  170.250   72.582    0.473    0.295    7.061
  170.500   75.470    0.467    0.312    6.437
  170.750   78.369    0.465    0.304    5.870
  171.000   84.191    0.470    0.291    5.453
  171.250   88.851    0.474    0.283    4.881
  171.500   90.542    0.476    0.292    4.618
  171.750   89.323    0.482    0.298    4.287
  172.000   89.300    0.494    0.304    4.205
  172.250   92.188    0.517    0.327    4.435
  172.500   93.304    0.517    0.400    4.596
  172.750   93.269    0.505    0.394    4.937
  173.000   92.625    0.500    0.387    4.841
  173.250   91.417    0.499    0.392    4.749
  173.500   91.348    0.513    0.408    4.574
  173.750   91.900    0.551    0.426    4.405
  174.000   91.854    0.561    0.404    4.241
  174.250   85.365    0.538    0.393    4.315
  174.500   80.625    0.540    0.435    4.719
  174.750   85.273    0.534    0.469    5.258
  175.000   90.508    0.503    0.407    5.754
  175.250   91.038    0.470    0.314    6.648
  175.500   92.752    0.442    0.264    6.886
  175.750   95.629    0.453    0.253    6.395
  176.000   97.366    0.462    0.262    5.726
  176.250  101.427    0.484    0.285    4.944
  176.500  104.914    0.494    0.293    4.346
  176.750  111.909    0.504    0.292    3.965
  177.000  117.144    0.511    0.283    3.888
  177.250  118.859    0.517    0.264    4.177
  177.500  114.705    0.523    0.262    4.249
  177.750  109.378    0.523    0.276    4.090
  178.000  105.811    0.521    0.268    3.941
  178.250  112.220    0.508    0.236    3.796
  178.500  118.617    0.512    0.228    3.655
  178.750  120.343    0.531    0.210    3.717
  179.000  117.950    0.536    0.194    3.993
  179.250  114.383    0.526    0.197    4.449
  179.500  113.751    0.521    0.205    5.141
  179.750  104.903    0.523    0.209    6.391
  180.000   89.589    0.509    0.212    9.187
  180.250   78.981    0.458    0.166    9.342
  180.500   58.972    0.373    0.064    8.832
  180.750   66.566    0.269    0.026    8.665
  181.000   95.871    0.287    0.076    8.499
  181.250  112.831    0.337    0.209    8.336
  181.500  112.796    0.372    0.252    8.634
  181.750  108.631    0.436    0.248    8.944
  182.000  105.663    0.433    0.248    9.095
  182.250  102.096    0.423    0.254    9.253
  182.500   98.518    0.415    0.260    9.242
  182.750   97.310    0.412    0.264    9.231
  183.000   97.839    0.413    0.259    9.220
  183.250   99.565    0.418    0.253    9.212
  183.500  105.387    0.425    0.249    9.035
  183.750  106.503    0.436    0.241    8.699
  184.000  104.110    0.442    0.235    8.375
  184.250  103.489    0.443    0.230    8.219
  184.500  102.856    0.446    0.229    8.207
  184.750  102.223    0.451    0.234    8.350
  185.000  101.004    0.455    0.246    8.350
  185.250   99.197    0.450    0.258    8.801
  185.500   97.391    0.439    0.257    9.451
  185.750   93.824    0.430    0.255    9.790
  186.000   89.671    0.405    0.245    9.778
  186.250   89.625    0.397    0.224    9.767
  186.500   92.513    0.396    0.189    9.582
  186.750   96.563    0.402    0.197    9.392
  187.000   98.289    0.415    0.211    9.217
  187.250   98.829    0.423    0.240    8.875
  187.500   98.197    0.423    0.255    8.701
  187.750   97.552    0.428    0.236    8.694
  188.000   96.931    0.435    0.241    8.843
  188.250   96.287    0.439    0.249    8.995
  188.500   96.252    0.440    0.256    8.981
  188.750   96.206    0.439    0.265    8.809
  189.000   97.921    0.437    0.273    8.644
  189.250  100.210    0.432    0.281    8.320
  189.500  101.338    0.430    0.275    8.165
  189.750  101.879    0.428    0.270    8.156
  190.000  102.420    0.430    0.262    8.146
  190.250  102.374    0.441    0.252    8.131
  190.500  102.328    0.442    0.246    8.127
  190.750  102.282    0.439    0.251    8.112
  191.000  102.236    0.434    0.254    8.107
  191.250   98.669    0.431    0.264    8.398
  191.500   94.527    0.431    0.276    8.853
  191.750   93.894    0.436    0.290    8.532
  192.000   97.944    0.442    0.280    7.775
  192.250  102.017    0.450    0.247    7.491
  192.500  106.079    0.466    0.237    7.086
  192.750  106.045    0.479    0.251    7.078
  193.000  102.466    0.460    0.226    7.067
  193.250   98.888    0.455    0.209    6.563
