~VERSION INFORMATION
 VERS.                 2.0:   CWLS LOG ASCII STANDARD -VERSION 2.0
 WRAP.                  NO:   ONE LINE PER DEPTH STEP
~WELL INFORMATION BLOCK
#MNEM.UNIT           DATA                    DESCRIPTION OF MNEMONIC
#---------    -------------------            -------------------------------
# Generated from Intellog Unique Number	CS_73_76/WELL/2016
WELL.         09-29-073-07W4                 : Well_name    - WELL
LOC .         AA/09-29-073-07W4/0            : Location     - LOCATION
UWI .         AA/09-29-073-07W4/0            : Uwi          - UNIQUE WELL ID
ENTR.         TIM                            : Entered      - ENTERED BY
SRVC.         SCHLUMBERGER                   : Scn          - SERVICE COMPANY
STRT.M        360                            : top_depth    - START DEPTH
STOP.M        595                            : bot_depth    - STOP DEPTH
STEP.M        0.25                           : increment    - STEP LENGTH
 NULL. -999.2500:NULL Value
~CURVE INFORMATION BLOCK
#MNEM UNIT       ERCB CURVE CODE    CURVE DESCRIPTION
#-----------   ------------------   ----------------------------------
DEPT.M        00 001 00 00         : DEPTH        - DEPTH
NPHI.V/V      00 330 00 00         : PHIN         - NEUTRON POROSITY (SANDSTONE)
DPHI.V/V      00 890 00 00         : PHID         - DENSITY POROSITY (SANDSTONE)
GR  .API      00 310 00 00         : GR           - GAMMA RAY
ILD .OHMM     00 120 00 00         : RESD         - DEEP RESISTIVITY (DIL)
CALI.MM       00 280 01 00         : CAL          - CALIPER
~PARAMETER INFORMATION
#MNEM.UNIT           DATA             DESCRIPTION OF MNEMONIC
#---------         -----------     ------------------------------
GL  .M        727.6                : gl           - GROUND LEVEL ELEVATION
EREF.M        731.5                : kb           - ELEVATION OF DEPTH REFERENCE
DATM.M        731.5                : datum        - DATUM ELEVATION
TDD .M        602                  : tdd          - TOTAL DEPTH DRILLER
RUN .         ONE                  : Run          - RUN NUMBER
ENG .         BILL                 : Engineer     - RECORDING ENGINEER
WIT .         JIM                  : Witness      - WITNESSED BY
MUD .         GEL                  : Mud_type     - MUD TYPE
MATR.         SANDSTONE            : Logunit      - NEUTRON MATRIX
TMAX.C        23                   : BHT          - MAXIMUM RECORDED TEMPERATURE
BHTD.M        602                  : BHTDEP       - MAXIMUM RECORDED TEMPERATURE
RMT .C        22                   : MDTP         - TEMPERATURE OF MUD
MUDD.KG/M     1090                 : MWT          - MUD DENSITY
NEUT.         1                    : NEUTRON      - NEUTRON TYPE
RESI.         0                    : RESIST       - RESISTIVITY TYPE
RM  .OHMM     6.09                 : RM           - RESISTIVITY OF MUD
RMC .OHMM     7.05                 : RMC          - RESISTIVITY OF MUD CAKE
RMF .OHMM     7.05                 : RMF          - RESISTIVITY OF MUD FILTRATE
SUFT.C        4                    : SUFT         - SURFACE TEMPERATURE
~A  DEPTH     PHIN     PHID       GR     RESD      CAL
# ...
  396.500    0.397    0.310   60.112   16.638  236.365
  396.750    0.405    0.307   58.277   16.651  236.355
  397.000    0.411    0.307   57.054   16.664  237.359
  397.250    0.413    0.308   57.047   16.669  237.352
  397.500    0.414    0.310   57.042   16.073  238.354
  397.750    0.410    0.315   58.865   15.784  239.360
  398.000    0.400    0.320   59.469   15.213  240.369
  398.250    0.391    0.320   63.729   14.132  242.389
  398.500    0.380    0.317   66.773   13.366  242.384
  398.750    0.386    0.284   71.034   12.415  244.406
  399.000    0.391    0.267   74.075   11.108  245.413
  399.250    0.396    0.253   74.679   10.906  248.449
  399.500    0.401    0.242   77.112   10.320  250.469
  399.750    0.384    0.238   80.763   10.327  251.478
  400.000    0.390    0.235   81.366   10.526  253.497
  400.250    0.397    0.224   78.312   10.937  255.520
  400.500    0.407    0.221   76.477   11.146  256.526
  400.750    0.398    0.226   77.081   11.579  257.535
  401.000    0.384    0.240   78.295   11.804  257.523
  401.250    0.370    0.260   76.459   11.810  257.513
  401.500    0.369    0.255   75.237   11.176  257.502
  401.750    0.376    0.260   74.012   10.378  258.510
  402.000    0.381    0.260   78.883    9.460  259.519
  402.250    0.380    0.245   86.802    8.464  260.521
  402.500    0.385    0.227   98.378    7.858  260.516
  402.750    0.392    0.207  102.638    6.901  261.520
  403.000    0.406    0.205  103.242    6.651  261.513
  403.250    0.437    0.215  103.847    6.412  262.519
  403.500    0.451    0.215  105.059    6.415  262.510
  403.750    0.447    0.217  103.225    6.419  262.500
  404.000    0.437    0.222  101.392    6.544  262.488
  404.250    0.445    0.231   98.337    6.927  260.444
  404.500    0.494    0.238   97.113    7.331  260.439
  404.750    0.493    0.234   95.888    7.615  259.411
  405.000    0.484    0.237   95.271    7.908  257.370
  405.250    0.487    0.231   94.656    8.529  255.328
  405.500    0.495    0.236   94.650    8.857  252.270
  405.750    0.484    0.248   93.425    9.200  250.229
  406.000    0.470    0.264   91.591    9.554  249.206
  406.250    0.452    0.264   90.367    9.924  248.178
  406.500    0.425    0.260   87.313   10.505  247.155
  406.750    0.395    0.255   85.479   10.707  247.145
  407.000    0.382    0.259   84.864   10.914  246.119
  407.250    0.394    0.265   79.980   11.989  245.094
  407.500    0.395    0.266   72.660   14.458  244.068
  407.750    0.397    0.268   62.291   18.786  242.027
  408.000    0.406    0.267   52.531   21.025  240.999
  408.250    0.441    0.264   45.818   19.525  239.975
  408.500    0.456    0.163   42.156   17.467  239.961
  408.750    0.305    0.123   43.369   15.054  238.938
  409.000    0.270    0.192   46.412   13.219  238.923
  409.250    0.351    0.264   49.454   11.393  238.916
  409.500    0.406    0.306   54.934   10.004  238.909
  409.750    0.407    0.305   59.805    8.465  238.897
  410.000    0.410    0.261   67.724    8.008  239.906
  410.250    0.415    0.237   75.643    7.718  239.896
  410.500    0.425    0.232   82.343    7.303  240.900
  410.750    0.441    0.237   84.776    7.307  241.909
  411.000    0.460    0.236   84.160    7.735  241.895
  411.250    0.477    0.227   82.935    7.884  242.906
  411.500    0.491    0.240   81.100    8.662  243.910
  411.750    0.495    0.260   78.657    8.996  243.903
  412.000    0.474    0.261   74.992    9.699  243.891
  412.250    0.401    0.254   73.767   10.656  243.884
  412.500    0.410    0.259   71.933   11.491  243.872
  412.750    0.446    0.277   70.099   11.933  243.862
  413.000    0.455    0.288   68.265   12.395  243.852
  413.250    0.417    0.282   70.087   12.638  244.859
  413.500    0.422    0.271   72.519   12.408  244.852
  413.750    0.429    0.260   73.733   12.190  244.840
  414.000    0.443    0.248   73.727   11.968  245.846
  414.250    0.455    0.249   73.111   11.539  245.836
  414.500    0.454    0.249   73.106   11.331  246.843
  414.750    0.446    0.248   73.100   10.924  246.836
  415.000    0.437    0.247   73.704   10.730  247.842
  415.250    0.426    0.249   74.309   10.537  248.844
  415.500    0.432    0.242   74.303    9.787  249.855
  415.750    0.437    0.232   73.078    9.258  250.861
  416.000    0.446    0.237   73.073    8.760  252.884
  416.250    0.448    0.246   73.067    8.288  255.922
  416.500    0.428    0.251   74.279    8.138  258.960
  416.750    0.436    0.241   74.883    7.995  263.012
  417.000    0.444    0.233   75.488    7.998  267.067
  417.250    0.453    0.229   76.092    8.307  271.121
  417.500    0.443    0.227   76.086    8.469  274.162
  417.750    0.436    0.224   74.861    8.634  278.214
  418.000    0.437    0.227   71.196    8.968  279.220
  418.250    0.458    0.240   67.533    9.314  277.181
  418.500    0.427    0.257   63.868    9.496  261.929
  418.750    0.411    0.267   62.643    9.865  255.824
  419.000    0.411    0.272   62.636   10.248  251.750
  419.250    0.430    0.285   63.243   10.445  250.724
  419.500    0.421    0.295   65.066   10.850  248.680
  419.750    0.399    0.292   68.715   10.657  248.668
  420.000    0.399    0.287   71.758   10.465  248.664
  420.250    0.410    0.269   76.021    9.718  248.649
  420.500    0.425    0.250   77.843    9.025  248.644
  420.750    0.420    0.225   74.790    9.030  247.619
  421.000    0.426    0.218   68.689    9.381  246.591
  421.250    0.437    0.272   64.416    9.744  245.568
  421.500    0.425    0.311   58.314   10.119  242.510
  421.750    0.418    0.333   57.699   10.511  241.485
  422.000    0.409    0.333   57.084   10.919  240.459
  422.250    0.415    0.328   56.468   11.131  240.449
  422.500    0.423    0.323   56.461   11.136  239.424
  422.750    0.434    0.324   56.455   11.145  239.414
  423.000    0.441    0.330   56.450   10.946  239.405
  423.250    0.438    0.334   56.444   10.748  239.393
  423.500    0.432    0.329   55.828   10.363  239.383
  423.750    0.426    0.324   55.213   10.565  238.357
  424.000    0.418    0.323   54.598   10.770  237.332
  424.250    0.411    0.325   55.202   10.578  236.304
  424.500    0.415    0.327   55.196   10.387  236.297
  424.750    0.439    0.324   55.191    9.649  235.269
  425.000    0.454    0.322   53.967    9.473  235.264
  425.250    0.440    0.321   54.570    8.963  235.254
  425.500    0.436    0.318   55.784    8.482  236.261
  425.750    0.442    0.315   55.778    8.177  236.246
  426.000    0.418    0.315   54.553    8.180  237.258
  426.250    0.407    0.317   54.544    8.035  237.246
  426.500    0.439    0.319   55.148    8.347  237.238
  426.750    0.429    0.321   55.752    8.508  237.222
  427.000    0.403    0.322   57.577    8.672  237.217
  427.250    0.426    0.323   57.571    9.008  237.207
  427.500    0.450    0.330   55.127    9.534  237.198
  427.750    0.470    0.346   50.243    9.906  237.183
  428.000    0.498    0.406   45.360    9.910  237.176
  428.250    0.557    0.446   41.089    9.915  237.169
  428.500    0.585    0.463   40.473    9.384  237.157
  428.750    0.384    0.374   41.687    9.046  237.150
  429.000    0.366    0.333   42.900    8.721  237.138
  429.250    0.380    0.331   43.504    8.562  237.128
  429.500    0.402    0.342   42.887    8.566  236.102
  429.750    0.427    0.357   40.445    8.415  235.074
  430.000    0.447    0.368   38.610    8.578  234.049
  430.250    0.469    0.376   36.776    8.582  234.042
  430.500    0.490    0.362   37.379    8.588  233.018
  430.750    0.450    0.349   39.201    8.593  233.009
  431.000    0.422    0.346   41.024    8.598  232.992
  431.250    0.438    0.351   41.628    8.445  232.990
  431.500    0.426    0.356   41.621    8.294  232.980
  431.750    0.412    0.351   41.618    8.147  232.971
  432.000    0.418    0.338   42.222    8.151  232.959
  432.250    0.416    0.334   42.216    8.156  232.949
  432.500    0.400    0.338   41.600    8.317  232.939
  432.750    0.405    0.345   42.204    8.321  232.930
