~VERSION INFORMATION
 VERS.                 2.0:   CWLS LOG ASCII STANDARD -VERSION 2.0
 WRAP.                  NO:   ONE LINE PER DEPTH STEP
~WELL INFORMATION BLOCK
#MNEM.UNIT           DATA                    DESCRIPTION OF MNEMONIC
#---------    -------------------            -------------------------------
# Generated from Intellog Unique Number	CW_70_72/WELL/3017
NULL.         -999.25                        : NULL_VALUE
WELL.         MESA SULPETRO CALL 07-30       : Well_name    - WELL              
LOC .         07-30-070-22W4                 : Location     - LOCATION          
UWI .         00/07-30-070-22W4/0            : Uwi          - UNIQUE WELL ID    
ENTR.         jj                             : Entered      - ENTERED BY        
SRVC.         SCHLUMBERGER                   : Scn          - SERVICE COMPANY   
DATE.         14 JAN 78                      : Date         - LOG DATE          
STRT.M        411.48                         : top_depth    - START DEPTH       
STOP.M        636.98                         : bot_depth    - STOP DEPTH        
STEP.M        0.25                           : increment    - STEP LENGTH       
~CURVE INFORMATION BLOCK
#MNEM UNIT       ERCB CURVE CODE    CURVE DESCRIPTION
#-----------   ------------------   ----------------------------------
DEPT.M        00 001 00 00         : DEPTH        - DEPTH                       
ILD .OHMM     00 120 00 00         : RESD         - DEEP RESISTIVITY (DIL)      
CALI.MM       00 280 01 00         : CAL          - CALIPER                     
GR  .API      00 310 00 00         : GR           - GAMMA RAY                   
NPHI.V/V      00 330 00 00         : PHIN         - NEUTRON POROSITY (SANDSTONE)
DPHI.V/V      00 890 00 00         : PHID         - DENSITY POROSITY (SANDSTONE)
~PARAMETER INFORMATION       
#MNEM.UNIT           DATA             DESCRIPTION OF MNEMONIC
#---------         -----------     ------------------------------
GL  .M        659.282              : gl           - GROUND LEVEL ELEVATION      
EREF.M        662.33               : kb           - ELEVATION OF DEPTH REFERENCE
DATM.M        659.282              : datum        - DATUM ELEVATION             
TDD .M        652.882              : tdd          - TOTAL DEPTH DRILLER         
RUN .         ONE                  : Run          - RUN NUMBER                  
ENG .         RUMSEY               : Engineer     - RECORDING ENGINEER          
WIT .         STRANDBERG           : Witness      - WITNESSED BY                
BASE.         EDM                  : Branch       - HOME BASE OF LOGGING UNIT   
MUD .         GEL CHEM             : Mud_type     - MUD TYPE                    
MATR.         SANDSTONE            : Logunit      - NEUTRON MATRIX              
TMAX.C        25                   : BHT          - MAXIMUM RECORDED TEMPERATURE
BHTD.M        652.882              : BHTDEP       - MAXIMUM RECORDED TEMPERATURE
RMT .C        15.5556              : MDTP         - TEMPERATURE OF MUD          
MUDD.KG/M     1008                 : MWT          - MUD DENSITY                 
NEUT.         1                    : NEUTRON      - NEUTRON TYPE                
RESI.         0                    : RESIST       - RESISTIVITY TYPE            
RM  .OHMM     2.88                 : RM           - RESISTIVITY OF MUD          
RMC .OHMM     2.5                  : RMC          - RESISTIVITY OF MUD CAKE     
RMF .OHMM     3.34                 : RMF          - RESISTIVITY OF MUD FILTRATE 
SUFT.C        -17.7778             : SUFT         - SURFACE TEMPERATURE         
~A  DEPTH     RESD      CAL       GR     PHIN     PHID
# ...
  593.980    3.360  170.391   91.786    0.458    0.171
  594.230    3.536  168.080   89.860    0.433    0.159
  594.480    3.763  163.749   88.366    0.413    0.182
  594.730    3.835  158.782   85.498    0.409    0.164
  594.980    3.547  158.493   83.193    0.422    0.174
  595.230    2.988  162.339   81.513    0.441    0.149
  595.480    2.800  156.313   86.798    0.454    0.117
  595.730    2.734  152.622   93.460    0.464    0.112
  595.980    2.792  157.746   99.371    0.478    0.141
  596.230    2.856  165.206  103.088    0.500    0.150
  596.480    2.978  171.496  104.606    0.505    0.150
  596.730    3.134  177.152  105.187    0.495    0.157
  596.980    3.379  174.100  104.829    0.479    0.167
  597.230    3.542  167.965  105.154    0.466    0.184
  597.480    3.671  171.707  107.302    0.438    0.216
  597.730    3.728  158.888  109.387    0.357    0.182
  597.980    3.675  149.466  102.943    0.329    0.158
  598.230    3.636  149.487   72.417    0.315    0.147
  598.480    3.617  153.336   52.239    0.309    0.160
  598.730    3.618  161.006   53.007    0.303    0.194
  598.980    3.696  174.200   60.611    0.296    0.178
  599.230    3.853  170.828   75.991    0.321    0.159
  599.480    4.099  156.839   96.137    0.348    0.157
  599.730    4.445  152.614  131.272    0.370    0.184
  599.980    4.531  160.288  154.804    0.398    0.166
  600.230    4.524  167.110  164.164    0.414    0.152
  600.480    4.401  167.986  174.716    0.437    0.155
  600.730    4.258  169.078  184.765    0.447    0.166
  600.980    4.149  169.530  192.117    0.452    0.177
  601.230    4.044  169.550  188.872    0.470    0.186
  601.480    4.099  169.156  112.377    0.489    0.175
  601.730    4.387  168.540   72.508    0.447    0.144
  601.980    5.232  166.867   60.170    0.397    0.126
  602.230    7.115  160.209   50.903    0.350    0.145
  602.480    7.874  153.757   40.948    0.329    0.169
  602.730    8.118  146.663   35.506    0.317    0.198
  602.980    8.121  151.793   32.324    0.301    0.184
  603.230    7.331  153.087   34.157    0.281    0.151
  603.480    6.446  153.114   44.207    0.263    0.138
  603.730    5.829  154.103   55.134    0.273    0.115
  603.980    5.311  154.759   61.609    0.288    0.123
  604.230    4.821  155.106   63.255    0.295    0.083
  604.480    4.509  154.599   66.531    0.303    0.092
  604.730    4.353  156.218   73.448    0.308    0.112
  604.980    4.172  164.316   76.786    0.314    0.128
  605.230    4.044  165.296   78.996    0.315    0.142
  605.480    4.000  161.605   79.388    0.311    0.148
  605.730    3.950  158.340   80.221    0.300    0.123
  605.980    3.892  157.309   81.615    0.292    0.120
  606.230    3.851  158.397   83.634    0.293    0.130
  606.480    3.802  160.755   87.728    0.305    0.142
  606.730    3.713  162.585   92.445    0.318    0.157
  606.980    3.646  159.112   97.353    0.333    0.181
  607.230    3.627  157.228  100.942    0.343    0.200
  607.480    3.555  156.619  103.907    0.357    0.239
  607.730    3.465  156.958  103.547    0.397    0.246
  607.980    3.389  157.619  102.433    0.420    0.245
  608.230    3.328  158.387  100.820    0.432    0.235
  608.480    3.298  158.734  100.142    0.427    0.237
  608.730    3.257  158.654   99.784    0.421    0.228
  608.980    3.210  158.573   99.862    0.421    0.224
  609.230    3.140  157.326  100.439    0.427    0.208
  609.480    3.101  155.654  101.583    0.435    0.219
  609.730    3.090  153.450  103.354    0.438    0.225
  609.980    3.080  152.199  105.502    0.416    0.229
  610.230    3.082  151.909  107.964    0.399    0.191
  610.480    3.077  152.043  110.300    0.379    0.192
  610.730    3.067  152.598  112.195    0.367    0.211
  610.980    3.046  153.898  114.971    0.376    0.197
  611.230    3.047  155.624  114.046    0.383    0.201
  611.480    3.048  157.458  116.822    0.389    0.228
  611.730    3.044  159.603  116.963    0.393    0.245
  611.980    3.051  159.950  116.037    0.400    0.236
  612.230    3.058  154.454  114.297    0.386    0.230
  612.480    3.071  158.089  111.992    0.373    0.239
  612.730    3.137  162.259  109.499    0.370    0.241
  612.980    3.185  156.230  106.126    0.376    0.211
  613.230    3.253  154.771  103.571    0.379    0.213
  613.480    3.334  157.027  110.423    0.371    0.210
  613.730    3.386  159.177  112.823    0.366    0.195
  613.980    3.407  160.587  110.891    0.361    0.220
  614.230    3.409  160.607  108.586    0.357    0.216
  614.480    3.397  160.528  106.347    0.351    0.195
  614.730    3.380  159.493  105.671    0.336    0.215
  614.980    3.356  157.288  103.741    0.336    0.237
  615.230    3.364  155.725  102.191    0.352    0.214
  615.480    3.371  156.600  108.352    0.349    0.238
  615.730    3.386  159.705  111.125    0.342    0.221
  615.980    3.387  161.962  108.632    0.334    0.203
  616.230    3.376  162.838  103.756    0.328    0.193
  616.480    3.346  163.499  101.078    0.330    0.203
  616.730    3.280  163.312  101.529    0.346    0.186
  616.980    3.226  162.808  100.541    0.361    0.185
  617.230    3.168  162.940   95.854    0.374    0.232
  617.480    3.122  162.439   91.355    0.361    0.210
  617.730    3.083  159.912   88.485    0.353    0.190
  617.980    3.056  155.904   86.433    0.341    0.202
  618.230    3.068  153.061   85.257    0.337    0.219
  618.480    3.116  152.345   85.457    0.342    0.226
  618.730    3.212  152.479   88.296    0.350    0.209
  618.980    3.238  154.307   91.822    0.362    0.208
  619.230    3.239  158.900   95.287    0.359    0.219
  619.480    3.205  161.158   97.873    0.352    0.211
  619.730    3.159  156.403  101.339    0.347    0.208
  619.980    3.096  154.520  105.556    0.351    0.196
  620.230    3.051  154.229  109.773    0.349    0.194
  620.480    3.007  154.679  119.946    0.338    0.187
  620.730    3.025  157.782  137.397    0.332    0.182
  620.980    3.096  161.419  147.195    0.364    0.186
  621.230    3.150  155.712  150.910    0.431    0.197
  621.480    3.163  153.303  151.115    0.435    0.210
  621.730    3.123  153.114  138.902    0.411    0.225
  621.980    3.078  153.348  136.659    0.384    0.214
  622.230    3.011  153.907  130.590    0.362    0.200
  622.480    2.968  154.144  122.078    0.366    0.190
  622.730    2.953  154.806  107.166    0.389    0.214
  622.980    2.943  155.476   93.636    0.383    0.197
  623.230    2.944  155.920   86.942    0.370    0.165
  623.480    2.956  156.480   74.101    0.358    0.159
  623.730    2.958  150.556   63.770    0.336    0.153
  623.980    2.970  149.736   56.133    0.308    0.189
  624.230    2.922  149.762   48.873    0.295    0.168
  624.480    2.869  151.381   43.495    0.286    0.178
  624.730    2.865  150.769   40.753    0.274    0.211
  624.980    2.856  148.459   44.279    0.240    0.201
  625.230    2.868  146.679   50.566    0.249    0.173
  625.480    2.907  146.492   53.716    0.254    0.165
  625.730    3.036  144.288   56.807    0.254    0.181
  625.980    3.153  143.358   59.708    0.245    0.193
  626.230    3.155  146.358   61.790    0.237    0.186
  626.480    3.063  149.997   64.441    0.240    0.191
  626.730    2.946  149.069   62.512    0.252    0.209
  626.980    2.813  147.181   63.532    0.271    0.229
  627.230    2.726  147.949   71.573    0.290    0.271
  627.480    2.738  147.975   69.455    0.311    0.296
  627.730    2.785  144.920   61.194    0.302    0.237
  627.980    2.771  147.498   54.999    0.279    0.226
  628.230    2.695  148.797   50.123    0.281    0.268
  628.480    2.530  148.079   47.193    0.283    0.308
  628.730    2.385  147.362   44.762    0.284    0.305
  628.980    2.350  149.304   42.144    0.285    0.290
  629.230    2.158  149.962   41.468    0.296    0.301
  629.480    2.102  149.354   44.936    0.295    0.300
  629.730    2.143  150.867   49.967    0.274    0.287
  629.980    2.341  154.713   57.508    0.266    0.253
  630.230    2.529  153.149   63.230    0.266    0.201
