~VERSION INFORMATION
 VERS.                 2.0:   CWLS LOG ASCII STANDARD -VERSION 2.0
 WRAP.                  NO:   ONE LINE PER DEPTH STEP
~WELL INFORMATION BLOCK
#MNEM.UNIT           DATA                    DESCRIPTION OF MNEMONIC
#---------    -------------------            -------------------------------
# Generated from Intellog Unique Number	CX_WELLS/WELL/2581
WELL.         PARA ET AL PONY                : Well_name    - WELL
LOC .         00/03-11-080-08W4/0            : Location     - LOCATION
UWI .         00/03-11-080-08W400            : Uwi          - UNIQUE WELL ID
ENTR.         T                              : Entered      - ENTERED BY
SRVC.         SCHLUMBERGER                   : Scn          - SERVICE COMPANY
STRT.M        190                            : top_depth    - START DEPTH
STOP.M        410                            : bot_depth    - STOP DEPTH
STEP.M        0.25                           : increment    - STEP LENGTH
 NULL. -999.2500:NULL Value
~CURVE INFORMATION BLOCK
#MNEM UNIT       ERCB CURVE CODE    CURVE DESCRIPTION
#-----------   ------------------   ----------------------------------
DEPT.M        00 001 00 00         : DEPTH        - DEPTH
GR  .API      00 310 00 00         : GR           - GAMMA RAY
NPHI.V/V      00 330 00 00         : PHIN         - NEUTRON POROSITY (SANDSTONE)
DPHI.V/V      00 890 00 00         : PHID         - DENSITY POROSITY (SANDSTONE)
ILD .OHMM     00 120 00 00         : RESD         - DEEP RESISTIVITY (DIL)
~PARAMETER INFORMATION
#MNEM.UNIT           DATA             DESCRIPTION OF MNEMONIC
#---------         -----------     ------------------------------
GL  .M        631                  : gl           - GROUND LEVEL ELEVATION
EREF.M        634.5                : kb           - ELEVATION OF DEPTH REFERENCE
DATM.M        634.5                : datum        - DATUM ELEVATION
TDD .M        411                  : tdd          - TOTAL DEPTH DRILLER
RUN .         ONE                  : Run          - RUN NUMBER
ENG .         BILL                 : Engineer     - RECORDING ENGINEER
WIT .         JIM                  : Witness      - WITNESSED BY
MUD .         GEL                  : Mud_type     - MUD TYPE
MATR.         SANDSTONE            : Logunit      - NEUTRON MATRIX
TMAX.C        25                   : BHT          - MAXIMUM RECORDED TEMPERATURE
BHTD.M        411                  : BHTDEP       - MAXIMUM RECORDED TEMPERATURE
MATR.         1                    : LOGUNIT      - NEUTRON MATRIX
RMT .C        16                   : MDTP         - TEMPERATURE OF MUD
NEUT.         1                    : NEUTRON      - NEUTRON TYPE
RESI.         3.5                  : RESIST       - RESISTIVITY TYPE
RMC .OHMM     3.2                  : RMC          - RESISTIVITY OF MUD CAKE
RMF .OHMM     3.5                  : RMF          - RESISTIVITY OF MUD FILTRATE
SUFT.C        5                    : SUFT         - SURFACE TEMPERATURE
~A  DEPTH       GR     PHIN     PHID     RESD
  190.000  101.423    0.527    0.308    3.313
  190.250  103.181    0.536    0.305    3.312
  190.500  105.528    0.551    0.302    3.373
  190.750  106.108    0.554    0.300    3.372
  191.000  107.273    0.542    0.299    3.498
  191.250  107.851    0.520    0.298    3.562
  191.500  107.842    0.504    0.294    3.628
  191.750  107.235    0.514    0.290    3.695
  192.000  107.226    0.519    0.286    3.762
  192.250  107.214    0.505    0.278    3.832
  192.500  107.203    0.510    0.273    3.902
  192.750  108.960    0.520    0.272    3.901
  193.000  109.538    0.531    0.271    4.047
  193.250  109.529    0.536    0.276    4.046
  193.500  109.508    0.510    0.278    4.120
  193.750  109.506    0.495    0.275    4.196
  194.000  110.083    0.485    0.272    4.194
  194.250  110.658    0.486    0.272    4.194
  194.500  110.650    0.490    0.272    4.271
  194.750  110.638    0.495    0.274    4.270
  195.000  110.623    0.497    0.272    4.269
  195.250  110.025    0.502    0.268    4.268
  195.500  110.013    0.507    0.263    4.268
  195.750  110.001    0.505    0.260    4.267
  196.000  110.579    0.496    0.259    4.426
  196.250  110.564    0.489    0.258    4.676
  196.500  111.142    0.484    0.256    4.851
  196.750  115.261    0.483    0.251    4.940
  197.000  117.013    0.477    0.243    5.124
  197.250  114.056    0.460    0.239    5.219
  197.500  108.740    0.451    0.239    5.514
  197.750   99.293    0.457    0.239    5.720
  198.000   79.232    0.468    0.240    5.825
  198.250   94.552    0.478    0.240    6.155
  198.500  101.027    0.479    0.236    6.385
  198.750  101.015    0.375    0.180    6.623
  199.000   99.821    0.404    0.190    7.128
  199.250  101.581    0.411    0.215    7.394
  199.500  102.746    0.422    0.244    8.106
  199.750   98.016    0.437    0.236    8.409
  200.000   94.464    0.450    0.227    9.218
  200.250   91.503    0.453    0.213   10.485
  200.500   88.546    0.435    0.201   11.927
  200.750   84.404    0.414    0.181   13.816
  201.000   80.857    0.378    0.175   14.334
  201.250   74.948    0.358    0.184   15.426
  201.500   69.629    0.363    0.209   16.002
  201.750   76.104    0.372    0.216   16.598
  202.000   90.831    0.379    0.238   16.903
  202.250   87.874    0.382    0.248   16.901
  202.500   81.966    0.381    0.259   16.898
  202.750   74.877    0.380    0.262   16.894
  203.000   71.325    0.379    0.250   16.891
  203.250   78.982    0.377    0.243   16.579
  203.500   86.046    0.369    0.250   15.976
  203.750   91.931    0.363    0.260   14.836
  204.000   96.047    0.361    0.247   13.527
  204.250  100.161    0.368    0.230   13.035
  204.500  102.511    0.381    0.227   12.560
  204.750   98.961    0.390    0.226   12.559
  205.000   91.283    0.390    0.222   12.789
  205.250   85.964    0.394    0.216   13.267
  205.500   81.825    0.402    0.213   14.278
  205.750   78.272    0.412    0.213   14.811
  206.000   75.314    0.416    0.219   15.650
  206.250   72.351    0.393    0.227   16.537
  206.500   70.570    0.374    0.241   17.472
  206.750   70.559    0.376    0.274   18.125
  207.000   68.778    0.382    0.283   18.799
  207.250   67.590    0.387    0.287   19.147
  207.500   61.091    0.390    0.282   19.142
  207.750   58.131    0.394    0.280   19.139
  208.000   58.117    0.396    0.276   19.134
  208.250   61.643    0.399    0.275   19.129
  208.500   65.762    0.403    0.273   19.127
  208.750   66.924    0.405    0.271   18.771
  209.000   68.094    0.406    0.275   18.425
  209.250   71.623    0.405    0.273   18.085
  209.500   87.533    0.400    0.268   17.428
  209.750   91.060    0.394    0.264   15.889
  210.000   80.433    0.391    0.264   15.312
  210.250   81.601    0.389    0.262   14.755
  210.500   88.076    0.389    0.250   14.219
  210.750   95.140    0.391    0.250   14.214
  211.000   98.077    0.399    0.257   14.477
  211.250   94.527    0.412    0.255   14.743
  211.500   83.308    0.411    0.241   15.292
  211.750   75.041    0.397    0.233   15.863
  212.000   73.260    0.398    0.236   16.154
  212.250   75.604    0.430    0.238   16.152
  212.500   77.954    0.422    0.243   15.564
  212.750   92.095    0.414    0.253   15.275
  213.000   91.491    0.408    0.256   15.273
  213.250   89.120    0.405    0.251   14.718
  213.500   87.932    0.402    0.243   13.668
  213.750   85.561    0.396    0.229   13.417
  214.000   86.139    0.391    0.241   13.917
  214.250   87.897    0.388    0.245   14.437
  214.500   89.061    0.384    0.252   14.701
  214.750   89.052    0.379    0.255   14.431
  215.000   89.630    0.375    0.256   13.402
  215.250   91.388    0.375    0.255   13.399
  215.500   92.555    0.379    0.253   14.157
  215.750   91.951    0.384    0.248   14.154
  216.000   91.942    0.389    0.245   14.683
  216.250   91.341    0.395    0.247   15.231
  216.500   89.560    0.401    0.251   14.949
  216.750   87.189    0.406    0.256   14.673
  217.000   84.819    0.408    0.251   14.403
  217.250   83.038    0.412    0.254   14.400
  217.500   83.026    0.419    0.260   14.938
  217.750   81.246    0.423    0.269   15.494
  218.000   80.641    0.419    0.276   16.073
  218.250   80.629    0.417    0.271   16.369
  218.500   81.210    0.413    0.267   16.670
  218.750   81.198    0.407    0.266   16.665
  219.000   81.776    0.397    0.266   16.663
  219.250   83.534    0.389    0.267   16.056
  219.500   88.239    0.391    0.267   14.911
  219.750   97.073    0.396    0.264   13.849
  220.000  101.186    0.393    0.258   12.627
  220.250  102.351    0.390    0.243   11.727
  220.500  102.935    0.392    0.235   11.511
  220.750  103.513    0.396    0.229   11.299
  221.000  103.498    0.399    0.235   11.296
  221.250  102.896    0.403    0.239   11.504
  221.500  102.295    0.395    0.241   12.155
  221.750   98.155    0.396    0.245   13.825
  222.000   93.429    0.398    0.248   14.880
  222.250   88.700    0.399    0.250   16.015
  222.500   83.381    0.392    0.250   18.215
  222.750   47.395    0.372    0.250   18.896
  223.000   46.791    0.357    0.248   19.602
  223.250   49.141    0.352    0.251   19.238
  223.500   57.385    0.360    0.267   18.199
  223.750   74.474    0.371    0.299   17.218
  224.000   82.718    0.383    0.307   16.289
  224.250   86.834    0.380    0.283   15.127
  224.500   88.588    0.374    0.275   14.849
  224.750   88.576    0.372    0.270   14.575
  225.000   88.565    0.375    0.263   15.685
  225.250   88.553    0.380    0.247   16.882
  225.500   88.544    0.385    0.236   17.513
  225.750   86.174    0.393    0.234   18.847
  226.000   76.137    0.405    0.228   19.552
  226.250   74.946    0.415    0.234   20.657
  226.500   78.472    0.422    0.258   21.037
  226.750   79.047    0.431    0.262   21.033
  227.000   74.321    0.433    0.271   21.029
  227.250   73.124    0.431    0.296   19.530
  227.500   76.067    0.424    0.302   18.477
  227.750   80.772    0.420    0.312   15.941
  228.000   92.551    0.420    0.318   12.313
  228.250   96.670    0.417    0.313    9.338
  228.500  104.914    0.412    0.311    7.622
  228.750  115.517    0.406    0.308    6.823
  229.000  122.581    0.411    0.304    6.337
  229.250  127.877    0.418    0.294    6.696
  229.500  126.096    0.425    0.278    7.341
  229.750  123.725    0.437    0.228    8.197
  230.000  120.176    0.449    0.194    9.154
  230.250  116.036    0.458    0.176   10.605
  230.500  111.307    0.467    0.168   12.287
  230.750  113.061    0.465    0.162   14.235
  231.000  116.001    0.452    0.170   15.322
  231.250  120.114    0.440    0.197   16.189
  231.500  120.105    0.427    0.254   14.761
  231.750  119.504    0.422    0.287   13.213
  232.000  117.133    0.421    0.301   12.732
  232.250  114.763    0.418    0.320   13.453
  232.500  112.982    0.417    0.312   14.215
  232.750  112.374    0.416    0.282   15.299
  233.000  111.779    0.415    0.271   15.870
  233.250  109.408    0.415    0.262   17.081
