~VERSION INFORMATION
 VERS.                 2.0:   CWLS LOG ASCII STANDARD -VERSION 2.0
 WRAP.                  NO:   ONE LINE PER DEPTH STEP
~WELL INFORMATION BLOCK
#MNEM.UNIT           DATA                    DESCRIPTION OF MNEMONIC
#---------    -------------------            -------------------------------
# Generated from Intellog Unique Number	CS_73_76/WELL/1084
WELL.         BOW VALLEY INDUSTRIES LTD.     : Well_name    - WELL
LOC .         00/06-30-075-13W4/0            : Location     - LOCATION
UWI .         00/06-30-075-13W4/0            : Uwi          - UNIQUE WELL ID
ENTR.         SP                             : Entered      - ENTERED BY
SRVC.         SCHLUMBERGER                   : Scn          - SERVICE COMPANY
STRT.M        360                            : top_depth    - START DEPTH
STOP.M        597                            : bot_depth    - STOP DEPTH
STEP.M        0.25                           : increment    - STEP LENGTH
 NULL. -999.2500:NULL Value
~CURVE INFORMATION BLOCK
#MNEM UNIT       ERCB CURVE CODE    CURVE DESCRIPTION
#-----------   ------------------   ----------------------------------
DEPT.M        00 001 00 00         : DEPTH        - DEPTH
ILD .OHMM     00 120 00 00         : RESD         - DEEP RESISTIVITY (DIL)
DPHI.V/V      00 890 00 00         : PHID         - DENSITY POROSITY (LIMESTONE)
NPHI.V/V      00 330 00 00         : PHIN         - NEUTRON POROSITY (LIMESTONE)
GR  .API      00 310 00 00         : GR           - GAMMA RAY
~PARAMETER INFORMATION
#MNEM.UNIT           DATA             DESCRIPTION OF MNEMONIC
#---------         -----------     ------------------------------
GL  .M        736                  : gl           - GROUND LEVEL ELEVATION
EREF.M        739.2                : kb           - ELEVATION OF DEPTH REFERENCE
DATM.M        736                  : datum        - DATUM ELEVATION
TDD .M        603                  : tdd          - TOTAL DEPTH DRILLER
RUN .         ONE                  : Run          - RUN NUMBER
ENG .         BILL                 : Engineer     - RECORDING ENGINEER
WIT .         JIM                  : Witness      - WITNESSED BY
MUD .         GEL                  : Mud_type     - MUD TYPE
MATR.         LIMESTONE            : Logunit      - NEUTRON MATRIX
TMAX.C        23                   : BHT          - MAXIMUM RECORDED TEMPERATURE
BHTD.M        603                  : BHTDEP       - MAXIMUM RECORDED TEMPERATURE
MATR.         1                    : LOGUNIT      - NEUTRON MATRIX
RMT .C        25                   : MDTP         - TEMPERATURE OF MUD
NEUT.         1                    : NEUTRON      - NEUTRON TYPE
RESI.         0                    : RESIST       - RESISTIVITY TYPE
RMC .OHMM     0.25                 : RMC          - RESISTIVITY OF MUD CAKE
RMF .OHMM     0.25                 : RMF          - RESISTIVITY OF MUD FILTRATE
SUFT.C        15                   : SUFT         - SURFACE TEMPERATURE
~A  DEPTH     RESD     PHID     PHIN       GR
# ...
  490.500    4.996    0.351    0.451   62.912
  490.750    4.994    0.351    0.461   63.510
  491.000    4.991    0.352    0.468   64.703
  491.250    5.083    0.357    0.475   65.293
  491.500    5.081    0.360    0.459   66.488
  491.750    4.987    0.351    0.451   66.476
  492.000    4.985    0.350    0.451   67.069
  492.250    4.893    0.350    0.451   67.048
  492.500    4.891    0.350    0.449   67.032
  492.750    4.890    0.355    0.443   68.229
  493.000    4.799    0.359    0.441   70.641
  493.250    4.797    0.354    0.450   71.844
  493.500    4.796    0.349    0.458   74.254
  493.750    4.707    0.342    0.465   74.844
  494.000    4.706    0.345    0.459   74.827
  494.250    4.704    0.347    0.454   74.804
  494.500    4.703    0.344    0.458   74.186
  494.750    4.701    0.341    0.457   72.955
  495.000    4.613    0.347    0.446   71.117
  495.250    4.612    0.355    0.460   69.277
  495.500    4.610    0.354    0.471   68.049
  495.750    4.609    0.352    0.476   68.029
  496.000    4.608    0.346    0.469   68.618
  496.250    4.522    0.322    0.465   68.603
  496.500    4.438    0.317    0.466   67.374
  496.750    4.436    0.326    0.466   67.358
  497.000    4.354    0.334    0.465   67.339
  497.250    4.352    0.337    0.469   67.324
  497.500    4.351    0.333    0.479   66.700
  497.750    4.350    0.331    0.483   66.072
  498.000    4.349    0.333    0.488   66.051
  498.250    4.346    0.331    0.479   65.433
  498.500    4.345    0.342    0.476   65.416
  498.750    4.344    0.330    0.481   66.010
  499.000    4.343    0.344    0.474   67.209
  499.250    4.423    0.348    0.476   69.008
  499.500    4.588    0.341    0.479   68.388
  499.750    5.123    0.336    0.460   65.941
  500.000    5.414    0.327    0.440   65.317
  500.250    6.159    0.314    0.256   64.695
  500.500    7.685    0.286    0.212   62.859
  500.750   10.712    0.263    0.195   60.413
  501.000   13.121    0.239    0.183   56.753
  501.250   14.927    0.187    0.176   53.092
  501.500   15.771    0.041    0.177   46.995
  501.750   16.062    0.037    0.191   45.164
  502.000   14.640    0.035    0.208   43.329
  502.250   12.394    0.041    0.226   42.093
  502.500   10.688    0.072    0.257   43.294
  502.750    9.218    0.091    0.316   46.306
  503.000    6.857    0.129    0.403   47.511
  503.250    5.595    0.163    0.452   51.138
  503.500    4.914    0.225    0.466   57.188
  503.750    4.563    0.267    0.472   62.031
  504.000    4.478    0.287    0.452   65.660
  504.250    4.477    0.304    0.442   68.070
  504.500    4.476    0.308    0.445   69.873
  504.750    4.474    0.312    0.451   69.860
  505.000    4.472    0.312    0.447   69.843
  505.250    4.640    0.313    0.456   69.824
  505.500    4.724    0.317    0.463   69.806
  505.750    4.636    0.324    0.469   69.182
  506.000    4.635    0.325    0.466   68.562
  506.250    4.633    0.328    0.461   67.327
  506.500    4.632    0.329    0.477   66.701
  506.750    4.631    0.330    0.472   66.078
  507.000    4.628    0.334    0.458   66.067
  507.250    4.714    0.333    0.461   65.437
  507.500    4.712    0.331    0.479   64.815
  507.750    4.711    0.340    0.483   64.793
  508.000    4.709    0.342    0.484   64.779
  508.250    4.708    0.344    0.476   64.763
  508.500    4.621    0.339    0.472   64.748
  508.750    4.619    0.336    0.464   65.337
  509.000    4.617    0.338    0.458   65.926
  509.250    4.616    0.339    0.454   66.517
  509.500    4.530    0.339    0.452   67.717
  509.750    4.529    0.339    0.452   69.519
  510.000    4.527    0.339    0.459   70.721
  510.250    4.526    0.337    0.463   71.313
  510.500    4.524    0.344    0.464   71.286
  510.750    4.523    0.315    0.459   71.279
  511.000    4.606    0.303    0.456   76.117
  511.250    4.605    0.299    0.451   79.743
  511.500    4.689    0.293    0.455   81.551
  511.750    4.687    0.290    0.458   83.963
  512.000    4.773    0.292    0.457   82.731
  512.250    4.860    0.302    0.447   77.857
  512.500    4.859    0.316    0.444   72.985
  512.750    4.948    0.318    0.458   70.534
  513.000    5.132    0.307    0.466   69.916
  513.250    5.324    0.309    0.461   70.502
  513.500    5.731    0.316    0.319   70.489
  513.750    6.520    0.306    0.225   69.254
  514.000    7.555    0.275    0.239   66.811
  514.250    7.414    0.093    0.308   63.153
  514.500    7.013    0.098    0.356   58.280
  514.750    6.511    0.146    0.418   61.904
  515.000    6.046    0.180    0.456   68.564
  515.250    5.614    0.220    0.464   72.794
  515.500    5.309    0.245    0.460   73.994
  515.750    5.210    0.277    0.465   74.589
  516.000    5.113    0.295    0.483   73.964
  516.250    5.112    0.297    0.488   71.519
  516.500    5.205    0.291    0.467   74.535
  516.750    5.399    0.278    0.457   76.947
  517.000    5.705    0.286    0.424   78.755
  517.250    6.141    0.277    0.394   78.739
  517.500    6.609    0.260    0.371   75.685
  517.750    6.731    0.219    0.354   70.811
  518.000    6.729    0.161    0.386   67.148
  518.250    6.726    0.165    0.415   75.024
  518.500    6.601    0.196    0.439   81.084
  518.750    6.129    0.227    0.448   87.138
  519.000    6.016    0.240    0.444   89.548
  519.250    5.795    0.244    0.439   88.313
  519.500    5.794    0.235    0.444   87.689
  519.750    5.791    0.229    0.440   87.672
  520.000    5.790    0.233    0.436   87.655
  520.250    5.895    0.233    0.428   87.640
  520.500    6.004    0.227    0.439   88.234
  520.750    6.114    0.229    0.441   88.825
  521.000    6.226    0.223    0.444   88.804
  521.250    6.223    0.220    0.439   87.572
  521.500    6.222    0.223    0.435   86.345
  521.750    6.106    0.232    0.445   87.545
  522.000    5.992    0.227    0.448   92.373
  522.250    5.991    0.227    0.439   95.396
  522.500    6.100    0.226    0.425   97.814
  522.750    6.212    0.220    0.420  101.443
  523.000    6.326    0.231    0.415  101.424
  523.250    6.323    0.222    0.406   99.588
  523.500    6.206    0.230    0.403  101.388
  523.750    6.090    0.224    0.414  102.591
  524.000    5.868    0.221    0.420  101.356
  524.250    5.654    0.219    0.430   97.695
  524.500    5.347    0.209    0.425   93.429
  524.750    5.151    0.218    0.438   90.380
  525.000    4.963    0.230    0.443   88.539
  525.250    4.781    0.239    0.430   88.518
  525.500    4.607    0.230    0.417   87.901
  525.750    4.199    0.214    0.423   87.882
  526.000    3.555    0.215    0.436   89.077
  526.250    2.848    0.235    0.451   89.666
  526.500    2.411    0.240    0.465   89.656
  526.750    2.197    0.249    0.490   90.851
  527.000    2.078    0.271    0.516   91.441
  527.250    2.002    0.294    0.530   88.996
  527.500    1.965    0.300    0.522   87.161
  527.750    1.964    0.297    0.544   88.357
  528.000    2.000    0.287    0.557   90.160
  528.250    2.075    0.275    0.548   91.360
  528.500    2.152    0.262    0.533   92.559
  528.750    2.449    0.268    0.526   94.362
  529.000    2.944    0.254    0.518   94.952
  529.250    3.288    0.256    0.515   93.716
  529.500    3.741    0.248    0.504   91.880
  529.750    4.498    0.248    0.497   90.046
  530.000    4.932    0.246    0.480   88.811
  530.250    5.407    0.230    0.457   90.011
  530.500    5.820    0.214    0.458   93.027
  530.750    5.927    0.224    0.462   94.230
  531.000    5.817    0.217    0.395   88.743
  531.250    5.501    0.199    0.374   83.872
  531.500    5.203    0.170    0.391   82.642
  531.750    4.743    0.138    0.408   86.262
  532.000    4.244    0.179    0.427   89.285
  532.250    3.868    0.219    0.441   94.731
  532.500    3.658    0.207    0.456   98.359
  532.750    3.525    0.214    0.466  100.771
  533.000    3.459    0.211    0.471  102.572
  533.250    3.458    0.215    0.477  103.775
  533.500    3.722    0.231    0.482  103.149
  533.750    4.313    0.224    0.487   97.669
