~VERSION INFORMATION
 VERS.                 2.0:   CWLS LOG ASCII STANDARD -VERSION 2.0
 WRAP.                  NO:   ONE LINE PER DEPTH STEP
~WELL INFORMATION BLOCK
#MNEM.UNIT           DATA                    DESCRIPTION OF MNEMONIC
#---------    -------------------            -------------------------------
# Generated from Intellog Unique Number	CX_WELLS/WELL/2993
WELL.         TRITON ATCOR THORNBURY         : Well_name    - WELL
LOC .         00/08-11-082-12W4/0            : Location     - LOCATION
UWI .         00/08-11-082-12W400            : Uwi          - UNIQUE WELL ID
ENTR.         T                              : Entered      - ENTERED BY
SRVC.         SCHLUMBERGER                   : Scn          - SERVICE COMPANY
STRT.M        300                            : top_depth    - START DEPTH
STOP.M        534                            : bot_depth    - STOP DEPTH
STEP.M        0.25                           : increment    - STEP LENGTH
 NULL. -999.2500:NULL Value
~CURVE INFORMATION BLOCK
#MNEM UNIT       ERCB CURVE CODE    CURVE DESCRIPTION
#-----------   ------------------   ----------------------------------
DEPT.M        00 001 00 00         : DEPTH        - DEPTH
GR  .API      00 310 00 00         : GR           - GAMMA RAY
NPHI.V/V      00 330 00 00         : PHIN         - NEUTRON POROSITY (SANDSTONE)
DPHI.V/V      00 890 00 00         : PHID         - DENSITY POROSITY (SANDSTONE)
ILD .OHMM     00 120 00 00         : RESD         - DEEP RESISTIVITY (OTHER)
~PARAMETER INFORMATION
#MNEM.UNIT           DATA             DESCRIPTION OF MNEMONIC
#---------         -----------     ------------------------------
GL  .M        762                  : gl           - GROUND LEVEL ELEVATION
EREF.M        766                  : kb           - ELEVATION OF DEPTH REFERENCE
DATM.M        766                  : datum        - DATUM ELEVATION
TDD .M        546                  : tdd          - TOTAL DEPTH DRILLER
RUN .         ONE                  : Run          - RUN NUMBER
ENG .         BILL                 : Engineer     - RECORDING ENGINEER
WIT .         JIM                  : Witness      - WITNESSED BY
MUD .         GEL                  : Mud_type     - MUD TYPE
MATR.         SANDSTONE            : Logunit      - NEUTRON MATRIX
TMAX.C        22                   : BHT          - MAXIMUM RECORDED TEMPERATURE
BHTD.M        546                  : BHTDEP       - MAXIMUM RECORDED TEMPERATURE
MATR.         1                    : LOGUNIT      - NEUTRON MATRIX
RMT .C        12.5                 : MDTP         - TEMPERATURE OF MUD
NEUT.         1                    : NEUTRON      - NEUTRON TYPE
RESI.         4.2                  : RESIST       - RESISTIVITY TYPE
RMC .OHMM     2                    : RMC          - RESISTIVITY OF MUD CAKE
RMF .OHMM     3.9                  : RMF          - RESISTIVITY OF MUD FILTRATE
SUFT.C        4                    : SUFT         - SURFACE TEMPERATURE
~A  DEPTH       GR     PHIN     PHID     RESD
# ...
  387.000   60.315    0.465    0.353   20.124
  387.250   60.269    0.464    0.347   20.098
  387.500   59.641    0.458    0.340   20.087
  387.750   59.595    0.449    0.297   20.066
  388.000   59.526    0.431    0.283   20.419
  388.250   59.480    0.425    0.316   20.392
  388.500   59.422    0.437    0.334   20.371
  388.750   59.981    0.446    0.347   20.354
  389.000   60.517    0.449    0.342   20.328
  389.250   60.471    0.449    0.346   20.311
  389.500   61.006    0.452    0.356   20.285
  389.750   61.542    0.454    0.362   20.653
  390.000   61.496    0.466    0.365   20.625
  390.250   60.834    0.463    0.364   20.983
  390.500   60.811    0.465    0.361   20.967
  390.750   61.335    0.472    0.360   20.945
  391.000   61.870    0.481    0.359   20.922
  391.250   60.661    0.468    0.359   20.906
  391.500   59.463    0.468    0.360   20.878
  391.750   58.253    0.464    0.360   20.093
  392.000   58.207    0.456    0.361   16.320
  392.250   58.732    0.447    0.362   12.533
  392.500   59.256    0.453    0.362   11.395
  392.750   59.221    0.461    0.358   10.963
  393.000   59.757    0.473    0.347   11.162
  393.250   60.874    0.484    0.352   12.011
  393.500   61.398    0.490    0.356   12.461
  393.750   62.516    0.472    0.359   12.924
  394.000   62.470    0.468    0.360   12.907
  394.250   63.587    0.477    0.363   12.900
  394.500   65.286    0.502    0.363   12.405
  394.750   66.986    0.503    0.363   11.941
  395.000   65.776    0.482    0.357   11.272
  395.250   65.730    0.489    0.354    9.689
  395.500   65.091    0.498    0.349    9.862
  395.750   65.626    0.493    0.343   10.229
  396.000   66.744    0.485    0.339   10.607
  396.250   70.770    0.483    0.331   10.398
  396.500   73.051    0.478    0.324   10.194
  396.750   72.423    0.463    0.308    9.446
  397.000   72.959    0.469    0.301    8.751
  397.250   74.646    0.480    0.298    8.417
  397.500   75.775    0.478    0.295    8.102
  397.750   77.486    0.477    0.288    7.943
  398.000   80.337    0.476    0.284    7.640
  398.250   81.454    0.475    0.284    7.490
  398.500   77.918    0.475    0.288    7.204
  398.750   71.461    0.472    0.293    7.061
  399.000   70.252    0.465    0.297    7.055
  399.250   70.206    0.461    0.302    6.786
  399.500   69.578    0.466    0.308    6.783
  399.750   68.368    0.475    0.320    6.650
  400.000   64.250    0.477    0.333    6.517
  400.250   64.775    0.471    0.327    6.154
  400.500   67.067    0.469    0.304    5.810
  400.750   73.420    0.477    0.291    5.590
  401.000   78.609    0.503    0.284    5.690
  401.250   77.388    0.507    0.279    6.124
  401.500   75.027    0.494    0.310    6.236
  401.750   72.072    0.480    0.334    6.844
  402.000   65.616    0.472    0.352    8.096
  402.250   59.741    0.468    0.369    9.224
  402.500   62.033    0.473    0.373   10.119
  402.750   64.291    0.476    0.370   10.897
  403.000   64.268    0.479    0.368   11.095
  403.250   63.640    0.484    0.367   11.504
  403.500   62.978    0.488    0.366   11.710
  403.750   62.943    0.461    0.364   11.919
  404.000   62.909    0.449    0.363   11.900
  404.250   62.863    0.463    0.361   11.894
  404.500   63.398    0.470    0.360   11.882
  404.750   65.679    0.474    0.357   11.866
  405.000   67.378    0.475    0.357   11.853
  405.250   67.332    0.479    0.358   11.841
  405.500   67.275    0.487    0.355   11.599
  405.750   67.229    0.497    0.354   11.596
  406.000   66.590    0.499    0.351   11.584
  406.250   65.962    0.496    0.350   11.572
  406.500   65.904    0.489    0.347   11.556
  406.750   65.881    0.476    0.347   11.332
  407.000   65.253    0.474    0.348   11.107
  407.250   65.207    0.480    0.344   11.095
  407.500   65.161    0.488    0.343   10.874
  407.750   65.092    0.498    0.343   10.462
  408.000   65.639    0.502    0.344    9.517
  408.250   66.745    0.495    0.350    8.180
  408.500   67.863    0.480    0.348    5.717
  408.750   73.645    0.455    0.319    4.733
  409.000   83.500    0.485    0.263    3.635
  409.250   89.853    0.529    0.264    2.792
  409.500   99.103    0.558    0.265    2.310
  409.750   99.057    0.564    0.265    2.180
  410.000   99.011    0.541    0.265    2.179
  410.250   98.954    0.546    0.265    2.260
  410.500   98.907    0.555    0.264    2.389
  410.750   98.862    0.571    0.264    2.621
  411.000   99.397    0.591    0.264    2.875
  411.250   99.363    0.597    0.267    3.040
  411.500   99.898    0.586    0.270    3.529
  411.750   99.270    0.556    0.273    3.946
  412.000   98.061    0.537    0.276    4.756
  412.250   91.023    0.527    0.279    5.951
  412.500   88.068    0.513    0.284    6.530
  412.750   85.684    0.510    0.288    6.901
  413.000   83.892    0.503    0.291    6.892
  413.250   82.683    0.474    0.289    6.886
  413.500   82.055    0.473    0.280    6.622
  413.750   82.591    0.476    0.273    6.493
  414.000   81.963    0.480    0.277    6.249
  414.250   80.742    0.478    0.283    5.900
  414.500   79.544    0.469    0.289    5.070
  414.750   76.008    0.451    0.293    4.358
  415.000   71.296    0.439    0.296    3.746
  415.250   71.832    0.467    0.293    3.102
  415.500   77.022    0.492    0.287    2.566
  415.750   84.538    0.515    0.280    2.379
  416.000   89.727    0.529    0.274    2.289
  416.250   89.100    0.531    0.271    2.465
  416.500   86.727    0.527    0.270    2.971
  416.750   84.342    0.521    0.269    3.449
  417.000   83.144    0.517    0.269    4.831
  417.250   80.178    0.513    0.269    5.933
  417.500   78.375    0.505    0.269    6.511
  417.750   77.177    0.492    0.269    7.556
  418.000   75.363    0.481    0.270    8.609
  418.250   74.177    0.478    0.276    9.628
  418.500   72.385    0.469    0.286   10.970
  418.750   71.164    0.463    0.302   11.593
  419.000   69.943    0.458    0.310   12.024
  419.250   68.734    0.457    0.311   11.788
  419.500   68.094    0.458    0.302   11.776
  419.750   68.072    0.458    0.296   11.327
  420.000   66.862    0.459    0.298   10.895
  420.250   66.816    0.461    0.308   10.284
  420.500   67.340    0.463    0.316   10.087
  420.750   67.887    0.471    0.327    9.884
  421.000   68.400    0.473    0.330    9.879
  421.250   68.354    0.472    0.328    9.868
  421.500   68.308    0.470    0.328    9.855
  421.750   67.680    0.467    0.333    9.845
  422.000   67.646    0.466    0.327   10.021
  422.250   67.018    0.464    0.318   10.391
  422.500   66.972    0.464    0.319   10.377
  422.750   66.344    0.460    0.319   10.568
  423.000   64.530    0.382    0.313   10.554
  423.250   62.739    0.365    0.125   10.543
  423.500   60.377    0.325    0.099   10.529
  423.750   60.913    0.298    0.131   10.521
  424.000   63.194    0.342    0.164   10.120
  424.250   65.463    0.400    0.202    9.555
  424.500   67.162    0.457    0.247    8.852
  424.750   67.116    0.472    0.298    8.360
  425.000   66.477    0.472    0.315    7.749
  425.250   65.849    0.471    0.325    7.179
  425.500   66.396    0.466    0.323    6.648
  425.750   68.084    0.462    0.319    6.400
  426.000   69.783    0.455    0.312    6.041
  426.250   71.494    0.458    0.306    5.812
  426.500   75.520    0.469    0.301    5.385
  426.750   76.626    0.473    0.297    5.279
  427.000   75.998    0.479    0.291    5.275
  427.250   75.370    0.479    0.287    5.369
  427.500   74.160    0.467    0.286    5.463
  427.750   74.696    0.471    0.286    5.667
  428.000   75.802    0.484    0.288    5.769
  428.250   76.349    0.484    0.291    5.762
  428.500   76.292    0.485    0.291    5.650
  428.750   76.246    0.485    0.292    5.433
  429.000   75.618    0.470    0.290    5.328
  429.250   74.990    0.456    0.289    5.222
  429.500   74.956    0.468    0.284    5.121
  429.750   75.480    0.477    0.283    5.308
  430.000   76.574    0.470    0.282    5.403
  430.250   76.551    0.460    0.282    5.709
