~VERSION INFORMATION
 VERS.                 2.0:   CWLS LOG ASCII STANDARD -VERSION 2.0
 WRAP.                  NO:   ONE LINE PER DEPTH STEP
~WELL INFORMATION BLOCK
#MNEM.UNIT           DATA                    DESCRIPTION OF MNEMONIC
#---------    -------------------            -------------------------------
# Generated from Intellog Unique Number	CW_76_78/WELL/2570
WELL.         ATCOR ET AL PELICAN            : Well_name    - WELL
LOC .         00/06-34-078-25W4/0            : Location     - LOCATION
UWI .         00/06-34-078-25W4/0            : Uwi          - UNIQUE WELL ID
ENTR.         MAX                            : Entered      - ENTERED BY
SRVC.         COMPUTALOG                     : Scn          - SERVICE COMPANY
STRT.M        270                            : top_depth    - START DEPTH
STOP.M        490                            : bot_depth    - STOP DEPTH
STEP.M        0.25                           : increment    - STEP LENGTH
 NULL. -999.2500:NULL Value
~CURVE INFORMATION BLOCK
#MNEM UNIT       ERCB CURVE CODE    CURVE DESCRIPTION
#-----------   ------------------   ----------------------------------
DEPT.M        00 001 00 00         : DEPTH        - DEPTH
ILD .OHMM     00 120 00 00         : RESD         - DEEP RESISTIVITY (DIL)
NPHI.V/V      00 330 00 00         : PHIN         - NEUTRON POROSITY (SANDSTONE)
DPHI.V/V      00 890 00 00         : PHID         - DENSITY POROSITY (SANDSTONE)
CALI.MM       00 280 01 00         : CAL          - CALIPER
GR  .API      00 310 00 00         : GR           - GAMMA RAY
~PARAMETER INFORMATION
#MNEM.UNIT           DATA             DESCRIPTION OF MNEMONIC
#---------         -----------     ------------------------------
GL  .M        581                  : gl           - GROUND LEVEL ELEVATION
EREF.M        584.7                : kb           - ELEVATION OF DEPTH REFERENCE
DATM.M        581                  : datum        - DATUM ELEVATION
TDD .M        491.9                : tdd          - TOTAL DEPTH DRILLER
RUN .         ONE                  : Run          - RUN NUMBER
ENG .         BILL                 : Engineer     - RECORDING ENGINEER
WIT .         JIM                  : Witness      - WITNESSED BY
MUD .         GEL                  : Mud_type     - MUD TYPE
MATR.         SANDSTONE            : Logunit      - NEUTRON MATRIX
TMAX.C        30                   : BHT          - MAXIMUM RECORDED TEMPERATURE
BHTD.M        491.9                : BHTDEP       - MAXIMUM RECORDED TEMPERATURE
RMT .C        19                   : MDTP         - TEMPERATURE OF MUD
MUDD.KG/M     1120                 : MWT          - MUD DENSITY
NEUT.         1                    : NEUTRON      - NEUTRON TYPE
RESI.         0                    : RESIST       - RESISTIVITY TYPE
RM  .OHMM     4.4                  : RM           - RESISTIVITY OF MUD
RMC .OHMM     0.25                 : RMC          - RESISTIVITY OF MUD CAKE
RMF .OHMM     4.1                  : RMF          - RESISTIVITY OF MUD FILTRATE
SUFT.C        -10                  : SUFT         - SURFACE TEMPERATURE
~A  DEPTH     RESD     PHIN     PHID      CAL       GR
# ...
  379.500    8.048    0.442    0.202  200.566   76.485
  379.750    8.048    0.429    0.194  200.171   78.344
  380.000    8.151    0.423    0.192  200.240   79.910
  380.250    8.161    0.399    0.192  200.240   78.761
  380.500    8.248    0.381    0.191  200.483   74.918
  380.750    8.262    0.371    0.185  200.529   73.483
  381.000    8.430    0.371    0.163  200.622   74.144
  381.250    8.600    0.386    0.161  201.225   75.383
  381.500    8.771    0.382    0.167  201.317   75.446
  381.750    8.949    0.373    0.139  201.409   69.805
  382.000    9.388    0.373    0.096  201.502   68.078
  382.250    9.849    0.372    0.123  202.093   74.707
  382.500   10.048    0.384    0.176  202.174   79.267
  382.750    9.605    0.406    0.201  202.290   78.418
  383.000    8.933    0.420    0.203  202.359   77.589
  383.250    8.541    0.441    0.198  202.463   77.338
  383.500    8.166    0.440    0.188  202.567   77.087
  383.750    8.028    0.427    0.188  202.648   77.142
  384.000    8.028    0.427    0.188  202.253   77.810
  384.250    7.909    0.428    0.188  202.345   78.465
  384.500    7.771    0.413    0.192  202.426   78.820
  384.750    7.712    0.404    0.193  202.031   78.576
  385.000    7.719    0.438    0.189  201.624   78.638
  385.250    7.878    0.447    0.188  201.740   77.788
  385.500    8.264    0.421    0.199  201.821   74.543
  385.750    8.667    0.396    0.206  201.403   68.304
  386.000    9.436    0.379    0.209  201.507   65.971
  386.250   10.660    0.370    0.213  201.088   67.823
  386.500   11.604    0.359    0.212  200.705   71.778
  386.750   12.996    0.364    0.194  200.774   76.325
  387.000   13.251    0.366    0.186  200.867   79.075
  387.250   12.672    0.401    0.193  200.982   79.729
  387.500   10.941    0.413    0.200  200.587   78.594
  387.750   10.078    0.439    0.196  200.668   72.654
  388.000    9.636    0.431    0.183  200.250   70.614
  388.250    9.474    0.407    0.180  199.855   73.364
  388.500    9.575    0.391    0.186  199.936   79.122
  388.750    9.770    0.370    0.192  199.552   77.980
  389.000    9.877    0.388    0.197  199.633   77.729
  389.250    9.890    0.411    0.198  198.716   79.281
  389.500    9.722    0.416    0.192  198.820   80.548
  389.750    9.471    0.416    0.186  198.947   80.304
  390.000    9.227    0.414    0.188  199.016   78.856
  390.250    9.239    0.406    0.190  199.120   78.013
  390.500    9.250    0.397    0.183  199.189   76.571
  390.750    9.614    0.400    0.177  197.796   76.627
  391.000    9.999    0.400    0.181  195.417   77.887
  391.250   10.010    0.390    0.194  195.486   79.746
  391.500   10.022    0.383    0.199  196.089   81.291
  391.750    9.854    0.401    0.197  197.655   79.543
  392.000    9.337    0.432    0.181  201.751   79.905
  392.250    9.337    0.441    0.174  202.343   80.559
  392.500    9.189    0.426    0.165  201.948   80.023
  392.750    8.867    0.417    0.167  201.042   80.071
  393.000    8.882    0.408    0.168  197.641   80.134
  393.250    9.232    0.413    0.163  195.239   80.189
  393.500    9.595    0.413    0.153  194.844   80.544
  393.750    9.972    0.392    0.142  195.911   81.191
  394.000   10.171    0.381    0.147  201.028   81.254
  394.250   10.283    0.380    0.187  203.117   79.812
  394.500   10.201    0.393    0.190  203.685   79.568
  394.750   10.030    0.407    0.177  202.791   80.828
  395.000    9.859    0.440    0.176  201.375   82.374
  395.250    9.515    0.455    0.182  198.972   83.933
  395.500    9.271    0.452    0.181  197.568   86.676
  395.750    9.283    0.436    0.179  197.660   90.944
  396.000    9.557    0.424    0.180  199.249   92.490
  396.250   10.215    0.419    0.186  201.848   91.640
  396.500   11.223    0.406    0.197  202.950   87.204
  396.750   13.280    0.407    0.198  202.544   74.678
  397.000   15.860    0.352    0.180  201.650   66.649
  397.250   20.594    0.327    0.143  201.220   61.907
  397.500   24.368    0.296    0.105  199.815   56.873
  397.750   24.865    0.275    0.051  197.923   56.629
  398.000   24.227    0.286    0.039  196.507   71.070
  398.250   22.111    0.328    0.068  196.600   78.011
  398.500   20.367    0.351    0.170  197.203   77.767
  398.750   19.297    0.358    0.197  197.794   73.931
  399.000   18.619    0.353    0.208  198.896   69.495
  399.250   18.477    0.345    0.182  199.986   68.353
  399.500   18.501    0.337    0.151  200.578   69.320
  399.750   19.594    0.348    0.129  201.680   71.158
  400.000   22.820    0.378    0.148  196.033   67.272
  400.250   22.429    0.380    0.175  193.557   68.830
  400.500   21.435    0.382    0.203  193.625   69.775
  400.750   19.924    0.389    0.216  194.178   71.033
  401.000   19.048    0.403    0.204  195.253   71.986
  401.250   18.894    0.390    0.178  196.328   72.023
  401.500   19.275    0.374    0.145  196.911   70.533
  401.750   20.220    0.367    0.131  197.478   67.227
  402.000   21.215    0.375    0.170  197.539   65.737
  402.250   21.650    0.369    0.200  197.592   67.599
  402.500   21.076    0.409    0.213  197.668   70.383
  402.750   19.594    0.437    0.215  197.713   72.550
  403.000   18.210    0.443    0.204  197.789   73.190
  403.250   16.614    0.431    0.200  196.835   71.705
  403.500   15.446    0.418    0.202  196.888   73.871
  403.750   14.761    0.405    0.205  196.449   76.960
  404.000   14.375    0.402    0.205  197.009   75.779
  404.250   14.394    0.415    0.206  197.070   72.768
  404.500   14.822    0.390    0.203  197.638   70.987
  404.750   15.264    0.387    0.191  197.713   72.245
  405.000   15.569    0.408    0.194  197.766   73.490
  405.250   15.739    0.404    0.199  197.835   73.826
  405.500   15.470    0.407    0.198  197.888   74.485
  405.750   15.064    0.402    0.202  198.463   75.120
  406.000   14.672    0.365    0.186  198.024   74.253
  406.250   14.285    0.360    0.171  196.555   73.367
  406.500   13.913    0.359    0.150  194.088   72.191
  406.750   13.913    0.353    0.151  195.662   71.614
  407.000   13.576    0.354    0.174  194.724   72.259
  407.250   13.457    0.393    0.180  193.255   74.130
  407.500   13.104    0.417    0.185  192.309   74.771
  407.750   12.763    0.400    0.186  191.847   76.937
  408.000   12.763    0.380    0.180  192.930   78.804
  408.250   12.677    0.396    0.173  195.019   76.706
  408.500   12.119    0.396    0.180  196.609   75.225
  408.750   11.910    0.396    0.190  197.176   80.434
  409.000   11.710    0.400    0.186  197.237   84.436
  409.250   11.615    0.397    0.178  197.797   83.555
  409.500   11.523    0.396    0.180  197.873   82.065
  409.750   11.434    0.396    0.182  197.941   79.367
  410.000   11.345    0.395    0.180  197.986   76.974
  410.250   11.252    0.393    0.179  198.055   77.310
  410.500   11.267    0.390    0.181  198.115   80.998
  410.750   11.178    0.397    0.184  198.183   80.734
  411.000   11.405    0.415    0.186  198.244   76.510
  411.250   11.966    0.402    0.185  198.304   73.499
  411.500   12.322    0.367    0.179  198.373   73.840
  411.750   12.452    0.378    0.171  197.911   76.016
  412.000   12.239    0.403    0.162  197.464   77.878
  412.250   11.700    0.417    0.159  197.532   79.749
  412.500   11.286    0.390    0.164  197.593   80.684
  412.750   10.892    0.388    0.170  197.669   83.764
  413.000   10.706    0.413    0.174  197.729   85.935
  413.250   10.618    0.439    0.179  197.782   85.676
  413.500   10.440    0.443    0.178  197.843   84.790
  413.750   10.355    0.426    0.169  198.918   85.440
  414.000   10.466    0.410    0.159  199.486   86.085
  414.250   10.881    0.394    0.161  199.546   84.295
  414.500   11.307    0.388    0.160  199.115   80.980
  414.750   11.533    0.393    0.148  199.175   79.504
  415.000   11.657    0.377    0.158  198.721   81.061
  415.250   11.565    0.370    0.172  198.774   84.450
  415.500   11.265    0.378    0.175  198.328   85.095
  415.750   10.867    0.385    0.168  197.381   85.122
