~VERSION INFORMATION
 VERS.                 2.0:   CWLS LOG ASCII STANDARD -VERSION 2.0
 WRAP.                  NO:   ONE LINE PER DEPTH STEP
~WELL INFORMATION BLOCK
#MNEM.UNIT           DATA                    DESCRIPTION OF MNEMONIC
#---------    -------------------            -------------------------------
# Generated from Intellog Unique Number	CX_WELLS/WELL/3232
WELL.         CHEVRON ALGAR                  : Well_name    - WELL
LOC .         00/06-14-083-16W4/0            : Location     - LOCATION
UWI .         00/06-14-083-16W400            : Uwi          - UNIQUE WELL ID
ENTR.         T                              : Entered      - ENTERED BY
SRVC.         SCHLUMBERGER                   : Scn          - SERVICE COMPANY
STRT.F        350                            : top_depth    - START DEPTH
STOP.F        879.856                        : bot_depth    - STOP DEPTH
STEP.F        0.82                           : increment    - STEP LENGTH
 NULL. -999.2500:NULL Value
~CURVE INFORMATION BLOCK
#MNEM UNIT       ERCB CURVE CODE    CURVE DESCRIPTION
#-----------   ------------------   ----------------------------------
DEPT.F        00 001 00 00         : DEPTH        - DEPTH
GR  .API      00 310 00 00         : GR           - GAMMA RAY
NPHI.V/V      00 330 00 00         : PHIN         - NEUTRON POROSITY (SANDSTONE)
DPHI.V/V      00 890 00 00         : PHID         - DENSITY POROSITY (SANDSTONE)
ILD .OHMM     00 120 00 00         : RESD         - DEEP RESISTIVITY (DIL)
~PARAMETER INFORMATION
#MNEM.UNIT           DATA             DESCRIPTION OF MNEMONIC
#---------         -----------     ------------------------------
GL  .F        1713.5               : gl           - GROUND LEVEL ELEVATION
EREF.F        1731                 : kb           - ELEVATION OF DEPTH REFERENCE
DATM.F        1731                 : datum        - DATUM ELEVATION
TDD .F        883                  : tdd          - TOTAL DEPTH DRILLER
RUN .         ONE                  : Run          - RUN NUMBER
ENG .         BILL                 : Engineer     - RECORDING ENGINEER
WIT .         JIM                  : Witness      - WITNESSED BY
MUD .         GEL                  : Mud_type     - MUD TYPE
MATR.         SANDSTONE            : Logunit      - NEUTRON MATRIX
TMAX.F        85                   : BHT          - MAXIMUM RECORDED TEMPERATURE
BHTD.F        883                  : BHTDEP       - MAXIMUM RECORDED TEMPERATURE
MATR.         1                    : LOGUNIT      - NEUTRON MATRIX
RMT .F        77                   : MDTP         - TEMPERATURE OF MUD
NEUT.         1                    : NEUTRON      - NEUTRON TYPE
RESI.         3.55                 : RESIST       - RESISTIVITY TYPE
RMC .OHMM     3.55                 : RMC          - RESISTIVITY OF MUD CAKE
RMF .OHMM     3.55                 : RMF          - RESISTIVITY OF MUD FILTRATE
SUFT.F        32                   : SUFT         - SURFACE TEMPERATURE
~A  DEPTH       GR     PHIN     PHID     RESD
# ...
  778.150   78.806    0.478    0.234    6.760
  778.970   78.259    0.488    0.230    6.529
  779.790   77.712    0.497    0.224    6.306
  780.610   77.177    0.500    0.233    6.086
  781.430   78.423    0.505    0.246    5.984
  782.251   81.461    0.514    0.259    5.676
  783.071   86.903    0.520    0.269    5.480
  783.891   89.941    0.529    0.272    5.692
  784.711   90.576    0.537    0.275    6.016
  785.531   92.445    0.541    0.277    7.099
  786.352   93.080    0.534    0.268    7.501
  787.172   94.949    0.522    0.259    8.847
  787.992   96.207    0.516    0.249    9.878
  788.812   96.830    0.512    0.249   12.306
  789.633   98.075    0.510    0.249   14.770
  790.453   99.333    0.512    0.249   17.739
  791.273   99.384    0.514    0.250   16.521
  792.093   99.434    0.520    0.247   15.660
  792.913   96.509    0.510    0.235   14.585
  793.734   94.754    0.496    0.212   13.829
  794.554   91.817    0.486    0.195   13.605
  795.374   85.891    0.446    0.197   13.618
  796.194   78.770    0.412    0.183   13.394
  797.014   79.431    0.421    0.148   13.169
  797.835   83.664    0.438    0.191   12.944
  798.655   90.301    0.468    0.206   12.502
  799.475   92.742    0.478    0.206   12.288
  800.295   93.390    0.456    0.202   12.311
  801.115   92.258    0.448    0.196   12.552
  801.936   89.918    0.457    0.193   14.010
  802.756   86.993    0.458    0.193   17.448
  803.576   86.445    0.460    0.185   21.730
  804.396   86.496    0.459    0.183   25.628
  805.217   84.766    0.456    0.205   29.129
  806.037   82.426    0.457    0.214   30.817
  806.857   76.500    0.461    0.217   30.855
  807.677   71.757    0.458    0.222   28.729
  808.497   61.051    0.459    0.229   25.787
  809.318   53.332    0.466    0.244   22.744
  810.138   49.200    0.468    0.258   18.990
  810.958   47.457    0.463    0.273   16.448
  811.778   47.508    0.461    0.294   14.502
  812.598   48.766    0.462    0.314   12.787
  813.419   50.622    0.462    0.319   11.902
  814.239   51.880    0.458    0.319   10.315
  815.059   52.503    0.449    0.314    9.774
  815.879   54.371    0.437    0.310    8.781
  816.699   56.812    0.435    0.301    8.329
  817.520   59.850    0.460    0.296    7.894
  818.340   62.901    0.469    0.292    7.485
  819.160   65.342    0.469    0.284    7.227
  819.980   68.966    0.469    0.289    6.731
  820.801   75.004    0.467    0.283    6.380
  821.621   81.043    0.462    0.272    6.053
  822.441   85.875    0.458    0.264    5.841
  823.261   91.901    0.474    0.265    5.743
  824.081  100.941    0.490    0.261    5.447
  824.902  105.162    0.499    0.248    5.259
  825.722  104.017    0.491    0.235    4.988
  826.542  101.079    0.490    0.229    4.817
  827.362   92.763    0.494    0.229    4.651
  828.182   88.668    0.496    0.230    4.657
  829.003   89.291    0.498    0.230    4.663
  829.823   90.549    0.501    0.228    4.667
  830.643   92.978    0.505    0.231    4.676
  831.463   96.041    0.508    0.232    4.680
  832.283   98.482    0.510    0.235    4.861
  833.104  100.923    0.514    0.239    5.235
  833.924   99.180    0.518    0.233    5.740
  834.744   95.060    0.517    0.211    6.408
  835.564   94.513    0.508    0.209    7.556
  836.385   94.576    0.489    0.213    8.908
  837.205   94.626    0.492    0.215   11.298
  838.025   95.872    0.507    0.219   13.320
  838.845  101.288    0.519    0.227   17.203
  839.665  101.949    0.517    0.237   26.162
  840.486   98.414    0.509    0.210   36.987
  841.306   91.890    0.504    0.201   67.451
  842.126   85.965    0.495    0.188   76.737
  842.946   77.661    0.484    0.189   74.092
  843.766   75.906    0.471    0.199   70.272
  844.587   71.773    0.468    0.222   69.050
  845.407   64.665    0.475    0.250   63.193
  846.227   61.117    0.485    0.268   62.094
  847.047   54.594    0.487    0.294   58.874
  847.867   45.083    0.482    0.313   48.273
  848.688   35.572    0.472    0.318   33.008
  849.508   34.452    0.463    0.317   27.065
  850.328   34.490    0.446    0.317   18.845
  851.148   35.748    0.437    0.317   14.633
  851.969   37.591    0.434    0.319   11.998
  852.789   39.435    0.439    0.325   10.018
  853.609   42.473    0.442    0.327    7.926
  854.429   44.316    0.441    0.327    8.380
  855.249   43.769    0.436    0.323    9.877
  856.070   42.027    0.434    0.320   17.370
  856.890   39.102    0.431    0.309   27.410
  857.710   36.164    0.430    0.302   30.034
  858.530   38.007    0.429    0.295   36.732
  859.350   40.448    0.432    0.291   41.776
  860.171   47.085    0.449    0.281   40.336
  860.991   53.111    0.470    0.278   38.957
  861.811   51.381    0.471    0.263   39.005
  862.631   49.639    0.464    0.235   39.769
  863.451   49.092    0.459    0.232   39.769
  864.272   51.532    0.452    0.256   40.623
  865.092   51.608    0.452    0.280   34.530
  865.912   49.878    0.453    0.300   32.141
  866.732   49.306    0.450    0.307   27.829
  867.552   48.161    0.449    0.323   25.002
  868.373   48.809    0.448    0.278   23.272
  869.193   49.470    0.445    0.274   21.668
  870.013   48.325    0.438    0.267   20.545
  870.833   46.582    0.420    0.149   20.206
  871.654   46.645    0.344    0.126   19.873
  872.474   47.904    0.288    0.109   19.904
  873.294   49.149    0.286    0.087   19.558
  874.114   49.200    0.289    0.071   19.595
  874.934   49.250    0.282    0.072   19.260
  875.755   48.703    0.256    0.073   19.290
  876.575   48.753    0.250    0.073   19.313
  877.395   48.804    0.244    0.073   19.343
  878.215   50.062    0.224    0.074   19.367
  879.035   51.905    0.204    0.078   19.391
  879.856   54.956    0.193    0.083   19.072
