~VERSION INFORMATION
 VERS.                 2.0:   CWLS LOG ASCII STANDARD -VERSION 2.0
 WRAP.                  NO:   ONE LINE PER DEPTH STEP
~WELL INFORMATION BLOCK
#MNEM.UNIT           DATA                    DESCRIPTION OF MNEMONIC
#---------    -------------------            -------------------------------
# Generated from Intellog Unique Number	CX_WELLS/WELL/2711
WELL.         MAYNARD THORTANY               : Well_name    - WELL
LOC .         00/06-03-080-12W4/0            : Location     - LOCATION
UWI .         00/06-03-080-12W4/0            : Uwi          - UNIQUE WELL ID
ENTR.         T                              : Entered      - ENTERED BY
SRVC.         SCHLUMBERGER                   : Scn          - SERVICE COMPANY
STRT.M        250                            : top_depth    - START DEPTH
STOP.M        495                            : bot_depth    - STOP DEPTH
STEP.M        0.25                           : increment    - STEP LENGTH
 NULL. -999.2500:NULL Value
~CURVE INFORMATION BLOCK
#MNEM UNIT       ERCB CURVE CODE    CURVE DESCRIPTION
#-----------   ------------------   ----------------------------------
DEPT.M        00 001 00 00         : DEPTH        - DEPTH
GR  .API      00 310 00 00         : GR           - GAMMA RAY
NPHI.V/V      00 330 00 00         : PHIN         - NEUTRON POROSITY (SANDSTONE)
DPHI.V/V      00 890 00 00         : PHID         - DENSITY POROSITY (SANDSTONE)
ILD .OHMM     00 120 00 00         : RESD         - DEEP RESISTIVITY (DIL)
~PARAMETER INFORMATION
#MNEM.UNIT           DATA             DESCRIPTION OF MNEMONIC
#---------         -----------     ------------------------------
GL  .M        687                  : gl           - GROUND LEVEL ELEVATION
EREF.M        690                  : kb           - ELEVATION OF DEPTH REFERENCE
DATM.M        690                  : datum        - DATUM ELEVATION
TDD .M        505                  : tdd          - TOTAL DEPTH DRILLER
RUN .         ONE                  : Run          - RUN NUMBER
ENG .         BILL                 : Engineer     - RECORDING ENGINEER
WIT .         JIM                  : Witness      - WITNESSED BY
MUD .         GEL                  : Mud_type     - MUD TYPE
MATR.         SANDSTONE            : Logunit      - NEUTRON MATRIX
TMAX.C        21                   : BHT          - MAXIMUM RECORDED TEMPERATURE
BHTD.M        505                  : BHTDEP       - MAXIMUM RECORDED TEMPERATURE
MATR.         1                    : LOGUNIT      - NEUTRON MATRIX
RMT .C        20                   : MDTP         - TEMPERATURE OF MUD
NEUT.         1                    : NEUTRON      - NEUTRON TYPE
RESI.         3.2                  : RESIST       - RESISTIVITY TYPE
RMC .OHMM     3                    : RMC          - RESISTIVITY OF MUD CAKE
RMF .OHMM     2.1                  : RMF          - RESISTIVITY OF MUD FILTRATE
SUFT.C        3                    : SUFT         - SURFACE TEMPERATURE
~A  DEPTH       GR     PHIN     PHID     RESD
# ...
  467.500   57.568    0.363    0.307   18.108
  467.750   58.851    0.364    0.310   17.081
  468.000   58.880    0.365    0.296   16.449
  468.250   58.900    0.366    0.276   15.977
  468.500   58.958    0.369    0.269   14.869
  468.750   58.390    0.373    0.264   14.159
  469.000   57.812    0.377    0.258   14.805
  469.250   56.636    0.378    0.257   18.550
  469.500   55.470    0.385    0.265   18.317
  469.750   54.892    0.378    0.266   17.767
  470.000   54.324    0.371    0.266   17.295
  470.250   54.363    0.366    0.264   16.983
  470.500   55.019    0.364    0.267   11.896
  470.750   55.655    0.367    0.273   11.265
  471.000   56.918    0.368    0.278   10.238
  471.250   58.789    0.369    0.281    9.768
  471.500   60.032    0.371    0.268    9.615
  471.750   62.500    0.372    0.255    9.623
  472.000   67.407    0.373    0.245    9.626
  472.250   69.258    0.375    0.250    9.632
  472.500   69.307    0.374    0.252    9.562
  472.750   69.943    0.373    0.251    9.486
  473.000   70.589    0.366    0.242    9.492
  473.250   73.674    0.363    0.238    9.419
  473.500   75.535    0.360    0.242    9.347
  473.750   78.003    0.360    0.244    9.352
  474.000   79.256    0.361    0.244    9.278
  474.250   80.519    0.361    0.245    9.208
  474.500   81.166    0.362    0.246    9.215
  474.750   81.802    0.362    0.246    9.218
  475.000   82.448    0.363    0.240    9.224
  475.250   83.114    0.365    0.237    9.071
  475.500   83.751    0.365    0.234    9.001
  475.750   84.397    0.366    0.229    8.926
  476.000   85.650    0.367    0.222    8.932
  476.250   86.894    0.367    0.217    8.939
  476.500   88.764    0.368    0.208    8.865
  476.750   90.018    0.369    0.208    8.870
  477.000   91.888    0.372    0.207    8.876
  477.250   93.141    0.372    0.205    8.884
  477.500   94.385    0.373    0.201    8.889
  477.750   96.863    0.376    0.195    8.900
  478.000   99.321    0.381    0.186    8.903
  478.250  102.396    0.382    0.174    8.991
  478.500  104.267    0.384    0.181    8.998
  478.750  103.708    0.387    0.197    9.002
  479.000  101.925    0.390    0.199    8.930
  479.250  100.760    0.397    0.195    8.855
  479.500  100.779    0.402    0.189    8.626
  479.750  103.854    0.408    0.183    8.552
  480.000  107.537    0.403    0.182    8.557
  480.250  110.622    0.391    0.181    8.485
  480.500  111.885    0.384    0.179    8.411
  480.750  110.690    0.379    0.177    8.415
  481.000  106.478    0.376    0.177    8.421
  481.250  103.481    0.374    0.178    8.429
  481.500  101.110    0.372    0.180    8.434
  481.750   98.710    0.373    0.180    8.442
  482.000   96.927    0.376    0.178    8.448
  482.250   95.144    0.384    0.157    8.375
  482.500   94.576    0.394    0.134    8.224
  482.750   94.008    0.403    0.120    8.147
  483.000   97.093    0.415    0.106    7.838
  483.250  100.168    0.427    0.100    7.682
  483.500  103.243    0.426    0.104    7.370
  483.750  106.309    0.423    0.101    7.297
  484.000  108.169    0.423    0.101    7.227
  484.250  109.423    0.427    0.099    7.230
  484.500  110.069    0.428    0.097    7.158
  484.750  110.735    0.430    0.097    7.166
  485.000  110.157    0.429    0.098    7.249
  485.250  108.991    0.425    0.110    7.336
  485.500  107.208    0.424    0.109    7.502
  485.750  106.639    0.419    0.109    7.589
  486.000  105.464    0.410    0.105    7.914
  486.250  103.074    0.400    0.100    8.238
  486.500   99.469    0.366    0.091    8.561
  486.750   96.462    0.325    0.087    9.206
  487.000   91.643    0.315    0.085    9.767
  487.250   84.395    0.309    0.081   11.446
  487.500   79.576    0.301    0.076   13.441
  487.750   75.354    0.288    0.072   15.757
  488.000   69.928    0.274    0.070   18.549
  488.250   64.501    0.244    0.065   19.590
  488.500   52.395    0.238    0.065   20.472
  488.750   45.754    0.229    0.065   21.514
  489.000   39.721    0.187    0.067   21.840
  489.250   34.911    0.175    0.068   22.004
  489.500   32.512    0.159    0.063   22.090
  489.750   30.729    0.144    0.057   22.096
  490.000   28.946    0.133    0.050   21.943
  490.250   27.163    0.129    0.044   21.870
  490.500   25.988    0.131    0.040   21.719
  490.750   25.429    0.131    0.038   21.644
  491.000   24.861    0.131    0.036   21.650
  491.250   24.302    0.129    0.034   21.737
  491.500   24.322    0.124    0.030   21.822
  491.750   23.763    0.121    0.026   21.989
  492.000   23.802    0.121    0.024   22.154
  492.250   23.841    0.122    0.021   22.160
  492.500   23.880    0.122    0.020   22.009
  492.750   24.526    0.122    0.020   21.936
  493.000   25.182    0.122    0.017   21.861
  493.250   26.435    0.124    0.015   22.026
  493.500   27.698    0.127    0.014   22.271
  493.750   28.325    0.131    0.012   22.357
  494.000   28.971    0.142    0.012   22.284
  494.250   30.225    0.168    0.013   22.131
  494.500   32.095    0.182    0.012   21.899
  494.750   33.956    0.190    0.010   21.666
  495.000   35.817    0.195    0.008   21.513
