~VERSION INFORMATION
 VERS.                 2.0:   CWLS LOG ASCII STANDARD -VERSION 2.0
 WRAP.                  NO:   ONE LINE PER DEPTH STEP
~WELL INFORMATION BLOCK
#MNEM.UNIT           DATA                    DESCRIPTION OF MNEMONIC
#---------    -------------------            -------------------------------
# Generated from Intellog Unique Number	CW_70_72/WELL/877
NULL.         -999.25                        : NULL_VALUE
WELL.         SUNDANCE MCMORAN SMITH 07-08   : Well_name    - WELL              
LOC .         07-08-072-24W4                 : Location     - LOCATION          
UWI .         00/07-08-072-24W4/0            : Uwi          - UNIQUE WELL ID    
ENTR.         JAYE                           : Entered      - ENTERED BY        
SRVC.         SCHLUMBERGER                   : Scn          - SERVICE COMPANY   
DATE.         24 JAN 73                      : Date         - LOG DATE          
STRT.M        329.184                        : top_depth    - START DEPTH       
STOP.M        535.434                        : bot_depth    - STOP DEPTH        
STEP.M        0.25                           : increment    - STEP LENGTH       
~CURVE INFORMATION BLOCK
#MNEM UNIT       ERCB CURVE CODE    CURVE DESCRIPTION
#-----------   ------------------   ----------------------------------
DEPT.M        00 001 00 00         : DEPTH        - DEPTH                       
DPHI.V/V      00 890 00 00         : PHID         - DENSITY POROSITY (SANDSTONE)
NPHI.V/V      00 330 00 00         : PHIN         - NEUTRON POROSITY (SANDSTONE)
GR  .API      00 310 00 00         : GR           - GAMMA RAY                   
CALI.MM       00 280 01 00         : CAL          - CALIPER                     
ILD .OHMM     00 120 00 00         : RESD         - DEEP RESISTIVITY (DIL)      
~PARAMETER INFORMATION       
#MNEM.UNIT           DATA             DESCRIPTION OF MNEMONIC
#---------         -----------     ------------------------------
GL  .M        560.222              : gl           - GROUND LEVEL ELEVATION      
EREF.M        562.661              : kb           - ELEVATION OF DEPTH REFERENCE
DATM.M        560.222              : datum        - DATUM ELEVATION             
TDD .M        544.068              : tdd          - TOTAL DEPTH DRILLER         
RUN .         ONE                  : Run          - RUN NUMBER                  
MATR.         SANDSTONE            : Logunit      - NEUTRON MATRIX              
TMAX.C        23.3333              : BHT          - MAXIMUM RECORDED TEMPERATURE
BHTD.M        543.763              : BHTDEP       - MAXIMUM RECORDED TEMPERATURE
RMT .C        21.1111              : MDTP         - TEMPERATURE OF MUD          
MUDD.KG/M     0                    : MWT          - MUD DENSITY                 
NEUT.         1                    : NEUTRON      - NEUTRON TYPE                
RESI.         0                    : RESIST       - RESISTIVITY TYPE            
RM  .OHMM     3.82                 : RM           - RESISTIVITY OF MUD          
RMC .OHMM     0                    : RMC          - RESISTIVITY OF MUD CAKE     
RMF .OHMM     2.92                 : RMF          - RESISTIVITY OF MUD FILTRATE 
SUFT.C        -17.7778             : SUFT         - SURFACE TEMPERATURE         
~A  DEPTH     PHID     PHIN       GR      CAL     RESD
# ...
  402.184    0.240    0.273   43.031  162.931    9.593
  402.434    0.204    0.204   42.737  161.408   13.119
  402.684    0.070    0.148   42.017  161.220   17.327
  402.934   -0.010    0.122   41.663  163.498   20.955
  403.184   -0.016    0.115   42.584  168.144   22.203
  403.434   -0.001    0.123   44.600  169.396   22.469
  403.684    0.007    0.133   46.309  169.206   22.742
  403.934    0.027    0.142   48.932  169.737   23.055
  404.184    0.031    0.140   49.915  170.579   23.463
  404.434    0.002    0.139   50.775  170.905   24.007
  404.684   -0.012    0.139   51.393  171.024   24.387
  404.934    0.004    0.141   52.921  170.937   24.543
  405.184    0.012    0.147   51.535  173.527   23.767
  405.434    0.023    0.153   53.305  177.144   20.390
  405.684    0.026    0.168   56.171  180.246   16.433
  405.934    0.045    0.182   58.915  173.577   12.697
  406.184    0.065    0.234   61.233  168.038    9.491
  406.434    0.105    0.268   64.646  166.308    7.361
  406.684    0.169    0.349   68.605  164.576    6.349
  406.934    0.223    0.414   72.138  162.534    5.734
  407.184    0.226    0.420   75.308  160.291    5.472
  407.434    0.239    0.422   72.948  162.159    5.518
  407.684    0.230    0.434   69.252  159.910    5.709
  407.934    0.223    0.420   67.987  156.122    5.830
  408.184    0.228    0.430   66.721  153.671    6.021
  408.434    0.237    0.445   65.090  155.436    6.241
  408.684    0.243    0.431   67.835  159.466    6.410
  408.934    0.236    0.410   69.181  161.642    6.369
  409.184    0.228    0.400   68.463  162.589    6.224
  409.434    0.219    0.421   66.345  162.808    6.038
  409.684    0.221    0.410   64.654  162.724    5.826
  409.934    0.224    0.416   65.151  162.841    5.632
  410.184    0.242    0.429   67.348  162.858    5.596
  410.434    0.235    0.406   63.713  162.670    5.778
  410.684    0.239    0.403   64.695  160.014    6.123
  410.934    0.222    0.416   66.224  157.047    6.855
  411.184    0.221    0.429   69.818  155.314    7.493
  411.434    0.193    0.425   71.591  155.022    7.766
  411.684    0.171    0.382   68.441  155.554    7.632
  411.934    0.137    0.345   63.591  156.497    7.473
  412.184    0.116    0.353   61.353  157.854    7.774
  412.434    0.135    0.398   64.036  159.413    8.530
  412.684    0.184    0.421   65.687  161.592    9.444
  412.934    0.175    0.394   65.515  163.046   10.593
  413.184    0.119    0.359   66.132  165.122   11.795
  413.434    0.081    0.245   67.539  167.607   12.474
  413.684    0.050    0.226   69.858  169.989   11.328
  413.934    0.127    0.264   74.546  169.800    8.059
  414.184    0.187    0.376   80.813  165.702    6.400
  414.434    0.248    0.436   84.651  161.090    5.351
  414.684    0.246    0.449   80.894  160.593    5.042
  414.934    0.241    0.464   77.016  162.463    5.047
  415.184    0.234    0.473   74.961  162.890    5.446
  415.434    0.245    0.480   74.971  161.571    6.222
  415.684    0.251    0.445   76.560  157.781    7.068
  415.934    0.201    0.431   76.631  155.020    7.856
  416.184    0.161    0.408   75.912  158.843    8.384
  416.434    0.124    0.386   78.049  163.695    8.210
  416.684    0.146    0.390   83.344  167.107    7.524
  416.934    0.175    0.428   91.070  168.461    6.859
  417.184    0.195    0.456   99.342  168.172    6.449
  417.434    0.209    0.473  101.114  166.335    6.077
  417.684    0.197    0.482  101.913  164.192    5.883
  417.934    0.169    0.473  100.891  163.799    5.687
  418.184    0.180    0.485  100.901  163.815    5.538
  418.434    0.213    0.500  102.004  164.451    5.482
  418.684    0.211    0.503  102.987  164.981    5.438
  418.934    0.202    0.489  103.361  165.716    5.433
  419.184    0.211    0.480  103.250  166.868    5.478
  419.434    0.204    0.504  103.320  168.015    5.605
  419.684    0.194    0.515  105.760  169.060    5.778
  419.934    0.180    0.502  106.683  169.695    5.956
  420.184    0.180    0.492  106.024  168.373    6.016
  420.434    0.192    0.497  104.090  165.408    5.989
  420.684    0.209    0.494  103.553  163.264    5.918
  420.934    0.197    0.477  100.890  164.207    5.710
  421.184    0.195    0.515  105.457  168.030    5.301
  421.434    0.187    0.534  104.738  171.545    4.930
  421.684    0.182    0.533  100.678  172.799    4.662
  421.934    0.194    0.514   97.831  172.916    4.598
  422.184    0.199    0.496   98.389  172.627    4.654
  422.434    0.181    0.494   99.978  172.644    4.796
  422.684    0.189    0.531  101.021  172.147    5.138
  422.934    0.204    0.570  102.185  172.164    5.495
  423.184    0.191    0.554  102.439  171.972    5.520
  423.434    0.187    0.507   99.350  171.990    5.115
  423.684    0.173    0.519   96.383  172.214    4.663
  423.934    0.200    0.526   93.355  171.511    4.458
  424.184    0.221    0.525   86.865  169.983    4.277
  424.434    0.249    0.496   79.463  165.270    4.075
  424.684    0.258    0.504   74.249  158.702    3.974
  424.934    0.272    0.476   71.403  153.576    3.920
  425.184    0.286    0.473   68.436  153.900    3.902
  425.434    0.299    0.469   64.437  155.666    3.920
  425.684    0.312    0.456   64.570  158.769    3.960
  425.934    0.314    0.485   65.247  161.769    4.023
  426.184    0.308    0.490   65.865  158.290    4.147
  426.434    0.297    0.470   69.583  153.473    4.322
  426.684    0.293    0.465   72.203  148.962    4.537
  426.934    0.279    0.468   75.918  146.715    4.755
  427.184    0.235    0.478   79.757  151.774    4.964
  427.434    0.217    0.545   83.472  158.580    5.174
  427.684    0.215    0.558   87.431  165.900    5.294
  427.934    0.225    0.522   92.544  166.535    5.397
  428.184    0.225    0.523   95.227  164.803    5.422
  428.434    0.198    0.486   93.172  163.586    5.418
  428.684    0.212    0.470   89.901  164.529    5.373
  428.934    0.222    0.489   88.819  163.620    5.232
  429.184    0.233    0.463   88.889  154.379    5.067
  429.434    0.259    0.470   91.754  152.749    4.998
  429.684    0.267    0.494   94.680  154.517    5.058
  429.934    0.266    0.508   92.928  156.178    5.223
  430.184    0.252    0.520   91.117  159.383    5.453
  430.434    0.240    0.513   91.855  162.282    5.663
  430.684    0.232    0.477   93.748  162.403    5.741
  430.934    0.220    0.466   92.180  162.010    5.789
  431.184    0.212    0.480   92.371  161.820    5.730
  431.434    0.198    0.453   93.233  162.143    5.663
  431.684    0.186    0.453   94.275  162.469    5.848
  431.934    0.189    0.481   96.229  162.900    6.184
  432.184    0.202    0.512   99.033  162.915    7.466
  432.434    0.213    0.526   98.679  161.286    8.864
  432.684    0.212    0.473   92.978  157.806   10.525
  432.934    0.204    0.413   86.852  156.382   12.404
  433.184    0.166    0.361   82.913  156.090   14.066
  433.434    0.088    0.289   81.344  159.916   12.023
  433.684    0.062    0.288   83.602  161.065    9.428
  433.934    0.065    0.302   86.164  161.494    7.669
  434.184    0.092    0.389   87.753  161.511    6.602
  434.434    0.121    0.417   90.922  161.837    5.706
  434.684    0.172    0.446   95.245  161.953    5.201
  434.934    0.210    0.460   99.083  162.077    5.177
  435.184    0.228    0.472  102.313  162.401    5.289
  435.434    0.211    0.472  103.295  162.932    5.421
  435.684    0.200    0.483  104.278  163.977    5.598
  435.934    0.205    0.463  105.745  165.024    5.791
  436.184    0.189    0.477  108.125  165.761    5.970
  436.434    0.206    0.492  109.592  166.702    6.109
  436.684    0.210    0.494  106.444  167.646    6.217
  436.934    0.201    0.483  106.697  168.690    6.302
  437.184    0.168    0.479  107.740  169.942    6.343
  437.434    0.152    0.479  109.086  168.827    6.373
  437.684    0.161    0.491  110.068  166.478    6.414
  437.934    0.171    0.505  110.869  162.483    6.431
  438.184    0.175    0.492  111.911  158.694    6.379
  438.434    0.177    0.471  112.346  157.786    6.280
