~VERSION INFORMATION
 VERS.                 2.0:   CWLS LOG ASCII STANDARD -VERSION 2.0
 WRAP.                  NO:   ONE LINE PER DEPTH STEP
~WELL INFORMATION BLOCK
#MNEM.UNIT           DATA                    DESCRIPTION OF MNEMONIC
#---------    -------------------            -------------------------------
# Generated from Intellog Unique Number	CS_73_76/WELL/1998
WELL.         ASHLAND OIL CANADA             : Well_name    - WELL
LOC .         00/06-31-076-18W4/0            : Location     - LOCATION
UWI .         00/06-31-076-18W4/0            : Uwi          - UNIQUE WELL ID
ENTR.         SP                             : Entered      - ENTERED BY
SRVC.         SCHLUMBERGER                   : Scn          - SERVICE COMPANY
STRT.M        207.264                        : top_depth    - START DEPTH
STOP.M        386.764                        : bot_depth    - STOP DEPTH
STEP.M        0.25                           : increment    - STEP LENGTH
 NULL. -999.2500:NULL Value
~CURVE INFORMATION BLOCK
#MNEM UNIT       ERCB CURVE CODE    CURVE DESCRIPTION
#-----------   ------------------   ----------------------------------
DEPT.M        00 001 00 00         : DEPTH        - DEPTH
GR  .API      00 310 00 00         : GR           - GAMMA RAY
DPHI.V/V      00 890 00 00         : PHID         - DENSITY POROSITY (SANDSTONE)
NPHI.V/V      00 330 00 00         : PHIN         - NEUTRON POROSITY (SANDSTONE)
ILD .OHMM     00 120 00 00         : RESD         - DEEP RESISTIVITY (DIL)
~PARAMETER INFORMATION
#MNEM.UNIT           DATA             DESCRIPTION OF MNEMONIC
#---------         -----------     ------------------------------
GL  .M        563.575              : gl           - GROUND LEVEL ELEVATION
EREF.M        567.538              : kb           - ELEVATION OF DEPTH REFERENCE
DATM.M        563.575              : datum        - DATUM ELEVATION
TDD .M        471.83               : tdd          - TOTAL DEPTH DRILLER
RUN .         ONE                  : Run          - RUN NUMBER
ENG .         BILL                 : Engineer     - RECORDING ENGINEER
WIT .         JIM                  : Witness      - WITNESSED BY
MUD .         GEL                  : Mud_type     - MUD TYPE
MATR.         SANDSTONE            : Logunit      - NEUTRON MATRIX
TMAX.C        23.3333              : BHT          - MAXIMUM RECORDED TEMPERATURE
BHTD.M        471.83               : BHTDEP       - MAXIMUM RECORDED TEMPERATURE
MATR.         1                    : LOGUNIT      - NEUTRON MATRIX
RMT .C        25                   : MDTP         - TEMPERATURE OF MUD
NEUT.         1                    : NEUTRON      - NEUTRON TYPE
RESI.         0                    : RESIST       - RESISTIVITY TYPE
RMC .OHMM     0.25                 : RMC          - RESISTIVITY OF MUD CAKE
RMF .OHMM     0.25                 : RMF          - RESISTIVITY OF MUD FILTRATE
SUFT.C        15                   : SUFT         - SURFACE TEMPERATURE
~A  DEPTH       GR     PHID     PHIN     RESD
# ...
  250.764   66.406    0.318    0.499   13.085
  251.014   68.357    0.295    0.512   12.569
  251.264   72.213    0.270    0.529   11.920
  251.514   75.334    0.247    0.529   10.542
  251.764   76.650    0.265    0.559    9.612
  252.014   77.239    0.277    0.562    8.726
  252.264   77.999    0.279    0.542    8.374
  252.514   79.528    0.274    0.521    8.589
  252.764   81.418    0.275    0.497    8.774
  253.014   79.306    0.291    0.489    9.440
  253.264   77.952    0.313    0.489    9.771
  253.514   75.783    0.339    0.482    9.298
  253.764   73.518    0.325    0.467    8.758
  254.014   73.409    0.351    0.526    8.050
  254.264   74.216    0.387    0.576    7.500
  254.514   74.831    0.434    0.606    6.569
  254.764   74.007    0.454    0.625    5.896
  255.014   72.838    0.395    0.637    5.582
  255.264   71.826    0.374    0.628    5.370
  255.514   68.772    0.349    0.611    5.966
  255.764   65.023    0.374    0.583    7.752
  256.014   58.363    0.401    0.567    9.823
  256.264   54.273    0.407    0.533   12.563
  256.514   51.826    0.331    0.493   16.106
  256.764   52.310    0.287    0.447   18.540
  257.014   53.538    0.286    0.450   20.517
  257.264   56.217    0.301    0.477   22.441
  257.514   56.573    0.315    0.464   23.653
  257.764   56.597    0.332    0.446   25.747
  258.014   54.965    0.321    0.440   28.537
  258.264   52.593    0.317    0.441   30.429
  258.514   53.415    0.314    0.445   31.253
  258.764   55.994    0.319    0.455   31.571
  259.014   57.462    0.323    0.462   30.623
  259.264   56.612    0.339    0.459   29.427
  259.514   55.601    0.332    0.463   27.785
  259.764   55.771    0.339    0.505   25.995
  260.014   56.776    0.334    0.533   25.298
  260.264   58.243    0.346    0.583   24.991
  260.514   59.283    0.347    0.589   24.290
  260.764   60.947    0.350    0.580   22.280
  261.014   61.833    0.356    0.558   20.851
  261.264   63.517    0.360    0.543   19.505
  261.514   64.517    0.352    0.539   18.733
  261.764   61.813    0.359    0.547   18.204
  262.014   61.732    0.365    0.574   17.652
  262.264   63.207    0.356    0.607   16.232
  262.514   65.376    0.351    0.606   14.981
  262.764   68.322    0.335    0.585   14.020
  263.014   69.755    0.325    0.572   12.480
  263.264   70.521    0.322    0.567   11.539
  263.514   70.469    0.302    0.572   10.659
  263.764   70.112    0.288    0.590    9.852
  264.014   68.381    0.279    0.611    9.065
  264.264   67.446    0.279    0.632    8.694
  264.514   67.960    0.318    0.637    8.805
  264.764   66.459    0.345    0.630   11.015
  265.014   61.635    0.348    0.618   12.996
  265.264   57.364    0.352    0.602   14.235
  265.514   52.844    0.359    0.579   14.932
  265.764   51.844    0.380    0.585   15.253
  266.014   52.495    0.375    0.576   15.085
  266.264   52.419    0.347    0.579   14.621
  266.514   52.411    0.334    0.583   13.737
  266.764   52.409    0.335    0.593   13.390
  267.014   52.405    0.347    0.600   13.058
  267.264   52.341    0.346    0.592   12.871
  267.514   53.104    0.337    0.568   12.582
  267.764   52.400    0.331    0.536   12.460
  268.014   52.013    0.335    0.527   12.393
  268.264   51.743    0.335    0.525   13.483
  268.514   52.843    0.331    0.526   14.581
  268.764   53.605    0.331    0.530   15.905
  269.014   53.587    0.338    0.543   18.246
  269.264   53.109    0.344    0.552   20.484
  269.514   52.314    0.367    0.552   23.048
  269.764   52.353    0.369    0.526   24.532
  270.014   52.401    0.365    0.548   25.788
  270.264   51.512    0.364    0.560   26.643
  270.514   50.537    0.361    0.547   23.397
  270.764   49.510    0.368    0.544   20.315
  271.014   49.467    0.371    0.555   19.079
  271.264   50.515    0.350    0.579   18.070
  271.514   50.793    0.354    0.570   17.150
  271.764   51.680    0.369    0.578   17.033
  272.014   50.585    0.359    0.601   17.024
  272.264   49.263    0.334    0.624   17.023
  272.514   48.705    0.357    0.612   17.027
  272.764   49.589    0.367    0.594   16.739
  273.014   51.582    0.355    0.598   15.807
  273.264   53.542    0.364    0.562   13.904
  273.514   52.672    0.363    0.534   11.566
  273.764   51.709    0.363    0.520   10.868
  274.014   51.090    0.358    0.522   10.407
  274.264   50.424    0.345    0.495   10.267
  274.514   48.318    0.359    0.480   10.116
  274.764   47.460    0.358    0.479    9.791
  275.014   47.679    0.366    0.509    9.788
  275.264   49.411    0.343    0.534    9.764
  275.514   50.402    0.329    0.555    9.602
  275.764   50.742    0.316    0.531    9.363
  276.014   51.122    0.327    0.509    9.373
  276.264   52.751    0.333    0.502    9.175
  276.514   53.867    0.335    0.518    9.182
  276.764   55.234    0.357    0.525    9.182
  277.014   52.929    0.364    0.534    9.174
  277.264   49.400    0.358    0.523    9.123
  277.514   50.347    0.354    0.511    8.973
  277.764   52.373    0.363    0.510    8.977
  278.014   53.556    0.350    0.521    9.008
  278.264   54.068    0.354    0.524    9.174
  278.514   53.212    0.356    0.526    9.168
  278.764   50.808    0.361    0.536    9.169
  279.014   50.860    0.350    0.566    8.997
  279.264   52.114    0.352    0.586    8.965
  279.514   53.459    0.357    0.601    8.957
  279.764   52.416    0.348    0.581    8.955
  280.014   49.391    0.334    0.545    8.953
  280.264   50.367    0.328    0.567    8.951
  280.514   51.321    0.335    0.557    8.948
  280.764   52.209    0.345    0.529    8.946
  281.014   52.199    0.361    0.492    8.944
  281.264   51.574    0.358    0.549    8.944
  281.514   50.925    0.355    0.566    8.950
  281.764   50.485    0.363    0.586    8.859
  282.014   49.501    0.360    0.586   10.059
  282.264   48.562    0.367    0.589    9.725
  282.514   49.599    0.359    0.581    9.732
  282.764   50.432    0.350    0.547    9.724
  283.014   49.713    0.351    0.557    9.722
  283.264   49.056    0.350    0.553    9.510
  283.514   49.981    0.351    0.545    9.521
  283.764   50.295    0.344    0.529    9.519
  284.014   51.561    0.340    0.518    9.395
  284.264   52.184    0.336    0.510    9.320
  284.514   52.099    0.341    0.510    9.313
  284.764   51.819    0.340    0.527    9.310
  285.014   50.699    0.336    0.541    9.306
  285.264   47.608    0.322    0.565    9.323
  285.514   45.513    0.352    0.575    9.080
  285.764   44.931    0.341    0.536    9.094
  286.014   45.859    0.321    0.551    9.400
  286.264   47.550    0.313    0.562    9.486
  286.514   48.477    0.313    0.548    9.495
  286.764   48.462    0.320    0.553    9.493
  287.014   48.459    0.329    0.560    9.490
  287.264   48.492    0.328    0.548    9.489
  287.514   47.815    0.339    0.528    9.486
  287.764   47.902    0.328    0.528    9.484
  288.014   46.809    0.322    0.538    9.482
  288.264   46.666    0.328    0.545    9.479
  288.514   47.429    0.335    0.544    9.477
  288.764   47.363    0.326    0.516    9.474
  289.014   49.207    0.331    0.520    9.456
  289.264   49.633    0.334    0.519    9.675
  289.514   49.040    0.321    0.483    9.665
  289.764   48.396    0.311    0.487    9.666
  290.014   47.837    0.313    0.494    9.664
  290.264   47.824    0.307    0.489    9.656
  290.514   47.779    0.309    0.476    9.618
  290.764   48.361    0.307    0.475    9.452
  291.014   48.658    0.309    0.492    9.454
  291.264   49.704    0.318    0.502    9.453
  291.514   50.270    0.318    0.511    9.451
  291.764   49.577    0.307    0.518    9.449
  292.014   48.930    0.318    0.498    9.446
  292.264   47.888    0.319    0.501    9.451
  292.514   49.066    0.319    0.492    9.526
  292.764   50.783    0.321    0.502    9.438
  293.014   52.707    0.318    0.511    9.457
  293.264   52.612    0.309    0.519    9.157
  293.514   52.004    0.297    0.520    9.047
  293.764   52.612    0.312    0.485    8.587
  294.014   53.831    0.309    0.475    8.592
