~VERSION INFORMATION
 VERS.                 2.0:   CWLS LOG ASCII STANDARD -VERSION 2.0
 WRAP.                  NO:   ONE LINE PER DEPTH STEP
~WELL INFORMATION BLOCK
#MNEM.UNIT           DATA                    DESCRIPTION OF MNEMONIC
#---------    -------------------            -------------------------------
# Generated from Intellog Unique Number	CS_73_76/WELL/956
WELL.         CANADIAN WORLDWIDE ENERGY      : Well_name    - WELL
LOC .         00/02-26-076-04W4/0            : Location     - LOCATION
UWI .         00/02-26-076-04W4/0            : Uwi          - UNIQUE WELL ID
ENTR.         SP                             : Entered      - ENTERED BY
SRVC.         SCHLUMBERGER                   : Scn          - SERVICE COMPANY
STRT.M        200                            : top_depth    - START DEPTH
STOP.M        450                            : bot_depth    - STOP DEPTH
STEP.M        0.25                           : increment    - STEP LENGTH
 NULL. -999.2500:NULL Value
~CURVE INFORMATION BLOCK
#MNEM UNIT       ERCB CURVE CODE    CURVE DESCRIPTION
#-----------   ------------------   ----------------------------------
DEPT.M        00 001 00 00         : DEPTH        - DEPTH
ILD .OHMM     00 120 00 00         : RESD         - DEEP RESISTIVITY (DIL)
GR  .API      00 310 00 00         : GR           - GAMMA RAY
NPHI.V/V      00 330 00 00         : PHIN         - NEUTRON POROSITY (LIMESTONE)
DPHI.V/V      00 890 00 00         : PHID         - DENSITY POROSITY (LIMESTONE)
~PARAMETER INFORMATION
#MNEM.UNIT           DATA             DESCRIPTION OF MNEMONIC
#---------         -----------     ------------------------------
GL  .M        587.6                : gl           - GROUND LEVEL ELEVATION
EREF.M        591.1                : kb           - ELEVATION OF DEPTH REFERENCE
DATM.M        587.6                : datum        - DATUM ELEVATION
TDD .M        460                  : tdd          - TOTAL DEPTH DRILLER
RUN .         ONE                  : Run          - RUN NUMBER
ENG .         BILL                 : Engineer     - RECORDING ENGINEER
WIT .         JIM                  : Witness      - WITNESSED BY
MUD .         GEL                  : Mud_type     - MUD TYPE
MATR.         LIMESTONE            : Logunit      - NEUTRON MATRIX
TMAX.C        23                   : BHT          - MAXIMUM RECORDED TEMPERATURE
BHTD.M        460                  : BHTDEP       - MAXIMUM RECORDED TEMPERATURE
MATR.         1                    : LOGUNIT      - NEUTRON MATRIX
RMT .C        25                   : MDTP         - TEMPERATURE OF MUD
NEUT.         1                    : NEUTRON      - NEUTRON TYPE
RESI.         0                    : RESIST       - RESISTIVITY TYPE
RMC .OHMM     0.25                 : RMC          - RESISTIVITY OF MUD CAKE
RMF .OHMM     0.25                 : RMF          - RESISTIVITY OF MUD FILTRATE
SUFT.C        15                   : SUFT         - SURFACE TEMPERATURE
~A  DEPTH     RESD       GR     PHIN     PHID
# ...
  287.000   22.287   36.247    0.386    0.296
  287.250   19.921   36.252    0.403    0.313
  287.500   16.831   37.497    0.432    0.328
  287.750   14.489   48.660    0.448    0.313
  288.000   12.473   64.162    0.431    0.278
  288.250    9.774   88.962    0.425    0.260
  288.500    8.573   86.489    0.436    0.265
  288.750    7.520   77.198    0.435    0.281
  289.000    6.598   82.783    0.432    0.289
  289.250    6.240   92.087    0.432    0.273
  289.500    5.792   98.292    0.432    0.257
  289.750    5.583  104.497    0.447    0.258
  290.000    5.280  108.842    0.462    0.263
  290.250    4.900  108.847    0.471    0.265
  290.500    4.380   98.936    0.449    0.254
  290.750    3.990   93.984    0.439    0.255
  291.000    3.845   98.949    0.447    0.261
  291.250    3.707  106.392    0.464    0.269
  291.500    3.640  106.399    0.488    0.271
  291.750    3.854   96.488    0.486    0.266
  292.000    4.317   90.916    0.458    0.263
  292.250    5.216   88.443    0.444    0.259
  292.500    5.956   85.969    0.445    0.258
  292.750    6.306   82.877    0.449    0.269
  293.000    6.310   81.642    0.454    0.271
  293.250    6.199   84.749    0.450    0.260
  293.500    6.088   87.233    0.435    0.248
  293.750    6.091   89.099    0.420    0.242
  294.000    6.211   90.965    0.405    0.231
  294.250    6.578   87.871    0.417    0.249
  294.500    7.098   81.679    0.434    0.267
  294.750    7.951   78.586    0.449    0.287
  295.000    9.426   74.873    0.461    0.311
  295.250   10.363   72.400    0.443    0.320
  295.500   11.612   69.927    0.430    0.330
  295.750   12.067   68.693    0.450    0.337
  296.000   12.074   65.600    0.449    0.333
  296.250   11.637   65.607    0.446    0.329
  296.500   11.007   66.232    0.449    0.338
  296.750    9.655   71.197    0.454    0.330
  297.000    7.710   74.924    0.461    0.304
  297.250    6.636   78.648    0.476    0.288
  297.500    4.645   87.952    0.490    0.271
  297.750    4.074   96.015    0.499    0.265
  298.000    3.642   99.744    0.508    0.265
  298.250    3.380   99.747    0.519    0.278
  298.500    3.320   97.894    0.581    0.292
  298.750    3.516   91.082    0.561    0.306
  299.000    5.424   71.253    0.512    0.320
  299.250    7.911   60.102    0.457    0.341
  299.500    9.030   52.050    0.433    0.354
  299.750   10.704   48.337    0.420    0.359
  300.000   14.206   51.443    0.408    0.356
  300.250   16.218   53.308    0.409    0.348
  300.500   17.501   53.935    0.417    0.340
  300.750   18.187   53.321    0.413    0.340
  301.000   18.198   52.087    0.423    0.344
  301.250   17.880   52.095    0.436    0.353
  301.500   17.889   52.720    0.436    0.360
  301.750   17.901   52.726    0.425    0.364
  302.000   17.914   52.733    0.420    0.359
  302.250   18.274   52.739    0.414    0.346
  302.500   18.285   55.224    0.413    0.339
  302.750   18.295   55.230    0.426    0.337
  303.000   18.313   57.097    0.431    0.346
  303.250   18.325   58.341    0.432    0.351
  303.500   18.337   57.108    0.424    0.350
  303.750   17.681   55.255    0.426    0.346
  304.000   17.692   54.641    0.443    0.346
  304.250   17.703   54.647    0.458    0.356
  304.500   17.391   54.654    0.428    0.356
  304.750   17.076   53.420    0.408    0.343
  305.000   16.767   54.046    0.397    0.333
  305.250   16.474   55.293    0.406    0.335
  305.500   16.485   57.157    0.416    0.339
  305.750   16.809   58.404    0.427    0.339
  306.000   16.818   59.030    0.442    0.340
  306.250   17.478   58.416    0.452    0.346
  306.500   17.820   56.562    0.428    0.336
  306.750   19.226   55.949    0.412    0.331
  307.000   22.368   52.236    0.378    0.320
  307.250   25.536   47.903    0.341    0.211
  307.500   27.040   37.992    0.286    0.148
  307.750   26.060   39.237    0.287    0.184
  308.000   22.860   45.443    0.304    0.248
  308.250   19.314   53.507    0.344    0.328
  308.500   17.928   55.373    0.364    0.337
  308.750   17.281   56.618    0.388    0.339
  309.000   17.298   58.484    0.411    0.342
  309.250   17.309   56.630    0.413    0.345
  309.500   17.651   54.777    0.408    0.352
  309.750   17.660   57.264    0.422    0.367
  310.000   18.018   57.269    0.433    0.358
  310.250   18.031   56.658    0.435    0.341
  310.500   18.386   56.043    0.422    0.329
  310.750   18.396   55.428    0.411    0.341
  311.000   18.755   55.434    0.414    0.347
  311.250   20.240   55.441    0.386    0.330
  311.500   21.427   55.446    0.360    0.282
  311.750   21.450   56.073    0.341    0.250
  312.000   20.283   57.319    0.344    0.294
  312.250   17.464   58.564    0.363    0.325
  312.500   16.515   56.090    0.405    0.338
  312.750   15.927   54.238    0.423    0.349
  313.000   15.346   55.484    0.445    0.355
  313.250   15.354   55.489    0.468    0.366
  313.500   15.661   53.636    0.451    0.365
  313.750   15.666   56.742    0.449    0.354
  314.000   15.681   57.987    0.450    0.347
  314.250   15.994   57.374    0.450    0.348
  314.500   16.006   58.621    0.446    0.357
  314.750   16.015   61.108    0.453    0.370
  315.000   16.025   62.972    0.430    0.374
  315.250   16.342   62.359    0.428    0.358
  315.500   16.359   61.124    0.428    0.344
  315.750   15.771   60.510    0.426    0.339
  316.000   15.485   60.517    0.436    0.334
  316.250   14.643   59.283    0.456    0.340
  316.500   13.849   58.052    0.463    0.343
  316.750   13.857   58.056    0.455    0.344
  317.000   13.867   58.681    0.437    0.351
  317.250   13.624   59.308    0.456    0.371
  317.500   13.629   57.454    0.479    0.375
  317.750   13.641   59.320    0.467    0.367
  318.000   13.652   59.946    0.449    0.361
  318.250   13.662   58.714    0.449    0.372
  318.500   13.933   59.340    0.454    0.357
  318.750   13.942   60.587    0.463    0.345
  319.000   13.440   61.831    0.436    0.348
  319.250   12.953   63.077    0.422    0.338
  319.500   12.717   64.942    0.427    0.330
  319.750   11.804   66.188    0.452    0.330
  320.000   10.355   67.434    0.480    0.323
  320.250    8.269   71.160    0.501    0.306
  320.500    6.357   76.124    0.512    0.293
  320.750    4.620   83.568    0.528    0.270
  321.000    3.620   97.832    0.550    0.258
  321.250    2.836  104.035    0.595    0.252
  321.500    2.265  105.282    0.568    0.252
  321.750    2.142  104.048    0.539    0.253
  322.000    2.184  104.054    0.540    0.249
  322.250    2.402  105.301    0.542    0.247
  322.500    2.496  107.787    0.526    0.245
  322.750    2.545  109.032    0.508    0.248
  323.000    2.595  110.899    0.503    0.250
  323.250    2.598  114.624    0.509    0.253
  323.500    2.599  117.727    0.524    0.263
  323.750    2.753  109.676    0.542    0.280
  324.000    2.860  104.103    0.556    0.278
  324.250    3.086   99.770    0.532    0.267
  324.500    3.330   94.818    0.488    0.262
  324.750    3.593   91.726    0.466    0.260
  325.000    3.950   89.252    0.472    0.262
  325.250    4.344   86.160    0.477    0.272
  325.500    4.600   83.067    0.472    0.249
  325.750    4.963   75.635    0.488    0.224
  326.000    5.255   76.260    0.492    0.223
  326.250    5.461   92.382    0.475    0.240
  326.500    5.676  106.644    0.441    0.264
  326.750    5.788  114.089    0.427    0.268
  327.000    5.902   99.219    0.450    0.259
  327.250    6.133   89.928    0.477    0.257
  327.500    6.495   82.496    0.454    0.256
  327.750    6.748   79.402    0.429    0.254
  328.000    7.011   80.649    0.416    0.249
  328.250    7.568   83.754    0.407    0.250
  328.500    7.715   84.382    0.417    0.266
  328.750    8.017   83.766    0.429    0.266
  329.000    8.331   82.533    0.438    0.263
  329.250    8.821   81.299    0.435    0.272
  329.500    8.995   78.826    0.444    0.284
  329.750    9.348   78.832    0.455    0.290
  330.000    9.714   79.458    0.463    0.283
  330.250   10.289   78.846    0.453    0.279
