~VERSION INFORMATION
 VERS.                 2.0:   CWLS LOG ASCII STANDARD -VERSION 2.0
 WRAP.                  NO:   ONE LINE PER DEPTH STEP
~WELL INFORMATION BLOCK
#MNEM.UNIT           DATA                    DESCRIPTION OF MNEMONIC
#---------    -------------------            -------------------------------
# Generated from Intellog Unique Number	CW_70_72/WELL/3009
NULL.         -999.25                        : NULL_VALUE
WELL.         BRASCAN AMOCO MEYER 06-22      : Well_name    - WELL              
LOC .         06-22-070-25W4                 : Location     - LOCATION          
UWI .         00/06-22-070-25W4/0            : Uwi          - UNIQUE WELL ID    
ENTR.         J                              : Entered      - ENTERED BY        
SRVC.         SCHLUMBERGER                   : Scn          - SERVICE COMPANY   
DATE.         10 MAR 73                      : Date         - LOG DATE          
STRT.M        478.536                        : top_depth    - START DEPTH       
STOP.M        701.036                        : bot_depth    - STOP DEPTH        
STEP.M        0.25                           : increment    - STEP LENGTH       
~CURVE INFORMATION BLOCK
#MNEM UNIT       ERCB CURVE CODE    CURVE DESCRIPTION
#-----------   ------------------   ----------------------------------
DEPT.M        00 001 00 00         : DEPTH        - DEPTH                       
ILD .OHMM     00 120 00 00         : RESD         - DEEP RESISTIVITY (DIL)      
CALI.MM       00 280 01 00         : CAL          - CALIPER                     
GR  .API      00 310 00 00         : GR           - GAMMA RAY                   
NPHI.V/V      00 330 00 00         : PHIN         - NEUTRON POROSITY (SANDSTONE)
DPHI.V/V      00 890 00 00         : PHID         - DENSITY POROSITY (SANDSTONE)
~PARAMETER INFORMATION       
#MNEM.UNIT           DATA             DESCRIPTION OF MNEMONIC
#---------         -----------     ------------------------------
GL  .M        643.433              : gl           - GROUND LEVEL ELEVATION      
EREF.M        647.243              : kb           - ELEVATION OF DEPTH REFERENCE
DATM.M        643.433              : datum        - DATUM ELEVATION             
TDD .M        729.996              : tdd          - TOTAL DEPTH DRILLER         
RUN .         ONE                  : Run          - RUN NUMBER                  
ENG .         MACIJUK              : Engineer     - RECORDING ENGINEER          
WIT .         JAMES                : Witness      - WITNESSED BY                
BASE.         EDMONTON             : Branch       - HOME BASE OF LOGGING UNIT   
MUD .         GEL                  : Mud_type     - MUD TYPE                    
MATR.         SANDSTONE            : Logunit      - NEUTRON MATRIX              
TMAX.C        27.7778              : BHT          - MAXIMUM RECORDED TEMPERATURE
BHTD.M        729.996              : BHTDEP       - MAXIMUM RECORDED TEMPERATURE
RMT .C        16.6667              : MDTP         - TEMPERATURE OF MUD          
MUDD.KG/M     1104                 : MWT          - MUD DENSITY                 
NEUT.         1                    : NEUTRON      - NEUTRON TYPE                
RESI.         0                    : RESIST       - RESISTIVITY TYPE            
RM  .OHMM     3.38                 : RM           - RESISTIVITY OF MUD          
RMC .OHMM     0                    : RMC          - RESISTIVITY OF MUD CAKE     
RMF .OHMM     0                    : RMF          - RESISTIVITY OF MUD FILTRATE 
SUFT.C        -17.7778             : SUFT         - SURFACE TEMPERATURE         
~A  DEPTH     RESD      CAL       GR     PHIN     PHID
# ...
  661.036    3.353  173.237  112.869    0.391    0.076
  661.286    3.291  172.645  111.423    0.285    0.107
  661.536    3.289  171.751  108.699    0.332    0.142
  661.786    3.336  171.059  108.171    0.385    0.121
  662.036    3.389  170.570  107.703    0.410    0.104
  662.286    3.488  170.083  106.073    0.404    0.100
  662.536    3.603  169.902  104.749    0.389    0.090
  662.786    3.757  169.838  102.332    0.364    0.082
  663.036    4.011  169.756   97.719    0.351    0.068
  663.286    4.400  169.786   92.987    0.331    0.055
  663.536    5.328  170.019   90.261    0.322    0.056
  663.786    5.867  170.355   88.086    0.315    0.067
  664.036    5.790  171.213   88.167    0.322    0.065
  664.286    5.672  171.342   92.201    0.327    0.074
  664.536    5.588  171.578   93.195    0.329    0.063
  664.786    5.504  171.199   91.386    0.326    0.074
  665.036    5.473  171.737   89.999    0.321    0.075
  665.286    5.488  172.703   86.788    0.313    0.067
  665.536    5.597  173.136   82.785    0.299    0.053
  665.786    5.698  172.859   80.306    0.295    0.052
  666.036    5.864  172.378   86.962    0.290    0.061
  666.286    5.970  172.100   90.510    0.279    0.074
  666.536    6.032  171.809   90.834    0.324    0.085
  666.786    6.042  171.635   89.206    0.321    0.094
  667.036    6.027  171.247   91.719    0.318    0.093
  667.286    6.025  171.177   93.382    0.315    0.094
  667.536    5.966  170.899   92.362    0.318    0.090
  667.786    5.835  170.515   92.200    0.322    0.092
  668.036    5.756  170.132   93.309    0.332    0.091
  668.286    5.722  169.854   93.815    0.328    0.089
  668.536    5.688  169.565   94.076    0.321    0.073
  668.786    5.707  169.393   94.093    0.327    0.088
  669.036    5.841  168.900   90.636    0.344    0.103
  669.286    6.599  168.001   83.408    0.351    0.100
  669.536    9.683  166.181   68.381    0.324    0.084
  669.786   14.284  164.760   58.715    0.203    0.077
  670.036   16.951  164.066   52.582    0.171    0.066
  670.286   17.447  165.232   48.883    0.152    0.010
  670.536   14.161  166.807   52.798    0.153   -0.015
  670.786   11.744  167.555   72.912    0.189   -0.020
  671.036    8.924  167.897   88.093    0.361   -0.002
  671.286    6.634  168.337   94.566    0.394    0.041
  671.536    5.287  168.574   92.390    0.375    0.089
  671.786    4.920  167.981   91.008    0.336    0.115
  672.036    4.803  166.876   97.662    0.338    0.133
  672.286    5.129  168.760  106.387    0.358    0.097
  672.536    5.523  170.438  113.956    0.377    0.102
  672.786    6.726  170.675  140.585    0.311    0.096
  673.036    7.667  169.362  154.121    0.237    0.050
  673.286    7.790  167.431  160.716    0.224    0.022
  673.536    5.867  165.608  170.111    0.240    0.004
  673.786    4.369  164.399  147.595    0.273    0.086
  674.036    3.566  163.395  115.762    0.305    0.127
  674.286    3.199  162.493   91.603    0.336    0.104
  674.536    2.907  161.802   88.029    0.347    0.103
  674.786    2.692  161.321   91.760    0.346    0.130
  675.036    2.710  161.240  104.808    0.338    0.154
  675.286    2.733  161.374  129.429    0.307    0.182
  675.536    2.793  162.121  144.062    0.273    0.125
  675.786    2.837  162.566  158.023    0.313    0.064
  676.036    2.936  162.699  185.080    0.331    0.045
  676.286    3.050  163.137  188.507    0.343    0.050
  676.536    3.117  163.888  182.190    0.342    0.119
  676.786    3.149  164.334  165.887    0.342    0.125
  677.036    3.165  164.362  169.193    0.344    0.110
  677.286    3.123  164.184  174.020    0.359    0.107
  677.536    2.955  163.909  163.562    0.364    0.097
  677.786    2.786  163.932  135.201    0.377    0.110
  678.036    2.565  164.166  106.535    0.366    0.118
  678.286    2.458  164.300   97.966    0.340    0.130
  678.536    2.330  164.426   99.932    0.322    0.098
  678.786    2.368  164.979  111.215    0.331    0.081
  679.036    2.477  165.105  113.241    0.324    0.098
  679.286    2.778  164.823  115.208    0.306    0.128
  679.536    3.285  164.545  134.772    0.308    0.097
  679.786    3.780  164.273  155.921    0.331    0.049
  680.036    4.223  164.497  157.643    0.333    0.024
  680.286    4.559  164.738  155.225    0.281    0.007
  680.536    4.417  164.865  159.506    0.302   -0.006
  680.786    4.058  164.995  177.852    0.326   -0.013
  681.036    3.596  164.921  177.443    0.331    0.022
  681.286    3.281  165.056  166.742    0.322    0.047
  681.536    3.161  165.082  148.124    0.308    0.045
  681.786    3.052  165.111  150.576    0.327    0.064
  682.036    2.968  165.457  170.508    0.344    0.060
  682.286    2.934  165.171  166.749    0.354    0.040
  682.536    2.998  164.789  144.537    0.362    0.056
  682.786    3.085  164.401  123.180    0.343    0.024
  683.036    3.193  164.544  102.186    0.321    0.062
  683.286    3.341  164.773   95.505    0.301    0.080
  683.536    3.432  164.902  103.256    0.281    0.096
  683.786    3.443  164.831  124.954    0.289    0.079
  684.036    3.398  164.451  141.169    0.307    0.060
  684.286    3.371  163.649   86.072    0.311    0.077
  684.536    3.328  162.340   73.302    0.306    0.087
  684.786    3.289  161.746   66.437    0.281    0.086
  685.036    3.180  163.942   64.383    0.260    0.072
  685.286    3.021  165.001   70.980    0.299    0.089
  685.536    2.954  164.720   81.834    0.327    0.117
  685.786    2.915  164.029  105.664    0.310    0.116
  686.036    2.855  163.643  122.733    0.289    0.100
  686.286    2.886  162.330  133.954    0.278    0.101
  686.536    2.943  160.918  141.339    0.302    0.080
  686.786    2.963  159.609  148.605    0.319    0.076
  687.036    2.999  160.150  147.158    0.314    0.064
  687.286    3.026  163.273  121.417    0.300    0.045
  687.536    2.980  163.404   96.832    0.284    0.038
  687.786    2.872  162.814   85.642    0.278    0.054
  688.036    2.871  159.749   72.750    0.280    0.059
  688.286    2.944  155.549   63.569    0.295    0.082
  688.536    3.052  158.466   57.560    0.308    0.134
  688.786    3.199  162.211   60.928    0.291    0.118
  689.036    3.335  162.441   68.862    0.291    0.107
  689.286    3.363  164.128   75.391    0.286    0.093
  689.536    3.368  165.285   86.554    0.254    0.084
  689.786    3.366  167.478   94.184    0.253    0.090
  690.036    3.353  166.380   90.121    0.286    0.112
  690.286    3.304  165.375   79.602    0.301    0.129
  690.536    3.277  164.368   68.962    0.308    0.153
  690.786    3.281  162.856   61.672    0.302    0.157
  691.036    3.322  162.057   63.151    0.297    0.150
  691.286    3.400  162.083   69.924    0.284    0.133
  691.536    3.468  161.909   78.774    0.276    0.110
  691.786    3.499  162.145   89.933    0.267    0.116
  692.036    3.458  162.378  105.662    0.285    0.077
  692.286    3.301  162.198   95.692    0.303    0.071
  692.536    3.085  162.127   74.637    0.302    0.114
  692.786    2.934  161.435   58.821    0.305    0.143
  693.036    2.797  160.229   55.855    0.329    0.131
  693.286    2.751  159.740   60.319    0.338    0.141
  693.536    2.764  159.042   63.440    0.329    0.138
  693.786    2.814  158.143   70.829    0.312    0.110
  694.036    2.875  157.656   71.269    0.290    0.106
  694.286    2.970  157.895   64.344    0.267    0.121
  694.536    3.012  158.653   58.392    0.258    0.119
  694.786    3.044  159.191   65.354    0.276    0.100
  695.036    3.020  160.562   77.548    0.294    0.118
  695.286    2.963  162.655   81.768    0.298    0.117
  695.536    2.903  164.121   70.217    0.285    0.098
  695.786    2.793  163.637   69.317    0.309    0.104
  696.036    2.701  162.529   76.096    0.346    0.084
  696.286    2.589  161.222   78.732    0.340    0.096
  696.536    2.522  160.114   75.462    0.330    0.122
  696.786    2.512  159.631   73.100    0.319    0.147
  697.036    2.512  159.869   72.874    0.306    0.118
  697.286    2.652  159.898   77.645    0.304    0.107
