~VERSION INFORMATION
 VERS.                 2.0:   CWLS LOG ASCII STANDARD -VERSION 2.0
 WRAP.                  NO:   ONE LINE PER DEPTH STEP
~WELL INFORMATION BLOCK
#MNEM.UNIT           DATA                    DESCRIPTION OF MNEMONIC
#---------    -------------------            -------------------------------
# Generated from Intellog Unique Number	CW_70_72/WELL/642
NULL.         -999.25                        : NULL_VALUE
WELL.         MIDAS AMOCO MEYER 06-21        : Well_name    - WELL              
LOC .         06-21-071-25W4                 : Location     - LOCATION          
UWI .         00/06-21-071-25W4/0            : Uwi          - UNIQUE WELL ID    
ENTR.         JAYE                           : Entered      - ENTERED BY        
SRVC.         SCHLUMBERGER                   : Scn          - SERVICE COMPANY   
DATE.         4 FEB 73                       : Date         - LOG DATE          
STRT.M        402.336                        : top_depth    - START DEPTH       
STOP.M        624.836                        : bot_depth    - STOP DEPTH        
STEP.M        0.25                           : increment    - STEP LENGTH       
~CURVE INFORMATION BLOCK
#MNEM UNIT       ERCB CURVE CODE    CURVE DESCRIPTION
#-----------   ------------------   ----------------------------------
DEPT.M        00 001 00 00         : DEPTH        - DEPTH                       
DPHI.V/V      00 890 00 00         : PHID         - DENSITY POROSITY (SANDSTONE)
NPHI.V/V      00 330 00 00         : PHIN         - NEUTRON POROSITY (SANDSTONE)
GR  .API      00 310 00 00         : GR           - GAMMA RAY                   
CALI.MM       00 280 01 00         : CAL          - CALIPER                     
ILD .OHMM     00 120 00 00         : RESD         - DEEP RESISTIVITY (DIL)      
~PARAMETER INFORMATION       
#MNEM.UNIT           DATA             DESCRIPTION OF MNEMONIC
#---------         -----------     ------------------------------
GL  .M        598.322              : gl           - GROUND LEVEL ELEVATION      
EREF.M        601.37               : kb           - ELEVATION OF DEPTH REFERENCE
DATM.M        598.322              : datum        - DATUM ELEVATION             
TDD .M        628.802              : tdd          - TOTAL DEPTH DRILLER         
RUN .         ONE                  : Run          - RUN NUMBER                  
ENG .         LEWIS                : Engineer     - RECORDING ENGINEER          
WIT .         JAMES                : Witness      - WITNESSED BY                
BASE.         LLOYD                : Branch       - HOME BASE OF LOGGING UNIT   
MUD .         GEL                  : Mud_type     - MUD TYPE                    
MATR.         SANDSTONE            : Logunit      - NEUTRON MATRIX              
TMAX.C        25.5556              : BHT          - MAXIMUM RECORDED TEMPERATURE
BHTD.M        627.583              : BHTDEP       - MAXIMUM RECORDED TEMPERATURE
RMT .C        15                   : MDTP         - TEMPERATURE OF MUD          
MUDD.KG/M     1116                 : MWT          - MUD DENSITY                 
NEUT.         1                    : NEUTRON      - NEUTRON TYPE                
RESI.         0                    : RESIST       - RESISTIVITY TYPE            
RM  .OHMM     8.41                 : RM           - RESISTIVITY OF MUD          
RMC .OHMM     5                    : RMC          - RESISTIVITY OF MUD CAKE     
RMF .OHMM     3.96                 : RMF          - RESISTIVITY OF MUD FILTRATE 
SUFT.C        -17.7778             : SUFT         - SURFACE TEMPERATURE         
~A  DEPTH     PHID     PHIN       GR      CAL     RESD
# ...
  438.836    0.347    0.614  105.936  229.128    2.176
  439.086    0.426    0.599  105.859  208.031    2.375
  439.336    0.364    0.553  103.738  172.786    2.658
  439.586    0.252    0.486   97.469  161.548    2.891
  439.836    0.203    0.455   92.129  159.107    3.043
  440.086    0.180    0.415   87.287  158.770    3.175
  440.336    0.177    0.441   89.313  157.180    3.295
  440.586    0.202    0.450   99.573  158.186    3.364
  440.836    0.213    0.452  107.849  162.566    3.416
  441.086    0.191    0.449  118.791  166.938    3.457
  441.336    0.166    0.442  125.275  170.895    3.510
  441.586    0.155    0.448  126.682  174.540    3.591
  441.836    0.145    0.492  129.391  180.063    3.693
  442.086    0.161    0.492  114.334  187.058    3.798
  442.336    0.194    0.437  105.587  179.489    3.863
  442.586    0.187    0.402   96.473  170.659    3.881
  442.836    0.141    0.370   75.781  165.917    3.913
  443.086    0.148    0.327   73.229  163.787    3.785
  443.336    0.165    0.420   78.535  162.397    3.602
  443.586    0.210    0.451   83.903  161.425    3.516
  443.836    0.225    0.474   89.212  160.977    3.482
  444.086    0.201    0.460   93.100  162.949    3.473
  444.336    0.190    0.459   95.122  165.647    3.470
  444.586    0.164    0.489   94.550  164.248    3.449
  444.836    0.194    0.502   91.933  161.921    3.427
  445.086    0.202    0.491   79.969  159.911    3.418
  445.336    0.205    0.464   81.194  159.246    3.348
  445.586    0.217    0.442   85.076  159.322    3.321
  445.836    0.226    0.461   89.640  159.819    3.319
  446.086    0.209    0.449   90.369  160.746    3.340
  446.336    0.224    0.419   80.014  161.342    3.416
  446.586    0.219    0.393   78.759  162.060    3.616
  446.836    0.202    0.390   81.468  162.231    3.814
  447.086    0.176    0.383   83.248  162.418    3.979
  447.336    0.162    0.367   84.654  163.220    4.077
  447.586    0.146    0.437   91.943  165.081    4.037
  447.836    0.184    0.463  100.165  168.207    3.767
  448.086    0.187    0.481  105.100  171.002    3.566
  448.336    0.156    0.485  109.661  172.971    3.513
  448.586    0.133    0.486  110.701  174.204    3.491
  448.836    0.151    0.488  110.065  175.320    3.494
  449.086    0.159    0.494  110.356  176.347    3.478
  449.336    0.153    0.499  112.756  177.684    3.494
  449.586    0.136    0.516  117.382  179.646    3.473
  449.836    0.156    0.536  120.895  180.150    3.427
  450.086    0.193    0.563  121.375  179.062    3.369
  450.336    0.180    0.587  117.580  178.513    3.348
  450.586    0.229    0.557  114.162  186.346    3.388
  450.836    0.234    0.569  111.731  176.575    3.452
  451.086    0.210    0.547  109.175  171.514    3.576
  451.336    0.144    0.478  111.450  168.658    3.889
  451.586    0.123    0.461  104.562  167.164    4.176
  451.836    0.135    0.446  102.568  166.089    4.143
  452.086    0.135    0.428  104.965  165.437    4.029
  452.336    0.128    0.435   99.996  165.511    3.982
  452.586    0.158    0.465   99.489  165.707    3.972
  452.836    0.174    0.451  102.316  166.191    3.969
  453.086    0.189    0.431  106.018  166.791    3.973
  453.336    0.157    0.433  109.588  168.229    3.998
  453.586    0.142    0.460  112.667  170.306    4.045
  453.836    0.129    0.513  113.519  173.106    4.086
  454.086    0.119    0.548  111.894  175.485    4.179
  454.336    0.150    0.569  109.277  175.251    4.213
  454.586    0.197    0.596  108.084  173.543    4.241
  454.836    0.232    0.607  108.131  174.566    4.261
  455.086    0.235    0.596  111.828  178.106    4.272
  455.336    0.179    0.576  112.187  182.167    4.261
  455.586    0.197    0.553  114.273  184.551    4.212
  455.836    0.194    0.564  116.797  178.654    4.178
  456.086    0.155    0.583  115.850  177.156    4.159
  456.336    0.126    0.560  112.369  176.813    4.149
  456.586    0.153    0.534  111.986  177.226    4.160
  456.836    0.183    0.505  112.459  177.597    4.179
  457.086    0.177    0.515  109.843  178.309    4.244
  457.336    0.164    0.507  106.486  178.698    4.287
  457.586    0.145    0.492  105.117  179.427    4.362
  457.836    0.188    0.482  106.455  179.796    4.405
  458.086    0.182    0.477  108.913  180.400    4.458
  458.336    0.172    0.469  111.003  181.522    4.485
  458.586    0.155    0.459  113.028  180.982    4.491
  458.836    0.163    0.447  114.315  178.431    4.495
  459.086    0.124    0.466  110.584  177.672    4.475
  459.336    0.141    0.453  107.787  177.131    4.423
  459.586    0.136    0.486  106.588  178.036    4.372
  459.836    0.141    0.524  108.803  180.945    4.337
  460.086    0.129    0.515  113.923  178.504    4.310
  460.336    0.173    0.487  107.036  175.126    4.307
  460.586    0.170    0.473   99.161  175.095    4.319
  460.836    0.147    0.486   98.469  177.592    4.339
  461.086    0.136    0.478   99.313  181.121    4.335
  461.336    0.170    0.473   98.991  180.674    4.332
  461.586    0.169    0.469   98.728  171.742    4.289
  461.836    0.166    0.467   97.904  168.461    4.247
  462.086    0.195    0.477   97.583  171.483    4.191
  462.336    0.154    0.494   96.572  178.055    4.172
  462.586    0.160    0.473   93.832  175.834    4.198
  462.836    0.156    0.436   89.976  172.652    4.349
  463.086    0.148    0.417   91.511  171.483    4.361
  463.336    0.154    0.399   91.310  170.822    4.272
  463.586    0.158    0.418   87.205  169.528    4.132
  463.836    0.164    0.444   87.622  167.929    3.955
  464.086    0.164    0.454   89.710  166.546    3.867
  464.336    0.181    0.458   91.119  167.041    3.767
  464.586    0.173    0.460   91.292  167.220    3.724
  464.836    0.161    0.449   91.953  166.461    3.747
  465.086    0.168    0.457   92.618  165.906    3.799
  465.336    0.153    0.464   92.917  165.885    3.942
  465.586    0.169    0.457   97.295  166.807    4.062
  465.836    0.148    0.447  101.918  170.440    4.118
  466.086    0.138    0.448  102.522  173.139    4.151
  466.336    0.168    0.433   98.545  168.084    4.147
  466.586    0.151    0.419   98.836  166.386    4.077
  466.836    0.150    0.429   97.582  165.942    4.030
  467.086    0.164    0.450   96.145  166.016    3.948
  467.336    0.189    0.468   98.110  166.088    3.902
  467.586    0.177    0.469   98.525  165.955    3.851
  467.836    0.165    0.463  101.852  166.134    3.840
  468.086    0.151    0.449  104.558  166.533    3.809
  468.336    0.167    0.440  103.307  167.232    3.780
  468.586    0.159    0.455  106.016  167.636    3.743
  468.836    0.167    0.498  108.227  168.022    3.726
  469.086    0.150    0.523  109.885  169.150    3.716
  469.336    0.151    0.543  111.226  171.531    3.726
  469.586    0.171    0.515  112.265  168.986    3.770
  469.836    0.201    0.485  105.314  162.675    3.815
  470.086    0.195    0.487   97.561  161.913    3.888
  470.336    0.201    0.473   94.454  162.528    4.020
  470.586    0.209    0.443   98.712  163.635    4.135
  470.836    0.168    0.482  100.796  165.290    4.094
  471.086    0.162    0.522   99.664  166.623    3.841
  471.336    0.178    0.499   97.171  167.547    3.552
  471.586    0.159    0.475   92.821  167.516    3.273
  471.836    0.172    0.450   84.943  166.224    3.070
  472.086    0.202    0.417   77.252  163.175    2.906
  472.336    0.237    0.418   74.202  161.992    2.791
  472.586    0.257    0.417   73.819  161.534    2.749
  472.836    0.248    0.423   70.584  161.719    2.732
  473.086    0.255    0.438   68.837  162.109    2.754
  473.336    0.230    0.424   67.829  162.608    2.817
  473.586    0.225    0.406   66.697  162.796    2.850
  473.836    0.227    0.422   67.173  162.771    2.869
  474.086    0.219    0.440   64.929  162.649    2.903
  474.336    0.218    0.449   66.215  162.708    2.954
  474.586    0.228    0.431   67.498  162.902    2.972
  474.836    0.220    0.417   66.676  162.766    3.024
  475.086    0.184    0.405   63.694  162.431    3.076
