~VERSION INFORMATION
 VERS.                 2.0:   CWLS LOG ASCII STANDARD -VERSION 2.0
 WRAP.                  NO:   ONE LINE PER DEPTH STEP
~WELL INFORMATION BLOCK
#MNEM.UNIT           DATA                    DESCRIPTION OF MNEMONIC
#---------    -------------------            -------------------------------
# Generated from Intellog Unique Number	CW_70_72/WELL/877
NULL.         -999.25                        : NULL_VALUE
WELL.         SUNDANCE MCMORAN SMITH 07-08   : Well_name    - WELL              
LOC .         07-08-072-24W4                 : Location     - LOCATION          
UWI .         00/07-08-072-24W4/0            : Uwi          - UNIQUE WELL ID    
ENTR.         JAYE                           : Entered      - ENTERED BY        
SRVC.         SCHLUMBERGER                   : Scn          - SERVICE COMPANY   
DATE.         24 JAN 73                      : Date         - LOG DATE          
STRT.M        329.184                        : top_depth    - START DEPTH       
STOP.M        535.434                        : bot_depth    - STOP DEPTH        
STEP.M        0.25                           : increment    - STEP LENGTH       
~CURVE INFORMATION BLOCK
#MNEM UNIT       ERCB CURVE CODE    CURVE DESCRIPTION
#-----------   ------------------   ----------------------------------
DEPT.M        00 001 00 00         : DEPTH        - DEPTH                       
DPHI.V/V      00 890 00 00         : PHID         - DENSITY POROSITY (SANDSTONE)
NPHI.V/V      00 330 00 00         : PHIN         - NEUTRON POROSITY (SANDSTONE)
GR  .API      00 310 00 00         : GR           - GAMMA RAY                   
CALI.MM       00 280 01 00         : CAL          - CALIPER                     
ILD .OHMM     00 120 00 00         : RESD         - DEEP RESISTIVITY (DIL)      
~PARAMETER INFORMATION       
#MNEM.UNIT           DATA             DESCRIPTION OF MNEMONIC
#---------         -----------     ------------------------------
GL  .M        560.222              : gl           - GROUND LEVEL ELEVATION      
EREF.M        562.661              : kb           - ELEVATION OF DEPTH REFERENCE
DATM.M        560.222              : datum        - DATUM ELEVATION             
TDD .M        544.068              : tdd          - TOTAL DEPTH DRILLER         
RUN .         ONE                  : Run          - RUN NUMBER                  
MATR.         SANDSTONE            : Logunit      - NEUTRON MATRIX              
TMAX.C        23.3333              : BHT          - MAXIMUM RECORDED TEMPERATURE
BHTD.M        543.763              : BHTDEP       - MAXIMUM RECORDED TEMPERATURE
RMT .C        21.1111              : MDTP         - TEMPERATURE OF MUD          
MUDD.KG/M     0                    : MWT          - MUD DENSITY                 
NEUT.         1                    : NEUTRON      - NEUTRON TYPE                
RESI.         0                    : RESIST       - RESISTIVITY TYPE            
RM  .OHMM     3.82                 : RM           - RESISTIVITY OF MUD          
RMC .OHMM     0                    : RMC          - RESISTIVITY OF MUD CAKE     
RMF .OHMM     2.92                 : RMF          - RESISTIVITY OF MUD FILTRATE 
SUFT.C        -17.7778             : SUFT         - SURFACE TEMPERATURE         
~A  DEPTH     PHID     PHIN       GR      CAL     RESD
# ...
  365.684    0.277    0.525   86.459  153.351    4.439
  365.934    0.263    0.574   93.334  154.705    4.738
  366.184    0.231    0.598  101.789  160.381    5.114
  366.434    0.223    0.579  100.401  170.272    5.339
  366.684    0.231    0.546  101.931  175.330    5.453
  366.934    0.244    0.532  105.829  170.101    5.508
  367.184    0.245    0.518  110.881  157.670    5.483
  367.434    0.239    0.502  119.943  156.247    5.478
  367.684    0.235    0.496  128.580  164.905    5.433
  367.934    0.221    0.517  134.847  175.827    5.300
  368.184    0.186    0.529  121.614  180.577    5.086
  368.434    0.227    0.541  110.020  184.195    4.765
  368.684    0.290    0.545  100.006  177.731    4.210
  368.934    0.273    0.550   91.146  171.061    3.774
  369.184    0.233    0.566   97.656  174.369    3.334
  369.434    0.261    0.593  106.780  174.696    3.045
  369.684    0.296    0.566  115.598  185.822    3.144
  369.934    0.262    0.542  114.394  193.246    3.520
  370.184    0.216    0.528   98.426  183.594    4.289
  370.434    0.218    0.531   85.799  177.231    4.962
  370.684    0.243    0.526   77.912  173.442    5.415
  370.934    0.254    0.513   72.697  167.596    5.380
  371.184    0.277    0.490   73.559  160.925    4.959
  371.434    0.288    0.491   79.582  158.474    4.811
  371.684    0.297    0.496   84.817  154.273    4.895
  371.934    0.284    0.498   88.290  150.792    5.254
  372.184    0.272    0.508   90.912  152.457    5.764
  372.434    0.250    0.533   94.326  157.410    6.477
  372.684    0.226    0.546   96.461  160.719    7.146
  372.934    0.225    0.529   96.472  160.839    7.516
  373.184    0.220    0.506   95.510  159.621    7.095
  373.434    0.208    0.508   95.702  158.508    6.550
  373.684    0.197    0.523   96.561  158.936    6.114
  373.934    0.185    0.537  103.680  161.010    5.845
  374.184    0.173    0.473  105.998  164.526    5.641
  374.434    0.182    0.455  104.611  166.804    5.523
  374.684    0.183    0.467   99.153  167.336    5.388
  374.934    0.179    0.478   99.955  167.560    5.323
  375.184    0.191    0.501  103.183  168.915    5.289
  375.434    0.183    0.517  105.685  169.754    5.227
  375.684    0.190    0.517  105.756  171.315    5.138
  375.934    0.198    0.494  105.582  172.976    5.151
  376.184    0.189    0.523  103.771  174.536    5.270
  376.434    0.207    0.560  101.836  173.217    5.667
  376.684    0.220    0.551   98.688  170.043    6.071
  376.934    0.233    0.565   95.659  164.404    6.722
  377.184    0.250    0.522   92.692  159.379    7.443
  377.434    0.227    0.417   87.903  154.972    7.945
  377.684    0.194    0.376   82.506  156.226    8.265
  377.934    0.166    0.342   79.722  161.796    8.472
  378.184    0.126    0.430   82.587  163.667    8.265
  378.434    0.193    0.518   87.822  161.420    7.236
  378.684    0.228    0.511   93.421  159.279    6.656
  378.934    0.231    0.511   99.142  159.191    6.236
  379.184    0.218    0.510  105.531  160.750    6.084
  379.434    0.204    0.536  110.461  165.190    6.090
  379.684    0.196    0.525  108.224  162.841    6.072
  379.934    0.190    0.508  102.462  161.316    6.068
  380.184    0.179    0.517  101.563  162.260    6.040
  380.434    0.191    0.545  103.333  166.287    5.968
  380.684    0.173    0.526  103.587  172.065    5.822
  380.934    0.176    0.512  105.054  174.962    5.659
  381.184    0.184    0.506  103.546  174.465    5.521
  381.434    0.181    0.496  102.281  174.689    5.525
  381.684    0.212    0.531  100.104  177.175    5.941
  381.934    0.249    0.580   93.977  174.826    6.627
  382.184    0.275    0.621   80.075  169.184    7.488
  382.434    0.341    0.654   55.419  164.675    8.414
  382.684    0.437    0.679   42.732  160.268    9.014
  382.934    0.529    0.668   32.900  155.244    9.055
  383.184    0.588    0.628   27.928  159.170    8.133
  383.434    0.496    0.558   30.430  167.622    6.689
  383.684    0.422    0.533   36.212  170.315    5.718
  383.934    0.285    0.513   44.605  164.673    5.154
  384.184    0.266    0.433   46.681  158.415    4.803
  384.434    0.265    0.441   46.751  153.083    4.600
  384.684    0.270    0.452   47.977  151.145    4.462
  384.934    0.280    0.433   52.482  154.968    4.314
  385.184    0.291    0.452   52.493  160.130    4.193
  385.434    0.306    0.460   51.106  161.486    4.121
  385.684    0.323    0.450   50.325  162.016    4.102
  385.934    0.335    0.437   51.004  160.798    4.144
  386.184    0.317    0.426   49.738  158.141    4.240
  386.434    0.299    0.433   46.042  155.378    4.298
  386.684    0.304    0.459   48.421  151.693    4.358
  386.934    0.315    0.459   51.955  149.859    4.371
  387.184    0.318    0.448   49.353  149.361    4.391
  387.434    0.320    0.445   47.176  147.424    4.403
  387.684    0.314    0.442   47.489  145.588    4.407
  387.934    0.304    0.433   46.102  146.326    4.411
  388.184    0.306    0.423   46.355  151.383    4.440
  388.434    0.312    0.420   47.886  159.939    4.444
  388.684    0.303    0.447   46.740  163.352    4.424
  388.934    0.289    0.442   47.114  162.239    4.427
  389.184    0.288    0.437   49.069  160.814    4.408
  389.434    0.288    0.416   47.681  159.904    4.379
  389.684    0.278    0.429   45.992  160.332    4.280
  389.934    0.270    0.432   45.089  161.380    4.160
  390.184    0.289    0.436   44.249  162.116    4.081
  390.434    0.290    0.451   44.198  162.235    4.010
  390.684    0.292    0.464   46.455  162.356    4.014
  390.934    0.302    0.457   51.204  163.092    4.077
  391.184    0.316    0.453   50.910  163.419    4.265
  391.434    0.324    0.492   49.098  163.436    4.519
  391.684    0.335    0.520   50.507  162.631    5.153
  391.934    0.306    0.491   51.245  162.029    6.524
  392.184    0.248    0.441   48.460  161.326    8.336
  392.434    0.203    0.297   46.284  160.931   11.071
  392.684    0.158    0.216   46.536  161.051   13.940
  392.934    0.094    0.205   47.822  163.948   17.617
  393.184    0.072    0.199   48.075  173.841   20.574
  393.434    0.082    0.193   46.748  178.591   19.742
  393.684    0.091    0.197   47.062  180.666   15.031
  393.934    0.104    0.209   42.820  179.962   11.571
  394.184    0.129    0.248   42.526  176.895    8.794
  394.434    0.150    0.322   45.027  173.619    6.561
  394.684    0.184    0.508   51.294  169.624    5.192
  394.934    0.285    0.546   54.403  164.805    4.270
  395.184    0.302    0.534   55.750  158.958    3.752
  395.434    0.285    0.505   55.517  151.877    3.528
  395.684    0.300    0.476   55.102  147.161    3.538
  395.934    0.297    0.477   54.686  145.020    3.587
  396.184    0.286    0.498   53.481  146.888    3.637
  396.434    0.275    0.507   52.945  149.784    3.667
  396.684    0.297    0.486   49.674  153.917    3.678
  396.934    0.297    0.467   49.623  157.947    3.722
  397.184    0.291    0.447   50.605  155.596    3.801
  397.434    0.285    0.491   50.311  156.333    3.911
  397.684    0.300    0.480   48.864  159.745    4.025
  397.934    0.284    0.467   49.055  162.232    4.095
  398.184    0.277    0.490   50.888  162.556    4.198
  398.434    0.284    0.477   53.814  160.825    4.328
  398.684    0.295    0.463   55.768  155.494    4.419
  398.934    0.303    0.477   57.844  148.617    4.564
  399.184    0.290    0.472   58.948  145.239    4.756
  399.434    0.287    0.469   54.523  151.224    4.938
  399.684    0.280    0.467   50.341  156.074    4.989
  399.934    0.276    0.454   44.640  160.721    4.849
  400.184    0.282    0.441   44.468  162.180    4.569
  400.434    0.292    0.459   44.721  162.711    4.328
  400.684    0.299    0.467   45.157  163.348    4.145
  400.934    0.294    0.449   42.129  163.363    4.088
  401.184    0.285    0.466   42.626  163.378    4.396
  401.434    0.278    0.485   43.060  163.911    4.912
  401.684    0.267    0.444   42.766  164.133    6.006
  401.934    0.258    0.372   42.716  163.840    7.453
