~VERSION INFORMATION
 VERS.                 2.0:   CWLS LOG ASCII STANDARD -VERSION 2.0
 WRAP.                  NO:   ONE LINE PER DEPTH STEP
~WELL INFORMATION BLOCK
#MNEM.UNIT           DATA                    DESCRIPTION OF MNEMONIC
#---------    -------------------            -------------------------------
# Generated from Intellog Unique Number	CS_69_70/WELL/838
WELL.         PARAMOUNT RESOURCES LTD        : Well_name    - WELL
LOC .         00/07-18-070-17W4/0            : Location     - LOCATION
UWI .         00/07-18-070-17W4/0            : Uwi          - UNIQUE WELL ID
ENTR.         SP                             : Entered      - ENTERED BY
SRVC.         SCHLUMBERGER                   : Scn          - SERVICE COMPANY
STRT.M        275                            : top_depth    - START DEPTH
STOP.M        445                            : bot_depth    - STOP DEPTH
STEP.M        0.25                           : increment    - STEP LENGTH
 NULL. -999.2500:NULL Value
~CURVE INFORMATION BLOCK
#MNEM UNIT       ERCB CURVE CODE    CURVE DESCRIPTION
#-----------   ------------------   ----------------------------------
DEPT.M        00 001 00 00         : DEPTH        - DEPTH
ILD .OHMM     00 120 00 00         : RESD         - DEEP RESISTIVITY (DIL)
GR  .API      00 310 00 00         : GR           - GAMMA RAY
NPHI.V/V      00 330 00 00         : PHIN         - NEUTRON POROSITY (LIMESTONE)
DPHI.V/V      00 890 00 00         : PHID         - DENSITY POROSITY (LIMESTONE)
~PARAMETER INFORMATION
#MNEM.UNIT           DATA             DESCRIPTION OF MNEMONIC
#---------         -----------     ------------------------------
GL  .M        554.2                : gl           - GROUND LEVEL ELEVATION
EREF.M        557.2                : kb           - ELEVATION OF DEPTH REFERENCE
DATM.M        554.2                : datum        - DATUM ELEVATION
TDD .M        446                  : tdd          - TOTAL DEPTH DRILLER
RUN .         ONE                  : Run          - RUN NUMBER
ENG .         BILL                 : Engineer     - RECORDING ENGINEER
WIT .         JIM                  : Witness      - WITNESSED BY
MUD .         GEL                  : Mud_type     - MUD TYPE
MATR.         LIMESTONE            : Logunit      - NEUTRON MATRIX
TMAX.C        22                   : BHT          - MAXIMUM RECORDED TEMPERATURE
BHTD.M        446                  : BHTDEP       - MAXIMUM RECORDED TEMPERATURE
MATR.         1                    : LOGUNIT      - NEUTRON MATRIX
RMT .C        25                   : MDTP         - TEMPERATURE OF MUD
NEUT.         1                    : NEUTRON      - NEUTRON TYPE
RESI.         0                    : RESIST       - RESISTIVITY TYPE
RMC .OHMM     0.25                 : RMC          - RESISTIVITY OF MUD CAKE
RMF .OHMM     0.25                 : RMF          - RESISTIVITY OF MUD FILTRATE
SUFT.C        15                   : SUFT         - SURFACE TEMPERATURE
~A  DEPTH     RESD       GR     PHIN     PHID
# ...
  318.500    5.528   68.898    0.442    0.302
  318.750    5.427   69.991    0.438    0.297
  319.000    5.117   70.478    0.431    0.291
  319.250    4.905   70.722    0.419    0.288
  319.500    4.727   70.602    0.412    0.290
  319.750    4.497   70.846    0.410    0.311
  320.000    4.078   71.939    0.416    0.309
  320.250    3.959   73.880    0.409    0.303
  320.500    3.874   74.973    0.409    0.307
  320.750    3.934   75.459    0.410    0.266
  321.000    3.994   78.553    0.413    0.230
  321.250    4.147   82.556    0.414    0.163
  321.500    4.323   86.499    0.414    0.131
  321.750    4.480   89.532    0.413    0.203
  322.000    4.592   89.109    0.411    0.241
  322.250    4.663   83.229    0.410    0.277
  322.500    4.664   83.231    0.410    0.299
  322.750    4.598   85.840    0.416    0.277
  323.000    4.507   89.964    0.429    0.260
  323.250    4.280   95.786    0.438    0.252
  323.500    4.164  100.577    0.443    0.241
  323.750    3.992  104.944    0.451    0.224
  324.000    3.855  102.036    0.447    0.216
  324.250    3.779  103.250    0.436    0.233
  324.500    3.745  103.979    0.457    0.233
  324.750    3.782  101.858    0.474    0.237
  325.000    3.964  103.376    0.495    0.204
  325.250    4.232  105.803    0.507    0.208
  325.500    4.476  107.502    0.457    0.228
  325.750    4.860  107.746    0.423    0.234
  326.000    5.113  107.748    0.417    0.228
  326.250    5.240  107.627    0.413    0.228
  326.500    5.371  106.477    0.411    0.227
  326.750    5.363  103.932    0.411    0.221
  327.000    5.199  102.114    0.416    0.230
  327.250    4.946   97.811    0.426    0.242
  327.500    4.442   93.447    0.433    0.251
  327.750    3.968   86.537    0.422    0.272
  328.000    3.550   70.835    0.410    0.296
  328.250    3.148   62.044    0.401    0.316
  328.500    3.034   63.683    0.396    0.332
  328.750    2.903   65.867    0.404    0.325
  329.000    2.824   66.839    0.413    0.316
  329.250    2.753   67.568    0.410    0.302
  329.500    2.734   69.995    0.407    0.305
  329.750    2.720   71.027    0.415    0.292
  330.000    2.716   70.786    0.414    0.307
  330.250    2.707   69.333    0.408    0.318
  330.500    2.704   68.243    0.403    0.310
  330.750    2.695   67.638    0.401    0.309
  331.000    2.686   67.154    0.402    0.316
  331.250    2.687   66.793    0.404    0.326
  331.500    2.698   66.369    0.409    0.314
  331.750    2.709   65.037    0.416    0.311
  332.000    2.720   63.038    0.406    0.316
  332.250    2.711   62.190    0.395    0.322
  332.500    2.718   62.010    0.388    0.320
  332.750    2.729   62.921    0.394    0.318
  333.000    2.751   66.560    0.405    0.323
  333.250    2.757   66.804    0.409    0.317
  333.500    2.784   64.502    0.395    0.308
  333.750    2.796   62.442    0.389    0.301
  334.000    2.645   62.019    0.399    0.297
  334.250    2.747   64.809    0.405    0.304
  334.500    2.748   64.265    0.404    0.320
  334.750    2.759   61.417    0.408    0.322
  335.000    2.760   59.296    0.411    0.319
  335.250    2.767   59.601    0.404    0.326
  335.500    2.789   61.605    0.391    0.322
  335.750    2.821   62.879    0.386    0.317
  336.000    2.854   63.850    0.389    0.313
  336.250    2.887   65.003    0.388    0.313
  336.500    2.943   69.977    0.382    0.319
  336.750    2.999   74.647    0.379    0.327
  337.000    3.063   77.922    0.390    0.327
  337.250    3.133   76.711    0.404    0.318
  337.500    3.212   72.651    0.417    0.310
  337.750    3.249   71.197    0.427    0.301
  338.000    3.287   72.714    0.434    0.297
  338.250    3.344   74.049    0.468    0.302
  338.500    3.371   73.566    0.445    0.310
  338.750    3.384   72.537    0.437    0.311
  339.000    3.392   71.325    0.445    0.305
  339.250    3.400   73.510    0.440    0.303
  339.500    3.401   75.815    0.433    0.305
  339.750    3.402   78.181    0.425    0.308
  340.000    3.417   79.456    0.418    0.317
  340.250    3.444   80.125    0.413    0.314
  340.500    3.510   80.308    0.410    0.304
  340.750    3.618   80.431    0.416    0.298
  341.000    3.673   80.553    0.416    0.293
  341.250    3.744   78.312    0.421    0.284
  341.500    3.795   82.012    0.430    0.272
  341.750    3.846   83.286    0.435    0.262
  342.000    3.899   83.531    0.425    0.231
  342.250    3.922   84.442    0.422    0.202
  342.500    3.975   88.202    0.454    0.225
  342.750    4.014   88.992    0.468    0.254
  343.000    4.053   86.205    0.453    0.271
  343.250    4.116   85.781    0.437    0.276
  343.500    4.164   88.390    0.423    0.261
  343.750    4.197   91.787    0.418    0.249
  344.000    4.230   95.487    0.416    0.244
  344.250    4.217   97.307    0.435    0.248
  344.500    4.234   99.371    0.450    0.251
  344.750    4.275  100.524    0.440    0.246
  345.000    4.325  100.101    0.439    0.242
  345.250    4.335   99.193    0.450    0.233
  345.500    4.362  100.165    0.466    0.243
  345.750    4.347  101.803    0.456    0.251
  346.000    4.325   99.925    0.454    0.252
  346.250    4.278   93.864    0.448    0.294
  346.500    4.225   86.832    0.440    0.312
  346.750    4.126   82.893    0.441    0.299
  347.000    4.037   81.196    0.441    0.292
  347.250    4.008   78.409    0.438    0.290
  347.500    3.988   76.834    0.430    0.290
  347.750    3.938   76.896    0.420    0.283
  348.000    3.896   75.564    0.408    0.283
  348.250    3.812   78.415    0.402    0.285
  348.500    3.736   81.084    0.409    0.281
  348.750    3.662   83.207    0.417    0.289
  349.000    3.597   80.905    0.421    0.296
  349.250    3.585   77.329    0.410    0.300
  349.500    3.600   72.541    0.413    0.294
  349.750    3.662   70.299    0.420    0.289
  350.000    3.867   74.848    0.416    0.284
  350.250    4.037   77.578    0.409    0.275
  350.500    4.223   81.036    0.416    0.277
  350.750    4.369   84.250    0.425    0.276
  351.000    4.420   88.132    0.415    0.267
  351.250    4.414   90.256    0.399    0.253
  351.500    4.359   91.470    0.407    0.237
  351.750    4.273   91.169    0.409    0.232
  352.000    4.149   90.927    0.404    0.240
  352.250    3.992   89.716    0.407    0.262
  352.500    3.848   86.201    0.409    0.262
  352.750    3.779   83.050    0.406    0.270
  353.000    3.718   81.718    0.403    0.279
  353.250    3.644   80.203    0.410    0.269
  353.500    3.545   79.235    0.419    0.267
  353.750    3.456   78.388    0.428    0.269
  354.000    3.374   78.207    0.423    0.254
  354.250    3.283   82.271    0.420    0.234
  354.500    3.218   87.305    0.432    0.209
  354.750    3.237   90.156    0.435    0.216
  355.000    3.312   91.612    0.419    0.249
  355.250    3.465   92.160    0.415    0.264
  355.500    3.611   95.375    0.441    0.218
  355.750    3.715   95.316    0.455    0.226
  356.000    3.887   92.103    0.454    0.221
  356.250    3.946   92.469    0.442    0.243
  356.500    3.992   94.532    0.437    0.241
  356.750    3.936   95.079    0.434    0.262
  357.000    3.864   94.050    0.421    0.263
  357.250    3.732   90.656    0.412    0.273
  357.500    3.618   86.716    0.422    0.285
  357.750    3.572   82.110    0.421    0.300
  358.000    3.468   82.354    0.420    0.309
  358.250    3.356   83.992    0.414    0.289
  358.500    3.265   80.781    0.410    0.274
  358.750    3.200   77.690    0.420    0.268
  359.000    3.178   75.630    0.435    0.292
  359.250    3.246   75.571    0.442    0.300
  359.500    3.357   75.997    0.443    0.310
  359.750    3.714   78.969    0.431    0.306
  360.000    3.892   82.063    0.419    0.298
  360.250    4.186   86.006    0.414    0.276
  360.500    4.363   88.432    0.425    0.255
  360.750    4.447   90.374    0.438    0.237
  361.000    4.458   90.678    0.452    0.225
  361.250    4.502   91.044    0.465    0.216
  361.500    4.545   92.440    0.471    0.228
  361.750    4.598   92.745    0.446    0.244
