~VERSION INFORMATION
 VERS.                 2.0:   CWLS LOG ASCII STANDARD -VERSION 2.0
 WRAP.                  NO:   ONE LINE PER DEPTH STEP
~WELL INFORMATION BLOCK
#MNEM.UNIT           DATA                    DESCRIPTION OF MNEMONIC
#---------    -------------------            -------------------------------
# Generated from Intellog Unique Number	CS_69_70/WELL/800
WELL.         AEC FISHER CRK                 : Well_name    - WELL
LOC .         00/06-19-069-04W4/0            : Location     - LOCATION
UWI .         00/06-19-069-04W4/0            : Uwi          - UNIQUE WELL ID
ENTR.         SP                             : Entered      - ENTERED BY
SRVC.         SCHLUMBERGER                   : Scn          - SERVICE COMPANY
STRT.M        300                            : top_depth    - START DEPTH
STOP.M        550                            : bot_depth    - STOP DEPTH
STEP.M        0.25                           : increment    - STEP LENGTH
 NULL. -999.2500:NULL Value
~CURVE INFORMATION BLOCK
#MNEM UNIT       ERCB CURVE CODE    CURVE DESCRIPTION
#-----------   ------------------   ----------------------------------
DEPT.M        00 001 00 00         : DEPTH        - DEPTH
ILD .OHMM     00 120 00 00         : RESD         - DEEP RESISTIVITY (DIL)
DPHI.V/V      00 890 00 00         : PHID         - DENSITY POROSITY (LIMESTONE)
NPHI.V/V      00 330 00 00         : PHIN         - NEUTRON POROSITY (LIMESTONE)
GR  .API      00 310 00 00         : GR           - GAMMA RAY
~PARAMETER INFORMATION
#MNEM.UNIT           DATA             DESCRIPTION OF MNEMONIC
#---------         -----------     ------------------------------
GL  .M        687.9                : gl           - GROUND LEVEL ELEVATION
EREF.M        691.6                : kb           - ELEVATION OF DEPTH REFERENCE
DATM.M        687.9                : datum        - DATUM ELEVATION
TDD .M        557                  : tdd          - TOTAL DEPTH DRILLER
RUN .         ONE                  : Run          - RUN NUMBER
ENG .         BILL                 : Engineer     - RECORDING ENGINEER
WIT .         JIM                  : Witness      - WITNESSED BY
MUD .         GEL                  : Mud_type     - MUD TYPE
MATR.         LIMESTONE            : Logunit      - NEUTRON MATRIX
TMAX.C        21                   : BHT          - MAXIMUM RECORDED TEMPERATURE
BHTD.M        5572                 : BHTDEP       - MAXIMUM RECORDED TEMPERATURE
MATR.         1                    : LOGUNIT      - NEUTRON MATRIX
RMT .C        25                   : MDTP         - TEMPERATURE OF MUD
NEUT.         1                    : NEUTRON      - NEUTRON TYPE
RESI.         0                    : RESIST       - RESISTIVITY TYPE
RMC .OHMM     0.25                 : RMC          - RESISTIVITY OF MUD CAKE
RMF .OHMM     0.25                 : RMF          - RESISTIVITY OF MUD FILTRATE
SUFT.C        15                   : SUFT         - SURFACE TEMPERATURE
~A  DEPTH     RESD     PHID     PHIN       GR
# ...
  517.500   24.810    0.047    0.301   83.295
  517.750   17.757    0.081    0.347   92.425
  518.000   11.635    0.167    0.365   97.477
  518.250   10.182    0.176    0.352   99.545
  518.500    9.147    0.165    0.345  103.074
  518.750    8.437    0.159    0.355  105.934
  519.000    8.034    0.160    0.364  107.759
  519.250    7.959    0.158    0.371  107.331
  519.500    7.913    0.157    0.375   99.842
  519.750    7.883    0.197    0.387   93.510
  520.000    9.736    0.215    0.359   88.847
  520.250   10.112    0.202    0.354   87.048
  520.500   10.404    0.200    0.364   82.114
  520.750   10.684    0.213    0.374   78.807
  521.000   10.951    0.205    0.358   78.638
  521.250   11.120    0.182    0.346   83.052
  521.500   11.165    0.160    0.333   87.106
  521.750   11.043    0.142    0.323   91.881
  522.000   10.882    0.174    0.343   95.755
  522.250   10.603    0.181    0.361   97.393
  522.500    9.970    0.180    0.373   98.067
  522.750    9.201    0.185    0.358   98.260
  523.000    8.651    0.186    0.345   93.387
  523.250    8.462    0.176    0.348   89.357
  523.500    8.385    0.169    0.335   91.902
  523.750    8.388    0.165    0.328   94.146
  524.000    8.407    0.163    0.340   92.708
  524.250    8.441    0.180    0.338   92.117
  524.500    8.475    0.191    0.345   91.827
  524.750    8.478    0.179    0.367   88.460
  525.000    8.674    0.193    0.380   83.043
  525.250    8.841    0.208    0.380   86.432
  525.500    9.130    0.219    0.361   88.011
  525.750    9.376    0.196    0.350   81.569
  526.000    9.539    0.189    0.348   75.188
  526.250   10.325    0.215    0.378   72.243
  526.500   11.259    0.243    0.397   70.686
  526.750   11.937    0.273    0.416   75.344
  527.000   12.444    0.272    0.429   73.966
  527.250   12.973    0.251    0.432   63.423
  527.500   13.626    0.264    0.412   53.481
  527.750   14.501    0.301    0.399   41.309
  528.000   15.173    0.332    0.388   48.441
  528.250   15.728    0.295    0.388   51.887
  528.500   15.942    0.296    0.408   48.038
  528.750   15.888    0.317    0.420   41.475
  529.000   15.686    0.330    0.398   48.183
  529.250   15.485    0.308    0.373   56.456
  529.500   15.004    0.296    0.365   61.836
  529.750   11.629    0.281    0.388   60.219
  530.000    8.681    0.283    0.410   54.380
  530.250    7.321    0.305    0.389   53.365
  530.500    6.071    0.285    0.372   60.253
  530.750    5.236    0.293    0.381   54.112
  531.000    4.769    0.317    0.399   46.163
  531.250    4.535    0.333    0.410   39.720
  531.500    4.502    0.324    0.397   38.826
  531.750    4.685    0.317    0.383   45.715
  532.000    4.847    0.312    0.366   52.300
  532.250    4.786    0.297    0.358   58.222
  532.500    4.628    0.278    0.363   61.129
  532.750    4.393    0.281    0.386   55.289
  533.000    4.046    0.307    0.402   48.064
  533.250    3.776    0.315    0.386   43.430
  533.500    3.498    0.327    0.401   43.079
  533.750    3.345    0.339    0.404   47.012
  534.000    3.211    0.336    0.380   49.134
  534.250    3.188    0.307    0.362   47.396
  534.500    3.189    0.308    0.366   38.903
  534.750    3.262    0.327    0.371   34.693
  535.000    3.344    0.320    0.355   38.927
  535.250    3.506    0.307    0.339   43.100
  535.500    3.654    0.310    0.338   48.237
  535.750    3.817    0.298    0.337   54.161
  536.000    4.039    0.271    0.341   59.178
  536.250    4.227    0.247    0.372   58.164
  536.500    4.308    0.254    0.369   53.771
  536.750    4.198    0.281    0.363   59.697
  537.000    4.067    0.265    0.365   61.273
  537.250    4.046    0.262    0.369   62.250
  537.500    4.093    0.271    0.373   62.382
  537.750    4.117    0.265    0.381   66.314
  538.000    4.111    0.248    0.391   68.557
  538.250    4.051    0.252    0.380   64.467
  538.500    3.933    0.264    0.382   60.135
  538.750    3.817    0.271    0.374   57.795
  539.000    3.685    0.251    0.362   60.280
  539.250    3.577    0.242    0.355   60.954
  539.500    3.525    0.240    0.386   50.532
  539.750    3.454    0.279    0.404   42.882
  540.000    3.397    0.310    0.399   37.525
  540.250    3.342    0.336    0.390   33.496
  540.500    3.318    0.336    0.382   39.539
  540.750    3.338    0.303    0.373   49.684
  541.000    3.460    0.258    0.367   59.347
  541.250    3.607    0.256    0.384   64.483
  541.500    3.676    0.279    0.401   55.448
  541.750    3.726    0.299    0.395   45.386
  542.000    3.693    0.313    0.384   37.737
  542.250    3.558    0.302    0.376   35.095
  542.500    3.333    0.292    0.388   40.656
  542.750    3.241    0.294    0.390   42.356
  543.000    3.188    0.303    0.377   34.164
  543.250    3.183    0.312    0.371   38.762
  543.500    3.202    0.319    0.387   39.977
  543.750    3.222    0.327    0.401   35.467
  544.000    3.228    0.343    0.403   31.376
  544.250    3.260    0.326    0.387   28.311
  544.500    3.298    0.325    0.378   38.998
  544.750    3.361    0.305    0.375   47.212
  545.000    3.446    0.276    0.369   49.998
  545.250    3.492    0.298    0.360   41.928
  545.500    3.553    0.324    0.355   35.606
  545.750    3.093    0.348    0.360   30.551
  546.000    2.909    0.352    0.373   30.261
  546.250    2.893    0.356    0.381   31.720
  546.500    3.131    0.316    0.388   37.342
  546.750    3.858    0.146    0.315   40.187
  547.000    5.113    0.010    0.230   41.705
  547.250    7.584   -0.012    0.202   39.123
  547.500   11.166   -0.017    0.187   37.326
  547.750   19.390   -0.016    0.183   36.978
  548.000   24.430   -0.003    0.181   37.349
  548.250   28.450    0.008    0.179   38.205
  548.500   29.769    0.012    0.179   38.879
  548.750   29.226    0.008    0.180   38.890
  549.000   27.223    0.006    0.180   36.671
  549.250   24.702    0.018    0.181   33.184
  549.500   23.754    0.028    0.185   30.179
  549.750   25.471    0.013    0.184   27.415
  550.000   28.248    0.007    0.180   26.583
