~VERSION INFORMATION
 VERS.                 2.0:   CWLS LOG ASCII STANDARD -VERSION 2.0
 WRAP.                  NO:   ONE LINE PER DEPTH STEP
~WELL INFORMATION BLOCK
#MNEM.UNIT           DATA                    DESCRIPTION OF MNEMONIC
#---------    -------------------            -------------------------------
# Generated from Intellog Unique Number	CS_77_79/WELL/3264
WELL.         NUMAC OIL & GAS LTD.           : Well_name    - WELL
LOC .         00/01-12-079-14W4/0            : Location     - LOCATION
UWI .         00/01-12-079-14W4/0            : Uwi          - UNIQUE WELL ID
ENTR.         JOETTE                         : Entered      - ENTERED BY
SRVC.         SCHLUMBERGER                   : Scn          - SERVICE COMPANY
DATE.         08/24/92                       : Date         - LOG DATE
STRT.M        280                            : top_depth    - START DEPTH
STOP.M        510                            : bot_depth    - STOP DEPTH
STEP.M        0.25                           : increment    - STEP LENGTH
 NULL. -999.2500:NULL Value
~CURVE INFORMATION BLOCK
#MNEM UNIT       ERCB CURVE CODE    CURVE DESCRIPTION
#-----------   ------------------   ----------------------------------
DEPT.M        00 001 00 00         : DEPTH        - DEPTH
ILD .OHMM     00 120 00 00         : RESD         - DEEP RESISTIVITY (DIL)
DPHI.V/V      00 890 00 00         : PHID         - DENSITY POROSITY (SANDSTONE)
NPHI.V/V      00 330 00 00         : PHIN         - NEUTRON POROSITY (SANDSTONE)
GR  .API      00 310 00 00         : GR           - GAMMA RAY
~PARAMETER INFORMATION
#MNEM.UNIT           DATA             DESCRIPTION OF MNEMONIC
#---------         -----------     ------------------------------
GL  .M        688.6                : gl           - GROUND LEVEL ELEVATION
EREF.M        692.05               : kb           - ELEVATION OF DEPTH REFERENCE
DATM.M        692.05               : datum        - DATUM ELEVATION
TDD .M        521                  : tdd          - TOTAL DEPTH DRILLER
RUN .         ONE                  : Run          - RUN NUMBER
ENG .         BILL                 : Engineer     - RECORDING ENGINEER
WIT .         JIM                  : Witness      - WITNESSED BY
MUD .         GEL                  : Mud_type     - MUD TYPE
MATR.         SANDSTONE            : Logunit      - NEUTRON MATRIX
TMAX.C        34                   : BHT          - MAXIMUM RECORDED TEMPERATURE
BHTD.M        521                  : BHTDEP       - MAXIMUM RECORDED TEMPERATURE
RMT .C        22.1                 : MDTP         - TEMPERATURE OF MUD
MUDD.KG/M     1070                 : MWT          - MUD DENSITY
NEUT.         1                    : NEUTRON      - NEUTRON TYPE
RESI.         0                    : RESIST       - RESISTIVITY TYPE
RM  .OHMM     3.4                  : RM           - RESISTIVITY OF MUD
RMC .OHMM     5.1                  : RMC          - RESISTIVITY OF MUD CAKE
RMF .OHMM     2.8                  : RMF          - RESISTIVITY OF MUD FILTRATE
SUFT.C        4                    : SUFT         - SURFACE TEMPERATURE
~A  DEPTH     RESD     PHID     PHIN       GR
# ...
  367.000   11.728    0.313    0.487   60.189
  367.250   11.742    0.314    0.489   60.245
  367.500   11.328    0.314    0.494   60.312
  367.750   11.128    0.304    0.495   60.346
  368.000   10.149    0.295    0.492   60.975
  368.250    9.431    0.290    0.491   64.662
  368.500    9.093    0.287    0.499   70.182
  368.750    8.134    0.285    0.507   72.655
  369.000    6.753    0.276    0.513   79.378
  369.250    5.300    0.265    0.519   83.672
  369.500    3.932    0.258    0.527  101.940
  369.750    3.144    0.252    0.543  105.627
  370.000    2.710    0.243    0.564   98.387
  370.250    2.426    0.228    0.573   93.576
  370.500    2.253    0.226    0.587   96.656
  370.750    2.174    0.226    0.599  108.235
  371.000    2.136    0.226    0.594  115.576
  371.250    2.098    0.230    0.582  114.418
  371.500    2.101    0.236    0.572  112.046
  371.750    2.064    0.243    0.570  110.854
  372.000    2.106    0.252    0.613  111.517
  372.250    2.189    0.254    0.608  111.562
  372.500    2.363    0.258    0.597  111.607
  372.750    2.598    0.261    0.587  111.652
  373.000    3.137    0.249    0.572  112.911
  373.250    3.932    0.238    0.547  105.660
  373.500    5.022    0.239    0.525   97.824
  373.750    6.916    0.247    0.501   97.262
  374.000    7.895    0.242    0.508   94.878
  374.250    8.680    0.239    0.513   99.768
  374.500    8.694    0.240    0.505  102.242
  374.750    8.543    0.241    0.498   99.251
  375.000    8.392    0.243    0.516   98.700
  375.250    7.799    0.241    0.535   97.520
  375.500    7.519    0.230    0.549   98.790
  375.750    6.985    0.219    0.549  100.645
  376.000    6.612    0.220    0.548  103.118
  376.250    6.030    0.222    0.551  105.602
  376.500    5.707    0.217    0.564  107.479
  376.750    5.401    0.213    0.561  107.524
  377.000    5.019    0.212    0.558  107.558
  377.250    4.930    0.216    0.555  106.400
  377.500    4.845    0.220    0.554  105.838
  377.750    4.761    0.223    0.554  107.097
  378.000    4.858    0.229    0.533  107.142
  378.250    5.048    0.235    0.521  105.972
  378.500    5.449    0.242    0.522  102.364
  378.750    5.994    0.236    0.523  101.813
  379.000    6.230    0.240    0.525  100.036
  379.250    6.474    0.262    0.524   95.213
  379.500    6.859    0.283    0.513   93.460
  379.750    7.129    0.286    0.501   93.482
  380.000    7.275    0.281    0.510   92.313
  380.250    7.420    0.287    0.510   89.929
  380.500    7.023    0.287    0.503   86.939
  380.750    6.522    0.298    0.499   83.353
  381.000    5.517    0.309    0.512   79.744
  381.250    4.496    0.269    0.543   79.182
  381.500    3.274    0.244    0.580  107.770
  381.750    2.668    0.243    0.599  116.314
  382.000    2.525    0.253    0.611  113.930
  382.250    2.435    0.263    0.621  111.547
  382.500    2.393    0.260    0.642  112.806
  382.750    2.223    0.256    0.661  115.908
  383.000    1.880    0.250    0.667  117.145
  383.250    1.448    0.240    0.667  120.248
  383.500    1.095    0.234    0.662  119.697
  383.750    0.649    0.228    0.653  118.505
  384.000    0.325    0.235    0.616  114.907
  384.250    0.302    0.246    0.584  111.310
  384.500    0.314    0.255    0.608  111.355
  384.750    0.365    0.260    0.618  114.446
  385.000    0.562    0.259    0.626  116.301
  385.250    0.834    0.251    0.630  115.739
  385.500    2.668    0.254    0.627  113.367
  385.750    2.878    0.251    0.620  112.804
  386.000    3.168    0.250    0.613  114.052
  386.250    3.291    0.253    0.604  117.144
  386.500    3.622    0.247    0.576  117.189
  386.750    3.762    0.237    0.527  113.591
  387.000    4.060    0.235    0.503  114.243
  387.250    4.380    0.231    0.498  110.634
  387.500    4.726    0.238    0.498  111.286
  387.750    5.102    0.260    0.499  116.199
  388.000    5.403    0.261    0.499  110.769
  388.250    5.835    0.257    0.495  102.326
  388.500    5.952    0.269    0.492  105.395
  388.750    6.423    0.308    0.493  105.440
  389.000    6.801    0.335    0.493  101.235
  389.250    7.067    0.331    0.493   90.960
  389.500    7.350    0.326    0.492   84.934
  389.750    7.355    0.315    0.494   80.123
  390.000    7.230    0.318    0.500   76.536
  390.250    7.102    0.320    0.501   75.367
  390.500    6.724    0.325    0.501   73.591
  390.750    6.606    0.323    0.502   73.636
  391.000    6.616    0.260    0.499   76.716
  391.250    6.624    0.257    0.476   79.807
  391.500    6.634    0.261    0.467   81.651
  391.750    6.764    0.273    0.503   87.171
  392.000    6.772    0.265    0.518   89.644
  392.250    6.913    0.256    0.526   87.867
  392.500    6.922    0.251    0.522   91.555
  392.750    6.931    0.251    0.509   94.039
  393.000    7.072    0.249    0.505   92.263
  393.250    7.077    0.246    0.505   91.701
  393.500    7.086    0.243    0.501   91.745
  393.750    7.094    0.242    0.484   91.779
  394.000    7.103    0.242    0.460   91.217
  394.250    7.112    0.243    0.462   91.869
  394.500    7.121    0.244    0.469   94.949
  394.750    7.130    0.247    0.477   99.254
  395.000    7.006    0.251    0.489  102.942
  395.250    7.017    0.254    0.482  101.165
  395.500    6.895    0.251    0.481  100.614
  395.750    6.904    0.249    0.486  100.648
  396.000    6.784    0.255    0.489  101.311
  396.250    6.671    0.263    0.482  102.570
  396.500    6.549    0.272    0.475  101.401
  396.750    6.435    0.272    0.496   98.399
  397.000    6.208    0.272    0.499   93.599
  397.250    5.988    0.269    0.494   91.811
  397.500    5.461    0.264    0.500   89.428
  397.750    5.263    0.258    0.514   85.842
  398.000    4.799    0.251    0.549   89.518
  398.250    4.458    0.247    0.579   91.991
  398.500    4.221    0.246    0.583   93.857
  398.750    4.148    0.247    0.571   97.555
  399.000    4.152    0.243    0.546  101.254
  399.250    4.740    0.242    0.543  103.716
  399.500    5.212    0.247    0.541  106.796
  399.750    5.735    0.250    0.519  105.627
  400.000    5.957    0.244    0.517  105.064
  400.250    6.194    0.241    0.512  102.074
  400.500    6.562    0.250    0.502   99.691
  400.750    6.690    0.267    0.483   97.307
  401.000    7.088    0.273    0.480   93.103
  401.250    7.231    0.274    0.479   88.302
  401.500    7.375    0.271    0.479   88.954
  401.750    7.251    0.268    0.498   92.034
  402.000    7.125    0.254    0.520   94.496
  402.250    6.747    0.241    0.527   98.195
  402.500    6.505    0.232    0.533  100.679
  402.750    6.155    0.228    0.541  102.534
  403.000    5.828    0.232    0.562  106.221
  403.250    5.620    0.233    0.570  108.087
  403.500    5.626    0.227    0.582  108.739
  403.750    5.741    0.224    0.589  108.188
  404.000    5.965    0.236    0.577  106.423
  404.250    6.439    0.237    0.550  105.838
  404.500    6.691    0.247    0.540  105.883
  404.750    6.691    0.258    0.529  110.178
  405.000    6.968    0.263    0.518  105.366
  405.250    6.977    0.253    0.486  102.376
  405.500    7.248    0.230    0.470   98.789
  405.750    7.679    0.231    0.457  100.644
  406.000    8.133    0.232    0.465  102.521
  406.250    8.781    0.228    0.466  105.613
  406.500    8.956    0.092    0.455  104.444
  406.750    8.967    0.095    0.402   92.325
  407.000    8.811    0.125    0.389   91.178
  407.250    8.343    0.177    0.434   93.640
  407.500    8.041    0.206    0.459   98.541
  407.750    7.470    0.223    0.468  104.050
  408.000    6.942    0.236    0.486  104.106
  408.250    6.819    0.241    0.482  101.722
  408.500    6.828    0.238    0.460  101.160
  408.750    7.099    0.232    0.455  102.419
  409.000    7.382    0.225    0.446  101.857
  409.250    7.673    0.237    0.445   98.248
  409.500    7.973    0.252    0.444   98.900
  409.750    8.285    0.258    0.436  106.837
  410.000    8.455    0.293    0.413  105.061
  410.250    8.625    0.286    0.411   97.821
