~VERSION INFORMATION
 VERS.                 2.0:   CWLS LOG ASCII STANDARD -VERSION 2.0
 WRAP.                  NO:   ONE LINE PER DEPTH STEP
~WELL INFORMATION BLOCK
#MNEM.UNIT           DATA                    DESCRIPTION OF MNEMONIC
#---------    -------------------            -------------------------------
# Generated from Intellog Unique Number	CS_77_79/WELL/3296
WELL.         ALLIED ROXANA MINERALS LTD.    : Well_name    - WELL
LOC .         00/07-11-078-17W4/0            : Location     - LOCATION
UWI .         00/07-11-078-17W4/0            : Uwi          - UNIQUE WELL ID
ENTR.         JOETTE                         : Entered      - ENTERED BY
SRVC.         SCHLUMBERGER                   : Scn          - SERVICE COMPANY
DATE.         08-24-92                       : Date         - LOG DATE
STRT.M        185.928                        : top_depth    - START DEPTH
STOP.M        377.928                        : bot_depth    - STOP DEPTH
STEP.M        0.25                           : increment    - STEP LENGTH
 NULL. -999.2500:NULL Value
~CURVE INFORMATION BLOCK
#MNEM UNIT       ERCB CURVE CODE    CURVE DESCRIPTION
#-----------   ------------------   ----------------------------------
DEPT.M        00 001 00 00         : DEPTH        - DEPTH
GR  .API      00 310 00 00         : GR           - GAMMA RAY
NPHI.V/V      00 330 00 00         : PHIN         - NEUTRON POROSITY (SANDSTONE)
ILD .OHMM     00 120 00 00         : RESD         - DEEP RESISTIVITY (DIL)
~PARAMETER INFORMATION
#MNEM.UNIT           DATA             DESCRIPTION OF MNEMONIC
#---------         -----------     ------------------------------
GL  .M        593.446              : gl           - GROUND LEVEL ELEVATION
EREF.M        596.494              : kb           - ELEVATION OF DEPTH REFERENCE
DATM.M        596.494              : datum        - DATUM ELEVATION
TDD .M        396.85               : tdd          - TOTAL DEPTH DRILLER
RUN .         ONE                  : Run          - RUN NUMBER
ENG .         BILL                 : Engineer     - RECORDING ENGINEER
WIT .         JIM                  : Witness      - WITNESSED BY
MUD .         GEL                  : Mud_type     - MUD TYPE
MATR.         SANDSTONE            : Logunit      - NEUTRON MATRIX
TMAX.C        24.4444              : BHT          - MAXIMUM RECORDED TEMPERATURE
BHTD.M        396.85               : BHTDEP       - MAXIMUM RECORDED TEMPERATURE
RMT .C        13.3333              : MDTP         - TEMPERATURE OF MUD
MUDD.KG/M     8700                 : MWT          - MUD DENSITY
NEUT.         1                    : NEUTRON      - NEUTRON TYPE
RESI.         0                    : RESIST       - RESISTIVITY TYPE
RM  .OHMM     3.82                 : RM           - RESISTIVITY OF MUD
RMC .OHMM     3.82                 : RMC          - RESISTIVITY OF MUD CAKE
RMF .OHMM     3.82                 : RMF          - RESISTIVITY OF MUD FILTRATE
SUFT.C        15                   : SUFT         - SURFACE TEMPERATURE
~A  DEPTH       GR     PHIN     RESD
# ...
  294.428   75.187    0.364    4.044
  294.678   75.844    0.365    4.055
  294.928   74.708    0.365    4.485
  295.178   72.998    0.365    5.102
  295.428   70.110    0.365    5.927
  295.678   63.692    0.360    6.750
  295.928   73.751    0.376    7.986
  296.178   79.719    0.386    8.397
  296.428   77.420    0.394    9.223
  296.678   75.121    0.399    9.847
  296.928   75.162    0.405   10.060
  297.178   79.925    0.409   10.288
  297.428   86.495    0.404   10.296
  297.678   85.934    0.407    9.918
  297.928   83.046    0.403    9.728
  298.178   78.394    0.408    8.939
  298.428   79.051    0.416    8.349
  298.678   81.446    0.408    8.158
  298.928   80.324    0.408    7.777
  299.178   78.614    0.414    7.591
  299.428   78.080    0.419    7.407
  299.678   77.547    0.420    7.419
  299.928   79.368    0.416    7.236
  300.178   80.025    0.412    7.254
  300.428   79.505    0.409    7.266
  300.678   78.397    0.412    7.292
  300.928   77.836    0.413    7.299
  301.178   80.833    0.415    7.318
  301.428   80.888    0.411    7.337
  301.678   81.546    0.404    7.157
  301.928   83.941    0.395    7.165
  302.178   86.952    0.388    7.183
  302.428   82.299    0.390    7.198
  302.678   84.134    0.393    7.217
  302.928   87.117    0.394    7.236
  303.178   86.598    0.393    7.456
  303.428   84.887    0.390    7.471
  303.678   81.986    0.382    7.688
  303.928   78.510    0.370    8.110
  304.178   82.685    0.343    8.734
  304.428   83.917    0.339    9.762
  304.678   81.645    0.334   10.786
  304.928   78.744    0.325   11.204
  305.178   74.091    0.321   10.614
  305.428   72.367    0.323    9.829
  305.678   67.140    0.326    9.437
  305.928   64.252    0.321    9.048
  306.178   64.896    0.318    8.664
  306.428   54.933    0.319    8.282
  306.678   50.882    0.321    8.092
  306.928   52.101    0.327    7.913
  307.178   50.404    0.327    7.924
  307.428   49.282    0.328    7.744
  307.678   50.514    0.334    7.756
  307.928   54.100    0.334    7.576
  308.178   55.920    0.336    7.584
  308.428   54.812    0.331    7.606
  308.678   53.677    0.327    7.423
  308.928   51.378    0.332    7.240
  309.178   50.270    0.333    7.248
  309.428   49.134    0.329    7.266
  309.678   48.614    0.331    7.079
  309.928   49.258    0.330    6.893
  310.178   47.547    0.327    6.915
  310.428   49.970    0.333    6.728
  310.678   53.556    0.335    6.747
  310.928   53.611    0.334    6.758
  311.178   52.489    0.329    6.781
  311.428   49.588    0.326    6.792
  311.678   54.351    0.332    7.020
  311.928   55.008    0.337    7.031
  312.178   53.900    0.335    7.252
  312.428   56.295    0.332    7.270
  312.678   55.776    0.322    7.487
  312.928   54.065    0.313    7.905
  313.178   52.355    0.308    8.324
  313.428   50.056    0.302    9.355
  313.678   47.771    0.289   10.585
  313.928   46.635    0.277   11.399
  314.178   49.619    0.249   12.831
  314.428   49.688    0.299   13.458
  314.678   47.977    0.316   12.468
  314.928   51.577    0.323   11.269
  315.178   53.972    0.330    9.468
  315.428   54.027    0.338    8.070
  315.678   48.786    0.331    6.874
  315.928   45.310    0.331    6.292
  316.178   46.542    0.336    6.105
  316.428   47.788    0.338    6.325
  316.678   46.077    0.337    6.336
  316.928   46.707    0.336    6.557
  317.178   57.957    0.334    6.572
  317.428   52.716    0.331    6.591
  317.678   48.665    0.338    6.606
  317.928   45.778    0.341    6.426
  318.178   43.479    0.342    6.445
  318.428   42.371    0.341    6.262
  318.678   42.412    0.341    6.273
  318.928   41.865    0.341    6.288
  319.178   42.522    0.341    6.109
  319.428   43.740    0.341    6.120
  319.678   44.986    0.339    5.941
  319.928   45.630    0.338    5.956
  320.178   46.862    0.343    5.971
  320.428   51.036    0.351    5.985
  320.678   50.503    0.348    6.004
  320.928   53.514    0.342    6.015
  321.178   51.201    0.336    6.236
  321.428   48.314    0.340    6.258
  321.678   46.603    0.346    6.270
  321.928   44.893    0.344    5.885
  322.178   49.081    0.338    5.907
  322.428   50.313    0.325    5.717
  322.678   48.028    0.312    5.735
  322.928   45.729    0.299    5.747
  323.178   45.182    0.281    5.769
  323.428   44.060    0.264    5.986
  323.678   38.230    0.242    5.997
  323.928   35.357    0.236    6.221
  324.178   40.120    0.228    6.236
  324.428   42.542    0.217    6.255
  324.678   43.172    0.220    6.266
  324.928   43.227    0.225    6.083
  325.178   44.473    0.230    5.698
  325.428   46.868    0.246    5.515
  325.678   52.233    0.304    5.332
  325.928   49.360    0.335    5.343
  326.178   48.210    0.353    5.765
  326.428   48.854    0.349    5.986
  326.678   55.410    0.347    6.401
  326.928   57.819    0.348    7.432
  327.178   57.874    0.350    8.250
  327.428   54.973    0.350    9.891
  327.678   52.674    0.345   10.709
  327.928   53.331    0.341   10.926
  328.178   51.621    0.341   11.356
  328.428   61.680    0.341   11.363
  328.678   59.395    0.340   10.975
  328.928   56.493    0.343    8.579
  329.178   54.195    0.358    8.385
  329.428   53.661    0.359    8.206
  329.678   56.659    0.355    8.221
  329.928   60.272    0.356    8.236
  330.178   60.902    0.365    8.658
  330.428   63.899    0.373    9.080
  330.678   69.264    0.376    9.293
  330.928   65.775    0.379    9.925
  331.178   67.595    0.379   10.134
  331.428   65.296    0.377   10.358
  331.678   62.409    0.373    9.970
  331.928   60.124    0.372    9.581
  332.178   61.342    0.372    9.398
  332.428   66.119    0.374    9.611
  332.678   68.528    0.380    9.630
  332.928   66.229    0.383    9.447
  333.178   62.165    0.387    9.058
  333.428   59.880    0.386    8.064
  333.678   65.217    0.385    6.872
  333.928   65.861    0.385    5.878
  334.178   63.576    0.384    5.490
  334.428   62.440    0.385    6.117
  334.678   62.509    0.389    6.334
  334.928   66.683    0.391    6.353
  335.178   71.446    0.398    5.968
  335.428   76.797    0.402    5.183
  335.678   83.928    0.403    4.989
  335.928   87.514    0.404    4.399
  336.178   88.171    0.404    3.808
  336.428   89.403    0.403    3.218
  336.678   89.458    0.398    2.231
  336.928   85.969    0.393    1.443
  337.178   84.272    0.387    0.853
  337.428   87.269    0.374    0.864
  337.678   86.148    0.342    0.883
  337.928   84.437    0.329    1.507
  338.178   88.612    0.324    2.736
  338.428   88.667    0.332    3.756
  338.678   85.779    0.333    7.003
  338.928   80.538    0.336    8.842
  339.178   73.531    0.325    9.660
  339.428   69.467    0.321    9.881
  339.678   78.951    0.337    9.697
  339.928   82.537    0.376    8.909
  340.178   80.239    0.382    8.113
  340.428   82.661    0.377    7.123
  340.678   85.659    0.374    6.331
  340.928   86.302    0.370    5.542
  341.178   83.415    0.363    4.952
  341.428   79.337    0.358    4.362
  341.678   72.918    0.351    4.586
  341.928   68.266    0.337    4.803
  342.178   68.909    0.324    5.221
  342.428   73.097    0.298    5.438
  342.678   76.095    0.284    5.666
  342.928   74.398    0.275    5.677
  343.178   74.439    0.335    5.490
  343.428   76.848    0.344    5.311
  343.678   76.917    0.352    5.117
  343.928   77.575    0.354    4.937
  344.178   78.779    0.353    4.747
  344.428   80.600    0.352    4.773
  344.678   81.270    0.349    4.784
  344.928   82.516    0.355    5.001
  345.178   83.721    0.368    5.016
  345.428   90.249    0.380    5.035
  345.678   91.495    0.386    5.050
  345.928   91.536    0.392    4.874
  346.178   99.255    0.396    4.881
  346.428   99.310    0.397    4.900
  346.678   92.304    0.393    5.330
  346.928   94.124    0.404    5.539
  347.178   91.825    0.413    6.563
  347.428   88.363    0.424    8.196
  347.678   86.050    0.430    9.425
  347.928   80.809    0.434   10.251
  348.178   74.979    0.437   10.266
  348.428   67.384    0.439    9.676
