~VERSION INFORMATION
 VERS.                 2.0:   CWLS LOG ASCII STANDARD -VERSION 2.0
 WRAP.                  NO:   ONE LINE PER DEPTH STEP
~WELL INFORMATION BLOCK
#MNEM.UNIT           DATA                    DESCRIPTION OF MNEMONIC
#---------    -------------------            -------------------------------
# Generated from Intellog Unique Number	CS_67_68/WELL/641
WELL.         AEC FISH CREEK                 : Well_name    - WELL
LOC .         00/05-29-068-07W4/0            : Location     - LOCATION
UWI .         00/05-29-068-07W4/0            : Uwi          - UNIQUE WELL ID
ENTR.         SP                             : Entered      - ENTERED BY
SRVC.         SCHLUMBERGER                   : Scn          - SERVICE COMPANY
STRT.M        290                            : top_depth    - START DEPTH
STOP.M        530                            : bot_depth    - STOP DEPTH
STEP.M        0.25                           : increment    - STEP LENGTH
 NULL. -999.2500:NULL Value
~CURVE INFORMATION BLOCK
#MNEM UNIT       ERCB CURVE CODE    CURVE DESCRIPTION
#-----------   ------------------   ----------------------------------
DEPT.M        00 001 00 00         : DEPTH        - DEPTH
ILD .OHMM     00 120 00 00         : RESD         - DEEP RESISTIVITY (DIL)
DPHI.V/V      00 890 00 00         : PHID         - DENSITY POROSITY (LIMESTONE)
NPHI.V/V      00 330 00 00         : PHIN         - NEUTRON POROSITY (LIMESTONE)
GR  .API      00 310 00 00         : GR           - GAMMA RAY
~PARAMETER INFORMATION
#MNEM.UNIT           DATA             DESCRIPTION OF MNEMONIC
#---------         -----------     ------------------------------
GL  .M        628.32               : gl           - GROUND LEVEL ELEVATION
EREF.M        631.9                : kb           - ELEVATION OF DEPTH REFERENCE
DATM.M        628.32               : datum        - DATUM ELEVATION
TDD .M        539                  : tdd          - TOTAL DEPTH DRILLER
RUN .         ONE                  : Run          - RUN NUMBER
ENG .         BILL                 : Engineer     - RECORDING ENGINEER
WIT .         JIM                  : Witness      - WITNESSED BY
MUD .         GEL                  : Mud_type     - MUD TYPE
MATR.         LIMESTONE            : Logunit      - NEUTRON MATRIX
TMAX.C        23                   : BHT          - MAXIMUM RECORDED TEMPERATURE
BHTD.M        539                  : BHTDEP       - MAXIMUM RECORDED TEMPERATURE
MATR.         1                    : LOGUNIT      - NEUTRON MATRIX
RMT .C        25                   : MDTP         - TEMPERATURE OF MUD
NEUT.         1                    : NEUTRON      - NEUTRON TYPE
RESI.         0                    : RESIST       - RESISTIVITY TYPE
RMC .OHMM     0.25                 : RMC          - RESISTIVITY OF MUD CAKE
RMF .OHMM     0.25                 : RMF          - RESISTIVITY OF MUD FILTRATE
SUFT.C        15                   : SUFT         - SURFACE TEMPERATURE
~A  DEPTH     RESD     PHID     PHIN       GR
# ...
  464.000    9.921    0.245    0.367   82.200
  464.250   10.347    0.228    0.354   86.162
  464.500   10.630    0.212    0.348   94.687
  464.750   10.537    0.197    0.348   92.115
  465.000    9.964    0.208    0.348   86.463
  465.250    9.300    0.222    0.349   82.353
  465.500    8.946    0.235    0.349   79.904
  465.750    8.884    0.245    0.350   78.691
  466.000    9.093    0.238    0.358   84.315
  466.250    9.394    0.244    0.370   88.587
  466.500    9.598    0.247    0.380   85.769
  466.750    9.657    0.236    0.365   87.081
  467.000    9.646    0.227    0.354   86.976
  467.250    9.579    0.219    0.351   81.388
  467.500    9.424    0.218    0.347   82.883
  467.750    9.290    0.222    0.350   84.566
  468.000    9.053    0.237    0.377   83.042
  468.250    8.907    0.244    0.368   81.151
  468.500    8.763    0.215    0.362   90.844
  468.750    8.639    0.196    0.368   98.873
  469.000    8.564    0.185    0.376   98.830
  469.250    8.522    0.192    0.370   93.980
  469.500    8.432    0.196    0.365   99.361
  469.750    8.389    0.204    0.367  103.506
  470.000    8.392    0.217    0.365   98.226
  470.250    8.351    0.213    0.358   94.791
  470.500    8.308    0.200    0.351   95.425
  470.750    8.189    0.186    0.346   97.847
  471.000    8.042    0.180    0.341   91.702
  471.250    7.896    0.204    0.334   82.479
  471.500    7.668    0.222    0.341   79.967
  471.750    7.431    0.235    0.356   79.369
  472.000    7.228    0.231    0.363   82.779
  472.250    7.005    0.225    0.359   85.447
  472.500    6.779    0.225    0.352   86.017
  472.750    6.731    0.223    0.348   78.025
  473.000    6.696    0.218    0.353   73.297
  473.250    6.663    0.220    0.355   79.048
  473.500    6.617    0.208    0.353   86.521
  473.750    6.572    0.200    0.356   93.626
  474.000    6.502    0.214    0.373   99.501
  474.250    6.325    0.235    0.391  104.386
  474.500    6.176    0.248    0.408  109.336
  474.750    5.919    0.269    0.424   88.152
  475.000    5.725    0.282    0.400   58.404
  475.250    5.610    0.298    0.378   47.514
  475.500    5.469    0.290    0.366   54.495
  475.750    5.430    0.293    0.368   51.123
  476.000    5.475    0.279    0.356   55.826
  476.250    5.583    0.265    0.361   77.661
  476.500    5.822    0.254    0.371   94.134
  476.750    6.027    0.248    0.365  103.765
  477.000    6.239    0.240    0.356  112.535
  477.250    6.397    0.225    0.361  120.133
  477.500    6.498    0.212    0.374  126.623
  477.750    6.552    0.207    0.378  129.105
  478.000    6.808    0.210    0.363  127.213
  478.250    7.086    0.201    0.350  122.917
  478.500    7.349    0.159    0.343  123.306
  478.750    7.564    0.125    0.344  127.206
  479.000    7.655    0.134    0.353  130.243
  479.250    7.616    0.164    0.360  133.161
  479.500    7.521    0.178    0.358  134.718
  479.750    7.385    0.185    0.352  130.421
  480.000    7.252    0.188    0.359  127.357
  480.250    7.355    0.191    0.371  126.389
  480.500    7.470    0.191    0.374  128.934
  480.750    7.602    0.198    0.375  127.843
  481.000    7.781    0.209    0.371  118.247
  481.250    7.919    0.218    0.368  120.791
  481.500    8.151    0.212    0.364  133.629
  481.750    8.777    0.202    0.360  141.350
  482.000    9.776    0.199    0.351  149.626
  482.250   10.890    0.210    0.324  144.097
  482.500   12.363    0.222    0.279  131.420
  482.750   13.980    0.233    0.224  127.556
  483.000   16.109    0.018    0.173  115.001
  483.250   18.148   -0.009    0.146   88.828
  483.500   17.822    0.001    0.145   56.059
  483.750   16.200    0.020    0.289   59.838
  484.000   13.817    0.061    0.318   86.848
  484.250   12.917    0.134    0.339  106.711
  484.500   11.481    0.171    0.351  119.364
  484.750   10.495    0.181    0.356  125.912
  485.000    9.778    0.198    0.360  122.849
  485.250    9.334    0.221    0.364  112.329
  485.500    8.746    0.246    0.356  106.800
  485.750    8.475    0.210    0.346  102.935
  486.000    8.198    0.177    0.335  109.612
  486.250    7.977    0.158    0.329  122.939
  486.500    7.904    0.150    0.338  146.561
  486.750    7.762    0.146    0.352  152.249
  487.000    7.610    0.142    0.367  155.595
  487.250    7.613    0.156    0.382  145.568
  487.500    7.704    0.219    0.393  136.033
  487.750    8.005    0.240    0.383  119.349
  488.000    8.428    0.163    0.360   97.120
  488.250    8.890    0.135    0.349  120.187
  488.500    9.149    0.122    0.354  135.366
  488.750    9.294    0.140    0.355  124.968
  489.000    9.247    0.165    0.349  112.476
  489.250    9.184    0.192    0.337   98.074
  489.500    9.347    0.209    0.326   90.634
  489.750    9.639    0.193    0.312   84.859
  490.000    9.792    0.176    0.322   88.698
  490.250    9.853    0.178    0.334   98.146
  490.500    9.914    0.194    0.348   93.420
  490.750    9.996    0.205    0.360   90.539
  491.000    9.927    0.209    0.351   90.436
  491.250    9.804    0.210    0.339   91.007
  491.500    9.754    0.210    0.332   93.181
  491.750    9.670    0.212    0.332   92.893
  492.000    9.602    0.195    0.335   97.780
  492.250    9.555    0.179    0.346  104.515
  492.500    9.471    0.183    0.351  105.518
  492.750    9.371    0.196    0.350   96.786
  493.000    9.254    0.186    0.347   90.949
  493.250    9.158    0.161    0.341   99.471
  493.500    9.162    0.145    0.335  121.430
  493.750    9.167    0.136    0.344  133.094
  494.000    9.106    0.153    0.352  142.233
  494.250    9.059    0.171    0.359  126.167
  494.500    8.946    0.194    0.354  109.052
  494.750    8.736    0.194    0.342   96.560
  495.000    8.530    0.174    0.336   94.917
  495.250    8.159    0.165    0.341   93.023
  495.500    7.803    0.179    0.348   90.204
  495.750    7.379    0.213    0.351   92.995
  496.000    6.952    0.242    0.351   97.635
  496.250    6.588    0.257    0.354  102.215
  496.500    6.348    0.263    0.360  105.437
  496.750    6.175    0.271    0.361   91.344
  497.000    5.974    0.288    0.355   85.875
  497.250    5.810    0.279    0.349   92.243
  497.500    5.633    0.274    0.350   96.696
  497.750    5.561    0.272    0.369   88.888
  498.000    5.450    0.279    0.392   79.599
  498.250    5.393    0.296    0.374   72.777
  498.500    5.326    0.297    0.355   72.672
  498.750    5.279    0.292    0.361   81.318
  499.000    5.165    0.290    0.378   82.076
  499.250    4.850    0.304    0.388   73.284
  499.500    4.752    0.315    0.401   75.086
  499.750    4.657    0.323    0.414   85.211
  500.000    4.472    0.333    0.412   84.182
  500.250    4.357    0.332    0.389   66.080
  500.500    4.223    0.313    0.379   50.568
  500.750    4.092    0.299    0.403   48.493
  501.000    3.951    0.307    0.405   56.398
  501.250    3.865    0.318    0.393   49.329
  501.500    3.796    0.325    0.373   41.335
  501.750    3.777    0.329    0.368   40.058
  502.000    3.744    0.332    0.370   37.305
  502.250    3.718    0.335    0.370   34.425
  502.500    3.707    0.332    0.372   33.582
  502.750    3.681    0.335    0.386   33.845
  503.000    3.670    0.347    0.396   32.815
  503.250    3.665    0.334    0.399   35.053
  503.500    3.647    0.324    0.395   34.268
  503.750    3.635    0.320    0.378   25.166
  504.000    3.617    0.322    0.364   23.520
  504.250    3.619    0.323    0.362   24.340
  504.500    3.615    0.320    0.367   24.912
  504.750    3.624    0.318    0.372   36.515
  505.000    3.647    0.317    0.377   39.677
  505.250    3.656    0.351    0.385   31.746
  505.500    3.672    0.360    0.397   30.776
  505.750    3.667    0.362    0.397   32.829
  506.000    3.642    0.355    0.394   36.977
  506.250    3.604    0.349    0.393   35.453
  506.500    3.572    0.343    0.393   33.502
  506.750    3.541    0.340    0.399   31.177
  507.000    3.497    0.338    0.395   29.038
  507.250    3.473    0.340    0.388   28.316
