~VERSION INFORMATION
 VERS.                 2.0:   CWLS LOG ASCII STANDARD -VERSION 2.0
 WRAP.                  NO:   ONE LINE PER DEPTH STEP
~WELL INFORMATION BLOCK
#MNEM.UNIT           DATA                    DESCRIPTION OF MNEMONIC
#---------    -------------------            -------------------------------
# Generated from Intellog Unique Number	CS_69_70/WELL/785
WELL.         HUSKY OIL OPERATIONS           : Well_name    - WELL
LOC .         00/06-32-069-04W4/0            : Location     - LOCATION
UWI .         00/06-32-069-04W4/0            : Uwi          - UNIQUE WELL ID
ENTR.         SP                             : Entered      - ENTERED BY
SRVC.         SCHLUMBERGER                   : Scn          - SERVICE COMPANY
STRT.M        310                            : top_depth    - START DEPTH
STOP.M        540                            : bot_depth    - STOP DEPTH
STEP.M        0.25                           : increment    - STEP LENGTH
 NULL. -999.2500:NULL Value
~CURVE INFORMATION BLOCK
#MNEM UNIT       ERCB CURVE CODE    CURVE DESCRIPTION
#-----------   ------------------   ----------------------------------
DEPT.M        00 001 00 00         : DEPTH        - DEPTH
ILD .OHMM     00 120 00 00         : RESD         - DEEP RESISTIVITY (DIL)
DPHI.V/V      00 890 00 00         : PHID         - DENSITY POROSITY (LIMESTONE)
NPHI.V/V      00 330 00 00         : PHIN         - NEUTRON POROSITY (LIMESTONE)
GR  .API      00 310 00 00         : GR           - GAMMA RAY
~PARAMETER INFORMATION
#MNEM.UNIT           DATA             DESCRIPTION OF MNEMONIC
#---------         -----------     ------------------------------
GL  .M        685.9                : gl           - GROUND LEVEL ELEVATION
EREF.M        689.6                : kb           - ELEVATION OF DEPTH REFERENCE
DATM.M        685.9                : datum        - DATUM ELEVATION
TDD .M        547                  : tdd          - TOTAL DEPTH DRILLER
RUN .         ONE                  : Run          - RUN NUMBER
ENG .         BILL                 : Engineer     - RECORDING ENGINEER
WIT .         JIM                  : Witness      - WITNESSED BY
MUD .         GEL                  : Mud_type     - MUD TYPE
MATR.         LIMESTONE            : Logunit      - NEUTRON MATRIX
TMAX.C        22                   : BHT          - MAXIMUM RECORDED TEMPERATURE
BHTD.M        547                  : BHTDEP       - MAXIMUM RECORDED TEMPERATURE
MATR.         1                    : LOGUNIT      - NEUTRON MATRIX
RMT .C        25                   : MDTP         - TEMPERATURE OF MUD
NEUT.         1                    : NEUTRON      - NEUTRON TYPE
RESI.         0                    : RESIST       - RESISTIVITY TYPE
RMC .OHMM     0.25                 : RMC          - RESISTIVITY OF MUD CAKE
RMF .OHMM     0.25                 : RMF          - RESISTIVITY OF MUD FILTRATE
SUFT.C        15                   : SUFT         - SURFACE TEMPERATURE
~A  DEPTH     RESD     PHID     PHIN       GR
# ...
  484.000    8.280    0.282    0.447   81.931
  484.250    8.206    0.266    0.434   79.637
  484.500    8.056    0.255    0.390   77.767
  484.750    7.998    0.252    0.363   76.381
  485.000    8.001    0.243    0.372   75.784
  485.250    8.004    0.234    0.378   76.702
  485.500    8.111    0.229    0.369   79.435
  485.750    8.252    0.225    0.361   76.233
  486.000    8.474    0.241    0.380   64.852
  486.250    9.574    0.276    0.387   49.957
  486.500   12.875    0.295    0.377   33.305
  486.750   17.314    0.312    0.364   38.100
  487.000   19.127    0.308    0.355   48.285
  487.250   19.863    0.268    0.367   60.048
  487.500   17.891    0.233    0.380   68.839
  487.750   14.055    0.224    0.393   76.481
  488.000   11.746    0.224    0.383   74.611
  488.250   10.344    0.231    0.373   69.349
  488.500    9.565    0.238    0.380   62.935
  488.750   10.746    0.251    0.384   52.766
  489.000   14.210    0.283    0.376   45.747
  489.250   20.907    0.303    0.386   45.877
  489.500   28.809    0.343    0.411   53.579
  489.750   35.345    0.365    0.423   58.373
  490.000   37.470    0.361    0.408   62.381
  490.250   32.326    0.351    0.394   64.690
  490.500   25.538    0.337    0.396   67.121
  490.750   19.913    0.325    0.409   71.008
  491.000   16.211    0.318    0.416   74.226
  491.250   13.674    0.309    0.423   77.991
  491.500   11.798    0.292    0.402   81.452
  491.750   10.312    0.274    0.382   82.007
  492.000    9.323    0.263    0.369   73.048
  492.250    8.381    0.256    0.379   64.999
  492.500    7.649    0.248    0.344   58.888
  492.750    7.810    0.241    0.319   66.469
  493.000    7.991    0.235    0.343   77.079
  493.250    8.160    0.229    0.362   83.570
  493.500    8.301    0.225    0.372   88.788
  493.750    8.445    0.236    0.372   70.743
  494.000    8.607    0.266    0.378   56.879
  494.250    8.723    0.299    0.385   49.374
  494.500    9.618    0.311    0.386   48.960
  494.750   15.396    0.311    0.385   56.600
  495.000   24.142    0.310    0.394   64.666
  495.250   28.477    0.308    0.376   57.889
  495.500   24.113    0.298    0.358   52.687
  495.750   21.718    0.287    0.346   57.300
  496.000   20.422    0.279    0.372   57.429
  496.250   20.429    0.300    0.391   47.079
  496.500   20.244    0.328    0.403   50.117
  496.750   20.441    0.320    0.393   53.638
  497.000   21.109    0.311    0.409   56.432
  497.250   21.236    0.315    0.416   55.290
  497.500   21.045    0.321    0.409   53.844
  497.750   20.737    0.324    0.407   53.975
  498.000   20.056    0.328    0.406   55.073
  498.250   19.180    0.332    0.400   56.413
  498.500   18.830    0.321    0.395   58.845
  498.750   19.121    0.312    0.396   60.489
  499.000   19.561    0.325    0.411   48.866
  499.250   21.208    0.340    0.425   37.666
  499.500   24.461    0.348    0.409   29.617
  499.750   26.719    0.353    0.392   34.230
  500.000   28.325    0.341    0.373   40.962
  500.250   23.407    0.326    0.353   47.635
  500.500   16.403    0.310    0.338   53.762
  500.750   12.742    0.296    0.334   58.920
  501.000   10.668    0.280    0.349   62.866
  501.250    8.966    0.273    0.358   60.572
  501.500    8.182    0.268    0.359   64.640
  501.750    7.795    0.259    0.351   67.193
  502.000    7.639    0.248    0.345   70.230
  502.250    7.528    0.234    0.345   74.237
  502.500    7.418    0.225    0.356   77.759
  502.750    7.242    0.236    0.361   78.373
  503.000    7.110    0.282    0.363   72.686
  503.250    6.941    0.295    0.381   67.666
  503.500    6.763    0.301    0.393   70.704
  503.750    6.791    0.298    0.397   73.559
  504.000    6.857    0.298    0.409   73.931
  504.250    6.936    0.307    0.424   71.759
  504.500    7.150    0.309    0.430   72.737
  504.750    7.608    0.305    0.420   74.926
  505.000    7.783    0.301    0.414   77.902
  505.250    7.829    0.294    0.410   81.181
  505.500    7.432    0.285    0.410   83.552
  505.750    6.962    0.273    0.412   85.258
  506.000    6.584    0.262    0.395   81.086
  506.250    6.464    0.254    0.400   72.249
  506.500    6.840    0.294    0.403   69.288
  506.750    8.159    0.316    0.381   75.294
  507.000    9.064    0.282    0.366   81.846
  507.250    9.169    0.237    0.370   88.094
  507.500    8.736    0.217    0.388   93.615
  507.750    8.169    0.200    0.399   98.349
  508.000    7.358    0.206    0.400   98.902
  508.250    6.715    0.205    0.376   92.610
  508.500    6.433    0.201    0.380   83.713
  508.750    6.257    0.228    0.386   75.422
  509.000    6.098    0.248    0.367   69.795
  509.250    5.997    0.271    0.351   89.735
  509.500    5.844    0.257    0.402  102.587
  509.750    5.652    0.235    0.506  111.925
  510.000    5.559    0.216    0.537  115.932
  510.250    5.561    0.202    0.490  116.182
  510.500    5.710    0.194    0.443  103.589
  510.750    5.941    0.242    0.481   84.817
  511.000    6.394    0.273    0.481   75.738
  511.250    6.855    0.285    0.423   66.175
  511.500    7.158    0.269    0.363   69.274
  511.750    7.434    0.251    0.344   79.338
  512.000    7.706    0.233    0.331   89.827
  512.250    7.913    0.211    0.346   92.864
  512.500    8.111    0.190    0.358   87.844
  512.750    8.313    0.172    0.347   90.882
  513.000    8.409    0.157    0.344   94.525
  513.250    8.444    0.145    0.359   95.502
  513.500    8.336    0.143    0.363   97.026
  513.750    8.077    0.152    0.351   99.821
  514.000    8.035    0.156    0.379  102.433
  514.250    8.376    0.181    0.412   78.451
  514.500    8.912    0.222    0.431   63.315
  514.750   10.222    0.276    0.420   55.386
  515.000   11.833    0.319    0.392   57.212
  515.250   12.662    0.312    0.365   70.427
  515.500   12.524    0.283    0.363   76.554
  515.750   11.537    0.262    0.368   81.772
  516.000    7.686    0.252    0.370   91.475
  516.250    5.478    0.267    0.372  106.446
  516.500    4.870    0.279    0.549  112.392
  516.750    4.808    0.275    0.568  104.766
  517.000    5.545    0.256    0.571   78.724
  517.250    6.300    0.237    0.476   65.526
  517.500    7.145    0.244    0.420   59.718
  517.750    8.057    0.270    0.391   63.241
  518.000    8.769    0.281    0.380   71.246
  518.250    9.089    0.263    0.378   81.614
  518.500    8.990    0.235    0.372   92.648
  518.750    8.518    0.208    0.366   99.320
  519.000    8.192    0.197    0.354   98.783
  519.250    8.603    0.191    0.341   91.097
  519.500    9.363    0.199    0.354   85.956
  519.750   10.304    0.217    0.391   80.573
  520.000   11.341    0.227    0.417   71.918
  520.250   12.158    0.208    0.429   60.173
  520.500   12.721    0.034    0.307   62.665
  520.750   13.285   -0.013    0.276   73.457
  521.000   13.797    0.165    0.314   81.765
  521.250   14.089    0.213    0.336   83.833
  521.500   14.067    0.257    0.353   78.572
  521.750   14.018    0.279    0.369   72.158
  522.000   14.049    0.289    0.380   68.712
  522.250   15.033    0.295    0.382   68.600
  522.500   16.577    0.302    0.375   68.549
  522.750   17.973    0.310    0.369   67.768
  523.000   19.558    0.319    0.386   55.115
  523.250   22.057    0.328    0.397   52.033
  523.500   25.343    0.334    0.403   49.437
  523.750   30.517    0.338    0.407   66.347
  524.000   34.414    0.340    0.401   74.595
  524.250   37.451    0.337    0.371   77.632
  524.500   34.759    0.324    0.352   78.004
  524.750   18.323    0.287    0.332   75.650
  525.000    9.981    0.265    0.347   75.095
  525.250    8.651    0.250    0.350   77.490
  525.500    8.331    0.241    0.362   79.578
  525.750    8.915    0.251    0.382   81.795
  526.000    9.611    0.263    0.399   72.543
  526.250   10.096    0.271    0.377   60.562
  526.500   10.131    0.246    0.311   66.902
  526.750    9.415    0.222    0.274   74.026
  527.000    8.603    0.216    0.323   84.372
  527.250    7.688    0.232    0.366   87.249
