~VERSION INFORMATION
 VERS.                 2.0:   CWLS LOG ASCII STANDARD -VERSION 2.0
 WRAP.                  NO:   ONE LINE PER DEPTH STEP
~WELL INFORMATION BLOCK
#MNEM.UNIT           DATA                    DESCRIPTION OF MNEMONIC
#---------    -------------------            -------------------------------
# Generated from Intellog Unique Number	CX_WELLS/WELL/3997
WELL.         BRALORNE                       : Well_name    - WELL
LOC .         00/06-23-077-15W4/0            : Location     - LOCATION
UWI .         00/06-23-077-15W4/0            : Uwi          - UNIQUE WELL ID
ENTR.         T                              : Entered      - ENTERED BY
SRVC.         SCHLUMBERGER                   : Scn          - SERVICE COMPANY
DATE.         03/04/92                       : Date         - LOG DATE
STRT.M        275                            : top_depth    - START DEPTH
STOP.M        515                            : bot_depth    - STOP DEPTH
STEP.M        0.25                           : increment    - STEP LENGTH
 NULL. -999.2500:NULL Value
~CURVE INFORMATION BLOCK
#MNEM UNIT       ERCB CURVE CODE    CURVE DESCRIPTION
#-----------   ------------------   ----------------------------------
DEPT.M        00 001 00 00         : DEPTH        - DEPTH
GR  .API      00 310 00 00         : GR           - GAMMA RAY
NPHI.V/V      00 330 00 00         : PHIN         - NEUTRON POROSITY (SANDSTONE)
DPHI.V/V      00 890 00 00         : PHID         - DENSITY POROSITY (SANDSTONE)
ILD .OHMM     00 120 00 00         : RESD         - DEEP RESISTIVITY (DIL)
~PARAMETER INFORMATION
#MNEM.UNIT           DATA             DESCRIPTION OF MNEMONIC
#---------         -----------     ------------------------------
GL  .M        673                  : gl           - GROUND LEVEL ELEVATION
EREF.M        676.9                : kb           - ELEVATION OF DEPTH REFERENCE
DATM.M        676.9                : datum        - DATUM ELEVATION
TDD .M        520                  : tdd          - TOTAL DEPTH DRILLER
RUN .         ONE                  : Run          - RUN NUMBER
ENG .         JO                   : Engineer     - RECORDING ENGINEER
WIT .         TIM                  : Witness      - WITNESSED BY
MUD .         GEL                  : Mud_type     - MUD TYPE
MATR.         SANDSTONE            : Logunit      - NEUTRON MATRIX
TMAX.C        21                   : BHT          - MAXIMUM RECORDED TEMPERATURE
BHTD.M        520                  : BHTDEP       - MAXIMUM RECORDED TEMPERATURE
RMT .C        18                   : MDTP         - TEMPERATURE OF MUD
MUDD.KG/M     1                    : MWT          - MUD DENSITY
NEUT.         1                    : NEUTRON      - NEUTRON TYPE
RESI.         0                    : RESIST       - RESISTIVITY TYPE
RM  .OHMM     4                    : RM           - RESISTIVITY OF MUD
RMC .OHMM     3.8                  : RMC          - RESISTIVITY OF MUD CAKE
RMF .OHMM     4.1                  : RMF          - RESISTIVITY OF MUD FILTRATE
SUFT.C        4                    : SUFT         - SURFACE TEMPERATURE
~A  DEPTH       GR     PHIN     PHID     RESD
  275.000   99.907    0.401    0.232    3.266
  275.250   98.055    0.398    0.226    3.332
  275.500   94.352    0.398    0.217    3.531
  275.750   91.896    0.396    0.223    3.535
  276.000   89.451    0.391    0.233    3.607
  276.250   88.867    0.381    0.232    3.550
  276.500   89.532    0.379    0.226    3.430
  276.750   90.831    0.380    0.232    3.374
  277.000   91.496    0.386    0.241    3.319
  277.250   92.151    0.394    0.249    3.326
  277.500   93.440    0.407    0.244    3.213
  277.750   95.353    0.423    0.240    3.050
  278.000   94.145    0.435    0.239    3.056
  278.250   89.828    0.450    0.243    3.009
  278.500   86.738    0.460    0.252    2.904
  278.750   81.796    0.450    0.252    2.755
  279.000   81.203    0.440    0.241    2.761
  279.250   83.740    0.434    0.238    2.817
  279.500   86.921    0.446    0.239    2.876
  279.750   88.845    0.465    0.237    2.991
  280.000   88.865    0.457    0.235    3.051
  280.250   85.796    0.446    0.232    3.111
  280.500   87.084    0.439    0.235    3.175
  280.750   87.749    0.437    0.241    3.183
  281.000   88.404    0.436    0.244    3.187
  281.250   89.693    0.431    0.229    3.136
  281.500   92.251    0.428    0.223    3.087
  281.750   91.657    0.423    0.222    3.039
  282.000   86.705    0.418    0.227    2.987
  282.250   84.260    0.417    0.233    2.993
  282.500   84.300    0.413    0.238    2.948
  282.750   84.341    0.423    0.237    2.952
  283.000   85.006    0.440    0.233    2.958
  283.250   85.671    0.436    0.232    3.020
  283.500   85.701    0.428    0.232    3.080
  283.750   85.742    0.426    0.222    3.202
  284.000   85.783    0.427    0.219    3.267
  284.250   85.824    0.429    0.223    3.332
  284.500   85.895    0.426    0.224    3.462
  284.750   85.926    0.413    0.224    3.471
  285.000   87.215    0.411    0.224    3.478
  285.250   88.494    0.409    0.222    3.547
  285.500   90.407    0.402    0.222    3.689
  285.750   90.458    0.397    0.228    3.764
  286.000   89.874    0.401    0.214    3.772
  286.250   89.915    0.413    0.222    3.849
  286.500   90.580    0.408    0.237    3.854
  286.750   91.245    0.398    0.239    3.933
  287.000   93.792    0.400    0.229    3.941
  287.250   96.329    0.417    0.221    3.951
  287.500   98.243    0.431    0.216    3.887
  287.750   98.907    0.452    0.211    3.893
  288.000   98.314    0.423    0.205    3.974
  288.250   95.858    0.413    0.214    3.912
  288.500   92.154    0.407    0.220    3.847
  288.750   91.571    0.407    0.227    3.787
  289.000   94.743    0.414    0.233    3.865
  289.250   91.663    0.417    0.232    3.945
  289.500   87.959    0.410    0.220    4.024
  289.750   84.879    0.407    0.211    4.108
  290.000   89.913    0.402    0.210    4.112
  290.250   95.571    0.397    0.201    4.195
  290.500  102.476    0.393    0.160    4.134
  290.750  104.400    0.389    0.116    4.066
  291.000  104.441    0.384    0.143    4.070
  291.250  104.481    0.379    0.176    4.004
  291.500  105.146    0.347    0.212    3.942
  291.750  105.187    0.349    0.207    4.024
  292.000  103.980    0.360    0.208    4.106
  292.250  101.534    0.380    0.219    4.343
  292.500   99.703    0.399    0.227    5.222
  292.750   98.485    0.403    0.228    5.728
  293.000   95.415    0.378    0.220    6.888
  293.250   92.326    0.355    0.243    8.278
  293.500   86.125    0.344    0.277   10.902
  293.750   79.301    0.346    0.264   13.351
  294.000   72.477    0.344    0.235   13.384
  294.250   68.773    0.345    0.227   13.162
  294.500   71.944    0.346    0.191   12.944
  294.750   72.609    0.347    0.179   12.287
  295.000   73.898    0.349    0.199   11.235
  295.250   76.435    0.349    0.207    9.911
  295.500   80.231    0.344    0.203    8.748
  295.750   82.778    0.339    0.203    8.146
  296.000   84.671    0.338    0.204    7.729
  296.250   87.218    0.339    0.205    7.471
  296.500   88.507    0.345    0.205    7.351
  296.750   88.548    0.359    0.204    7.638
  297.000   87.975    0.372    0.207    7.933
  297.250   86.757    0.382    0.216    9.033
  297.500   83.064    0.367    0.221   10.095
  297.750   79.974    0.347    0.230   13.288
  298.000   74.398    0.346    0.243   13.314
  298.250   68.822    0.348    0.254   13.100
  298.500   64.483    0.343    0.210   12.889
  298.750   59.531    0.341    0.173   13.400
  299.000   58.334    0.339    0.221   12.947
  299.250   54.641    0.337    0.261   12.509
  299.500   51.561    0.342    0.281   12.534
  299.750   49.095    0.351    0.297   12.332
  300.000   52.891    0.367    0.302   12.140
  300.250   57.914    0.375    0.276   12.170
  300.500   65.444    0.361    0.276   12.182
  300.750   77.353    0.346    0.291   12.206
  301.000   77.404    0.347    0.293   12.461
  301.250   76.186    0.344    0.288   12.486
  301.500   76.851    0.331    0.282   12.511
  301.750   80.023    0.331    0.278   12.772
  302.000   83.184    0.331    0.268   12.554
  302.250   85.731    0.331    0.260   12.598
  302.500   88.258    0.330    0.259   12.389
  302.750   90.806    0.328    0.268   12.414
  303.000   92.095    0.327    0.280   12.438
  303.250   93.384    0.327    0.280   12.469
  303.500   92.800    0.327    0.280   12.487
  303.750   89.731    0.328    0.277   12.065
  304.000   87.879    0.328    0.270   11.865
  304.250   84.185    0.329    0.258   11.674
  304.500   82.978    0.329    0.219   11.487
  304.750   83.008    0.329    0.200   11.098
  305.000   79.325    0.325    0.186   10.728
  305.250   78.107    0.321    0.174    9.464
  305.500   74.424    0.321    0.199    9.144
  305.750   73.206    0.323    0.215    9.158
  306.000   73.237    0.326    0.224    9.521
  306.250   73.288    0.327    0.278    9.710
  306.500   69.584    0.331    0.247    9.917
  306.750   69.625    0.335    0.212   10.120
  307.000   72.162    0.338    0.222    9.777
  307.250   72.192    0.334    0.248    9.447
  307.500   70.361    0.333    0.259    9.290
  307.750   69.778    0.330    0.235    8.346
  308.000   78.566    0.330    0.221    7.359
  308.250   86.720    0.334    0.180    6.614
  308.500   94.885    0.341    0.158    6.272
  308.750   99.918    0.362    0.139    5.638
  309.000  103.090    0.383    0.146    5.252
  309.250  105.627    0.395    0.172    4.983
  309.500  109.402    0.390    0.181    4.901
  309.750  113.187    0.387    0.187    4.735
  310.000  118.845    0.375    0.185    4.744
  310.250  121.403    0.371    0.155    4.844
  310.500  120.819    0.381    0.147    4.945
  310.750  118.353    0.404    0.127    4.952
  311.000  115.274    0.418    0.115    5.055
  311.250  109.708    0.430    0.158    4.710
  311.500  106.618    0.436    0.173    4.309
  311.750  122.271    0.446    0.200    4.238
  312.000  121.678    0.438    0.214    4.403
  312.250  114.229    0.412    0.212    4.745
  312.500  107.405    0.399    0.213    5.403
  312.750  103.701    0.358    0.221    6.265
  313.000  102.494    0.330    0.227    6.626
  313.250   98.166    0.328    0.231    7.544
  313.500   98.831    0.329    0.237    8.275
  313.750  104.499    0.329    0.221    9.257
  314.000  102.043    0.330    0.201    9.795
  314.250   97.715    0.332    0.215   10.178
  314.500   91.515    0.338    0.239    9.483
  314.750   85.304    0.347    0.247    8.675
  315.000   86.614    0.358    0.223    7.933
  315.250   89.765    0.371    0.205    7.527
  315.500   96.671    0.374    0.197    7.409
  315.750  104.201    0.342    0.197    7.703
  316.000  112.365    0.333    0.196    7.996
  316.250  118.023    0.341    0.198    8.617
  316.500  111.833    0.350    0.205    9.629
  316.750  106.871    0.355    0.219   10.772
  317.000  102.543    0.351    0.244   10.986
  317.250   96.966    0.353    0.252   10.809
  317.500   92.014    0.349    0.233   10.076
  317.750   84.566    0.340    0.228    9.559
  318.000   85.855    0.349    0.229    9.406
  318.250   90.264    0.355    0.229    9.429
