~VERSION INFORMATION
 VERS.                 2.0:   CWLS LOG ASCII STANDARD -VERSION 2.0
 WRAP.                  NO:   ONE LINE PER DEPTH STEP
~WELL INFORMATION BLOCK
#MNEM.UNIT           DATA                    DESCRIPTION OF MNEMONIC
#---------    -------------------            -------------------------------
# Generated from Intellog Unique Number	CS_73_76/WELL/701
WELL.         ALLIED ROXANA MINERALS LTD     : Well_name    - WELL
LOC .         00/06-35-073-14W4/0            : Location     - LOCATION
UWI .         00/06-35-073-14W4/0            : Uwi          - UNIQUE WELL ID
ENTR.         SP                             : Entered      - ENTERED BY
SRVC.         SCHLUMBERGER                   : Scn          - SERVICE COMPANY
STRT.M        335.28                         : top_depth    - START DEPTH
STOP.M        560.53                         : bot_depth    - STOP DEPTH
STEP.M        0.25                           : increment    - STEP LENGTH
 NULL. -999.2500:NULL Value
~CURVE INFORMATION BLOCK
#MNEM UNIT       ERCB CURVE CODE    CURVE DESCRIPTION
#-----------   ------------------   ----------------------------------
DEPT.M        00 001 00 00         : DEPTH        - DEPTH
GR  .API      00 310 00 00         : GR           - GAMMA RAY
DPHI.V/V      00 890 00 00         : PHID         - DENSITY POROSITY (SANDSTONE)
NPHI.V/V      00 330 00 00         : PHIN         - NEUTRON POROSITY (SANDSTONE)
ILD .OHMM     00 120 00 00         : RESD         - DEEP RESISTIVITY (DIL)
~PARAMETER INFORMATION
#MNEM.UNIT           DATA             DESCRIPTION OF MNEMONIC
#---------         -----------     ------------------------------
GL  .M        683.666              : gl           - GROUND LEVEL ELEVATION
EREF.M        686.714              : kb           - ELEVATION OF DEPTH REFERENCE
DATM.M        683.666              : datum        - DATUM ELEVATION
TDD .M        579.12               : tdd          - TOTAL DEPTH DRILLER
RUN .         ONE                  : Run          - RUN NUMBER
ENG .         BILL                 : Engineer     - RECORDING ENGINEER
WIT .         JIM                  : Witness      - WITNESSED BY
MUD .         GEL                  : Mud_type     - MUD TYPE
MATR.         SANDSTONE            : Logunit      - NEUTRON MATRIX
TMAX.C        15.5556              : BHT          - MAXIMUM RECORDED TEMPERATURE
BHTD.M        490.728              : BHTDEP       - MAXIMUM RECORDED TEMPERATURE
MATR.         1                    : LOGUNIT      - NEUTRON MATRIX
RMT .C        25                   : MDTP         - TEMPERATURE OF MUD
NEUT.         1                    : NEUTRON      - NEUTRON TYPE
RESI.         0                    : RESIST       - RESISTIVITY TYPE
RMC .OHMM     0.25                 : RMC          - RESISTIVITY OF MUD CAKE
RMF .OHMM     0.25                 : RMF          - RESISTIVITY OF MUD FILTRATE
SUFT.C        15                   : SUFT         - SURFACE TEMPERATURE
~A  DEPTH       GR     PHID     PHIN     RESD
# ...
  422.280   74.280    0.303    0.475    6.743
  422.530   80.896    0.285    0.464    5.662
  422.780   85.248    0.262    0.485    3.373
  423.030   89.196    0.246    0.524    2.625
  423.280   90.440    0.250    0.559    2.554
  423.530   85.920    0.264    0.593    3.058
  423.780   80.225    0.294    0.623    3.946
  424.030   76.666    0.313    0.563    5.390
  424.280   75.398    0.323    0.499    8.338
  424.530   76.711    0.292    0.501   10.482
  424.780   78.774    0.245    0.507   11.647
  425.030   78.026    0.195    0.510   12.339
  425.280   68.649    0.143    0.380   12.596
  425.530   57.451    0.124    0.283   12.824
  425.780   57.021    0.153    0.309   12.409
  426.030   60.707    0.223    0.374   10.572
  426.280   59.801    0.296    0.447    8.330
  426.530   60.231    0.310    0.482    7.707
  426.780   63.204    0.318    0.492    7.439
  427.030   65.829    0.309    0.515    7.262
  427.280   68.043    0.299    0.525    7.218
  427.530   68.728    0.295    0.527    7.102
  427.780   67.563    0.291    0.522    7.026
  428.030   69.489    0.287    0.536    6.977
  428.280   70.398    0.308    0.524    6.944
  428.530   68.356    0.313    0.523    6.948
  428.780   65.625    0.323    0.539    6.862
  429.030   65.215    0.329    0.549    6.776
  429.280   66.754    0.325    0.556    6.791
  429.530   66.912    0.332    0.515    6.694
  429.780   66.934    0.324    0.527    6.701
  430.030   67.278    0.316    0.535    6.760
  430.280   67.841    0.310    0.535    6.774
  430.530   66.327    0.307    0.536    6.935
  430.780   65.877    0.290    0.504    7.612
  431.030   66.354    0.255    0.443    9.798
  431.280   63.620    0.222    0.339   12.059
  431.530   58.951    0.181    0.245   15.377
  431.780   55.807    0.070    0.223   16.537
  432.030   57.297    0.055    0.228   16.407
  432.280   63.581    0.100    0.300   15.715
  432.530   68.435    0.143    0.358   13.363
  432.780   74.074    0.224    0.409   10.740
  433.030   77.478    0.243    0.480    8.263
  433.280   76.975    0.239    0.504    7.088
  433.530   74.023    0.237    0.499    6.547
  433.780   70.474    0.254    0.515    6.335
  434.030   68.632    0.267    0.528    6.220
  434.280   70.249    0.275    0.541    6.219
  434.530   72.445    0.290    0.555    6.217
  434.780   73.992    0.300    0.570    6.289
  435.030   71.937    0.276    0.504    6.445
  435.280   67.399    0.096    0.356    6.802
  435.530   59.495    0.037    0.273    7.182
  435.780   52.300    0.002    0.229    7.706
  436.030   52.727    0.019    0.218    8.226
  436.280   57.031    0.022    0.247    8.530
  436.530   59.908    0.052    0.272    8.867
  436.780   66.147    0.136    0.347    8.772
  437.030   69.622    0.209    0.399    7.882
  437.280   74.955    0.222    0.438    7.089
  437.530   74.579    0.238    0.464    6.858
  437.780   74.191    0.237    0.488    6.848
  438.030   74.452    0.243    0.482    6.940
  438.280   75.001    0.259    0.489    6.996
  438.530   75.015    0.261    0.499    7.092
  438.780   75.736    0.226    0.506    7.177
  439.030   76.760    0.203    0.514    7.227
  439.280   77.026    0.209    0.489    7.335
  439.530   78.058    0.200    0.473    7.329
  439.780   77.905    0.198    0.468    7.168
  440.030   77.020    0.205    0.464    7.061
  440.280   79.760    0.198    0.469    7.013
  440.530   80.247    0.196    0.469    7.015
  440.780   79.016    0.195    0.460    7.030
  441.030   80.212    0.199    0.448    7.089
  441.280   82.019    0.186    0.455    7.172
  441.530   81.482    0.197    0.448    7.256
  441.780   79.547    0.210    0.448    7.310
  442.030   77.658    0.210    0.459    7.419
  442.280   77.414    0.217    0.470    7.416
  442.530   77.967    0.224    0.485    7.441
  442.780   78.994    0.233    0.500    7.301
  443.030   80.334    0.261    0.513    7.171
  443.280   80.248    0.271    0.509    6.908
  443.530   79.185    0.278    0.509    6.647
  443.780   80.850    0.278    0.510    6.385
  444.030   80.608    0.253    0.508    6.109
  444.280   79.680    0.260    0.517    6.044
  444.530   79.649    0.271    0.534    5.971
  444.780   81.651    0.268    0.539    5.965
  445.030   81.471    0.267    0.564    6.057
  445.280   82.562    0.267    0.553    6.109
  445.530   82.267    0.248    0.539    6.237
  445.780   80.215    0.257    0.547    6.457
  446.030   78.698    0.268    0.552    6.584
  446.280   77.017    0.267    0.536    6.714
  446.530   76.120    0.260    0.525    6.848
  446.780   74.534    0.261    0.528    6.900
  447.030   72.797    0.265    0.523    6.943
  447.280   70.855    0.274    0.533    7.011
  447.530   70.761    0.286    0.540    7.050
  447.780   74.299    0.286    0.533    7.083
  448.030   72.047    0.282    0.515    7.154
  448.280   72.605    0.272    0.493    7.164
  448.530   74.959    0.267    0.491    7.166
  448.780   73.714    0.271    0.487    7.173
  449.030   72.379    0.267    0.479    7.055
  449.280   73.653    0.264    0.494    6.926
  449.530   73.211    0.260    0.522    6.789
  449.780   72.996    0.265    0.537    6.769
  450.030   74.129    0.267    0.530    6.767
  450.280   76.135    0.278    0.524    6.760
  450.530   77.326    0.292    0.514    6.865
  450.780   77.791    0.298    0.517    6.992
  451.030   77.596    0.289    0.524    7.086
  451.280   75.874    0.279    0.501    7.179
  451.530   74.858    0.274    0.483    7.236
  451.780   75.879    0.274    0.481    7.083
  452.030   77.172    0.273    0.494    6.936
  452.280   76.769    0.267    0.502    7.148
  452.530   75.817    0.273    0.495    6.964
  452.780   77.674    0.261    0.482    5.985
  453.030   81.267    0.259    0.486    4.156
  453.280   84.269    0.248    0.509    3.193
  453.530   87.657    0.241    0.546    2.720
  453.780   90.352    0.240    0.581    2.455
  454.030   91.514    0.231    0.605    2.310
  454.280   92.011    0.218    0.614    2.380
  454.530   92.037    0.224    0.615    2.500
  454.780   91.338    0.233    0.618    2.734
  455.030   91.843    0.237    0.616    3.252
  455.280   91.953    0.239    0.583    4.014
  455.530   91.962    0.245    0.497    4.459
  455.780   91.577    0.231    0.497    4.992
  456.030   90.405    0.238    0.522    5.279
  456.280   89.040    0.235    0.524    5.328
  456.530   87.029    0.234    0.512    5.281
  456.780   87.175    0.236    0.508    5.250
  457.030   86.704    0.241    0.511    5.248
  457.280   84.965    0.236    0.490    5.248
  457.530   84.745    0.235    0.495    5.248
  457.780   83.213    0.230    0.500    5.240
  458.030   82.168    0.222    0.508    5.330
  458.280   81.187    0.213    0.515    5.412
  458.530   82.495    0.207    0.516    5.541
  458.780   86.078    0.209    0.492    5.670
  459.030   88.277    0.238    0.467    5.804
  459.280   87.808    0.267    0.459    5.854
  459.530   84.373    0.258    0.470    5.881
  459.780   83.486    0.250    0.462    5.883
  460.030   84.165    0.238    0.464    5.884
  460.280   79.367    0.262    0.479    5.888
  460.530   76.110    0.297    0.493    5.749
  460.780   73.588    0.276    0.496    5.565
  461.030   73.456    0.254    0.476    5.481
  461.280   75.815    0.240    0.499    5.337
  461.530   79.287    0.251    0.507    5.332
  461.780   81.126    0.241    0.521    5.329
  462.030   80.628    0.230    0.540    5.802
  462.280   78.838    0.211    0.520    6.443
  462.530   73.442    0.172    0.491    6.908
  462.780   70.485    0.127    0.393    7.222
  463.030   68.516    0.093    0.347    7.224
  463.280   71.254    0.171    0.383    7.027
  463.530   74.723    0.203    0.458    6.524
  463.780   79.679    0.231    0.486    5.804
  464.030   83.072    0.235    0.501    5.123
  464.280   85.880    0.224    0.517    5.091
  464.530   86.416    0.216    0.521    5.086
  464.780   87.491    0.220    0.523    5.221
  465.030   87.766    0.213    0.507    5.369
  465.280   88.171    0.234    0.494    5.639
  465.530   87.868    0.244    0.468    5.882
