~VERSION INFORMATION
 VERS.                 2.0:   CWLS LOG ASCII STANDARD -VERSION 2.0
 WRAP.                  NO:   ONE LINE PER DEPTH STEP
~WELL INFORMATION BLOCK
#MNEM.UNIT           DATA                    DESCRIPTION OF MNEMONIC
#---------    -------------------            -------------------------------
# Generated from Intellog Unique Number	CW_79_81/WELL/2442
WELL.         CHEVRON MISTEHAEN              : Well_name    - WELL
LOC .         00/03-19-081-05W5/0            : Location     - LOCATION
UWI .         00/03-19-081-05W5/0            : Uwi          - UNIQUE WELL ID
ENTR.         MAX                            : Entered      - ENTERED BY
SRVC.         SCHLUMBERGER                   : Scn          - SERVICE COMPANY
STRT.M        304.8                          : top_depth    - START DEPTH
STOP.M        533.05                         : bot_depth    - STOP DEPTH
STEP.M        0.25                           : increment    - STEP LENGTH
 NULL. -999.2500:NULL Value
~CURVE INFORMATION BLOCK
#MNEM UNIT       ERCB CURVE CODE    CURVE DESCRIPTION
#-----------   ------------------   ----------------------------------
DEPT.M        00 001 00 00         : DEPTH        - DEPTH
ILD .OHMM     00 120 00 00         : RESD         - DEEP RESISTIVITY (DIL)
NPHI.V/V      00 330 00 00         : PHIN         - NEUTRON POROSITY (SANDSTONE)
DPHI.V/V      00 890 00 00         : PHID         - DENSITY POROSITY (SANDSTONE)
GR  .API      00 310 00 00         : GR           - GAMMA RAY
CALI.MM       00 280 01 00         : CAL          - CALIPER
~PARAMETER INFORMATION
#MNEM.UNIT           DATA             DESCRIPTION OF MNEMONIC
#---------         -----------     ------------------------------
GL  .M        611.734              : gl           - GROUND LEVEL ELEVATION
EREF.M        614.111              : kb           - ELEVATION OF DEPTH REFERENCE
DATM.M        611.734              : datum        - DATUM ELEVATION
TDD .M        550.774              : tdd          - TOTAL DEPTH DRILLER
RUN .         ONE                  : Run          - RUN NUMBER
ENG .         BILL                 : Engineer     - RECORDING ENGINEER
WIT .         JIM                  : Witness      - WITNESSED BY
MUD .         GEL                  : Mud_type     - MUD TYPE
MATR.         SANDSTONE            : Logunit      - NEUTRON MATRIX
TMAX.C        29.4444              : BHT          - MAXIMUM RECORDED TEMPERATURE
BHTD.M        550.774              : BHTDEP       - MAXIMUM RECORDED TEMPERATURE
MATR.         1                    : LOGUNIT      - NEUTRON MATRIX
RMT .C        20                   : MDTP         - TEMPERATURE OF MUD
NEUT.         1                    : NEUTRON      - NEUTRON TYPE
RESI.         0                    : RESIST       - RESISTIVITY TYPE
RMC .OHMM     4.1                  : RMC          - RESISTIVITY OF MUD CAKE
RMF .OHMM     5.07                 : RMF          - RESISTIVITY OF MUD FILTRATE
SUFT.C        -20.5556             : SUFT         - SURFACE TEMPERATURE
~A  DEPTH     RESD     PHIN     PHID       GR      CAL
# ...
  487.300   19.162    0.250    0.071   56.224  207.123
  487.550   16.994    0.321    0.164   54.447  210.455
  487.800   13.791    0.396    0.178   54.946  215.051
  488.050   10.754    0.405    0.174   57.316  216.664
  488.300    8.258    0.411    0.171   60.394  217.382
  488.550    7.005    0.425    0.170   63.943  217.598
  488.800    6.457    0.453    0.169   67.137  217.413
  489.050    6.003    0.494    0.170   68.417  216.554
  489.300    5.780    0.487    0.173   67.689  216.154
  489.550    5.739    0.482    0.175   70.058  216.169
  489.800    5.730    0.473    0.168   73.312  216.483
  490.050    5.732    0.461    0.167   74.738  216.699
  490.300    5.733    0.448    0.173   73.982  216.616
  490.550    5.752    0.433    0.173   73.590  216.238
  490.800    5.843    0.441    0.171   76.304  216.253
  491.050    5.844    0.460    0.184   77.729  216.270
  491.300    5.813    0.462    0.182   76.854  216.288
  491.550    5.794    0.468    0.182   76.274  216.306
  491.800    5.795    0.476    0.189   76.460  216.324
  492.050    5.797    0.465    0.197   75.470  216.342
  492.300    5.798    0.453    0.202   74.007  216.357
  492.550    5.800    0.460    0.202   71.419  215.976
  492.800    5.801    0.457    0.200   72.019  215.593
  493.050    5.781    0.460    0.194   72.855  215.209
  493.300    5.740    0.468    0.188   73.336  214.827
  493.550    5.709    0.464    0.189   75.236  214.367
  493.800    5.756    0.473    0.193   75.246  213.965
  494.050    6.234    0.463    0.195   75.020  213.583
  494.300    6.438    0.458    0.187   75.147  213.201
  494.550    6.535    0.454    0.176   75.157  213.019
  494.800    6.621    0.449    0.170   74.695  213.036
  495.050    6.682    0.433    0.176   73.920  213.054
  495.300    6.735    0.390    0.183   75.896  213.070
  495.550    6.787    0.381    0.191   77.087  213.086
  495.800    6.838    0.395    0.198   78.277  213.103
  496.050    6.890    0.405    0.201   77.933  213.119
  496.300    6.955    0.405    0.201   75.288  213.134
  496.550    7.103    0.411    0.199   70.345  213.154
  496.800    7.326    0.412    0.198   70.355  213.172
  497.050    7.995    0.386    0.176   68.005  212.791
  497.300    8.958    0.360    0.155   66.363  212.708
  497.550    9.981    0.335    0.097   64.958  212.325
  497.800   10.641    0.309    0.039   63.375  211.642
  498.050   10.307    0.294    0.100   60.771  211.511
  498.300    9.486    0.373    0.161   58.323  212.779
  498.550    8.745    0.407    0.162   59.514  213.995
  498.800    7.655    0.427    0.162   63.357  214.911
  499.050    6.746    0.430    0.171   65.962  215.528
  499.300    6.110    0.423    0.187   66.503  215.844
  499.550    5.640    0.425    0.191   67.272  215.860
  499.800    5.430    0.432    0.190   67.527  215.879
  500.050    5.392    0.434    0.188   68.246  215.896
  500.300    5.413    0.439    0.184   69.140  216.212
  500.550    5.494    0.453    0.182   69.385  216.628
  500.800    5.618    0.473    0.180   69.041  217.044
  501.050    5.771    0.480    0.176   69.250  217.464
  501.300    5.906    0.458    0.166   70.245  217.485
  501.550    5.908    0.441    0.170   71.198  217.499
  501.800    5.909    0.427    0.183   72.329  217.513
  502.050    5.932    0.420    0.193   73.635  217.729
  502.300    5.967    0.419    0.195   74.234  218.045
  502.550    5.959    0.423    0.190   72.162  218.065
  502.800    5.915    0.417    0.186   71.190  218.085
  503.050    5.917    0.410    0.174   73.322  218.098
  503.300    5.918    0.406    0.171   74.394  218.114
  503.550    5.963    0.399    0.170   74.759  218.132
  503.800    6.053    0.395    0.171   74.770  218.050
  504.050    6.163    0.413    0.176   74.535  217.668
  504.300    6.260    0.429    0.169   73.315  217.685
  504.550    6.447    0.422    0.170   72.146  217.304
  504.800    6.568    0.415    0.173   71.506  217.222
  505.050    6.619    0.411    0.170   70.336  217.239
  505.300    6.608    0.412    0.164   68.457  217.254
  505.550    6.521    0.415    0.172   66.878  217.274
  505.800    6.327    0.420    0.164   68.362  217.290
  506.050    6.145    0.431    0.167   71.204  217.306
  506.300    6.002    0.439    0.161   72.452  217.324
  506.550    5.917    0.450    0.153   72.227  217.141
  506.800    5.864    0.457    0.152   71.647  216.758
  507.050    5.781    0.445    0.169   73.329  216.381
  507.300    5.782    0.420    0.163   75.795  216.395
  507.550    5.784    0.408    0.164   76.041  216.412
  507.800    5.817    0.429    0.164   75.934  216.429
  508.050    5.839    0.440    0.162   76.887  216.447
  508.300    5.841    0.431    0.161   78.607  216.463
  508.550    5.843    0.430    0.160   79.337  216.482
  508.800    5.844    0.438    0.156   80.576  216.503
  509.050    5.846    0.438    0.160   79.645  216.520
  509.300    5.879    0.439    0.167   79.241  216.535
  509.550    5.903    0.437    0.172   79.131  216.551
  509.800    5.893    0.435    0.173   79.082  216.567
  510.050    5.852    0.453    0.167   78.957  216.584
  510.300    5.854    0.513    0.165   79.457  216.601
  510.550    5.898    0.508    0.159   80.176  217.017
  510.800    5.910    0.492    0.152   80.716  217.435
  511.050    5.825    0.474    0.143   81.316  217.651
  511.300    5.658    0.459    0.137   81.326  217.668
  511.550    5.497    0.447    0.150   79.951  217.692
  511.800    5.498    0.442    0.152   83.648  217.708
  512.050    5.580    0.456    0.155   88.612  217.723
  512.300    5.789    0.458    0.155   90.746  217.739
  512.550    5.964    0.448    0.151   92.171  217.757
  512.800    6.021    0.432    0.142   93.655  217.874
  513.050    5.884    0.412    0.136   94.612  218.293
  513.300    5.456    0.406    0.149   94.622  218.307
  513.550    5.068    0.456    0.126   92.981  218.324
  513.800    4.872    0.464    0.134   92.753  218.640
  514.050    4.803    0.457    0.152   94.178  218.856
  514.300    4.821    0.450    0.162   96.843  218.873
  514.550    4.879    0.440    0.140   99.588  218.894
  514.800    4.806    0.439    0.125   99.106  218.913
  515.050    4.772    0.466    0.159   98.645  219.327
  515.300    4.765    0.470    0.164   99.421  219.443
  515.550    4.801    0.461    0.160   99.548  219.660
  515.800    4.873    0.447    0.154   98.556  219.978
  516.050    4.861    0.435    0.133   96.945  219.996
  516.300    4.473    0.457    0.103   94.745  220.013
  516.550    3.710    0.486    0.150   93.338  220.030
  516.800    2.936    0.525    0.203   91.931  219.750
  517.050    2.414    0.568    0.243   89.819  219.566
  517.300    2.105    0.596    0.257   87.056  219.779
  517.550    1.941    0.578    0.242   83.342  220.600
  517.800    1.927    0.590    0.232   77.700  220.619
  518.050    1.942    0.569    0.223   78.889  220.636
  518.300    1.967    0.557    0.215   81.140  221.249
  518.550    2.040    0.557    0.211   83.745  222.464
  518.800    2.168    0.562    0.214   86.174  223.981
  519.050    2.352    0.562    0.229   87.779  224.948
  519.300    2.541    0.564    0.216   86.314  223.715
  519.550    2.714    0.592    0.208   82.312  218.538
  519.800    2.977    0.582    0.188   77.957  214.260
  520.050    3.431    0.543    0.168   75.961  211.081
  520.300    4.065    0.485    0.153   75.381  208.801
  520.550    4.628    0.412    0.161   70.094  206.658
  520.800    6.138    0.385    0.257   62.485  205.841
  521.050    7.868    0.373    0.255   56.124  205.059
  521.300   10.038    0.364    0.250   54.721  204.577
  521.550   11.835    0.358    0.242   55.674  204.195
  521.800   12.335    0.352    0.233   57.571  204.012
  522.050   11.747    0.349    0.224   60.275  204.763
  522.300   11.057    0.347    0.224   60.777  206.445
  522.550    9.967    0.350    0.214   61.731  208.461
  522.800    8.886    0.359    0.207   63.746  210.474
  523.050    7.682    0.380    0.196   66.469  213.088
  523.300    6.757    0.409    0.187   69.959  215.604
  523.550    6.594    0.441    0.195   75.672  215.439
