~VERSION INFORMATION
 VERS.                 2.0:   CWLS LOG ASCII STANDARD -VERSION 2.0
 WRAP.                  NO:   ONE LINE PER DEPTH STEP
~WELL INFORMATION BLOCK
#MNEM.UNIT           DATA                    DESCRIPTION OF MNEMONIC
#---------    -------------------            -------------------------------
# Generated from Intellog Unique Number	CW_82_90/WELL/3058
WELL.         PARA ET AL LIVOCKR 06-36       : Well_name    - WELL
LOC .         00/06-36-085-20W4/0            : Location     - LOCATION
UWI .         00/06-36-085-20W4/0            : Uwi          - UNIQUE WELL ID
ENTR.         JAYE                           : Entered      - ENTERED BY
SRVC.         SCHLUMBERGER                   : Scn          - SERVICE COMPANY
DATE.         17 JAN 81                      : Date         - LOG DATE
STRT.M        200                            : top_depth    - START DEPTH
STOP.M        357                            : bot_depth    - STOP DEPTH
STEP.M        0.25                           : increment    - STEP LENGTH
 NULL. -999.2500:NULL Value
~CURVE INFORMATION BLOCK
#MNEM UNIT       ERCB CURVE CODE    CURVE DESCRIPTION
#-----------   ------------------   ----------------------------------
DEPT.M        00 001 00 00         : DEPTH        - DEPTH
ILD .OHMM     00 120 00 00         : RESD         - DEEP RESISTIVITY (DIL)
CALI.MM       00 280 01 00         : CAL          - CALIPER
GR  .API      00 310 00 00         : GR           - GAMMA RAY
NPHI.V/V      00 330 00 00         : PHIN         - NEUTRON POROSITY (SANDSTONE)
DPHI.V/V      00 890 00 00         : PHID         - DENSITY POROSITY (SANDSTONE)
~PARAMETER INFORMATION
#MNEM.UNIT           DATA             DESCRIPTION OF MNEMONIC
#---------         -----------     ------------------------------
GL  .M        616                  : gl           - GROUND LEVEL ELEVATION
EREF.M        619                  : kb           - ELEVATION OF DEPTH REFERENCE
DATM.M        616                  : datum        - DATUM ELEVATION
TDD .M        358                  : tdd          - TOTAL DEPTH DRILLER
RUN .         ONE                  : Run          - RUN NUMBER
ENG .         SALSMAN              : Engineer     - RECORDING ENGINEER
WIT .         CONNELLY             : Witness      - WITNESSED BY
BASE.         EDMONTON             : Branch       - HOME BASE OF LOGGING UNIT
MUD .         GEL CHEM             : Mud_type     - MUD TYPE
MATR.         SANDSTONE            : Logunit      - NEUTRON MATRIX
TMAX.C        11.1                 : BHT          - MAXIMUM RECORDED TEMPERATURE
BHTD.M        358                  : BHTDEP       - MAXIMUM RECORDED TEMPERATURE
RMT .C        11.1                 : MDTP         - TEMPERATURE OF MUD
MUDD.KG/M     9.5                  : MWT          - MUD DENSITY
NEUT.         1                    : NEUTRON      - NEUTRON TYPE
RESI.         0                    : RESIST       - RESISTIVITY TYPE
RM  .OHMM     6.64                 : RM           - RESISTIVITY OF MUD
RMC .OHMM     0                    : RMC          - RESISTIVITY OF MUD CAKE
RMF .OHMM     5                    : RMF          - RESISTIVITY OF MUD FILTRATE
SUFT.C        0                    : SUFT         - SURFACE TEMPERATURE
~A  DEPTH     RESD      CAL       GR     PHIN     PHID
  200.000   29.519  165.422   48.084    0.430    0.293
  200.250   29.429  163.461   46.963    0.422    0.295
  200.500   30.412  163.888   44.467    0.419    0.281
  200.750   35.259  164.419   43.847    0.414    0.209
  201.000   39.812  165.261   41.163    0.394    0.034
  201.250   42.480  164.443   39.166    0.186   -0.019
  201.500   43.653  164.350   39.862    0.200   -0.005
  201.750   41.673  163.737   45.316    0.245    0.060
  202.000   36.752  162.606   47.639    0.339    0.258
  202.250   29.001  162.513   45.017    0.441    0.291
  202.500   27.895  162.941   46.088    0.458    0.300
  202.750   27.397  164.096   49.916    0.457    0.297
  203.000   25.809  166.291   52.551    0.450    0.294
  203.250   23.023  167.756   55.564    0.450    0.292
  203.500   18.304  169.949   62.207    0.450    0.277
  203.750   10.580  171.625   70.604    0.442    0.249
  204.000    5.597  172.880   80.315    0.451    0.220
  204.250    3.922  174.972   91.278    0.475    0.199
  204.500    2.811  177.060  104.746    0.515    0.171
  204.750    2.555  179.981  116.335    0.540    0.133
  205.000    2.586  182.695  121.852    0.559    0.136
  205.250    3.073  183.122  124.490    0.572    0.166
  205.500    3.211  184.277  125.374    0.560    0.180
  205.750    3.269  185.119  123.126    0.541    0.171
  206.000    3.240  185.027  120.253    0.546    0.163
  206.250    3.274  184.520  118.320    0.554    0.167
  206.500    3.203  183.598  119.829    0.568    0.177
  206.750    3.087  182.464  121.026    0.570    0.173
  207.000    3.060  180.608  122.222    0.560    0.153
  207.250    3.174  179.474  120.915    0.552    0.175
  207.500    3.324  177.719  114.662    0.542    0.178
  207.750    3.383  176.901  113.104    0.535    0.182
  208.000    3.542  176.599  110.419    0.526    0.185
  208.250    3.873  176.196  103.539    0.517    0.188
  208.500    4.133  173.713   97.285    0.522    0.201
  208.750    4.369  168.114   92.722    0.520    0.217
  209.000    4.506  170.100   88.785    0.502    0.234
  209.250    4.578  172.293   90.107    0.488    0.176
  209.500    4.599  174.070   88.737    0.498    0.172
  209.750    4.716  172.211   82.045    0.503    0.179
  210.000    7.120  166.716   76.793    0.499    0.212
  210.250    8.540  161.948   70.602    0.455    0.242
  210.500    9.863  160.610   66.289    0.437    0.228
  210.750    9.927  161.244   65.483    0.445    0.215
  211.000    8.543  162.399   66.491    0.452    0.197
  211.250    8.517  163.034   65.810    0.451    0.237
  211.500   11.970  163.774   65.880    0.446    0.258
  211.750   13.850  164.930   67.890    0.443    0.279
  212.000   15.639  165.980   72.781    0.450    0.287
  212.250   15.891  167.132   76.170    0.463    0.283
  212.500   13.777  168.393   80.809    0.462    0.279
  212.750    8.428  169.754   87.140    0.472    0.261
  213.000    5.905  171.739   97.664    0.486    0.214
  213.250    4.288  174.452  109.818    0.537    0.176
  213.500    3.027  174.776  116.524    0.565    0.163
  213.750    2.864  169.384  118.660    0.573    0.190
  214.000    2.754  171.265  120.169    0.580    0.196
  214.250    2.532  172.212  119.613    0.587    0.185
  214.500    2.463  172.848  116.677    0.589    0.167
  214.750    2.569  173.171  112.991    0.582    0.176
  215.000    2.747  172.664  108.991    0.564    0.177
  215.250    2.749  171.739  103.239    0.564    0.179
  215.500    3.012  166.348   93.917    0.561    0.187
  215.750    3.626  164.593   86.224    0.535    0.192
  216.000    4.654  163.670   77.403    0.521    0.216
  216.250    7.750  162.849   68.770    0.509    0.253
  216.500   11.901  161.510   63.143    0.457    0.278
  216.750   17.767  160.690   61.398    0.440    0.275
  217.000   18.500  159.873   60.090    0.431    0.260
  217.250   17.996  159.258   63.978    0.430    0.239
  217.500   17.245  157.919   78.072    0.442    0.240
  217.750   17.619  158.138   91.352    0.426    0.237
  218.000   18.837  160.021   86.163    0.413    0.208
  218.250   20.174  160.448   65.197    0.403    0.172
  218.500   21.487  157.965   53.058    0.394    0.006
  218.750   22.290  157.353   51.312    0.210    0.043
  219.000   22.989  158.923   52.322    0.268    0.102
  219.250   24.070  160.288   50.763    0.378    0.157
  219.500   25.443  160.507   43.758    0.295    0.027
  219.750   26.542  159.686   38.319    0.164   -0.001
  220.000   27.425  157.102   40.830    0.194    0.032
  220.250   27.920  156.488   45.407    0.243    0.073
  220.500   26.753  157.643   46.855    0.265    0.203
  220.750   23.550  158.279   47.801    0.324    0.200
  221.000   20.113  158.184   51.127    0.437    0.273
  221.250   19.942  158.613   51.134    0.458    0.294
  221.500   20.451  159.040   49.826    0.465    0.293
  221.750   20.782  159.363   48.770    0.460    0.284
  222.000   20.753  159.065   48.901    0.451    0.284
  222.250   19.738  158.658   50.411    0.457    0.291
  222.500   19.094  160.020   52.798    0.453    0.294
  222.750   18.471  160.967   52.430    0.442    0.281
  223.000   18.589  161.915   52.749    0.439    0.281
  223.250   19.875  159.743   52.568    0.448    0.270
  223.500   21.366  162.041   51.761    0.426    0.203
  223.750   21.343  163.507   48.200    0.351    0.166
  224.000   20.724  161.649   48.145    0.347    0.167
  224.250   18.415  162.078   51.595    0.399    0.235
  224.500   18.152  163.230   50.287    0.437    0.293
  224.750   18.582  165.530   47.853    0.441    0.298
  225.000   18.808  163.775   47.923    0.444    0.291
  225.250   18.755  161.394   50.873    0.444    0.296
  225.500   18.729  158.808   52.320    0.458    0.296
  225.750   18.674  157.989   52.139    0.467    0.293
  226.000   18.652  158.727   50.268    0.470    0.291
  226.250   18.667  160.506   49.837    0.466    0.298
  226.500   18.684  161.765   47.779    0.465    0.305
  226.750   18.590  163.022   45.907    0.467    0.307
  227.000   18.467  164.697   44.349    0.462    0.301
  227.250   18.479  165.644   45.858    0.458    0.289
  227.500   18.741  162.018   46.930    0.454    0.293
  227.750   18.716  159.122   47.250    0.452    0.296
  228.000   18.664  158.927   47.696    0.450    0.297
  228.250   18.748  159.976   46.952    0.451    0.298
  228.500   18.901  160.817   46.083    0.455    0.298
  228.750   18.987  162.493   46.152    0.459    0.296
  229.000   18.823  162.711   45.158    0.458    0.292
  229.250   18.659  161.476   43.036    0.457    0.299
  229.500   18.570  161.176   41.604    0.456    0.302
  229.750   18.550  160.772   41.798    0.445    0.298
  230.000   18.529  160.785   45.499    0.451    0.296
  230.250   18.647  161.003   46.696    0.459    0.296
  230.500   18.557  161.949   45.639    0.469    0.297
  230.750   18.502  163.209   43.580    0.479    0.298
  231.000   18.515  164.364   43.900    0.464    0.290
  231.250   18.423  165.933   47.601    0.461    0.292
  231.500   18.474  165.321   48.172    0.473    0.305
  231.750   18.487  161.175   49.181    0.476    0.305
  232.000   18.640  158.487   51.066    0.472    0.304
  232.250   18.653  156.732   52.513    0.477    0.302
  232.500   18.599  155.703   53.585    0.475    0.298
  232.750   18.438  155.195   53.279    0.469    0.294
  233.000   18.415  155.207   53.161    0.467    0.299
  233.250   18.360  155.427   53.481    0.458    0.299
  233.500   18.343  155.750   54.866    0.454    0.295
  233.750   18.354  156.282   57.940    0.467    0.292
  234.000   18.264  156.812   59.639    0.489    0.296
  234.250   18.173  157.032   58.894    0.505    0.291
  234.500   18.119  157.043   57.023    0.503    0.285
  234.750   17.671  157.158   54.338    0.487    0.278
  235.000   17.640  157.170   54.596    0.479    0.279
  235.250   17.258  156.350   58.234    0.477    0.280
  235.500   16.600  154.491   59.619    0.473    0.298
  235.750   15.493  153.359   56.871    0.466    0.285
  236.000   19.738  152.851   54.373    0.447    0.248
  236.250   19.979  153.382   54.819    0.398    0.160
