~VERSION INFORMATION
 VERS.                 2.0:   CWLS LOG ASCII STANDARD -VERSION 2.0
 WRAP.                  NO:   ONE LINE PER DEPTH STEP
~WELL INFORMATION BLOCK
#MNEM.UNIT           DATA                    DESCRIPTION OF MNEMONIC
#---------    -------------------            -------------------------------
# Generated from Intellog Unique Number	CS_73_76/WELL/2913
WELL.         BOW VALLEY EXPLORATION         : Well_name    - WELL
LOC .         00/07-33-076-17W4/0            : Location     - LOCATION
UWI .         00/07-33-076-17W4/0            : Uwi          - UNIQUE WELL ID
ENTR.         SP                             : Entered      - ENTERED BY
SRVC.         SCHLUMBERGER                   : Scn          - SERVICE COMPANY
STRT.M        340                            : top_depth    - START DEPTH
STOP.M        563                            : bot_depth    - STOP DEPTH
STEP.M        0.25                           : increment    - STEP LENGTH
 NULL. -999.2500:NULL Value
~CURVE INFORMATION BLOCK
#MNEM UNIT       ERCB CURVE CODE    CURVE DESCRIPTION
#-----------   ------------------   ----------------------------------
DEPT.M        00 001 00 00         : DEPTH        - DEPTH
GR  .API      00 310 00 00         : GR           - GAMMA RAY
NPHI.V/V      00 330 00 00         : PHIN         - NEUTRON POROSITY (LIMESTONE)
DPHI.V/V      00 890 00 00         : PHID         - DENSITY POROSITY (LIMESTONE)
ILD .OHMM     00 120 00 00         : RESD         - DEEP RESISTIVITY (DIL)
~PARAMETER INFORMATION
#MNEM.UNIT           DATA             DESCRIPTION OF MNEMONIC
#---------         -----------     ------------------------------
GL  .M        704.76               : gl           - GROUND LEVEL ELEVATION
EREF.M        709.26               : kb           - ELEVATION OF DEPTH REFERENCE
DATM.M        704.76               : datum        - DATUM ELEVATION
TDD .M        564                  : tdd          - TOTAL DEPTH DRILLER
RUN .         ONE                  : Run          - RUN NUMBER
ENG .         BILL                 : Engineer     - RECORDING ENGINEER
WIT .         JIM                  : Witness      - WITNESSED BY
MUD .         GEL                  : Mud_type     - MUD TYPE
MATR.         LIMESTONE            : Logunit      - NEUTRON MATRIX
TMAX.C        20                   : BHT          - MAXIMUM RECORDED TEMPERATURE
BHTD.M        564                  : BHTDEP       - MAXIMUM RECORDED TEMPERATURE
MATR.         1                    : LOGUNIT      - NEUTRON MATRIX
RMT .C        25                   : MDTP         - TEMPERATURE OF MUD
NEUT.         1                    : NEUTRON      - NEUTRON TYPE
RESI.         0                    : RESIST       - RESISTIVITY TYPE
RMC .OHMM     0.25                 : RMC          - RESISTIVITY OF MUD CAKE
RMF .OHMM     0.25                 : RMF          - RESISTIVITY OF MUD FILTRATE
SUFT.C        15                   : SUFT         - SURFACE TEMPERATURE
~A  DEPTH       GR     PHIN     PHID     RESD
  340.000   93.596    0.444    0.157    3.203
  340.250   96.697    0.450    0.177    3.328
  340.500  102.277    0.444    0.179    3.458
  340.750  105.998    0.444    0.212    3.526
  341.000  103.521    0.450    0.200    3.527
  341.250   94.846    0.444    0.185    3.596
  341.500   88.649    0.441    0.181    3.596
  341.750   84.313    0.426    0.210    3.597
  342.000   84.934    0.408    0.230    3.598
  342.250   89.895    0.399    0.218    3.599
  342.500   92.997    0.439    0.195    3.532
  342.750   92.999    0.477    0.174    3.466
  343.000   93.001    0.501    0.170    3.401
  343.250   96.722    0.473    0.159    3.338
  343.500   97.964    0.444    0.180    3.275
  343.750   97.966    0.425    0.175    3.153
  344.000   94.249    0.415    0.190    3.095
  344.250   90.532    0.410    0.204    3.037
  344.500   89.294    0.435    0.185    2.980
  344.750   93.635    0.418    0.189    2.981
  345.000   96.117    0.399    0.206    3.039
  345.250   93.639    0.426    0.215    3.098
  345.500   96.121    0.454    0.207    3.281
  345.750   97.982    0.464    0.196    3.824
  346.000   96.745    0.475    0.205    4.288
  346.250   89.928    0.467    0.223    4.719
  346.500   83.112    0.428    0.234    5.498
  346.750   76.916    0.388    0.249    6.656
  347.000   76.918    0.377    0.271    7.324
  347.250   81.879    0.393    0.246    6.918
  347.500   86.840    0.378    0.248    6.789
  347.750   84.362    0.362    0.222    6.413
  348.000   80.026    0.363    0.197    6.414
  348.250   78.168    0.378    0.227    7.194
  348.500   80.030    0.411    0.263    8.876
  348.750   81.272    0.429    0.285    9.767
  349.000   81.894    0.409    0.242   10.747
  349.250   77.557    0.374    0.216   11.384
  349.500   75.699    0.385    0.221   11.829
  349.750   74.462    0.372    0.224   12.060
  350.000   72.604    0.351    0.229   12.062
  350.250   73.226    0.347    0.255   12.066
  350.500   76.328    0.343    0.229   12.068
  350.750   76.330    0.334    0.207   12.071
  351.000   73.233    0.322    0.247   11.847
  351.250   71.375    0.326    0.232   11.848
  351.500   71.377    0.352    0.233   11.627
  351.750   71.379    0.364    0.231   11.630
  352.000   77.580    0.367    0.227   12.085
  352.250   78.822    0.348    0.217   13.554
  352.500   79.444    0.338    0.205   13.557
  352.750   66.429    0.347    0.212   12.564
  353.000   57.133    0.359    0.250   12.096
  353.250   47.218    0.368    0.271   11.870
  353.500   46.600    0.375    0.255   11.430
  353.750   60.859    0.398    0.243   11.215
  354.000   67.059    0.390    0.194   11.218
  354.250   72.020    0.388    0.218   11.437
  354.500   73.882    0.390    0.228   12.114
  354.750   72.024    0.378    0.222   12.588
  355.000   67.687    0.349    0.097   13.080
  355.250   63.350    0.367    0.053   13.592
  355.500   62.113    0.375    0.127   14.124
  355.750   58.396    0.398    0.314   14.960
  356.000   53.440    0.415    0.306   15.251
  356.250   49.722    0.383    0.292   15.550
  356.500   49.724    0.360    0.300   15.259
  356.750   49.727    0.349    0.327   13.611
  357.000   49.109    0.292    0.244   11.466
  357.250   51.590    0.313    0.133    9.659
  357.500   62.130    0.336    0.118    8.616
  357.750   77.008    0.333    0.232    7.541
  358.000   81.968    0.412    0.212    7.260
  358.250   85.070    0.415    0.237    7.838
  358.500   88.171    0.409    0.170    8.624
  358.750   90.652    0.398    0.195    9.860
  359.000   90.655    0.394    0.233   11.058
  359.250   82.599    0.394    0.261   12.168
  359.500   75.163    0.396    0.286   12.888
  359.750   75.165    0.395    0.300   13.139
  360.000   78.886    0.379    0.290   13.142
  360.250   83.847    0.379    0.269   12.897
  360.500   86.329    0.380    0.245   13.148
  360.750   90.669    0.366    0.214   13.405
  361.000   95.630    0.350    0.223   13.666
  361.250   99.971    0.333    0.262   12.910
  361.500   98.113    0.335    0.282   12.668
  361.750   91.297    0.347    0.282   12.196
  362.000   83.242    0.334    0.262   11.742
  362.250   73.326    0.338    0.254   11.306
  362.500   69.609    0.340    0.251   10.884
  362.750   72.091    0.345    0.261   10.887
  363.000   72.713    0.349    0.182   10.684
  363.250   73.335    0.358    0.165   11.316
  363.500   77.676    0.379    0.202   11.537
  363.750   83.876    0.370    0.213   11.762
  364.000   84.498    0.360    0.225   10.900
  364.250   79.541    0.349    0.213    9.723
  364.500   75.204    0.349    0.238    7.884
  364.750   66.529    0.349    0.275    7.033
  365.000   61.572    0.349    0.314    6.155
  365.250   67.773    0.359    0.207    5.596
  365.500   73.973    0.381    0.167    5.088
  365.750   80.173    0.402    0.141    4.715
  366.000   93.192    0.404    0.155    4.370
  366.250  112.409    0.405    0.162    3.973
  366.500  113.031    0.416    0.165    3.682
  366.750  109.934    0.469    0.112    3.478
  367.000  109.936    0.463    0.112    3.413
  367.250  111.178    0.433    0.141    3.349
  367.500  108.701    0.435    0.156    3.287
  367.750  105.603    0.438    0.172    3.288
  368.000  104.366    0.428    0.154    3.288
  368.250  108.707    0.421    0.146    3.352
  368.500  110.569    0.423    0.151    3.619
  368.750  110.571    0.432    0.139    3.982
  369.000  115.532    0.441    0.251    5.105
  369.250  121.732    0.446    0.217    6.179
  369.500  126.073    0.426    0.201    7.200
  369.750  122.356    0.426    0.196    8.076
  370.000  113.680    0.416    0.230    8.392
  370.250  103.765    0.392    0.236    8.394
  370.500  103.147    0.376    0.223    8.237
  370.750  102.530    0.369    0.236    7.634
  371.000   99.432    0.366    0.229    6.941
  371.250   94.476    0.367    0.215    6.682
  371.500   96.957    0.369    0.228    6.558
  371.750  100.059    0.380    0.189    6.559
  372.000  100.060    0.403    0.152    7.081
  372.250  102.542    0.397    0.155    8.737
  372.500  105.023    0.392    0.203   10.576
  372.750  102.546    0.384    0.250   11.417
  373.000   95.730    0.386    0.233   12.326
  373.250   86.434    0.390    0.278   12.329
  373.500   78.998    0.417    0.299   10.998
  373.750   70.323    0.419    0.299   10.388
  374.000   77.143    0.405    0.292    9.813
  374.250   83.344    0.391    0.272    9.448
  374.500   85.205    0.400    0.235    9.096
  374.750   87.067    0.415    0.251    8.758
  375.000   87.689    0.421    0.240    8.431
  375.250   88.931    0.419    0.229    8.274
  375.500   91.412    0.411    0.257    7.966
  375.750   89.555    0.414    0.249    7.817
  376.000   95.755    0.413    0.223    7.527
  376.250  102.575    0.397    0.198    7.528
  376.500  110.015    0.376    0.200    7.675
  376.750  110.638    0.401    0.251    9.291
  377.000  106.920    0.426    0.184   10.030
  377.250   97.625    0.438    0.195   10.623
  377.500   85.850    0.395    0.249   11.252
  377.750   76.555    0.396    0.270   11.918
  378.000   68.499    0.402    0.289   12.866
  378.250   64.162    0.409    0.299   14.430
  378.500   62.304    0.407    0.307   17.468
  378.750   63.546    0.405    0.315   20.354
  379.000   64.168    0.397    0.314   26.592
  379.250   62.311    0.388    0.283   31.583
  379.500   55.495    0.408    0.304   33.450
  379.750   49.298    0.421    0.320   31.599
  380.000   46.201    0.412    0.321   30.423
  380.250   50.542    0.402    0.321   29.852
  380.500   56.743    0.400    0.309   29.860
  380.750   59.844    0.392    0.319   31.029
  381.000   56.747    0.371    0.302   32.865
  381.250   54.269    0.338    0.272   33.506
  381.500   48.693    0.200    0.042   29.888
  381.750   41.877    0.217    0.005   24.235
  382.000   38.780    0.240    0.039   19.280
  382.250   45.600    0.272    0.139   17.198
  382.500   49.321    0.335    0.214   14.767
  382.750   50.563    0.364    0.321   14.491
  383.000   55.524    0.385    0.329   13.952
  383.250   61.724    0.383    0.329   13.691
