~VERSION INFORMATION
 VERS.                 2.0:   CWLS LOG ASCII STANDARD -VERSION 2.0
 WRAP.                  NO:   ONE LINE PER DEPTH STEP
~WELL INFORMATION BLOCK
#MNEM.UNIT           DATA                    DESCRIPTION OF MNEMONIC
#---------    -------------------            -------------------------------
# Generated from Intellog Unique Number	CS_77_79/WELL/3297
WELL.         LOGAN RESOURCES LTD.           : Well_name    - WELL
LOC .         00/07-13-078-14W4/0            : Location     - LOCATION
UWI .         00/07-13-078-14W4/0            : Uwi          - UNIQUE WELL ID
ENTR.         JOETTE                         : Entered      - ENTERED BY
SRVC.         SCHLUMBERGER                   : Scn          - SERVICE COMPANY
DATE.         08-14-92]                      : Date         - LOG DATE
STRT.M        310                            : top_depth    - START DEPTH
STOP.M        505                            : bot_depth    - STOP DEPTH
STEP.M        0.25                           : increment    - STEP LENGTH
 NULL. -999.2500:NULL Value
~CURVE INFORMATION BLOCK
#MNEM UNIT       ERCB CURVE CODE    CURVE DESCRIPTION
#-----------   ------------------   ----------------------------------
DEPT.M        00 001 00 00         : DEPTH        - DEPTH
GR  .API      00 310 00 00         : GR           - GAMMA RAY
NPHI.V/V      00 330 00 00         : PHIN         - NEUTRON POROSITY (SANDSTONE)
DPHI.V/V      00 890 00 00         : PHID         - DENSITY POROSITY (SANDSTONE)
ILD .OHMM     00 120 00 00         : RESD         - DEEP RESISTIVITY (DIL)
~PARAMETER INFORMATION
#MNEM.UNIT           DATA             DESCRIPTION OF MNEMONIC
#---------         -----------     ------------------------------
GL  .M        678.1                : gl           - GROUND LEVEL ELEVATION
EREF.M        676.6                : kb           - ELEVATION OF DEPTH REFERENCE
DATM.M        676.6                : datum        - DATUM ELEVATION
TDD .M        508                  : tdd          - TOTAL DEPTH DRILLER
RUN .         ONE                  : Run          - RUN NUMBER
ENG .         BILL                 : Engineer     - RECORDING ENGINEER
WIT .         JIM                  : Witness      - WITNESSED BY
MUD .         GEL                  : Mud_type     - MUD TYPE
MATR.         SANDSTONE            : Logunit      - NEUTRON MATRIX
TMAX.C        30                   : BHT          - MAXIMUM RECORDED TEMPERATURE
BHTD.M        508                  : BHTDEP       - MAXIMUM RECORDED TEMPERATURE
RMT .C        19                   : MDTP         - TEMPERATURE OF MUD
MUDD.KG/M     1160                 : MWT          - MUD DENSITY
NEUT.         1                    : NEUTRON      - NEUTRON TYPE
RESI.         0                    : RESIST       - RESISTIVITY TYPE
RM  .OHMM     3.54                 : RM           - RESISTIVITY OF MUD
RMC .OHMM     2.95                 : RMC          - RESISTIVITY OF MUD CAKE
RMF .OHMM     3.62                 : RMF          - RESISTIVITY OF MUD FILTRATE
SUFT.C        15                   : SUFT         - SURFACE TEMPERATURE
~A  DEPTH       GR     PHIN     PHID     RESD
# ...
  397.000   92.463    0.366    0.245    7.472
  397.250   82.918    0.373    0.204    7.480
  397.500   87.163    0.357    0.222    7.627
  397.750   89.010    0.353    0.235    7.636
  398.000   87.259    0.357    0.249    7.644
  398.250   95.102    0.369    0.268    7.649
  398.500   89.154    0.367    0.267    7.800
  398.750   77.210    0.352    0.268    7.809
  399.000   71.262    0.351    0.277    7.965
  399.250   67.125    0.351    0.275    7.971
  399.500   64.163    0.352    0.278    7.983
  399.750   58.814    0.361    0.290    7.987
  400.000   57.051    0.361    0.287    7.848
  400.250   61.908    0.362    0.280    7.714
  400.500   54.749    0.371    0.287    7.722
  400.750   57.795    0.365    0.301    7.731
  401.000   60.254    0.363    0.306    7.735
  401.250   63.899    0.366    0.310    7.745
  401.500   56.752    0.364    0.311    7.754
  401.750   54.402    0.355    0.314    7.758
  402.000   53.251    0.348    0.312    7.766
  402.250   56.896    0.345    0.304    7.773
  402.500   61.753    0.353    0.293    7.783
  402.750   60.590    0.348    0.291    7.791
  403.000   65.435    0.345    0.292    7.800
  403.250   68.481    0.352    0.296    7.804
  403.500   63.732    0.359    0.299    7.812
  403.750   60.794    0.370    0.300    7.967
  404.000   59.631    0.380    0.299    7.975
  404.250   57.281    0.382    0.296    7.985
  404.500   54.343    0.380    0.295    7.991
  404.750   58.576    0.373    0.299    8.001
  405.000   67.030    0.367    0.311    8.011
  405.250   71.288    0.374    0.309    7.868
  405.500   59.919    0.380    0.296    7.594
  405.750   56.969    0.369    0.292    7.459
  406.000   54.619    0.360    0.299    7.063
  406.250   56.466    0.356    0.305    6.814
  406.500   53.516    0.355    0.297    6.573
  406.750   61.359    0.351    0.292    6.341
  407.000   57.809    0.358    0.294    6.233
  407.250   59.668    0.360    0.309    6.123
  407.500   59.716    0.351    0.322    6.017
  407.750   57.965    0.354    0.328    5.915
  408.000   53.816    0.384    0.323    5.920
  408.250   54.452    0.388    0.320    5.927
  408.500   61.107    0.382    0.319    5.930
  408.750   61.767    0.375    0.321    6.047
  409.000   67.200    0.375    0.327    6.401
  409.250   75.043    0.379    0.338    6.772
  409.500   63.698    0.379    0.339    6.655
  409.750   57.750    0.374    0.328    6.418
  410.000   58.997    0.370    0.304    5.859
  410.250   56.059    0.309    0.242    5.447
  410.500   54.297    0.248    0.175    5.451
  410.750   60.940    0.228    0.120    5.459
  411.000   59.789    0.244    0.118    5.463
  411.250   55.040    0.377    0.248    5.571
  411.500   51.491    0.371    0.313    5.682
  411.750   60.533    0.359    0.310    5.686
  412.000   65.977    0.368    0.314    5.797
  412.250   65.426    0.383    0.328    5.803
  412.500   64.874    0.383    0.333    5.810
  412.750   64.335    0.373    0.329    5.813
  413.000   61.972    0.381    0.329    5.822
  413.250   59.622    0.379    0.340    5.826
  413.500   62.068    0.371    0.346    5.833
  413.750   65.726    0.368    0.341    5.839
  414.000   69.384    0.371    0.337    5.846
  414.250   62.224    0.378    0.334    5.849
  414.500   56.264    0.382    0.333    5.855
  414.750   55.713    0.384    0.332    5.861
  415.000   61.169    0.385    0.330    5.867
  415.250   63.016    0.384    0.325    5.766
  415.500   66.062    0.374    0.317    5.774
  415.750   61.314    0.367    0.322    5.776
  416.000   58.975    0.364    0.331    5.785
  416.250   65.007    0.365    0.334    5.789
  416.500   71.663    0.368    0.333    5.794
  416.750   66.902    0.364    0.321    5.801
  417.000   65.751    0.377    0.310    5.805
  417.250   72.395    0.392    0.316    5.814
  417.500   76.040    0.398    0.323    5.818
  417.750   79.099    0.381    0.326    5.825
  418.000   73.139    0.367    0.326    5.831
  418.250   65.991    0.372    0.327    5.944
  418.500   61.854    0.368    0.322    6.061
  418.750   66.687    0.375    0.331    6.295
  419.000   79.339    0.378    0.328    6.419
  419.250   75.789    0.370    0.318    6.548
  419.500   70.441    0.373    0.321    6.553
  419.750   66.280    0.383    0.324    6.440
  420.000   59.132    0.386    0.324    6.327
  420.250   59.780    0.369    0.324    6.220
  420.500   61.627    0.364    0.323    6.223
  420.750   68.882    0.382    0.321    6.118
  421.000   71.940    0.388    0.315    6.123
  421.250   69.590    0.384    0.300    6.130
  421.500   69.038    0.394    0.312    6.133
  421.750   69.698    0.381    0.324    6.028
  422.000   70.322    0.361    0.320    6.036
  422.250   72.768    0.369    0.314    6.042
  422.500   72.828    0.388    0.316    6.048
  422.750   74.064    0.403    0.317    6.055
  423.000   78.908    0.371    0.317    6.060
  423.250   75.359    0.363    0.313    6.064
  423.500   73.020    0.371    0.306    5.744
  423.750   73.069    0.367    0.290    5.540
  424.000   76.702    0.354    0.283    5.059
  424.250   88.754    0.365    0.268    4.970
  424.500   84.005    0.376    0.261    4.882
  424.750   91.249    0.378    0.256    4.799
  425.000   92.508    0.374    0.251    4.892
  425.250  100.339    0.367    0.244    5.274
  425.500   97.389    0.368    0.250    5.478
  425.750   93.240    0.375    0.254    5.688
  426.000   77.099    0.381    0.254    5.911
  426.250   78.346    0.376    0.255    6.027
  426.500   77.794    0.371    0.258    6.032
  426.750   74.245    0.367    0.261    6.152
  427.000   68.896    0.367    0.262    6.160
  427.250   63.536    0.370    0.260    6.163
  427.500   72.590    0.374    0.253    6.169
  427.750   96.634    0.370    0.242    6.410
  428.000   90.674    0.368    0.229    6.533
  428.250   92.533    0.367    0.216    7.173
  428.500   90.183    0.362    0.202    8.171
  428.750   70.432    0.351    0.119    7.882
  429.000   72.878    0.233    0.100    7.330
  429.250   83.120    0.275    0.165    6.942
  429.500   87.977    0.360    0.204    6.574
  429.750   85.626    0.372    0.214    6.340
  430.000   84.475    0.372    0.211    6.349
  430.250   80.913    0.376    0.213    6.473
  430.500   86.969    0.383    0.215    6.979
  430.750   97.211    0.385    0.215    7.383
  431.000  101.456    0.367    0.215    7.528
  431.250   93.721    0.360    0.213    7.674
  431.500   91.971    0.356    0.198    7.825
  431.750   87.809    0.344    0.185    7.834
  432.000   95.652    0.341    0.181    7.699
  432.250   84.308    0.347    0.192    7.292
  432.500   89.752    0.352    0.201    7.031
  432.750  101.205    0.347    0.211    6.660
  433.000  101.865    0.349    0.211    6.307
  433.250  105.498    0.360    0.208    5.973
  433.500  110.343    0.363    0.197    5.764
  433.750  105.594    0.358    0.191    5.661
  434.000  106.242    0.353    0.191    5.563
  434.250  106.290    0.348    0.202    5.271
  434.500  106.338    0.349    0.204    5.082
  434.750   93.806    0.363    0.203    4.639
  435.000  102.237    0.366    0.207    4.312
  435.250   99.299    0.363    0.211    3.655
  435.500   97.536    0.363    0.204    3.275
  435.750   96.385    0.367    0.196    2.880
  436.000   95.834    0.382    0.206    2.534
  436.250   92.895    0.433    0.243    2.355
  436.500   92.931    0.441    0.259    2.190
  436.750   88.183    0.440    0.262    2.275
  437.000   91.229    0.457    0.266    2.544
  437.250   91.277    0.432    0.261    2.898
  437.500  103.329    0.416    0.261    3.302
  437.750   99.168    0.418    0.263    3.761
  438.000   89.622    0.414    0.257    4.129
  438.250   81.276    0.396    0.234    4.619
  438.500   89.718    0.379    0.218    5.072
  438.750   94.563    0.362    0.213    5.267
  439.000   88.016    0.359    0.214    5.574
  439.250   85.665    0.358    0.208    5.682
  439.500   81.516    0.351    0.200    5.794
  439.750   71.970    0.346    0.176    5.694
  440.000   76.815    0.337    0.175    5.296
  440.250   88.855    0.333    0.197    5.107
