~VERSION INFORMATION
 VERS.                 2.0:   CWLS LOG ASCII STANDARD -VERSION 2.0
 WRAP.                  NO:   ONE LINE PER DEPTH STEP
~WELL INFORMATION BLOCK
#MNEM.UNIT           DATA                    DESCRIPTION OF MNEMONIC
#---------    -------------------            -------------------------------
# Generated from Intellog Unique Number	CS_77_79/WELL/910
WELL.         BOW VALLEY EXPLORATION         : Well_name    - WELL
LOC .         00/07-28-077-14W4/0            : Location     - LOCATION
UWI .         00/07-28-077-14W4/0            : Uwi          - UNIQUE WELL ID
ENTR.         SP                             : Entered      - ENTERED BY
SRVC.         SCHLUMBERGER                   : Scn          - SERVICE COMPANY
STRT.M        275                            : top_depth    - START DEPTH
STOP.M        535                            : bot_depth    - STOP DEPTH
STEP.M        0.25                           : increment    - STEP LENGTH
 NULL. -999.2500:NULL Value
~CURVE INFORMATION BLOCK
#MNEM UNIT       ERCB CURVE CODE    CURVE DESCRIPTION
#-----------   ------------------   ----------------------------------
DEPT.M        00 001 00 00         : DEPTH        - DEPTH
ILD .OHMM     00 120 00 00         : RESD         - DEEP RESISTIVITY (DIL)
DPHI.V/V      00 890 00 00         : PHID         - DENSITY POROSITY (LIMESTONE)
NPHI.V/V      00 330 00 00         : PHIN         - NEUTRON POROSITY (LIMESTONE)
GR  .API      00 310 00 00         : GR           - GAMMA RAY
~PARAMETER INFORMATION
#MNEM.UNIT           DATA             DESCRIPTION OF MNEMONIC
#---------         -----------     ------------------------------
GL  .M        674.43               : gl           - GROUND LEVEL ELEVATION
EREF.M        677.88               : kb           - ELEVATION OF DEPTH REFERENCE
DATM.M        674.43               : datum        - DATUM ELEVATION
TDD .M        544                  : tdd          - TOTAL DEPTH DRILLER
RUN .         ONE                  : Run          - RUN NUMBER
ENG .         BILL                 : Engineer     - RECORDING ENGINEER
WIT .         JIM                  : Witness      - WITNESSED BY
MUD .         GEL                  : Mud_type     - MUD TYPE
MATR.         LIMESTONE            : Logunit      - NEUTRON MATRIX
TMAX.C        25                   : BHT          - MAXIMUM RECORDED TEMPERATURE
BHTD.M        544                  : BHTDEP       - MAXIMUM RECORDED TEMPERATURE
MATR.         1                    : LOGUNIT      - NEUTRON MATRIX
RMT .C        25                   : MDTP         - TEMPERATURE OF MUD
NEUT.         1                    : NEUTRON      - NEUTRON TYPE
RESI.         0                    : RESIST       - RESISTIVITY TYPE
RMC .OHMM     0.25                 : RMC          - RESISTIVITY OF MUD CAKE
RMF .OHMM     0.25                 : RMF          - RESISTIVITY OF MUD FILTRATE
SUFT.C        15                   : SUFT         - SURFACE TEMPERATURE
~A  DEPTH     RESD     PHID     PHIN       GR
# ...
  362.000   16.220    0.343    0.427   48.789
  362.250   16.541    0.351    0.435   50.029
  362.500   16.546    0.354    0.449   50.657
  362.750   16.251    0.355    0.450   50.674
  363.000   16.256    0.354    0.446   50.082
  363.250   16.267    0.350    0.444   50.089
  363.500   16.276    0.346    0.450   51.945
  363.750   16.595    0.343    0.446   52.570
  364.000   16.918    0.349    0.439   51.360
  364.250   17.572    0.347    0.425   49.538
  364.500   19.680    0.333    0.392   48.335
  364.750   22.456    0.242    0.242   47.123
  365.000   26.111    0.044    0.182   45.302
  365.250   28.691    0.021    0.140   44.706
  365.500   34.639    0.015    0.135   44.723
  365.750   39.522    0.021    0.146   45.344
  366.000   44.259    0.092    0.170   46.584
  366.250   38.835    0.207    0.208   48.437
  366.500   34.070    0.245    0.275   50.907
  366.750   28.791    0.312    0.346   51.533
  367.000   24.788    0.346    0.393   52.773
  367.250   21.750    0.338    0.426   52.171
  367.500   17.374    0.334    0.438   54.026
  367.750   15.825    0.329    0.449   60.165
  368.000   14.967    0.325    0.458   66.302
  368.250   13.634    0.322    0.453   73.054
  368.500   11.963    0.311    0.446   77.965
  368.750   11.103    0.302    0.449   81.045
  369.000   10.306    0.286    0.481   80.444
  369.250   10.119    0.275    0.499   78.010
  369.500   10.712    0.312    0.509   72.516
  369.750   11.773    0.324    0.497   68.858
  370.000   12.230    0.332    0.487   69.491
  370.250   11.141    0.337    0.486   70.116
  370.500    9.414    0.340    0.474   70.742
  370.750    6.718    0.321    0.485   71.366
  371.000    5.785    0.309    0.503   71.381
  371.250    5.172    0.288    0.529   77.519
  371.500    5.078    0.297    0.531   87.946
  371.750    5.178    0.286    0.504   95.308
  372.000    5.481    0.260    0.492  103.280
  372.250    6.023    0.240    0.502  101.465
  372.500    6.619    0.241    0.506   95.963
  372.750    6.876    0.251    0.481   89.860
  373.000    6.880    0.266    0.465   90.486
  373.250    6.631    0.278    0.461   88.050
  373.500    6.272    0.271    0.456   85.005
  373.750    5.933    0.260    0.449   87.475
  374.000    5.716    0.245    0.441   88.096
  374.250    5.614    0.250    0.452   85.665
  374.500    5.617    0.257    0.460   84.453
  374.750    5.619    0.252    0.462   84.472
  375.000    5.838    0.242    0.458   85.717
  375.250    6.180    0.252    0.457   86.954
  375.500    6.420    0.250    0.468   88.799
  375.750    6.544    0.240    0.466   91.880
  376.000    6.673    0.231    0.453   93.116
  376.250    6.802    0.239    0.451   90.684
  376.500    6.936    0.243    0.461   88.865
  376.750    6.809    0.248    0.472   89.493
  377.000    6.688    0.254    0.481   91.347
  377.250    6.568    0.252    0.484   93.196
  377.500    6.448    0.253    0.467   91.374
  377.750    6.214    0.259    0.460   90.163
  378.000    5.988    0.262    0.478   91.405
  378.250    5.456    0.251    0.485   93.258
  378.500    5.356    0.244    0.486   95.109
  378.750    5.067    0.255    0.496   96.347
  379.000    4.975    0.262    0.481   90.853
  379.250    5.071    0.259    0.477   87.807
  379.500    5.368    0.249    0.488   85.987
  379.750    5.900    0.245    0.493   86.613
  380.000    6.246    0.265    0.495   87.241
  380.250    6.133    0.272    0.472   85.418
  380.500    5.692    0.285    0.459   81.763
  380.750    5.089    0.288    0.451   82.389
  381.000    4.300    0.296    0.437   86.078
  381.250    3.566    0.288    0.454   93.440
  381.500    3.310    0.278    0.507  100.187
  381.750    2.959    0.275    0.554  103.270
  382.000    2.696    0.271    0.599  104.515
  382.250    2.502    0.276    0.602  104.529
  382.500    2.457    0.282    0.621  104.535
  382.750    2.505    0.284    0.622  100.879
  383.000    2.554    0.277    0.589   99.668
  383.250    2.555    0.282    0.592  101.519
  383.500    2.557    0.284    0.607  101.534
  383.750    2.606    0.281    0.613   99.104
  384.000    2.608    0.277    0.608   99.119
  384.250    2.609    0.274    0.582  100.361
  384.500    2.611    0.274    0.571  101.597
  384.750    2.662    0.280    0.577  101.001
  385.000    2.871    0.280    0.590   99.789
  385.250    3.156    0.272    0.580   99.193
  385.500    3.534    0.263    0.567   96.762
  385.750    4.032    0.268    0.556   97.389
  386.000    4.688    0.278    0.539   94.345
  386.250    5.451    0.285    0.496   90.070
  386.500    6.104    0.280    0.451   84.576
  386.750    6.708    0.281    0.441   81.531
  387.000    7.373    0.286    0.450   79.707
  387.250    7.659    0.285    0.456   79.109
  387.500    7.957    0.276    0.461   80.351
  387.750    8.113    0.272    0.463   78.529
  388.000    8.116    0.260    0.467   75.490
  388.250    8.274    0.280    0.459   74.889
  388.500    8.281    0.298    0.442   75.513
  388.750    8.284    0.296    0.422   79.205
  389.000    8.288    0.276    0.415   82.283
  389.250    8.294    0.264    0.453   83.519
  389.500    8.298    0.275    0.500   81.698
  389.750    8.302    0.273    0.460   81.711
  390.000    8.309    0.265    0.448   83.563
  390.250    8.158    0.272    0.454   78.073
  390.500    8.162    0.280    0.463   76.860
  390.750    8.167    0.282    0.470   76.263
  391.000    8.327    0.293    0.472   75.671
  391.250    8.488    0.303    0.474   73.844
  391.500    8.495    0.308    0.445   70.189
  391.750    8.660    0.319    0.422   67.754
  392.000    8.665    0.325    0.419   67.155
  392.250    8.833    0.323    0.423   69.629
  392.500    8.840    0.324    0.416   70.866
  392.750    8.845    0.322    0.406   71.488
  393.000    8.849    0.319    0.413   70.888
  393.250    8.689    0.310    0.422   77.033
  393.500    8.694    0.300    0.430   80.722
  393.750    8.700    0.303    0.436   81.345
  394.000    8.543    0.305    0.440   83.812
  394.250    8.546    0.305    0.460   85.047
  394.500    8.552    0.306    0.457   82.617
  394.750    8.396    0.310    0.450   79.571
  395.000    8.401    0.314    0.447   77.748
  395.250    8.409    0.316    0.453   74.705
  395.500    8.413    0.321    0.449   72.884
  395.750    8.260    0.325    0.442   74.120
  396.000    8.263    0.320    0.462   70.462
  396.250    8.268    0.315    0.485   68.638
  396.500    8.119    0.310    0.499   69.880
  396.750    7.824    0.311    0.477   71.732
  397.000    7.400    0.312    0.458   71.747
  397.250    6.373    0.308    0.453   76.662
  397.500    5.697    0.300    0.452   80.961
  397.750    5.489    0.294    0.451   84.040
  398.000    5.191    0.297    0.459   84.665
  398.250    5.099    0.308    0.506   85.904
  398.500    5.297    0.308    0.508   82.865
  398.750    5.400    0.294    0.469   82.262
  399.000    5.505    0.287    0.449   82.889
  399.250    5.406    0.280    0.435   85.971
  399.500    5.310    0.273    0.484   87.206
  399.750    5.214    0.277    0.502   86.609
  400.000    5.216    0.276    0.508   83.563
  400.250    5.219    0.270    0.507   82.966
  400.500    5.321    0.268    0.512   84.205
  400.750    5.424    0.282    0.515   84.221
  401.000    5.634    0.308    0.512   81.176
  401.250    5.964    0.333    0.496   79.353
  401.500    6.313    0.331    0.459   78.758
  401.750    6.559    0.304    0.442   78.774
  402.000    6.441    0.290    0.465   80.014
  402.250    6.324    0.272    0.447   83.087
  402.500    6.212    0.250    0.455   87.389
  402.750    6.099    0.307    0.461   86.795
  403.000    5.988    0.302    0.465   88.645
  403.250    5.881    0.281    0.465   86.823
  403.500    5.883    0.277    0.460   86.840
  403.750    5.887    0.272    0.452   88.080
  404.000    5.782    0.268    0.456   87.482
  404.250    5.785    0.265    0.481   84.435
  404.500    5.787    0.279    0.488   80.775
  404.750    5.900    0.293    0.494   81.403
  405.000    5.904    0.304    0.479   83.871
  405.250    6.018    0.309    0.477   83.884
