~VERSION INFORMATION
 VERS.                 2.0:   CWLS LOG ASCII STANDARD -VERSION 2.0
 WRAP.                  NO:   ONE LINE PER DEPTH STEP
~WELL INFORMATION BLOCK
#MNEM.UNIT           DATA                    DESCRIPTION OF MNEMONIC
#---------    -------------------            -------------------------------
# Generated from Intellog Unique Number	CN_94_101/WELL/2594
WELL.         PARAMOUNT RESOURCES LTD.       : Well_name    - WELL
LOC .         00/09-35-094-18W4/0            : Location     - LOCATION
UWI .         00/09-35-094-18W400            : Uwi          - UNIQUE WELL ID
ENTR.         JOETTE                         : Entered      - ENTERED BY
SRVC.         COMPUTALOG                     : Scn          - SERVICE COMPANY
DATE.         06/12/92                       : Date         - LOG DATE
STRT.M        95                             : top_depth    - START DEPTH
STOP.M        295                            : bot_depth    - STOP DEPTH
STEP.M        0.25                           : increment    - STEP LENGTH
 NULL. -999.2500:NULL Value
~CURVE INFORMATION BLOCK
#MNEM UNIT       ERCB CURVE CODE    CURVE DESCRIPTION
#-----------   ------------------   ----------------------------------
DEPT.M        00 001 00 00         : DEPTH        - DEPTH
CALI.MM       00 280 01 00         : CAL          - CALIPER
GR  .API      00 310 00 00         : GR           - GAMMA RAY
NPHI.V/V      00 330 00 00         : PHIN         - NEUTRON POROSITY (SANDSTONE)
DPHI.V/V      00 890 00 00         : PHID         - DENSITY POROSITY (SANDSTONE)
ILD .OHMM     00 120 00 00         : RESD         - DEEP RESISTIVITY (DIL)
~PARAMETER INFORMATION
#MNEM.UNIT           DATA             DESCRIPTION OF MNEMONIC
#---------         -----------     ------------------------------
GL  .M        554.9                : gl           - GROUND LEVEL ELEVATION
EREF.M        558.7                : kb           - ELEVATION OF DEPTH REFERENCE
DATM.M        558.7                : datum        - DATUM ELEVATION
TDD .M        293.9                : tdd          - TOTAL DEPTH DRILLER
RUN .         ONE                  : Run          - RUN NUMBER
ENG .         BILL                 : Engineer     - RECORDING ENGINEER
WIT .         JIM                  : Witness      - WITNESSED BY
MUD .         GEL                  : Mud_type     - MUD TYPE
MATR.         SANDSTONE            : Logunit      - NEUTRON MATRIX
TMAX.C        25                   : BHT          - MAXIMUM RECORDED TEMPERATURE
BHTD.M        293.9                : BHTDEP       - MAXIMUM RECORDED TEMPERATURE
RMT .C        15                   : MDTP         - TEMPERATURE OF MUD
MUDD.KG/M     1100                 : MWT          - MUD DENSITY
NEUT.         1                    : NEUTRON      - NEUTRON TYPE
RESI.         0                    : RESIST       - RESISTIVITY TYPE
RM  .OHMM     2.1                  : RM           - RESISTIVITY OF MUD
RMC .OHMM     2.1                  : RMC          - RESISTIVITY OF MUD CAKE
RMF .OHMM     4.5                  : RMF          - RESISTIVITY OF MUD FILTRATE
SUFT.C        -15                  : SUFT         - SURFACE TEMPERATURE
~A  DEPTH      CAL       GR     PHIN     PHID     RESD
# ...
  131.500  171.303   83.424    0.471    0.251    4.119
  131.750  174.426   81.546    0.470    0.251    4.119
  132.000  175.464   86.546    0.483    0.254    4.198
  132.250  174.418   93.420    0.482    0.257    4.442
  132.500  171.288   90.917    0.478    0.263    4.701
  132.750  166.073   85.288    0.482    0.263    4.976
  133.000  168.153   82.785    0.493    0.239    5.366
  133.250  170.232   78.406    0.478    0.231    5.787
  133.500  169.188   73.402    0.450    0.223    6.482
  133.750  166.059   75.275    0.434    0.249    7.398
  134.000  166.055   79.024    0.438    0.262    7.979
  134.250  172.302   82.148    0.480    0.270    7.398
  134.500  170.214   85.896    0.514    0.280    4.883
  134.750  166.042   84.018    0.515    0.275    4.120
  135.000  168.122   80.265    0.507    0.270    4.444
  135.250  170.203   77.137    0.490    0.236    4.977
  135.500  171.241   72.758    0.488    0.203    5.789
  135.750  171.236   67.129    0.443    0.196    6.607
  136.000  166.022   64.000    0.369    0.203    7.261
  136.250  162.893   75.877    0.382    0.258    7.400
  136.500  159.762   80.876    0.426    0.278    6.862
  136.750  164.968   86.500    0.480    0.295    6.607
  137.000  171.216   79.620    0.479    0.286    6.363
  137.250  171.211   75.867    0.474    0.274    6.127
  137.500  168.080   77.740    0.470    0.272    6.127
  137.750  165.993   78.362    0.465    0.273    6.244
  138.000  163.904   77.110    0.458    0.274    6.363
  138.250  163.902   73.357    0.451    0.275    6.485
  138.500  163.897   73.979    0.440    0.288    6.609
  138.750  163.893   77.103    0.417    0.299    6.735
  139.000  163.888   78.351    0.406    0.293    6.735
  139.250  163.886   73.347    0.407    0.297    6.735
  139.500  163.882   73.970    0.403    0.299    6.735
  139.750  167.003   77.719    0.437    0.294    6.864
  140.000  168.042   77.091    0.451    0.285    6.864
  140.250  168.037   72.712    0.447    0.275    6.995
  140.500  166.992   70.209    0.451    0.280    7.264
  140.750  164.905   65.205    0.458    0.310    7.265
  141.000  163.858   60.826    0.416    0.320    7.403
  141.250  168.022   68.326    0.396    0.323    7.835
  141.500  171.145   74.575    0.434    0.322    7.835
  141.750  175.307   73.323    0.450    0.313    7.129
  142.000  174.262   69.570    0.447    0.309    6.611
  142.250  166.965   65.816    0.435    0.327    6.015
  142.500  158.625   68.314    0.429    0.337    6.015
  142.750  160.705   72.688    0.445    0.326    6.130
  143.000  164.868   75.811    0.461    0.311    6.488
  143.250  167.989   75.185    0.466    0.304    6.866
  143.500  170.070   73.307    0.475    0.314    6.866
  143.750  172.150   69.552    0.472    0.323    6.997
  144.000  172.146   70.800    0.459    0.322    7.131
  144.250  171.100   73.924    0.461    0.321    7.131
  144.500  171.096   69.545    0.471    0.327    6.867
  144.750  171.090   72.044    0.466    0.336    6.367
  145.000  171.087   76.418    0.454    0.332    5.579
  145.250  170.042   80.166    0.466    0.236    4.888
  145.500  168.993   80.789    0.484    0.220    4.707
  145.750  168.992   80.787    0.506    0.265    4.619
  146.000  168.987   82.035    0.503    0.267    4.708
  146.250  168.984   86.409    0.498    0.256    5.077
  146.500  171.062   90.783    0.490    0.245    5.174
  146.750  172.102   90.155    0.475    0.240    5.476
  147.000  175.221   87.027    0.455    0.247    5.795
  147.250  176.261   82.648    0.456    0.257    6.133
  147.500  175.216   81.395    0.461    0.266    6.369
  147.750  170.002   78.892    0.465    0.253    6.614
  148.000  165.829   74.514    0.426    0.172    6.869
  148.250  168.950   75.762    0.401    0.199    6.869
  148.500  169.990   79.509    0.443    0.253    6.491
  148.750  168.945   80.133    0.455    0.262    6.134
  149.000  168.940   79.506    0.453    0.264    6.019
  149.250  169.979   83.879    0.447    0.268    6.019
  149.500  172.057   85.127    0.452    0.272    6.251
  149.750  171.012   84.499    0.466    0.269    6.371
  150.000  171.009   81.371    0.461    0.264    6.616
  150.250  166.835   78.868    0.447    0.256    6.742
  150.500  165.790   76.365    0.449    0.257    7.135
  150.750  163.701   71.986    0.459    0.283    7.410
  151.000  162.654   64.481    0.470    0.293    7.552
  151.250  161.609   67.605    0.475    0.275    7.696
  151.500  161.605   72.604    0.463    0.153    7.552
  151.750  162.643   78.228    0.455    0.209    7.003
  152.000  167.850   84.478    0.468    0.236    6.743
  152.250  176.182   82.599    0.469    0.263    6.617
  152.500  175.135   79.471    0.463    0.263    6.617
  152.750  170.963   76.969    0.459    0.237    6.744
  153.000  165.749   76.966    0.444    0.213    6.873
  153.250  163.661   80.090    0.438    0.224    7.004
  153.500  163.658   83.213    0.449    0.240    7.004
  153.750  165.737   80.710    0.460    0.248    6.873
  154.000  168.858   78.206    0.474    0.258    6.618
  154.250  170.940   80.705    0.473    0.268    6.254
  154.500  171.978   83.204    0.464    0.262    5.799
  154.750  171.973   87.577    0.464    0.262    5.691
  155.000  171.968   91.952    0.481    0.268    5.277
  155.250  171.966   95.075    0.485    0.269    5.081
  155.500  171.962   96.323    0.480    0.268    4.893
  155.750  171.956   95.695    0.476    0.267    4.802
  156.000  171.954   91.941    0.480    0.264    4.802
  156.250  170.908   90.064    0.481    0.264    4.894
  156.500  169.862   90.061    0.480    0.264    4.987
  156.750  168.816   91.935    0.480    0.264    4.987
  157.000  167.770   93.183    0.491    0.264    4.987
  157.250  167.766   91.930    0.500    0.263    4.802
  157.500  168.802   89.427    0.491    0.259    4.625
  157.750  170.883   85.673    0.484    0.255    4.625
  158.000  172.964   90.671    0.487    0.257    4.803
  158.250  176.086   92.545    0.489    0.257    5.379
  158.500  179.208   85.666    0.484    0.252    5.912
  158.750  180.246   81.287    0.458    0.253    6.025
  159.000  178.158   76.908    0.460    0.197    5.380
  159.250  172.944   81.282    0.469    0.157    4.803
  159.500  168.772   90.658    0.481    0.232    4.209
  159.750  170.851   98.783    0.490    0.260    4.053
  160.000  172.931   98.155    0.486    0.268    3.977
  160.250  173.970  100.029    0.503    0.278    4.053
  160.500  173.965  106.278    0.502    0.273    4.209
  160.750  173.961  105.651    0.496    0.260    4.289
  161.000  172.914  106.899    0.487    0.253    4.371
  161.250  171.870  110.022    0.481    0.256    4.455
  161.500  169.782  105.643    0.474    0.248    4.540
  161.750  167.694   96.888    0.468    0.251    4.627
  162.000  165.606   90.634    0.473    0.250    4.627
  162.250  163.518   86.255    0.468    0.215    4.715
  162.500  160.386   87.503    0.463    0.165    4.715
  162.750  160.384   93.128    0.474    0.219    4.540
  163.000  161.422   99.377    0.488    0.247    4.290
  163.250  162.460  103.750    0.501    0.276    3.904
  163.500  164.541  101.873    0.517    0.284    3.904
  163.750  165.578   93.743    0.552    0.288    3.978
  164.000  165.574   85.614    0.521    0.292    4.211
  164.250  165.569   83.110    0.486    0.284    4.541
  164.500  164.523   87.484    0.458    0.277    4.897
  164.750  164.519   90.607    0.452    0.272    5.086
  165.000  164.515   90.604    0.459    0.266    5.590
  165.250  164.511   88.727    0.472    0.263    6.144
  165.500  163.465   84.348    0.478    0.293    6.380
  165.750  163.461   79.344    0.484    0.309    6.380
  166.000  162.414   70.589    0.446    0.311    6.626
  166.250  162.412   76.214    0.426    0.279    6.753
  166.500  161.366   88.090    0.452    0.263    6.753
  166.750  161.362   92.463    0.465    0.246    6.627
  167.000  163.440   91.210    0.480    0.236    5.917
  167.250  164.480   88.707    0.486    0.242    5.698
  167.500  164.476   86.204    0.475    0.252    5.487
  167.750  165.513   83.076    0.452    0.261    5.698
