~VERSION INFORMATION
 VERS.                 2.0:   CWLS LOG ASCII STANDARD -VERSION 2.0
 WRAP.                  NO:   ONE LINE PER DEPTH STEP
~WELL INFORMATION BLOCK
#MNEM.UNIT           DATA                    DESCRIPTION OF MNEMONIC
#---------    -------------------            -------------------------------
# Generated from Intellog Unique Number	CS_77_79/WELL/888
WELL.         CDN-SUP THORNBURY              : Well_name    - WELL
LOC .         00/06-34-078-13W4/0            : Location     - LOCATION
UWI .         00/06-34-078-13W4/0            : Uwi          - UNIQUE WELL ID
ENTR.         JHS                            : Entered      - ENTERED BY
SRVC.         SCHLUMBERGER                   : Scn          - SERVICE COMPANY
STRT.M        250                            : top_depth    - START DEPTH
STOP.M        475                            : bot_depth    - STOP DEPTH
STEP.M        0.25                           : increment    - STEP LENGTH
 NULL. -999.2500:NULL Value
~CURVE INFORMATION BLOCK
#MNEM UNIT       ERCB CURVE CODE    CURVE DESCRIPTION
#-----------   ------------------   ----------------------------------
DEPT.M        00 001 00 00         : DEPTH        - DEPTH
DPHI.V/V      00 890 00 00         : PHID         - DENSITY POROSITY (LIMESTONE)
NPHI.V/V      00 330 00 00         : PHIN         - NEUTRON POROSITY (LIMESTONE)
GR  .API      00 310 00 00         : GR           - GAMMA RAY
ILD .OHMM     00 120 00 00         : RESD         - DEEP RESISTIVITY (DIL)
~PARAMETER INFORMATION
#MNEM.UNIT           DATA             DESCRIPTION OF MNEMONIC
#---------         -----------     ------------------------------
GL  .M        662.5                : gl           - GROUND LEVEL ELEVATION
EREF.M        668                  : kb           - ELEVATION OF DEPTH REFERENCE
DATM.M        668                  : datum        - DATUM ELEVATION
TDD .M        473                  : tdd          - TOTAL DEPTH DRILLER
RUN .         ONE                  : Run          - RUN NUMBER
ENG .         BILL                 : Engineer     - RECORDING ENGINEER
WIT .         JIM                  : Witness      - WITNESSED BY
MUD .         GEL                  : Mud_type     - MUD TYPE
MATR.         LIMESTONE            : Logunit      - NEUTRON MATRIX
TMAX.C        23                   : BHT          - MAXIMUM RECORDED TEMPERATURE
BHTD.M        473                  : BHTDEP       - MAXIMUM RECORDED TEMPERATURE
MATR.         1                    : LOGUNIT      - NEUTRON MATRIX
RMT .C        25                   : MDTP         - TEMPERATURE OF MUD
NEUT.         1                    : NEUTRON      - NEUTRON TYPE
RESI.         0                    : RESIST       - RESISTIVITY TYPE
RMC .OHMM     0.25                 : RMC          - RESISTIVITY OF MUD CAKE
RMF .OHMM     0.25                 : RMF          - RESISTIVITY OF MUD FILTRATE
SUFT.C        15                   : SUFT         - SURFACE TEMPERATURE
~A  DEPTH     PHID     PHIN       GR     RESD
# ...
  293.500    0.201    0.508  121.087    7.688
  293.750    0.200    0.532  123.506    5.922
  294.000    0.211    0.521  121.652    5.708
  294.250    0.228    0.467  119.197    6.155
  294.500    0.227    0.456  117.343    7.017
  294.750    0.237    0.461  114.274    7.999
  295.000    0.243    0.466  109.372    9.120
  295.250    0.253    0.472  108.134   10.206
  295.500    0.257    0.462  105.059   11.422
  295.750    0.260    0.462  100.771   12.086
  296.000    0.259    0.455   98.919   12.550
  296.250    0.271    0.455   96.460   12.793
  296.500    0.253    0.445   92.783   12.329
  296.750    0.235    0.433  101.905   11.664
  297.000    0.249    0.440  104.319   11.242
  297.250    0.251    0.432  102.468   11.039
  297.500    0.248    0.421   98.177   11.043
  297.750    0.269    0.411   91.446   11.470
  298.000    0.264    0.427   86.551   12.136
  298.250    0.283    0.441   81.044   12.368
  298.500    0.302    0.450   73.095   13.334
  298.750    0.312    0.457   65.757   14.922
  299.000    0.306    0.452   66.948   16.086
  299.250    0.294    0.446   68.755   17.020
  299.500    0.277    0.452   67.521   17.676
  299.750    0.261    0.446   71.763   18.018
  300.000    0.285    0.429   82.715   17.364
  300.250    0.246    0.412   97.324   14.147
  300.500    0.226    0.413  108.883   11.963
  300.750    0.211    0.426  112.518    9.747
  301.000    0.224    0.440  110.056    8.399
  301.250    0.224    0.452  106.981    7.653
  301.500    0.210    0.464  105.749    6.719
  301.750    0.229    0.478  113.648    6.475
  302.000    0.244    0.493  114.845    6.012
  302.250    0.237    0.509  109.950    5.479
  302.500    0.230    0.511  102.612    5.907
  302.750    0.242    0.503   95.267    6.734
  303.000    0.259    0.490   92.809    7.970
  303.250    0.269    0.492   87.909    9.610
  303.500    0.253    0.497   85.451   11.374
  303.750    0.257    0.482   84.212   12.494
  304.000    0.256    0.483   84.799   12.736
  304.250    0.270    0.496   84.163   12.741
  304.500    0.281    0.485   84.749   12.510
  304.750    0.270    0.476   90.216   11.834
  305.000    0.259    0.481   95.683   10.584
  305.250    0.248    0.487  100.537    9.121
  305.500    0.255    0.499  102.953    8.628
  305.750    0.268    0.471  101.710    8.161
  306.000    0.252    0.447   98.637    7.720
  306.250    0.258    0.432   98.009    7.725
  306.500    0.274    0.426   97.376    7.872
  306.750    0.278    0.421   93.086    8.976
  307.000    0.274    0.420   85.747   10.234
  307.250    0.277    0.426   81.455   11.452
  307.500    0.272    0.436   79.606   12.346
  307.750    0.276    0.437   77.752   13.064
  308.000    0.297    0.447   77.126   13.823
  308.250    0.306    0.461   75.880   13.323
  308.500    0.298    0.473   76.472   13.330
  308.750    0.281    0.463   77.054   13.585
  309.000    0.276    0.469   75.815   14.109
  309.250    0.280    0.471   71.526   14.928
  309.500    0.260    0.439   66.624   16.706
  309.750    0.286    0.419   62.337   18.695
  310.000    0.318    0.419   55.001   20.151
  310.250    0.333    0.434   50.707   22.552
  310.500    0.340    0.446   51.910   25.237
  310.750    0.347    0.455   54.933   27.718
  311.000    0.339    0.459   57.346   29.879
  311.250    0.335    0.454   57.937   32.212
  311.500    0.346    0.449   58.520   33.451
  311.750    0.343    0.444   59.723   35.397
  312.000    0.340    0.443   60.304   36.760
  312.250    0.341    0.460   57.846   38.176
  312.500    0.353    0.480   52.338   39.646
  312.750    0.348    0.493   51.704   41.171
  313.000    0.345    0.477   51.680   42.758
  313.250    0.351    0.452   52.268   43.589
  313.500    0.344    0.449   53.467   43.611
  313.750    0.343    0.464   54.662   42.026
  314.000    0.353    0.481   54.644   37.589
  314.250    0.355    0.499   53.401   32.386
  314.500    0.353    0.506   51.547   26.886
  314.750    0.347    0.473   52.748   24.500
  315.000    0.342    0.466   52.113   21.508
  315.250    0.336    0.460   49.651   19.601
  315.500    0.337    0.446   49.025   18.894
  315.750    0.345    0.427   49.606   18.899
  316.000    0.349    0.420   48.978   18.910
  316.250    0.343    0.424   47.129   18.916
  316.500    0.339    0.425   45.886   18.927
  316.750    0.346    0.435   47.083   19.290
  317.000    0.345    0.435   48.889   19.302
  317.250    0.348    0.442   49.479   19.310
  317.500    0.350    0.437   48.843   19.316
  317.750    0.342    0.431   43.332   19.693
  318.000    0.344    0.437   43.315   19.699
  318.250    0.354    0.444   46.331   19.710
  318.500    0.358    0.432   46.925   19.719
  318.750    0.341    0.421   49.953   20.097
  319.000    0.329    0.410   48.712   20.107
  319.250    0.334    0.412   48.689   20.117
  319.500    0.355    0.430   47.447   20.124
  319.750    0.375    0.447   46.816   19.761
  320.000    0.334    0.429   47.402   19.049
  320.250    0.345    0.416   44.943   18.701
  320.500    0.354    0.424   43.086   18.714
  320.750    0.339    0.442   44.898   19.071
  321.000    0.283    0.443   41.219   20.561
  321.250    0.263    0.407   38.145   21.753
  321.500    0.246    0.404   37.512   23.893
  321.750    0.248    0.391   37.484   26.246
  322.000    0.278    0.398   36.857   27.253
  322.250    0.239    0.463   36.230   27.269
  322.500    0.231    0.420   35.598   25.315
  322.750    0.266    0.362   36.182   23.504
  323.000    0.314    0.397   41.649   21.024
  323.250    0.351    0.441   39.797   19.887
  323.500    0.354    0.451   39.773   18.813
  323.750    0.354    0.436   41.578   18.135
  324.000    0.351    0.428   40.339   18.142
  324.250    0.346    0.440   38.488   17.813
  324.500    0.342    0.440   40.290   17.821
  324.750    0.338    0.431   40.275   18.165
  325.000    0.336    0.432   40.246   18.176
  325.250    0.346    0.420   40.230   18.524
  325.500    0.340    0.411   40.206   18.533
  325.750    0.338    0.420   40.182   18.545
  326.000    0.344    0.412   40.162   18.550
  326.250    0.348    0.408   38.310   18.559
  326.500    0.346    0.399   37.064   17.888
  326.750    0.342    0.399   37.047   17.567
  327.000    0.338    0.413   38.243   17.573
  327.250    0.334    0.422   40.047   17.254
  327.500    0.336    0.427   40.639   17.266
  327.750    0.337    0.431   40.001   17.272
  328.000    0.339    0.436   39.370   17.278
  328.250    0.343    0.432   39.348   17.610
  328.500    0.347    0.435   39.328   17.623
  328.750    0.344    0.436   37.473   17.962
  329.000    0.343    0.429   36.227   17.968
  329.250    0.348    0.439   36.822   18.317
  329.500    0.343    0.436   38.019   17.983
  329.750    0.351    0.429   38.000   17.993
  330.000    0.342    0.428   37.977   18.002
  330.250    0.329    0.435   35.509   18.011
  330.500    0.323    0.440   36.097   18.359
  330.750    0.334    0.434   36.684   18.365
  331.000    0.334    0.430   36.663   18.378
  331.250    0.339    0.421   36.641   18.383
  331.500    0.339    0.411   36.622   18.395
  331.750    0.329    0.411   35.994   18.400
  332.000    0.328    0.423   34.133   18.406
  332.250    0.335    0.434   34.120   18.419
  332.500    0.343    0.443   34.707   18.425
  332.750    0.336    0.434   35.898   18.430
  333.000    0.335    0.441   37.096   18.104
  333.250    0.335    0.433   37.689   18.111
  333.500    0.332    0.425   38.273   18.119
  333.750    0.334    0.425   39.471   18.126
  334.000    0.334    0.435   41.273   18.133
  334.250    0.328    0.451   40.642   17.807
  334.500    0.327    0.438   40.007   17.814
  334.750    0.333    0.434   39.983   17.821
  335.000    0.326    0.427   39.961   17.834
  335.250    0.331    0.440   40.557   17.839
  335.500    0.334    0.453   40.536   17.849
  335.750    0.337    0.461   39.902   17.854
  336.000    0.335    0.456   40.489   17.861
  336.250    0.328    0.452   41.079   17.539
  336.500    0.329    0.444   42.273   17.550
  336.750    0.329    0.429   43.473   17.556
