~VERSION INFORMATION
 VERS.                 2.0:   CWLS LOG ASCII STANDARD -VERSION 2.0
 WRAP.                  NO:   ONE LINE PER DEPTH STEP
~WELL INFORMATION BLOCK
#MNEM.UNIT           DATA                    DESCRIPTION OF MNEMONIC
#---------    -------------------            -------------------------------
# Generated from Intellog Unique Number	CC_84_87/WELL/1169
NULL.         -999.25                        : NULL_VALUE
WELL.         BP GRANOR                      : Well_name    - WELL              
LOC .         07-29-084-18W4                 : Location     - LOCATION          
UWI .         00/07-29-084-18W400            : Uwi          - UNIQUE WELL ID    
ENTR.         JHS                            : Entered      - ENTERED BY        
SRVC.         SCHLUMBERGER                   : Scn          - SERVICE COMPANY   
DATE.         01 MAR 81                      : Date         - LOG DATE
STRT.M        115                            : top_depth    - START DEPTH       
STOP.M        364.897                        : bot_depth    - STOP DEPTH        
STEP.M        0.3                            : increment    - STEP LENGTH       
~CURVE INFORMATION BLOCK
#MNEM UNIT       ERCB CURVE CODE    CURVE DESCRIPTION
#-----------   ------------------   ----------------------------------
DEPT.M        00 001 00 00         : DEPTH        - DEPTH                       
DPHI.V/V      00 890 00 00         : PHID         - DENSITY POROSITY (LIMESTONE)
NPHI.V/V      00 330 00 00         : PHIN         - NEUTRON POROSITY (LIMESTONE)
GR  .API      00 310 00 00         : GR           - GAMMA RAY                   
ILD .OHMM     00 120 00 00         : RESD         - DEEP RESISTIVITY (DIL)      
~PARAMETER INFORMATION       
#MNEM.UNIT           DATA             DESCRIPTION OF MNEMONIC
#---------         -----------     ------------------------------
GL  .M        567.8                : gl           - GROUND LEVEL ELEVATION      
EREF.M        571.5                : kb           - ELEVATION OF DEPTH REFERENCE
DATM.M        571.5                : datum        - DATUM ELEVATION             
TDD .M        350                  : tdd          - TOTAL DEPTH DRILLER         
RUN .         ONE                  : Run          - RUN NUMBER                  
ENG .         BILL                 : Engineer     - RECORDING ENGINEER          
WIT .         JIM                  : Witness      - WITNESSED BY                
MUD .         GEL                  : Mud_type     - MUD TYPE                    
MATR.         LIMESTONE            : Logunit      - NEUTRON MATRIX              
TMAX.C        20                   : BHT          - MAXIMUM RECORDED TEMPERATURE
BHTD.M        350                  : BHTDEP       - MAXIMUM RECORDED TEMPERATURE
MATR.         1                    : LOGUNIT      - NEUTRON MATRIX              
RMT .C        25                   : MDTP         - TEMPERATURE OF MUD          
NEUT.         1                    : NEUTRON      - NEUTRON TYPE                
RESI.         0                    : RESIST       - RESISTIVITY TYPE            
RMC .OHMM     0.25                 : RMC          - RESISTIVITY OF MUD CAKE     
RMF .OHMM     0.25                 : RMF          - RESISTIVITY OF MUD FILTRATE 
SUFT.C        15                   : SUFT         - SURFACE TEMPERATURE         
~A  DEPTH     PHID     PHIN       GR     RESD
# ...
  167.201    0.356    0.469   51.076   23.277
  167.501    0.358    0.454   48.691   23.745
  167.801    0.341    0.446   45.697   24.218
  168.101    0.358    0.454   46.358   24.706
  168.401    0.354    0.466   46.996   24.723
  168.701    0.325    0.458   45.218   25.218
  169.001    0.327    0.442   45.263   25.240
  169.301    0.352    0.459   46.518   25.745
  169.601    0.355    0.464   46.559   25.765
  169.901    0.371    0.458   46.607   25.778
  170.201    0.352    0.447   46.653   25.800
  170.501    0.361    0.429   44.872   25.820
  170.801    0.364    0.438   43.700   25.838
  171.101    0.350    0.449   43.739   25.361
  171.401    0.357    0.450   44.387   25.875
  171.701    0.368    0.465   47.464   24.924
  172.001    0.369    0.455   51.756   24.937
  172.301    0.357    0.448   52.417   24.480
  172.601    0.363    0.445   51.837   24.498
  172.901    0.357    0.421   48.245   24.511
  173.201    0.359    0.412   45.863   24.541
  173.501    0.352    0.450   45.902   24.085
  173.801    0.352    0.450   47.161   24.110
  174.101    0.364    0.457   47.809   23.663
  174.401    0.359    0.445   48.454   23.675
  174.701    0.361    0.427   49.113   23.245
  175.001    0.351    0.438   50.361   22.389
  175.301    0.342    0.430   52.231   21.152
  175.601    0.340    0.447   51.662   20.767
  175.901    0.359    0.469   51.093   22.013
  176.201    0.368    0.464   51.746   22.451
  176.501    0.364    0.467   53.604   21.625
  176.801    0.375    0.489   53.652   20.433
  177.101    0.369    0.477   53.083   19.308
  177.401    0.369    0.484   53.127   19.698
  177.701    0.362    0.488   51.347   19.706
  178.001    0.354    0.474   51.387   19.720
  178.301    0.355    0.470   53.864   20.117
  178.601    0.363    0.518   56.337   20.518
  178.901    0.365    0.509   55.166   20.144
  179.201    0.364    0.484   52.771   19.779
  179.501    0.361    0.474   52.813   19.418
  179.801    0.366    0.470   54.067   18.705
  180.101    0.355    0.467   52.899   18.358
  180.401    0.357    0.471   51.732   18.027
  180.701    0.360    0.481   51.773   17.701
  181.001    0.352    0.467   51.201   17.712
  181.301    0.359    0.456   51.858   17.385
  181.601    0.351    0.462   51.899   17.401
  181.901    0.356    0.464   53.756   17.077
  182.201    0.353    0.452   56.231   16.452
  182.501    0.354    0.448   55.668   16.460
  182.801    0.362    0.454   54.491   15.857
  183.101    0.349    0.452   53.925   15.273
  183.401    0.336    0.459   54.575   14.990
  183.701    0.348    0.463   54.616   14.439
  184.001    0.362    0.475   54.055   13.906
  184.301    0.357    0.482   53.487   13.394
  184.601    0.348    0.496   52.318   13.407
  184.901    0.330    0.481   52.980   13.411
  185.201    0.345    0.467   53.628   13.682
  185.501    0.351    0.482   53.063   13.957
  185.801    0.359    0.489   53.095   13.967
  186.101    0.357    0.488   53.138   13.978
  186.401    0.352    0.458   53.189   13.722
  186.701    0.343    0.461   52.611   13.731
  187.001    0.344    0.451   52.051   14.278
  187.301    0.344    0.454   52.088   14.845
  187.601    0.344    0.449   52.142   15.140
  187.901    0.359    0.447   53.399   16.049
  188.201    0.360    0.457   54.042   16.370
  188.501    0.360    0.452   54.081   16.698
  188.801    0.355    0.469   54.736   17.034
  189.101    0.352    0.440   55.389   16.721
  189.401    0.344    0.429   56.029   16.103
  189.701    0.350    0.435   56.680   15.217
  190.001    0.347    0.443   57.937   13.838
  190.301    0.325    0.462   60.410   11.882
  190.601    0.325    0.466   62.875    9.096
  190.901    0.321    0.460   65.353    6.575
  191.201    0.270    0.464   66.613    5.033
  191.501    0.271    0.523   69.683    4.490
  191.801    0.278    0.546   71.548    4.163
  192.101    0.304    0.501   69.162    4.087
  192.401    0.288    0.510   66.773    4.332
  192.701    0.299    0.497   65.603    4.590
  193.001    0.320    0.470   63.821    5.152
  193.301    0.322    0.482   65.687    5.566
  193.601    0.322    0.484   65.734    5.899
  193.901    0.324    0.473   66.384    5.682
  194.201    0.313    0.467   68.252    5.267
  194.501    0.286    0.489   70.719    5.271
  194.801    0.306    0.480   70.755    5.274
  195.101    0.286    0.464   67.155    5.484
  195.401    0.307    0.479   62.343    6.275
  195.701    0.293    0.474   58.133    7.459
  196.001    0.297    0.467   57.578    9.213
  196.301    0.300    0.478   58.821   10.954
  196.601    0.315    0.476   57.651   11.612
  196.901    0.336    0.469   54.659   11.841
  197.201    0.329    0.453   54.101   12.077
  197.501    0.335    0.456   54.748   11.861
  197.801    0.350    0.456   54.785   11.642
  198.101    0.333    0.480   54.834   11.428
  198.401    0.350    0.457   54.264   11.009
  198.701    0.341    0.450   54.910   11.018
  199.001    0.331    0.461   56.779   11.456
  199.301    0.334    0.463   55.000   11.684
  199.601    0.331    0.477   53.829   12.149
  199.901    0.334    0.475   54.483   12.390
  200.201    0.338    0.472   55.728   12.885
  200.501    0.343    0.486   53.948   13.146
  200.801    0.332    0.474   53.999   13.151
  201.101    0.321    0.466   54.645   13.165
  201.401    0.327    0.471   53.473   13.169
  201.701    0.343    0.454   52.907   13.178
  202.001    0.354    0.464   52.947   13.187
  202.301    0.349    0.494   55.426   13.197
  202.601    0.350    0.499   56.074   12.959
  202.901    0.374    0.476   55.502   12.723
  203.201    0.358    0.477   53.121   12.728
  203.501    0.325    0.488   51.957   12.499
  203.801    0.319    0.474   51.986   12.268
  204.101    0.343    0.466   52.633   12.044
  204.401    0.348    0.478   53.291   11.828
  204.701    0.338    0.479   51.511   11.833
  205.001    0.332    0.474   50.331   11.841
  205.301    0.314    0.430   50.375   12.079
  205.601    0.327    0.420   51.632   12.320
  205.901    0.321    0.426   49.248   12.568
  206.201    0.326    0.439   47.468   12.821
  206.501    0.332    0.461   46.900   13.079
  206.801    0.323    0.461   47.557   13.340
  207.101    0.332    0.424   48.809   13.348
  207.401    0.322    0.411   50.670   13.361
  207.701    0.315    0.418   50.104   13.369
  208.001    0.309    0.436   50.160   13.377
  208.301    0.337    0.457   51.407   13.135
  208.601    0.351    0.469   53.283   12.649
  208.901    0.335    0.461   54.532   11.727
  209.201    0.325    0.465   57.607   11.079
  209.501    0.317    0.492   58.866   10.076
  209.801    0.319    0.489   60.127    9.162
  210.101    0.301    0.496   61.383    8.824
  210.401    0.289    0.487   63.240    9.353
  210.701    0.265    0.414   66.923   10.104
  211.001    0.200    0.365   64.537   11.561
  211.301    0.159    0.360   69.441   12.490
  211.601    0.225    0.472   64.620   12.497
  211.901    0.309    0.498   58.591   11.149
  212.201    0.342    0.512   52.560    9.393
  212.501    0.344    0.501   51.390    8.541
  212.801    0.341    0.497   51.444    8.386
  213.101    0.337    0.482   51.473    8.392
  213.401    0.337    0.474   52.123    8.896
  213.701    0.328    0.458   53.381    9.072
  214.001    0.326    0.459   52.208    9.255
  214.301    0.314    0.451   51.038    9.085
  214.601    0.309    0.437   51.081    9.629
  214.901    0.294    0.361   49.904   10.402
  215.201    0.125    0.307   45.090   11.676
  215.501    0.050    0.201   42.704   13.359
  215.801    0.054    0.192   45.789   13.627
  216.101    0.154    0.219   51.296   12.158
  216.401    0.221    0.350   52.545   10.439
  216.701    0.286    0.433   51.982    8.964
  217.001    0.295    0.478   50.816    8.470
  217.301    0.298    0.462   50.855    8.316
  217.601    0.307    0.474   50.895    8.164
  217.901    0.320    0.470   51.543    8.169
  218.201    0.324    0.476   52.196    8.334
  218.501    0.336    0.493   53.452    8.501
  218.801    0.336    0.484   54.705    8.508
  219.101    0.329    0.484   55.973    8.678
