~VERSION INFORMATION
 VERS.                 2.0:   CWLS LOG ASCII STANDARD -VERSION 2.0
 WRAP.                  NO:   ONE LINE PER DEPTH STEP
~WELL INFORMATION BLOCK
#MNEM.UNIT           DATA                    DESCRIPTION OF MNEMONIC
#---------    -------------------            -------------------------------
# Generated from Intellog Unique Number	CN_94_101/WELL/3190
WELL.         MCCOLL FRONTENAC OIL CO.       : Well_name    - WELL
LOC .         00/03-16-097-16W4/0            : Location     - LOCATION
UWI .         00/03-16-097-16W400            : Uwi          - UNIQUE WELL ID
ENTR.         JOETTE                         : Entered      - ENTERED BY
SRVC.         SCHLUMBERGER                   : Scn          - SERVICE COMPANY
DATE.         08/17/92                       : Date         - LOG DATE
STRT.M        304.8                          : top_depth    - START DEPTH
STOP.M        426.8                          : bot_depth    - STOP DEPTH
STEP.M        0.25                           : increment    - STEP LENGTH
 NULL. -999.2500:NULL Value
~CURVE INFORMATION BLOCK
#MNEM UNIT       ERCB CURVE CODE    CURVE DESCRIPTION
#-----------   ------------------   ----------------------------------
DEPT.M        00 001 00 00         : DEPTH        - DEPTH
NPHI.V/V      00 330 00 00         : PHIN         - NEUTRON POROSITY (SANDSTONE)
GR  .API      00 310 00 00         : GR           - GAMMA RAY
ILD .OHMM     00 120 00 00         : RESD         - DEEP RESISTIVITY (DIL)
~PARAMETER INFORMATION
#MNEM.UNIT           DATA             DESCRIPTION OF MNEMONIC
#---------         -----------     ------------------------------
GL  .M        664.464              : gl           - GROUND LEVEL ELEVATION
EREF.M        667.817              : kb           - ELEVATION OF DEPTH REFERENCE
DATM.M        667.817              : datum        - DATUM ELEVATION
TDD .M        935.736              : tdd          - TOTAL DEPTH DRILLER
RUN .         ONE                  : Run          - RUN NUMBER
ENG .         JO                   : Engineer     - RECORDING ENGINEER
WIT .         TIM                  : Witness      - WITNESSED BY
MUD .         GEL                  : Mud_type     - MUD TYPE
MATR.         SANDSTONE            : Logunit      - NEUTRON MATRIX
TMAX.C        28.8889              : BHT          - MAXIMUM RECORDED TEMPERATURE
BHTD.M        935.736              : BHTDEP       - MAXIMUM RECORDED TEMPERATURE
RMT .C        -1.11111             : MDTP         - TEMPERATURE OF MUD
MUDD.KG/M     800                  : MWT          - MUD DENSITY
NEUT.         1                    : NEUTRON      - NEUTRON TYPE
RESI.         0                    : RESIST       - RESISTIVITY TYPE
RM  .OHMM     0.08                 : RM           - RESISTIVITY OF MUD
RMC .OHMM     0.08                 : RMC          - RESISTIVITY OF MUD CAKE
RMF .OHMM     0.01                 : RMF          - RESISTIVITY OF MUD FILTRATE
SUFT.C        4                    : SUFT         - SURFACE TEMPERATURE
~A  DEPTH     PHIN       GR     RESD
# ...
  359.050    0.516  105.132    0.322
  359.300    0.484  103.282    0.398
  359.550    0.469  101.063    0.405
  359.800    0.471  100.324    0.482
  360.050    0.492  100.325    0.489
  360.300    0.497  100.327    0.491
  360.550    0.480  100.698    0.496
  360.800    0.479  101.070    0.134
  361.050    0.478  101.442    0.140
  361.300    0.476  102.554    0.144
  361.550    0.475  104.037    2.564
  361.800    0.480  105.150    0.301
  362.050    0.494  103.670    0.380
  362.300    0.481  101.820    0.749
  362.550    0.457  100.340    0.754
  362.800    0.457   98.120    0.759
  363.050    0.460   99.233    1.204
  363.300    0.464  101.827    0.695
  363.550    0.478  102.568    2.748
  363.800    0.488  104.051    0.705
  364.050    0.477  104.053    0.419
  364.300    0.457  102.573    0.422
  364.550    0.464  101.464    0.793
  364.800    0.488  101.466    1.236
  365.050    0.491  101.467    1.314
  365.300    0.478  101.469    0.660
  365.550    0.479  101.840    0.520
  365.800    0.490  102.583    0.523
  366.050    0.488  102.954    0.531
  366.300    0.478  102.956    0.533
  366.550    0.473  102.957    0.687
  366.800    0.478  102.588    1.129
  367.050    0.488  102.220    1.280
  367.300    0.499  101.481    0.555
  367.550    0.507  100.742    0.562
  367.800    0.510   98.892    0.563
  368.050    0.501   89.266    0.716
  368.300    0.478   81.862    0.719
  368.550    0.470   76.309    0.650
  368.800    0.433   72.977    0.436
  369.050    0.436   72.238    0.514
  369.300    0.459   75.573    1.543
  369.550    0.422   78.537    3.890
  369.800    0.406   66.318    1.333
  370.050    0.367   56.692    0.606
  370.300    0.323   39.290    0.464
  370.550    0.303   31.515    2.519
  370.800    0.293   29.665    4.133
  371.050    0.277   29.296    1.065
  371.300    0.260   29.669    0.704
  371.550    0.294   30.410    0.637
  371.800    0.429   31.153    0.714
  372.050    0.429   31.154    1.012
  372.300    0.423   30.786    1.238
  372.550    0.419   31.898    1.240
  372.800    0.420   34.121    1.612
  373.050    0.423   34.493    2.056
  373.300    0.430   34.495    2.352
  373.550    0.442   34.867    2.357
  373.800    0.437   35.238    2.142
  374.050    0.434   37.091    1.783
  374.300    0.438   39.315    1.713
  374.550    0.443   41.167    1.498
  374.800    0.455   44.872    1.140
  375.050    0.466   47.836    1.070
  375.300    0.471   53.392    1.073
  375.550    0.476   60.430    1.226
  375.800    0.472   60.431    1.232
  376.050    0.442   57.470    1.235
  376.300    0.418   55.621    1.313
  376.550    0.414   55.251    1.392
  376.800    0.416   54.142    1.398
  377.050    0.423   52.292    1.401
  377.300    0.429   48.220    1.335
  377.550    0.421   42.297    1.410
  377.800    0.390   34.893    1.488
  378.050    0.363   27.118    1.640
  378.300    0.340   21.195    1.644
  378.550    0.336   20.826    1.650
  378.800    0.344   24.531    1.729
  379.050    0.372   31.198    1.731
  379.300    0.385   32.310    1.737
  379.550    0.427   34.533    1.525
  379.800    0.440   36.016    1.456
  380.050    0.430   37.129    1.460
  380.300    0.427   36.020    1.538
  380.550    0.427   34.910    1.688
  380.800    0.430   33.801    1.767
  381.050    0.432   33.433    1.918
  381.300    0.399   33.434    2.217
  381.550    0.412   35.657    2.219
  381.800    0.434   38.991    2.152
  382.050    0.433   42.696    1.936
  382.300    0.421   46.030    1.648
  382.550    0.412   45.291    1.142
  382.800    0.413   43.071    1.001
  383.050    0.414   41.221    1.225
  383.300    0.415   40.112    1.303
  383.550    0.408   37.521    1.308
  383.800    0.399   33.079    1.166
  384.050    0.394   31.229    0.804
  384.300    0.399   31.230    0.956
  384.550    0.399   29.751    1.766
  384.800    0.395   26.790    1.772
  385.050    0.394   24.570    1.630
  385.300    0.396   23.831    1.489
  385.550    0.401   24.203    1.347
  385.800    0.393   24.945    1.280
  386.050    0.383   25.687    1.282
  386.300    0.382   26.799    1.216
  386.550    0.386   27.541    1.147
  386.800    0.385   28.284    1.150
  387.050    0.391   28.656    1.082
  387.300    0.399   28.287    1.088
  387.550    0.398   26.808    1.094
  387.800    0.387   26.068    1.096
  388.050    0.386   26.070    1.101
  388.300    0.419   29.404    1.108
  388.550    0.411   34.590    1.111
  388.800    0.389   39.405    1.117
  389.050    0.386   41.999    1.120
  389.300    0.386   42.742    1.126
  389.550    0.400   43.113    1.057
  389.800    0.417   44.596    0.990
  390.050    0.421   45.708    0.922
  390.300    0.410   48.301    0.926
  390.550    0.399   56.079    0.860
  390.800    0.412   59.413    0.862
  391.050    0.429   64.229    0.943
  391.300    0.439   66.822    0.945
  391.550    0.447   70.157    1.023
  391.800    0.448   72.380    0.881
  392.050    0.447   74.604    0.594
  392.300    0.440   75.716    0.307
  392.550    0.434   76.828    0.457
  392.800    0.428   76.830    0.901
  393.050    0.414   64.982    1.199
  393.300    0.387   50.542    1.204
  393.550    0.384   46.470    0.989
  393.800    0.388   42.769    0.848
  394.050    0.376   42.030    0.559
  394.300    0.373   43.513    0.492
  394.550    0.373   51.661    0.350
  394.800    0.374   60.179    0.354
  395.050    0.399   68.327    0.285
  395.300    0.414   73.142    1.024
  395.550    0.414   83.883    0.956
  395.800    0.412   87.587    0.741
  396.050    0.424   91.292    1.257
  396.300    0.465   90.182    1.627
  396.550    0.478   87.221    1.560
  396.800    0.491   83.521    1.492
  397.050    0.491   82.781    1.495
  397.300    0.486   81.672    1.500
  397.550    0.478   80.933    1.505
  397.800    0.449   79.824    1.878
  398.050    0.434   79.085    1.953
  398.300    0.423   78.346    1.739
  398.550    0.405   75.755    1.307
  398.800    0.417   71.683    1.163
  399.050    0.404   60.576    1.169
  399.300    0.391   49.839    1.176
  399.550    0.379   46.137    1.178
  399.800    0.369   43.547    1.186
  400.050    0.371   46.881    1.115
  400.300    0.375   54.289    0.974
  400.550    0.380   63.547    0.761
  400.800    0.400   68.733    0.617
  401.050    0.434   78.362    0.330
  401.300    0.443   83.548    0.334
  401.550    0.437   85.031    0.559
  401.800    0.427   82.811    0.637
  402.050    0.423   82.812    0.424
  402.300    0.427   87.628    0.426
  402.550    0.419   87.629    0.505
  402.800    0.420   83.557    0.438
  403.050    0.431   79.115    0.441
  403.300    0.444   76.154    0.518
  403.550    0.447   72.824    0.671
  403.800    0.443   71.715    0.748
  404.050    0.453   73.938    0.899
  404.300    0.427   76.161    0.979
  404.550    0.415   79.125    0.909
  404.800    0.408   81.349    0.769
  405.050    0.410   83.943    0.554
  405.300    0.421   84.314    0.486
  405.550    0.423   83.575    0.564
  405.800    0.420   82.096    0.567
  406.050    0.413   80.615    0.648
  406.300    0.410   82.469    0.650
  406.550    0.427   83.581    0.582
  406.800    0.438   83.953    0.440
  407.050    0.433   80.992    0.445
  407.300    0.426   77.290    0.817
  407.550    0.421   73.959    1.041
  407.800    0.412   73.961    1.046
  408.050    0.398   75.814    0.977
  408.300    0.404   78.408    0.909
  408.550    0.421   81.742    0.841
  408.800    0.432   82.484    0.919
  409.050    0.423   81.374    0.998
  409.300    0.392   81.006    1.003
  409.550    0.375   80.267    1.155
  409.800    0.369   63.235    1.230
  410.050    0.370   51.387    1.308
  410.300    0.381   36.947    1.023
  410.550    0.393   34.727    0.879
  410.800    0.397   37.321    0.664
  411.050    0.396   39.174    0.523
  411.300    0.394   26.955    0.454
  411.550    0.386   23.994    0.532
  411.800    0.375   21.775    0.537
  412.050    0.376   22.146    0.761
  412.300    0.382   25.851    0.912
  412.550    0.380   30.666    0.846
  412.800    0.368   41.407    0.776
  413.050    0.362   49.924    0.707
