~VERSION INFORMATION
 VERS.                 2.0:   CWLS LOG ASCII STANDARD -VERSION 2.0
 WRAP.                  NO:   ONE LINE PER DEPTH STEP
~WELL INFORMATION BLOCK
#MNEM.UNIT           DATA                    DESCRIPTION OF MNEMONIC
#---------    -------------------            -------------------------------
# Generated from Intellog Unique Number	CW_70_72/WELL/3004
NULL.         -999.25                        : NULL_VALUE
WELL.         SULPETRO BREND MITSUE 05-20    : Well_name    - WELL              
LOC .         05-20-070-05W5                 : Location     - LOCATION          
UWI .         00/05-20-070-05W5/0            : Uwi          - UNIQUE WELL ID    
ENTR.         JAYE                           : Entered      - ENTERED BY        
SRVC.         SCHLUMBERGER                   : Scn          - SERVICE COMPANY   
DATE.         5 FEB 80                       : Date         - LOG DATE          
STRT.M        635                            : top_depth    - START DEPTH       
STOP.M        885                            : bot_depth    - STOP DEPTH        
STEP.M        0.25                           : increment    - STEP LENGTH       
~CURVE INFORMATION BLOCK
#MNEM UNIT       ERCB CURVE CODE    CURVE DESCRIPTION
#-----------   ------------------   ----------------------------------
DEPT.M        00 001 00 00         : DEPTH        - DEPTH                       
ILD .OHMM     00 120 00 00         : RESD         - DEEP RESISTIVITY (DIL)      
CALI.MM       00 280 01 00         : CAL          - CALIPER                     
GR  .API      00 310 00 00         : GR           - GAMMA RAY                   
NPHI.V/V      00 330 00 00         : PHIN         - NEUTRON POROSITY (SANDSTONE)
DPHI.V/V      00 890 00 00         : PHID         - DENSITY POROSITY (SANDSTONE)
~PARAMETER INFORMATION       
#MNEM.UNIT           DATA             DESCRIPTION OF MNEMONIC
#---------         -----------     ------------------------------
GL  .M        738.2                : gl           - GROUND LEVEL ELEVATION      
EREF.M        742                  : kb           - ELEVATION OF DEPTH REFERENCE
DATM.M        738.2                : datum        - DATUM ELEVATION             
TDD .M        898                  : tdd          - TOTAL DEPTH DRILLER         
RUN .         ONE                  : Run          - RUN NUMBER                  
ENG .         DECKER               : Engineer     - RECORDING ENGINEER          
WIT .         CIAVARELLA           : Witness      - WITNESSED BY                
BASE.         EDM                  : Branch       - HOME BASE OF LOGGING UNIT   
MUD .         GEL CHEM             : Mud_type     - MUD TYPE                    
MATR.         SANDSTONE            : Logunit      - NEUTRON MATRIX              
TMAX.C        31.1                 : BHT          - MAXIMUM RECORDED TEMPERATURE
BHTD.M        899.5                : BHTDEP       - MAXIMUM RECORDED TEMPERATURE
RMT .C        12.7                 : MDTP         - TEMPERATURE OF MUD          
MUDD.KG/M     1000                 : MWT          - MUD DENSITY                 
NEUT.         1                    : NEUTRON      - NEUTRON TYPE                
RESI.         0                    : RESIST       - RESISTIVITY TYPE            
RM  .OHMM     0.25                 : RM           - RESISTIVITY OF MUD          
RMC .OHMM     0.25                 : RMC          - RESISTIVITY OF MUD CAKE     
RMF .OHMM     5                    : RMF          - RESISTIVITY OF MUD FILTRATE 
SUFT.C        0                    : SUFT         - SURFACE TEMPERATURE         
~A  DEPTH     RESD      CAL       GR     PHIN     PHID
# ...
  744.500    2.608  159.005   73.257    0.426    0.283
  744.750    2.983  160.058   79.660    0.456    0.286
  745.000    3.299  160.497   77.565    0.485    0.326
  745.250    3.316  160.310   77.515    0.525    0.341
  745.500    2.984  159.401   77.280    0.539    0.324
  745.750    2.143  157.872   72.081    0.525    0.312
  746.000    1.730  156.858   67.069    0.490    0.296
  746.250    1.468  155.847   64.602    0.450    0.264
  746.500    1.287  155.764   61.636    0.417    0.296
  746.750    1.143  155.370   59.230    0.396    0.323
  747.000    1.090  155.291   60.422    0.383    0.338
  747.250    1.102  155.105   62.047    0.393    0.330
  747.500    1.114  154.816   62.555    0.412    0.326
  747.750    1.121  154.324   60.584    0.421    0.324
  748.000    1.153  154.133   60.597    0.419    0.324
  748.250    1.185  153.640   59.245    0.412    0.324
  748.500    1.225  153.350   57.769    0.415    0.318
  748.750    1.266  153.272   56.417    0.418    0.311
  749.000    1.295  152.978   55.934    0.436    0.312
  749.250    1.301  152.586   55.821    0.444    0.319
  749.500    1.298  152.299   56.332    0.390    0.323
  749.750    1.273  152.114   57.150    0.381    0.325
  750.000    1.235  151.929   57.784    0.390    0.324
  750.250    1.196  152.465   57.487    0.405    0.321
  750.500    1.173  153.214   59.545    0.411    0.314
  750.750    1.167  153.649   60.303    0.413    0.320
  751.000    1.191  154.494   58.829    0.428    0.328
  751.250    1.227  155.032   60.267    0.433    0.323
  751.500    1.256  155.159   59.039    0.418    0.321
  751.750    1.309  155.489   59.176    0.440    0.318
  752.000    1.355  155.513   60.927    0.453    0.309
  752.250    1.398  155.221   61.373    0.420    0.321
  752.500    1.449  154.627   62.193    0.437    0.323
  752.750    1.453  153.718   64.936    0.451    0.308
  753.000    1.417  152.908   60.730    0.436    0.297
  753.250    1.367  152.619   55.779    0.423    0.290
  753.500    1.333  152.955   54.675    0.407    0.310
  753.750    1.308  153.283   58.535    0.394    0.311
  754.000    1.309  153.823   62.580    0.401    0.298
  754.250    1.304  154.568   64.826    0.391    0.298
  754.500    1.294  155.729   63.846    0.403    0.314
  754.750    1.283  156.471   61.378    0.411    0.318
  755.000    1.285  157.426   63.128    0.404    0.315
  755.250    1.299  157.547   61.093    0.407    0.314
  755.500    1.330  157.568   60.175    0.416    0.298
  755.750    1.385  157.592   61.429    0.416    0.284
  756.000    1.427  157.508   60.573    0.404    0.297
  756.250    1.467  157.322   60.028    0.396    0.303
  756.500    1.469  156.622   60.165    0.422    0.286
  756.750    1.468  156.233   61.295    0.438    0.292
  757.000    1.448  155.939   63.230    0.449    0.313
  757.250    1.426  155.655   66.842    0.452    0.324
  757.500    1.409  155.261   65.676    0.432    0.315
  757.750    1.411  154.767   60.230    0.407    0.302
  758.000    1.413  154.269   57.451    0.394    0.295
  758.250    1.425  153.668   56.409    0.389    0.301
  758.500    1.432  152.659   58.903    0.407    0.299
  758.750    1.442  152.369   60.653    0.412    0.300
  759.000    1.455  152.080   60.977    0.402    0.291
  759.250    1.479  151.998   60.742    0.397    0.297
  759.500    1.492  152.123   60.568    0.395    0.307
  759.750    1.503  152.454   61.076    0.397    0.305
  760.000    1.519  152.788   62.579    0.407    0.307
  760.250    1.521  153.220   63.647    0.416    0.311
  760.500    1.489  153.142   64.218    0.429    0.316
  760.750    1.431  153.366   61.252    0.444    0.316
  761.000    1.387  153.491   60.707    0.452    0.313
  761.250    1.354  153.825   60.720    0.447    0.315
  761.500    1.343  154.361   62.159    0.417    0.321
  761.750    1.342  155.214   65.398    0.413    0.325
  762.000    1.354  155.647   68.389    0.427    0.325
  762.250    1.381  155.875   65.797    0.433    0.320
  762.500    1.428  155.794   63.265    0.436    0.314
  762.750    1.579  155.298   62.161    0.425    0.309
  763.000    1.698  154.388   61.927    0.372    0.291
  763.250    1.755  153.068   64.793    0.364    0.257
  763.500    1.719  152.361   66.421    0.385    0.271
  763.750    1.695  152.383   66.307    0.401    0.285
  764.000    1.650  152.301   65.701    0.415    0.290
  764.250    1.604  152.324   66.644    0.421    0.297
  764.500    1.564  152.242   67.898    0.435    0.309
  764.750    1.546  152.261   69.709    0.445    0.307
  765.000    1.556  152.387   68.606    0.458    0.312
  765.250    1.559  152.614   64.772    0.454    0.308
  765.500    1.567  153.258   63.668    0.425    0.299
  765.750    1.566  153.794   66.907    0.418    0.301
  766.000    1.556  153.924   67.106    0.436    0.307
  766.250    1.541  153.943   69.290    0.445    0.312
  766.500    1.520  153.969   67.876    0.430    0.306
  766.750    1.508  153.779   66.277    0.435    0.312
  767.000    1.493  153.800   68.152    0.448    0.320
  767.250    1.475  153.822   69.342    0.452    0.316
  767.500    1.455  153.845   69.975    0.446    0.311
  767.750    1.449  153.866   71.166    0.437    0.315
  768.000    1.481  153.888   74.095    0.447    0.307
  768.250    1.511  153.701   71.564    0.454    0.298
  768.500    1.550  153.515   68.972    0.451    0.294
  768.750    1.591  153.539   71.714    0.425    0.291
  769.000    1.645  154.076   73.526    0.420    0.285
  769.250    1.681  155.028   70.376    0.433    0.280
  769.500    1.706  155.254   73.365    0.427    0.275
  769.750    1.721  155.898   70.214    0.418    0.264
  770.000    1.742  155.504   69.856    0.422    0.262
  770.250    1.778  154.079   74.149    0.397    0.229
  770.500    1.852  153.375   79.372    0.417    0.209
  770.750    1.911  154.224   76.408    0.426    0.235
  771.000    1.938  155.384   75.553    0.417    0.252
  771.250    1.949  156.853   75.753    0.417    0.264
  771.500    1.936  157.495   75.578    0.424    0.282
  771.750    1.903  157.930   75.777    0.423    0.270
  772.000    1.839  158.261   79.450    0.441    0.259
  772.250    1.731  156.422   79.586    0.456    0.246
  772.500    1.698  153.650   77.367    0.467    0.276
  772.750    1.732  152.431   77.131    0.433    0.290
  773.000    1.835  154.108   78.757    0.418    0.267
  773.250    1.951  156.096   83.174    0.400    0.239
  773.500    2.078  157.354   85.855    0.397    0.182
  773.750    2.185  158.102   84.194    0.425    0.212
  774.000    2.310  158.123   86.688    0.441    0.232
  774.250    2.452  158.143   86.948    0.394    0.216
  774.500    2.602  158.169   85.658    0.417    0.179
  774.750    2.767  158.187   85.051    0.437    0.174
  775.000    2.882  158.210   84.815    0.423    0.187
  775.250    3.007  158.228   86.007    0.407    0.191
  775.500    3.069  158.562   87.694    0.390    0.179
  775.750    3.067  158.995   88.205    0.402    0.187
  776.000    3.019  159.432   89.024    0.417    0.190
  776.250    2.945  159.971   88.974    0.430    0.184
  776.500    2.814  159.476   88.491    0.442    0.177
  776.750    2.634  158.670   86.953    0.448    0.211
  777.000    2.446  157.346   85.166    0.431    0.232
  777.250    2.230  154.265   84.063    0.420    0.259
  777.500    2.083  154.185   82.959    0.427    0.278
  777.750    2.002  155.548   81.483    0.426    0.264
  778.000    1.967  155.880   81.185    0.415    0.238
  778.250    1.948  155.903   79.276    0.404    0.221
  778.500    1.933  155.923   77.241    0.410    0.243
  778.750    1.913  155.948   79.115    0.404    0.263
  779.000    1.869  155.967   81.858    0.404    0.264
  779.250    1.810  156.092   80.383    0.401    0.249
  779.500    1.694  156.115   76.859    0.436    0.263
  779.750    1.585  154.171   71.784    0.471    0.303
  780.000    1.512  151.916   66.710    0.446    0.337
  780.250    1.428  148.939   68.831    0.430    0.313
  780.500    1.337  148.240   72.195    0.416    0.298
  780.750    1.244  148.154   67.369    0.421    0.288
