~VERSION INFORMATION
 VERS.                 2.0:   CWLS LOG ASCII STANDARD -VERSION 2.0
 WRAP.                  NO:   ONE LINE PER DEPTH STEP
~WELL INFORMATION BLOCK
#MNEM.UNIT           DATA                    DESCRIPTION OF MNEMONIC
#---------    -------------------            -------------------------------
# Generated from Intellog Unique Number	CS_73_76/WELL/2276
WELL.         BOW VALLEY EXPLORATION         : Well_name    - WELL
LOC .         00/07-22-076-16W4/0            : Location     - LOCATION
UWI .         00/07-22-076-16W4/0            : Uwi          - UNIQUE WELL ID
ENTR.         SP                             : Entered      - ENTERED BY
SRVC.         SCHLUMBERGER                   : Scn          - SERVICE COMPANY
STRT.M        353.568                        : top_depth    - START DEPTH
STOP.M        588.068                        : bot_depth    - STOP DEPTH
STEP.M        0.25                           : increment    - STEP LENGTH
 NULL. -999.2500:NULL Value
~CURVE INFORMATION BLOCK
#MNEM UNIT       ERCB CURVE CODE    CURVE DESCRIPTION
#-----------   ------------------   ----------------------------------
DEPT.M        00 001 00 00         : DEPTH        - DEPTH
GR  .API      00 310 00 00         : GR           - GAMMA RAY
DPHI.V/V      00 890 00 00         : PHID         - DENSITY POROSITY (SANDSTONE)
NPHI.V/V      00 330 00 00         : PHIN         - NEUTRON POROSITY (SANDSTONE)
ILD .OHMM     00 120 00 00         : RESD         - DEEP RESISTIVITY (DIL)
~PARAMETER INFORMATION
#MNEM.UNIT           DATA             DESCRIPTION OF MNEMONIC
#---------         -----------     ------------------------------
GL  .M        714.146              : gl           - GROUND LEVEL ELEVATION
EREF.M        723.595              : kb           - ELEVATION OF DEPTH REFERENCE
DATM.M        714.146              : datum        - DATUM ELEVATION
TDD .M        594.36               : tdd          - TOTAL DEPTH DRILLER
RUN .         ONE                  : Run          - RUN NUMBER
ENG .         BILL                 : Engineer     - RECORDING ENGINEER
WIT .         JIM                  : Witness      - WITNESSED BY
MUD .         GEL                  : Mud_type     - MUD TYPE
MATR.         SANDSTONE            : Logunit      - NEUTRON MATRIX
TMAX.C        25.5556              : BHT          - MAXIMUM RECORDED TEMPERATURE
BHTD.M        594.36               : BHTDEP       - MAXIMUM RECORDED TEMPERATURE
MATR.         1                    : LOGUNIT      - NEUTRON MATRIX
RMT .C        25                   : MDTP         - TEMPERATURE OF MUD
NEUT.         1                    : NEUTRON      - NEUTRON TYPE
RESI.         0                    : RESIST       - RESISTIVITY TYPE
RMC .OHMM     0.25                 : RMC          - RESISTIVITY OF MUD CAKE
RMF .OHMM     0.25                 : RMF          - RESISTIVITY OF MUD FILTRATE
SUFT.C        15                   : SUFT         - SURFACE TEMPERATURE
~A  DEPTH       GR     PHID     PHIN     RESD
# ...
  440.568   70.795    0.354    0.554    7.147
  440.818   69.832    0.346    0.532    7.301
  441.068   69.628    0.351    0.522    6.919
  441.318   70.584    0.347    0.519    6.724
  441.568   72.469    0.349    0.514    6.553
  441.818   73.731    0.336    0.521    6.559
  442.068   72.605    0.331    0.538    6.325
  442.318   73.336    0.323    0.540    6.198
  442.568   74.306    0.308    0.534    6.212
  442.818   74.378    0.300    0.532    6.224
  443.068   73.781    0.290    0.538    6.092
  443.318   74.285    0.284    0.534    5.992
  443.568   75.207    0.272    0.540    5.926
  443.818   76.104    0.288    0.538    5.865
  444.068   76.798    0.306    0.522    5.669
  444.318   79.784    0.281    0.515    5.612
  444.568   81.628    0.269    0.527    5.549
  444.818   84.239    0.265    0.544    5.457
  445.068   87.343    0.273    0.533    5.349
  445.318   83.784    0.272    0.518    5.253
  445.568   81.363    0.263    0.509    5.200
  445.818   81.146    0.261    0.516    5.061
  446.068   82.548    0.266    0.516    4.974
  446.318   82.723    0.254    0.526    4.971
  446.568   84.779    0.251    0.532    4.968
  446.818   85.539    0.252    0.526    4.967
  447.068   86.156    0.275    0.528    4.967
  447.318   86.779    0.265    0.519    4.968
  447.568   87.159    0.259    0.519    4.900
  447.818   87.919    0.261    0.528    4.765
  448.068   88.537    0.254    0.533    4.435
  448.318   88.959    0.250    0.524    4.202
  448.568   89.287    0.256    0.514    3.931
  448.818   89.694    0.255    0.514    3.695
  449.068   90.367    0.234    0.534    3.605
  449.318   90.472    0.254    0.542    3.891
  449.568   90.283    0.266    0.547    4.256
  449.818   86.350    0.281    0.568    4.624
  450.068   78.116    0.321    0.563    4.920
  450.318   70.738    0.321    0.558    5.229
  450.568   63.948    0.322    0.547    5.342
  450.818   63.454    0.349    0.524    5.454
  451.068   62.238    0.336    0.533    5.518
  451.318   58.879    0.307    0.560    5.979
  451.568   59.824    0.304    0.516    6.673
  451.818   62.963    0.323    0.486    7.265
  452.068   64.642    0.337    0.477    8.280
  452.318   67.397    0.336    0.482    8.932
  452.568   70.190    0.323    0.479    7.716
  452.818   76.835    0.323    0.480    5.010
  453.068   83.091    0.323    0.479    3.608
  453.318   90.532    0.302    0.485    2.653
  453.568   92.474    0.274    0.544    2.213
  453.818   92.792    0.237    0.590    1.898
  454.068   95.532    0.230    0.617    1.754
  454.318   97.449    0.257    0.631    1.665
  454.568   99.218    0.282    0.646    1.680
  454.818   99.162    0.290    0.662    1.824
  455.068   98.517    0.267    0.642    2.075
  455.318   97.272    0.259    0.626    2.347
  455.568   94.687    0.250    0.608    2.582
  455.818   93.198    0.240    0.594    2.829
  456.068   91.573    0.237    0.591    3.128
  456.318   89.304    0.245    0.595    3.543
  456.568   84.310    0.266    0.603    4.013
  456.818   77.464    0.299    0.568    4.379
  457.068   69.984    0.331    0.526    4.787
  457.318   69.061    0.355    0.509    5.263
  457.568   68.484    0.371    0.503    5.641
  457.818   68.563    0.375    0.505    6.062
  458.068   68.120    0.359    0.514    6.187
  458.318   67.799    0.361    0.518    6.045
  458.568   67.341    0.364    0.515    6.055
  458.818   67.333    0.359    0.524    5.990
  459.068   67.304    0.355    0.534    5.966
  459.318   67.880    0.348    0.545    6.063
  459.568   68.220    0.346    0.543    5.932
  459.818   68.524    0.351    0.534    5.944
  460.068   70.544    0.339    0.531    5.850
  460.318   72.715    0.320    0.521    5.834
  460.568   76.356    0.307    0.512    5.830
  460.818   75.602    0.295    0.503    5.889
  461.068   71.374    0.289    0.503    6.199
  461.318   70.867    0.295    0.499    6.633
  461.568   70.878    0.297    0.496    7.259
  461.818   69.797    0.239    0.502    7.938
  462.068   64.507    0.155    0.481    9.008
  462.318   61.705    0.121    0.430   10.477
  462.568   61.298    0.166    0.375   12.182
  462.818   61.248    0.219    0.428   13.313
  463.068   59.070    0.273    0.457   12.128
  463.318   55.230    0.280    0.487    9.648
  463.568   57.694    0.068    0.267    8.162
  463.818   63.922    0.101    0.252    6.735
  464.068   73.374    0.215    0.316    6.251
  464.318   77.559    0.254    0.452    5.661
  464.568   75.218    0.280    0.496    5.353
  464.818   67.975    0.272    0.506    5.401
  465.068   62.458    0.305    0.495    5.563
  465.318   57.799    0.326    0.469    5.714
  465.568   55.957    0.350    0.457    5.808
  465.818   55.407    0.358    0.468    5.814
  466.068   57.202    0.356    0.475    5.815
  466.318   59.194    0.362    0.484    5.825
  466.568   60.220    0.361    0.491    5.698
  466.818   61.183    0.359    0.494    5.708
  467.068   61.548    0.363    0.496    5.705
  467.318   62.388    0.361    0.482    5.671
  467.568   62.345    0.369    0.473    5.602
  467.818   61.405    0.367    0.475    5.604
  468.068   59.662    0.370    0.491    5.629
  468.318   59.856    0.358    0.509    5.703
  468.568   61.286    0.349    0.521    5.889
  468.818   60.488    0.365    0.527    5.950
  469.068   60.081    0.374    0.518    6.250
  469.318   58.612    0.364    0.507    6.309
  469.568   58.704    0.372    0.506    6.367
  469.818   58.739    0.362    0.510    6.377
  470.068   59.267    0.359    0.505    6.192
  470.318   62.342    0.368    0.506    6.134
  470.568   65.153    0.368    0.510    5.886
  470.818   68.765    0.364    0.509    5.416
  471.068   72.984    0.360    0.500    5.017
  471.318   76.658    0.346    0.492    4.358
  471.568   79.887    0.290    0.491    3.895
  471.818   81.889    0.265    0.524    3.550
  472.068   81.931    0.255    0.547    3.372
  472.318   81.944    0.255    0.561    3.617
  472.568   81.997    0.252    0.552    3.890
  472.818   81.352    0.253    0.540    4.226
  473.068   79.965    0.266    0.536    4.580
  473.318   77.424    0.272    0.535    4.930
  473.568   75.404    0.268    0.528    5.231
  473.818   74.739    0.265    0.519    5.386
  474.068   74.124    0.272    0.511    5.432
  474.318   73.192    0.298    0.502    5.288
  474.568   71.749    0.328    0.496    5.103
  474.818   71.673    0.353    0.499    4.994
  475.068   72.364    0.350    0.508    4.994
  475.318   72.384    0.331    0.521    5.077
  475.568   70.743    0.312    0.513    5.276
  475.818   69.830    0.313    0.493    5.621
  476.068   68.805    0.320    0.497    6.075
  476.318   68.777    0.309    0.505    6.409
  476.568   68.089    0.294    0.492    6.593
  476.818   67.645    0.280    0.462    6.516
  477.068   68.627    0.268    0.448    6.143
  477.318   71.639    0.252    0.435    5.899
  477.568   73.311    0.287    0.458    5.618
  477.818   73.440    0.303    0.480    5.338
  478.068   73.443    0.308    0.494    5.189
  478.318   73.391    0.299    0.504    5.026
  478.568   74.165    0.287    0.514    4.992
  478.818   75.003    0.277    0.507    4.989
  479.068   78.838    0.294    0.500    4.983
  479.318   81.281    0.303    0.493    5.095
  479.568   81.340    0.282    0.498    5.170
  479.818   81.287    0.262    0.503    5.279
  480.068   79.948    0.257    0.508    5.268
  480.318   80.339    0.258    0.513    4.944
  480.568   81.223    0.277    0.501    4.773
  480.818   81.107    0.290    0.487    4.718
  481.068   84.420    0.273    0.489    4.622
  481.318   86.673    0.251    0.502    4.633
  481.568   84.847    0.257    0.508    4.552
  481.818   85.338    0.277    0.516    4.536
  482.068   85.895    0.287    0.522    4.631
  482.318   84.759    0.267    0.531    4.699
  482.568   84.630    0.259    0.518    4.749
  482.818   84.536    0.246    0.511    4.804
  483.068   81.394    0.241    0.510    4.886
  483.318   83.148    0.234    0.506    4.990
  483.568   84.062    0.251    0.494    4.979
  483.818   84.411    0.255    0.499    4.998
