~VERSION INFORMATION
 VERS.                 2.0:   CWLS LOG ASCII STANDARD -VERSION 2.0
 WRAP.                  NO:   ONE LINE PER DEPTH STEP
~WELL INFORMATION BLOCK
#MNEM.UNIT           DATA                    DESCRIPTION OF MNEMONIC
#---------    -------------------            -------------------------------
# Generated from Intellog Unique Number	CW_70_72/WELL/288
NULL.         -999.25                        : NULL_VALUE
WELL.         GULF NORCEN MITSUE 04-31       : Well_name    - WELL              
LOC .         04-31-072-03W5                 : Location     - LOCATION          
UWI .         00/04-31-072-03W5/0            : Uwi          - UNIQUE WELL ID    
ENTR.         JAYE                           : Entered      - ENTERED BY        
SRVC.         COMPUTALOG                     : Scn          - SERVICE COMPANY   
DATE.         18 MAR 83                      : Date         - LOG DATE          
STRT.M        380                            : top_depth    - START DEPTH       
STOP.M        585                            : bot_depth    - STOP DEPTH        
STEP.M        0.25                           : increment    - STEP LENGTH       
~CURVE INFORMATION BLOCK
#MNEM UNIT       ERCB CURVE CODE    CURVE DESCRIPTION
#-----------   ------------------   ----------------------------------
DEPT.M        00 001 00 00         : DEPTH        - DEPTH                       
DPHI.V/V      00 890 00 00         : PHID         - DENSITY POROSITY (SANDSTONE)
NPHI.V/V      00 330 00 00         : PHIN         - NEUTRON POROSITY (SANDSTONE)
GR  .API      00 310 00 00         : GR           - GAMMA RAY                   
CALI.MM       00 280 01 00         : CAL          - CALIPER                     
ILD .OHMM     00 120 00 00         : RESD         - DEEP RESISTIVITY (DIL)      
~PARAMETER INFORMATION       
#MNEM.UNIT           DATA             DESCRIPTION OF MNEMONIC
#---------         -----------     ------------------------------
GL  .M        586.75               : gl           - GROUND LEVEL ELEVATION      
EREF.M        591.4                : kb           - ELEVATION OF DEPTH REFERENCE
DATM.M        586.75               : datum        - DATUM ELEVATION             
TDD .M        1610                 : tdd          - TOTAL DEPTH DRILLER         
RUN .         ONE                  : Run          - RUN NUMBER                  
ENG .         MCEWAN               : Engineer     - RECORDING ENGINEER          
WIT .         BELLMAN              : Witness      - WITNESSED BY                
BASE.         EDM                  : Branch       - HOME BASE OF LOGGING UNIT   
MUD .         GEL                  : Mud_type     - MUD TYPE                    
MATR.         SANDSTONE            : Logunit      - NEUTRON MATRIX              
TMAX.C        48                   : BHT          - MAXIMUM RECORDED TEMPERATURE
BHTD.M        1609                 : BHTDEP       - MAXIMUM RECORDED TEMPERATURE
RMT .C        18.3                 : MDTP         - TEMPERATURE OF MUD          
MUDD.KG/M     1070                 : MWT          - MUD DENSITY                 
NEUT.         1                    : NEUTRON      - NEUTRON TYPE                
RESI.         0                    : RESIST       - RESISTIVITY TYPE            
RM  .OHMM     0.9                  : RM           - RESISTIVITY OF MUD          
RMC .OHMM     1.3                  : RMC          - RESISTIVITY OF MUD CAKE     
RMF .OHMM     0.9                  : RMF          - RESISTIVITY OF MUD FILTRATE 
SUFT.C        0                    : SUFT         - SURFACE TEMPERATURE         
~A  DEPTH     PHID     PHIN       GR      CAL     RESD
# ...
  453.000    0.115    0.202   42.278  224.178    4.700
  453.250    0.220    0.342   43.270  224.063    4.907
  453.500    0.259    0.368   46.009  224.259    4.649
  453.750    0.311    0.358   49.061  224.353    3.975
  454.000    0.328    0.356   51.926  224.550    3.417
  454.250    0.332    0.381   55.915  224.641    3.053
  454.500    0.327    0.405   57.968  224.631    2.903
  454.750    0.316    0.387   53.654  224.619    2.858
  455.000    0.318    0.388   50.401  224.501    2.852
  455.250    0.319    0.390   49.833  224.387    2.844
  455.500    0.308    0.376   51.698  224.377    2.869
  455.750    0.294    0.383   54.625  224.573    2.940
  456.000    0.279    0.397   57.241  224.563    3.070
  456.250    0.267    0.404   59.481  224.654    3.261
  456.500    0.247    0.423   60.411  224.645    3.477
  456.750    0.263    0.408   60.652  224.840    3.638
  457.000    0.273    0.387   60.772  225.246    3.755
  457.250    0.261    0.387   61.452  225.546    3.840
  457.500    0.230    0.410   64.066  225.847    3.927
  457.750    0.241    0.404   64.746  226.458    3.984
  458.000    0.259    0.421   64.302  226.865    4.035
  458.250    0.248    0.407   63.797  227.375    4.079
  458.500    0.235    0.371   63.477  227.986    4.124
  458.750    0.219    0.350   63.721  228.391    4.121
  459.000    0.206    0.380   65.524  228.797    4.096
  459.250    0.225    0.410   70.573  228.890    4.048
  459.500    0.266    0.396   68.132  228.255    3.976
  459.750    0.297    0.375   59.386  227.722    3.825
  460.000    0.300    0.374   53.512  226.981    3.597
  460.250    0.299    0.405   52.943  226.868    3.396
  460.500    0.297    0.407   54.560  226.958    3.355
  460.750    0.284    0.389   57.736  227.053    3.347
  461.000    0.264    0.381   60.787  227.250    3.371
  461.250    0.243    0.374   62.154  227.239    3.407
  461.500    0.232    0.367   63.147  227.330    3.478
  461.750    0.219    0.371   63.764  227.320    3.556
  462.000    0.207    0.375   64.444  227.933    3.643
  462.250    0.196    0.364   64.874  228.545    3.739
  462.500    0.196    0.372   65.803  228.743    3.875
  462.750    0.211    0.381   68.606  229.044    3.902
  463.000    0.228    0.395   73.344  229.032    3.726
  463.250    0.244    0.410   77.644  228.812    3.565
  463.500    0.262    0.421   74.017  228.384    3.469
  463.750    0.280    0.411   65.583  227.853    3.427
  464.000    0.296    0.385   53.903  227.529    3.405
  464.250    0.313    0.365   46.530  227.310    3.416
  464.500    0.326    0.354   46.898  227.196    3.369
  464.750    0.333    0.379   49.450  227.078    3.304
  465.000    0.305    0.374   51.816  226.757    3.228
  465.250    0.258    0.352   54.119  226.537    3.207
  465.500    0.243    0.327   47.433  226.318    3.151
  465.750    0.269    0.326   38.875  226.306    3.101
  466.000    0.299    0.342   40.304  226.294    3.013
  466.250    0.319    0.361   45.103  226.179    2.915
  466.500    0.333    0.375   48.717  226.169    2.837
  466.750    0.339    0.390   45.589  226.158    2.756
  467.000    0.341    0.404   45.582  225.938    2.717
  467.250    0.335    0.416   47.136  225.824    2.710
  467.500    0.334    0.414   48.939  225.499    2.756
  467.750    0.328    0.406   55.237  225.176    2.835
  468.000    0.321    0.406   52.796  224.749    2.932
  468.250    0.312    0.402   46.297  224.322    3.003
  468.500    0.318    0.373   48.038  223.790    3.089
  468.750    0.328    0.373   50.529  223.466    3.189
  469.000    0.339    0.384   52.831  223.351    3.266
  469.250    0.332    0.393   52.637  223.338    3.340
  469.500    0.317    0.405   53.317  223.328    3.422
  469.750    0.319    0.418   55.994  223.214    3.465
  470.000    0.317    0.410   59.108  222.786    3.497
  470.250    0.306    0.381   60.163  222.567    3.502
  470.500    0.292    0.381   60.219  222.346    3.500
  470.750    0.291    0.395   60.087  222.336    3.484
  471.000    0.292    0.390   60.517  222.532    3.449
  471.250    0.292    0.355   60.635  222.626    3.408
  471.500    0.290    0.355   60.129  222.822    3.368
  471.750    0.286    0.369   58.749  223.019    3.321
  472.000    0.286    0.385   54.623  223.111    3.294
  472.250    0.297    0.397   54.553  222.997    3.218
  472.500    0.303    0.411   57.105  222.985    3.167
  472.750    0.297    0.360   59.284  223.286    3.123
  473.000    0.291    0.349   60.588  223.689    3.081
  473.250    0.295    0.361   57.460  223.991    3.061
  473.500    0.302    0.375   55.456  224.397    3.025
  473.750    0.308    0.392   56.073  224.593    3.006
  474.000    0.309    0.410   57.190  224.999    2.981
  474.250    0.305    0.419   55.248  225.402    2.957
  474.500    0.293    0.385   54.305  225.599    3.000
  474.750    0.267    0.360   58.606  226.005    3.151
  475.000    0.237    0.332   58.099  226.201    3.278
  475.250    0.229    0.308   54.347  226.607    3.301
  475.500    0.254    0.320   54.965  227.011    3.231
  475.750    0.280    0.347   54.646  227.104    2.941
  476.000    0.305    0.382   53.016  227.093    2.642
  476.250    0.347    0.421   55.132  226.769    2.383
  476.500    0.382    0.483   59.494  226.551    2.228
  476.750    0.463    0.478   67.040  240.896    2.119
  477.000    0.434    0.459   72.278  289.469    2.035
  477.250    0.386    0.437   72.770  290.602    1.958
  477.500    0.421    0.465   71.264  272.073    1.873
  477.750    0.448    0.481   70.010  277.366    1.774
  478.000    0.433    0.484   63.386  264.976    1.710
  478.250    0.369    0.488   63.817  247.486    1.671
  478.500    0.340    0.492   65.557  232.494    1.712
  478.750    0.303    0.494   66.487  232.587    1.849
  479.000    0.276    0.485   66.293  244.332    2.100
  479.250    0.270    0.478   64.976  256.805    2.389
  479.500    0.271    0.395   61.535  230.160    2.657
  479.750    0.257    0.332   58.033  224.217    2.904
  480.000    0.234    0.337   57.277  223.374    3.108
  480.250    0.244    0.375   58.581  223.987    3.106
  480.500    0.254    0.391   60.260  225.528    3.104
  480.750    0.250    0.379   62.188  226.254    3.163
  481.000    0.242    0.371   63.492  229.988    3.296
  481.250    0.227    0.402   63.922  231.537    3.436
  481.500    0.225    0.422   63.854  232.670    3.546
  481.750    0.224    0.433   65.282  233.802    3.717
  482.000    0.215    0.423   67.335  235.145    3.837
  482.250    0.202    0.411   68.202  237.110    3.887
  482.500    0.183    0.410   68.632  238.868    3.891
  482.750    0.188    0.421   69.124  240.729    3.912
  483.000    0.198    0.423   69.680  242.070    3.932
  483.250    0.198    0.419   69.923  242.370    3.960
  483.500    0.184    0.409   71.352  242.984    3.973
  483.750    0.175    0.385   72.094  243.909    3.978
  484.000    0.182    0.382   72.088  245.146    3.991
  484.250    0.191    0.402   71.644  246.592    3.981
  484.500    0.188    0.410   72.074  247.725    3.963
  484.750    0.177    0.398   72.941  248.858    3.969
  485.000    0.184    0.383   73.434  247.390    3.974
  485.250    0.185    0.403   68.059  243.113    3.979
  485.500    0.179    0.409   65.992  241.125    3.985
  485.750    0.172    0.398   66.984  240.178    3.983
  486.000    0.177    0.384   68.163  239.749    3.950
  486.250    0.189    0.380   69.405  240.569    3.852
  486.500    0.211    0.379   70.460  241.704    3.741
  486.750    0.237    0.376   67.956  236.491    3.647
  487.000    0.286    0.376   62.643  231.693    3.576
  487.250    0.311    0.379   58.891  225.961    3.527
  487.500    0.317    0.390   55.513  223.348    3.485
  487.750    0.314    0.388   56.131  222.713    3.464
  488.000    0.311    0.385   57.685  222.493    3.448
  488.250    0.304    0.384   57.178  222.583    3.420
  488.500    0.295    0.381   54.799  222.676    3.418
  488.750    0.284    0.367   51.671  222.354    3.442
  489.000    0.286    0.374   50.603  222.030    3.467
  489.250    0.293    0.386   51.345  221.709    3.504
