~VERSION INFORMATION
 VERS.                 2.0:   CWLS LOG ASCII STANDARD -VERSION 2.0
 WRAP.                  NO:   ONE LINE PER DEPTH STEP
~WELL INFORMATION BLOCK
#MNEM.UNIT           DATA                    DESCRIPTION OF MNEMONIC
#---------    -------------------            -------------------------------
# Generated from Intellog Unique Number	CS_67_68/WELL/2401
WELL.         BVI ET AL TOUCHWOOD            : Well_name    - WELL
LOC .         00/09-31-067-10W4/0            : Location     - LOCATION
UWI .         00/09-31-067-10W4/0            : Uwi          - UNIQUE WELL ID
ENTR.         C                              : Entered      - ENTERED BY
SRVC.         SCHLUMBERGER                   : Scn          - SERVICE COMPANY
STRT.M        350                            : top_depth    - START DEPTH
STOP.M        575                            : bot_depth    - STOP DEPTH
STEP.M        0.25                           : increment    - STEP LENGTH
 NULL. -999.2500:NULL Value
~CURVE INFORMATION BLOCK
#MNEM UNIT       ERCB CURVE CODE    CURVE DESCRIPTION
#-----------   ------------------   ----------------------------------
DEPT.M        00 001 00 00         : DEPTH        - DEPTH
ILD .OHMM     00 120 00 00         : RESD         - DEEP RESISTIVITY (DIL)
DPHI.V/V      00 890 00 00         : PHID         - DENSITY POROSITY (SANDSTONE)
NPHI.V/V      00 330 00 00         : PHIN         - NEUTRON POROSITY (SANDSTONE)
CALI.MM       00 280 01 00         : CAL          - CALIPER
GR  .API      00 310 00 00         : GR           - GAMMA RAY
~PARAMETER INFORMATION
#MNEM.UNIT           DATA             DESCRIPTION OF MNEMONIC
#---------         -----------     ------------------------------
GL  .M        653                  : gl           - GROUND LEVEL ELEVATION
EREF.M        657.15               : kb           - ELEVATION OF DEPTH REFERENCE
DATM.M        657.15               : datum        - DATUM ELEVATION
TDD .M        686                  : tdd          - TOTAL DEPTH DRILLER
RUN .         ONE                  : Run          - RUN NUMBER
ENG .         BILL                 : Engineer     - RECORDING ENGINEER
WIT .         JIM                  : Witness      - WITNESSED BY
MUD .         GEL                  : Mud_type     - MUD TYPE
MATR.         SANDSTONE            : Logunit      - NEUTRON MATRIX
TMAX.C        28                   : BHT          - MAXIMUM RECORDED TEMPERATURE
BHTD.M        586                  : BHTDEP       - MAXIMUM RECORDED TEMPERATURE
RMT .C        22                   : MDTP         - TEMPERATURE OF MUD
MUDD.KG/M     1130                 : MWT          - MUD DENSITY
NEUT.         1                    : NEUTRON      - NEUTRON TYPE
RESI.         0                    : RESIST       - RESISTIVITY TYPE
RM  .OHMM     4.3                  : RM           - RESISTIVITY OF MUD
RMC .OHMM     2.7                  : RMC          - RESISTIVITY OF MUD CAKE
RMF .OHMM     3.7                  : RMF          - RESISTIVITY OF MUD FILTRATE
SUFT.C        4                    : SUFT         - SURFACE TEMPERATURE
~A  DEPTH     RESD     PHID     PHIN      CAL       GR
# ...
  386.500    4.856    0.161    0.353  157.644  102.079
  386.750    5.138    0.171    0.355  156.595  102.062
  387.000    5.235    0.178    0.358  155.567  100.829
  387.250    5.137    0.180    0.362  154.518   98.375
  387.500    4.855    0.186    0.368  153.469   94.107
  387.750    4.765    0.195    0.376  153.455   85.578
  388.000    4.676    0.219    0.381  151.399   75.225
  388.250    4.676    0.249    0.388  150.357   72.772
  388.500    4.675    0.243    0.382  148.295   79.447
  388.750    4.675    0.219    0.350  148.273   88.545
  389.000    4.675    0.197    0.346  146.218   73.941
  389.250    4.675    0.207    0.360  146.168   81.827
  389.500    4.587    0.253    0.376  147.174   86.065
  389.750    4.587    0.260    0.380  148.151   81.184
  390.000    4.418    0.245    0.370  148.137   80.559
  390.250    4.335    0.223    0.333  150.128   77.493
  390.500    4.335    0.207    0.327  151.119   77.481
  390.750    4.254    0.212    0.350  151.091   78.071
  391.000    4.254    0.253    0.388  153.074   79.878
  391.250    4.335    0.258    0.384  153.053   79.248
  391.500    4.586    0.247    0.379  154.044   78.632
  391.750    4.761    0.238    0.380  155.014   77.394
  392.000    4.944    0.242    0.385  155.000   77.989
  392.250    5.133    0.252    0.391  155.977   81.624
  392.500    5.533    0.253    0.398  155.956   87.687
  392.750    5.745    0.251    0.393  156.940   90.709
  393.000    6.078    0.248    0.389  156.912   95.556
  393.250    6.193    0.246    0.392  157.889   97.362
  393.500    6.311    0.245    0.397  157.860   88.834
  393.750    6.193    0.241    0.393  158.852   85.777
  394.000    6.193    0.236    0.392  158.823   81.504
  394.250    5.964    0.238    0.391  158.795   78.447
  394.500    5.852    0.246    0.394  159.779   85.117
  394.750    5.852    0.254    0.399  160.749   93.003
  395.000    5.743    0.257    0.403  160.735   92.986
  395.250    5.743    0.251    0.406  160.699   92.969
  395.500    5.636    0.245    0.409  160.678   97.815
  395.750    5.427    0.242    0.407  160.649  100.230
  396.000    5.326    0.245    0.397  160.627  100.213
  396.250    5.227    0.254    0.395  160.599   95.332
  396.500    5.129    0.256    0.390  159.557   91.059
  396.750    4.939    0.259    0.389  159.521   85.570
  397.000    4.847    0.263    0.390  158.486   78.257
  397.250    4.757    0.271    0.391  158.457   72.768
  397.500    4.757    0.285    0.392  157.408   69.103
  397.750    4.847    0.295    0.392  157.372   68.478
  398.000    4.846    0.293    0.392  157.358   69.069
  398.250    4.846    0.288    0.391  156.308   71.483
  398.500    4.846    0.284    0.390  156.287   76.325
  398.750    4.756    0.275    0.386  156.244   75.700
  399.000    4.580    0.270    0.386  156.222   75.683
  399.250    4.411    0.268    0.389  156.201   76.269
  399.500    4.248    0.264    0.391  156.172   76.860
  399.750    4.091    0.260    0.393  156.129   77.459
  400.000    4.014    0.260    0.393  156.107   76.834
  400.250    3.939    0.260    0.390  156.086   71.953
  400.500    3.939    0.270    0.393  156.057   70.116
  400.750    4.014    0.284    0.397  156.014   68.275
  401.000    4.167    0.292    0.402  155.992   65.218
  401.250    4.246    0.297    0.409  155.956   63.377
  401.500    4.409    0.294    0.405  155.935   73.087
  401.750    4.664    0.285    0.392  155.913   84.013
  402.000    4.843    0.273    0.391  155.877   80.956
  402.250    5.124    0.265    0.393  155.842   75.467
  402.500    5.221    0.264    0.390  155.827   84.570
  402.750    5.320    0.264    0.382  155.798   88.804
  403.000    5.420    0.265    0.377  155.763   81.495
  403.250    5.420    0.266    0.375  156.761   75.398
  403.500    5.420    0.266    0.379  156.733   75.989
  403.750    5.319    0.261    0.386  156.697   77.796
  404.000    5.318    0.255    0.401  157.689   80.819
  404.250    5.318    0.248    0.398  157.653   88.097
  404.500    5.318    0.242    0.397  157.624   88.080
  404.750    5.419    0.248    0.399  157.602   80.159
  405.000    5.626    0.255    0.406  157.574   72.846
  405.250    5.626    0.273    0.407  157.538   69.177
  405.500    5.625    0.290    0.399  157.516   66.732
  405.750    5.521    0.319    0.394  157.487   65.494
  406.000    5.417    0.316    0.389  156.431   63.653
  406.250    5.417    0.305    0.386  156.417   62.420
  406.500    5.316    0.296    0.388  155.375   61.191
  406.750    5.316    0.289    0.400  155.339   59.958
  407.000    5.217    0.272    0.392  154.304   56.901
  407.250    5.216    0.239    0.334  154.268   50.804
  407.500    5.119    0.163    0.279  154.247   47.743
  407.750    5.119    0.188    0.331  153.190   55.633
  408.000    5.119    0.268    0.381  153.169   66.564
  408.250    5.118    0.304    0.379  153.147   70.798
  408.500    5.118    0.302    0.375  153.147   66.525
  408.750    5.118    0.288    0.380  155.102   65.296
  409.000    5.118    0.281    0.391  156.094   70.143
  409.250    5.117    0.262    0.392  156.058   68.297
  409.500    5.117    0.255    0.383  156.036   66.456
  409.750    5.117    0.254    0.374  156.036   65.831
  410.000    5.313    0.259    0.365  159.011   67.030
  410.250    5.413    0.270    0.360  156.978   70.056
  410.500    5.621    0.279    0.365  156.942   77.335
  410.750    5.836    0.282    0.370  156.906   82.177
  411.000    6.059    0.284    0.361  156.891   78.516
  411.250    5.946    0.285    0.357  156.863   74.239
  411.500    5.726    0.285    0.355  156.834   72.398
  411.750    5.619    0.283    0.358  156.805   71.165
  412.000    5.412    0.278    0.349  157.783   71.755
  412.250    5.411    0.270    0.347  158.774   74.782
  412.500    5.411    0.265    0.347  158.746   79.629
  412.750    5.411    0.258    0.358  158.710   83.259
  413.000    5.411    0.252    0.363  158.681   79.594
  413.250    5.513    0.245    0.359  160.679   78.969
  413.500    5.618    0.241    0.358  161.670   85.036
  413.750    5.724    0.239    0.362  163.661   85.626
  414.000    5.832    0.235    0.367  165.659   83.785
  414.250    5.832    0.232    0.373  166.643   88.024
  414.500    5.943    0.225    0.368  168.634   83.751
  414.750    5.942    0.218    0.371  169.633   87.382
  415.000    6.055    0.204    0.374  169.604   95.876
  415.250    6.054    0.196    0.379  167.542  105.582
  415.500    6.054    0.205    0.392  164.473  103.137
  415.750    6.169    0.235    0.398  162.418   97.040
  416.000    6.169    0.268    0.389  160.370   81.824
  416.250    6.168    0.276    0.388  159.328   76.943
  416.500    6.168    0.271    0.389  157.273   73.273
  416.750    6.168    0.265    0.392  156.223   70.216
  417.000    6.168    0.261    0.391  155.174   68.987
  417.250    6.167    0.269    0.392  154.147   66.534
  417.500    6.167    0.271    0.396  154.125   64.081
  417.750    6.052    0.271    0.398  153.076   65.896
  418.000    6.052    0.269    0.395  153.054   77.426
  418.250    5.939    0.263    0.379  154.032   73.765
  418.500    5.938    0.259    0.361  155.009   75.572
  418.750    5.938    0.253    0.349  155.994   76.770
  419.000    5.827    0.248    0.354  155.972   69.457
  419.250    5.827    0.256    0.360  156.957   74.304
  419.500    5.718    0.246    0.353  157.934   79.754
  419.750    5.718    0.227    0.346  157.912   76.701
  420.000    5.718    0.224    0.343  157.891   76.076
  420.250    5.826    0.242    0.342  157.862   72.411
  420.500    5.936    0.226    0.341  157.826   71.178
  420.750    5.936    0.213    0.351  157.798   78.461
  421.000    5.936    0.199    0.356  157.776   91.211
  421.250    5.935    0.188    0.348  157.740   91.797
  421.500    5.935    0.192    0.341  157.711   89.352
  421.750    5.935    0.195    0.337  157.690   87.507
  422.000    5.935    0.197    0.345  157.661   88.706
  422.250    5.824    0.200    0.349  157.632   94.160
  422.500    5.824    0.204    0.349  157.596   97.183
  422.750    5.823    0.206    0.349  158.581   95.341
