~VERSION INFORMATION
 VERS.                 2.0:   CWLS LOG ASCII STANDARD -VERSION 2.0
 WRAP.                  NO:   ONE LINE PER DEPTH STEP
~WELL INFORMATION BLOCK
#MNEM.UNIT           DATA                    DESCRIPTION OF MNEMONIC
#---------    -------------------            -------------------------------
# Generated from Intellog Unique Number	CS_73_76/WELL/2169
WELL.         CANADA CITIES SERVICE LTD      : Well_name    - WELL
LOC .         00/06-26-074-03W4/0            : Location     - LOCATION
UWI .         00/06-26-074-03W4/0            : Uwi          - UNIQUE WELL ID
ENTR.         SP                             : Entered      - ENTERED BY
SRVC.         SCHLUMBERGER                   : Scn          - SERVICE COMPANY
STRT.M        310                            : top_depth    - START DEPTH
STOP.M        555                            : bot_depth    - STOP DEPTH
STEP.M        0.25                           : increment    - STEP LENGTH
 NULL. -999.2500:NULL Value
~CURVE INFORMATION BLOCK
#MNEM UNIT       ERCB CURVE CODE    CURVE DESCRIPTION
#-----------   ------------------   ----------------------------------
DEPT.M        00 001 00 00         : DEPTH        - DEPTH
ILD .OHMM     00 120 00 00         : RESD         - DEEP RESISTIVITY (DIL)
DPHI.V/V      00 890 00 00         : PHID         - DENSITY POROSITY (LIMESTONE)
NPHI.V/V      00 330 00 00         : PHIN         - NEUTRON POROSITY (LIMESTONE)
GR  .API      00 310 00 00         : GR           - GAMMA RAY
~PARAMETER INFORMATION
#MNEM.UNIT           DATA             DESCRIPTION OF MNEMONIC
#---------         -----------     ------------------------------
GL  .M        657.2                : gl           - GROUND LEVEL ELEVATION
EREF.M        660.66               : kb           - ELEVATION OF DEPTH REFERENCE
DATM.M        657.2                : datum        - DATUM ELEVATION
TDD .M        570                  : tdd          - TOTAL DEPTH DRILLER
RUN .         ONE                  : Run          - RUN NUMBER
ENG .         BILL                 : Engineer     - RECORDING ENGINEER
WIT .         JIM                  : Witness      - WITNESSED BY
MUD .         GEL                  : Mud_type     - MUD TYPE
MATR.         LIMESTONE            : Logunit      - NEUTRON MATRIX
TMAX.C        10                   : BHT          - MAXIMUM RECORDED TEMPERATURE
BHTD.M        570                  : BHTDEP       - MAXIMUM RECORDED TEMPERATURE
MATR.         1                    : LOGUNIT      - NEUTRON MATRIX
RMT .C        25                   : MDTP         - TEMPERATURE OF MUD
NEUT.         1                    : NEUTRON      - NEUTRON TYPE
RESI.         0                    : RESIST       - RESISTIVITY TYPE
RMC .OHMM     0.25                 : RMC          - RESISTIVITY OF MUD CAKE
RMF .OHMM     0.25                 : RMF          - RESISTIVITY OF MUD FILTRATE
SUFT.C        15                   : SUFT         - SURFACE TEMPERATURE
~A  DEPTH     RESD     PHID     PHIN       GR
# ...
  353.500    5.212    0.321    0.435   73.596
  353.750    5.214    0.307    0.436   73.577
  354.000    5.219    0.289    0.435   73.563
  354.250    5.222    0.290    0.442   79.008
  354.500    5.224    0.293    0.450   79.602
  354.750    5.227    0.281    0.440   79.582
  355.000    5.331    0.273    0.428   80.171
  355.250    5.334    0.256    0.425   83.189
  355.500    5.439    0.235    0.424   85.601
  355.750    5.545    0.237    0.423   86.800
  356.000    5.653    0.248    0.422   86.788
  356.250    5.764    0.235    0.422   86.765
  356.500    5.767    0.221    0.435   89.180
  356.750    5.879    0.167    0.429   94.018
  357.000    5.994    0.159    0.433   96.436
  357.250    6.001    0.198    0.425   98.849
  357.500    6.005    0.215    0.421  100.653
  357.750    6.007    0.207    0.427  102.454
  358.000    6.012    0.214    0.441  102.439
  358.250    5.905    0.223    0.445  102.422
  358.500    5.693    0.202    0.453  101.796
  358.750    5.695    0.201    0.462  101.176
  359.000    5.491    0.230    0.484  100.546
  359.250    5.294    0.246    0.502  100.528
  359.500    5.296    0.238    0.494   99.911
  359.750    5.203    0.234    0.467   98.074
  360.000    5.206    0.242    0.472   90.163
  360.250    5.310    0.270    0.468   85.289
  360.500    5.313    0.290    0.467   83.451
  360.750    5.416    0.271    0.466   90.715
  361.000    5.419    0.256    0.475   96.776
  361.250    5.524    0.247    0.466  107.687
  361.500    5.528    0.254    0.474  117.384
  361.750    5.636    0.242    0.474  123.443
  362.000    5.746    0.224    0.465  116.747
  362.250    5.969    0.208    0.458  104.583
  362.500    6.440    0.214    0.440   97.882
  362.750    6.689    0.212    0.428   96.052
  363.000    6.948    0.222    0.414   87.531
  363.250    7.217    0.202    0.401   80.230
  363.500    7.496    0.191    0.393   74.745
  363.750    7.786    0.199    0.380   77.155
  364.000    7.789    0.201    0.377   80.179
  364.250    7.942    0.190    0.387   85.014
  364.500    7.800    0.182    0.408   86.827
  364.750    7.381    0.166    0.432   86.202
  365.000    6.985    0.148    0.453   82.539
  365.250    6.732    0.155    0.463   80.702
  365.500    6.372    0.139    0.391   81.294
  365.750    6.143    0.182    0.421   88.564
  366.000    6.146    0.232    0.444   87.940
  366.250    6.036    0.233    0.476   89.741
  366.500    6.041    0.243    0.487   90.335
  366.750    6.046    0.249    0.476   87.283
  367.000    6.163    0.252    0.471   83.619
  367.250    6.283    0.254    0.482   80.568
  367.500    6.286    0.252    0.477   77.511
  367.750    6.410    0.247    0.471   75.677
  368.000    6.534    0.241    0.462   72.014
  368.250    6.539    0.228    0.435   70.788
  368.500    6.423    0.223    0.420   70.770
  368.750    6.309    0.257    0.455   78.041
  369.000    6.081    0.271    0.486   83.489
  369.250    5.863    0.261    0.495   88.330
  369.500    5.757    0.246    0.510   85.884
  369.750    5.553    0.240    0.495   84.648
  370.000    5.453    0.234    0.478   84.630
  370.250    5.355    0.222    0.465   84.616
  370.500    5.259    0.223    0.448   85.203
  370.750    5.262    0.210    0.426   85.192
  371.000    5.170    0.214    0.436   86.389
  371.250    5.271    0.263    0.444   82.728
  371.500    5.274    0.280    0.450   79.676
  371.750    5.277    0.273    0.460   80.266
  372.000    5.182    0.245    0.454   84.495
  372.250    5.091    0.219    0.453   85.696
  372.500    5.000    0.197    0.446   86.290
  372.750    4.910    0.203    0.447   89.913
  373.000    4.735    0.219    0.440   90.504
  373.250    4.650    0.231    0.453   89.274
  373.500    4.653    0.237    0.483   86.223
  373.750    4.570    0.253    0.514   81.348
  374.000    4.573    0.272    0.515   77.082
  374.250    4.492    0.292    0.482   71.597
  374.500    4.494    0.284    0.475   66.117
  374.750    4.499    0.282    0.488   61.242
  375.000    4.501    0.300    0.480   63.041
  375.250    4.503    0.289    0.457   63.033
  375.500    4.424    0.290    0.468   59.980
  375.750    4.426    0.293    0.453   63.000
  376.000    4.430    0.290    0.471   63.590
  376.250    4.350    0.287    0.507   42.320
  376.500    4.354    0.311    0.473   36.837
  376.750    4.439    0.316    0.444   42.888
  377.000    4.441    0.293    0.408   50.159
  377.250    4.444    0.284    0.451   57.430
  377.500    4.531    0.276    0.481   63.488
  377.750    4.535    0.286    0.474   57.398
  378.000    4.538    0.277    0.452   56.170
  378.250    4.626    0.291    0.433   55.545
  378.500    4.629    0.270    0.391   71.314
  378.750    4.720    0.238    0.387   85.265
  379.000    4.814    0.221    0.404   91.320
  379.250    4.906    0.215    0.418   91.302
  379.500    5.002    0.208    0.436   84.605
  379.750    5.196    0.227    0.459   76.695
  380.000    5.298    0.251    0.502   68.786
  380.250    5.301    0.266    0.502   67.556
  380.500    5.305    0.276    0.473   72.998
  380.750    5.310    0.257    0.474   79.057
  381.000    5.215    0.249    0.464   86.328
  381.250    5.122    0.240    0.472   88.133
  381.500    5.031    0.236    0.473   86.901
  381.750    4.940    0.241    0.475   86.278
  382.000    4.674    0.230    0.481   85.654
  382.250    4.507    0.236    0.478   84.422
  382.500    4.426    0.239    0.471   82.583
  382.750    4.267    0.242    0.473   78.921
  383.000    4.271    0.241    0.483   77.088
  383.250    4.354    0.250    0.484   72.819
  383.500    4.437    0.246    0.463   67.946
  383.750    4.786    0.273    0.465   63.069
  384.000    5.358    0.287    0.460   60.625
  384.250    5.564    0.296    0.451   60.609
  384.500    6.000    0.304    0.452   61.200
  384.750    6.233    0.296    0.463   58.145
  385.000    6.236    0.292    0.465   55.094
  385.250    6.242    0.295    0.438   52.648
  385.500    6.246    0.308    0.456   59.305
  385.750    6.251    0.315    0.480   62.324
  386.000    6.255    0.317    0.493   64.133
  386.250    6.260    0.291    0.478   64.724
  386.500    6.265    0.280    0.464   63.495
  386.750    6.153    0.303    0.472   60.441
  387.000    6.043    0.301    0.474   56.781
  387.250    6.046    0.303    0.482   53.119
  387.500    5.937    0.301    0.459   53.103
  387.750    5.831    0.296    0.447   54.908
  388.000    5.835    0.286    0.453   57.319
  388.250    5.731    0.278    0.454   55.484
  388.500    5.735    0.274    0.453   56.677
  388.750    5.634    0.281    0.455   58.479
  389.000    5.638    0.280    0.459   59.680
  389.250    5.643    0.278    0.470   59.059
  389.500    5.646    0.288    0.476   57.220
  389.750    5.757    0.301    0.477   57.204
  390.000    5.869    0.303    0.467   58.402
  390.250    5.982    0.305    0.477   57.778
  390.500    5.986    0.300    0.469   55.333
  390.750    6.104    0.297    0.481   56.531
  391.000    6.223    0.305    0.466   59.545
  391.250    6.228    0.307    0.472   58.923
  391.500    6.234    0.302    0.460   60.121
  391.750    6.239    0.300    0.450   63.141
  392.000    6.128    0.289    0.455   64.336
  392.250    6.018    0.277    0.455   67.359
  392.500    5.910    0.251    0.452   72.196
  392.750    5.803    0.233    0.459   75.821
  393.000    5.595    0.251    0.469   77.026
  393.250    5.393    0.271    0.475   77.615
  393.500    5.199    0.274    0.463   76.991
  393.750    5.106    0.223    0.452   77.582
  394.000    5.015    0.219    0.463   77.566
  394.250    5.018    0.250    0.479   75.119
  394.500    5.022    0.266    0.480   72.669
  394.750    5.120    0.245    0.480   71.438
  395.000    5.221    0.260    0.470   73.854
  395.250    5.224    0.268    0.480   75.660
  395.500    5.227    0.283    0.477   76.250
  395.750    5.134    0.300    0.494   68.943
  396.000    5.235    0.315    0.490   63.464
  396.250    5.645    0.260    0.457   59.803
  396.500    5.863    0.244    0.346   56.752
  396.750    6.323    0.258    0.350   54.914
