~VERSION INFORMATION
 VERS.                 2.0:   CWLS LOG ASCII STANDARD -VERSION 2.0
 WRAP.                  NO:   ONE LINE PER DEPTH STEP
~WELL INFORMATION BLOCK
#MNEM.UNIT           DATA                    DESCRIPTION OF MNEMONIC
#---------    -------------------            -------------------------------
# Generated from Intellog Unique Number	CS_69_70/WELL/806
NULL.         -999.25                        : NULL_VALUE
WELL.         HUSKY OIL OPERATION LTD.       : Well_name    - WELL              
LOC .         00/06-33-070-05W4/0            : Location     - LOCATION          
UWI .         00/06-33-070-05W4/0            : Uwi          - UNIQUE WELL ID    
ENTR.         SP                             : Entered      - ENTERED BY        
SRVC.         SCHLUMBERGER                   : Scn          - SERVICE COMPANY   
STRT.M        290                            : top_depth    - START DEPTH       
STOP.M        510                            : bot_depth    - STOP DEPTH        
STEP.M        0.25                           : increment    - STEP LENGTH       
~CURVE INFORMATION BLOCK
#MNEM UNIT       ERCB CURVE CODE    CURVE DESCRIPTION
#-----------   ------------------   ----------------------------------
DEPT.M        00 001 00 00         : DEPTH        - DEPTH                       
ILD .OHMM     00 120 00 00         : RESD         - DEEP RESISTIVITY (DIL)      
DPHI.V/V      00 890 00 00         : PHID         - DENSITY POROSITY (LIMESTONE)
NPHI.V/V      00 330 00 00         : PHIN         - NEUTRON POROSITY (LIMESTONE)
GR  .API      00 310 00 00         : GR           - GAMMA RAY                   
~PARAMETER INFORMATION       
#MNEM.UNIT           DATA             DESCRIPTION OF MNEMONIC
#---------         -----------     ------------------------------
GL  .M        653.8                : gl           - GROUND LEVEL ELEVATION      
EREF.M        657.5                : kb           - ELEVATION OF DEPTH REFERENCE
DATM.M        653.8                : datum        - DATUM ELEVATION             
TDD .M        517                  : tdd          - TOTAL DEPTH DRILLER         
RUN .         ONE                  : Run          - RUN NUMBER                  
ENG .         BILL                 : Engineer     - RECORDING ENGINEER          
WIT .         JIM                  : Witness      - WITNESSED BY                
MUD .         GEL                  : Mud_type     - MUD TYPE                    
MATR.         LIMESTONE            : Logunit      - NEUTRON MATRIX              
TMAX.C        26                   : BHT          - MAXIMUM RECORDED TEMPERATURE
BHTD.M        517                  : BHTDEP       - MAXIMUM RECORDED TEMPERATURE
MATR.         1                    : LOGUNIT      - NEUTRON MATRIX              
RMT .C        25                   : MDTP         - TEMPERATURE OF MUD          
NEUT.         1                    : NEUTRON      - NEUTRON TYPE                
RESI.         0                    : RESIST       - RESISTIVITY TYPE            
RMC .OHMM     0.25                 : RMC          - RESISTIVITY OF MUD CAKE     
RMF .OHMM     0.25                 : RMF          - RESISTIVITY OF MUD FILTRATE 
SUFT.C        15                   : SUFT         - SURFACE TEMPERATURE         
~A  DEPTH     RESD     PHID     PHIN       GR
  290.000    3.626    0.263    0.536  103.847
  290.250    3.560    0.262    0.530  105.681
  290.500    3.430    0.248    0.532  102.053
  290.750    3.305    0.246    0.537   98.420
  291.000    3.184    0.252    0.521   94.182
  291.250    3.369    0.265    0.491   91.769
  291.500    3.497    0.263    0.475   91.775
  291.750    3.631    0.253    0.496   95.438
  292.000    3.770    0.253    0.514   96.658
  292.250    3.842    0.257    0.517   99.710
  292.500    3.843    0.245    0.521   99.720
  292.750    3.772    0.238    0.533   97.304
  293.000    3.917    0.234    0.523   94.889
  293.250    3.991    0.234    0.482   91.257
  293.500    4.144    0.242    0.458   91.877
  293.750    4.302    0.234    0.446   95.531
  294.000    4.223    0.230    0.441   98.582
  294.250    3.920    0.240    0.448   95.558
  294.500    3.639    0.241    0.478   93.746
  294.750    3.378    0.249    0.494   93.151
  295.000    3.254    0.249    0.506   92.556
  295.250    3.641    0.239    0.507   91.963
  295.500    5.096    0.232    0.476   80.438
  295.750    6.744    0.295    0.436   71.949
  296.000    8.284    0.356    0.311   67.708
  296.250    9.986    0.514    0.616   63.469
  296.500   11.597    0.621    0.625   59.837
  296.750   12.267    0.409    0.465   62.279
  297.000   13.470    0.371    0.407   64.114
  297.250   17.174    0.343    0.222   56.841
  297.500   19.943    0.334    0.205   53.814
  297.750   25.426    0.329    0.191   50.789
  298.000   30.651    0.330    0.186   44.734
  298.250   35.597    0.347    0.176   43.528
  298.500   37.654    0.362    0.164   44.151
  298.750   38.371    0.372    0.156   48.411
  299.000   37.669    0.380    0.174   54.497
  299.250   33.684    0.370    0.216   58.152
  299.500   30.119    0.365    0.240   61.200
  299.750   24.995    0.374    0.258   63.647
  300.000   21.531    0.378    0.261   64.869
  300.250   17.867    0.376    0.267   66.706
  300.500   14.284    0.341    0.302   69.145
  300.750   12.537    0.312    0.332   78.877
  301.000   11.211    0.282    0.353   82.532
  301.250   10.602    0.246    0.386   82.542
  301.500   10.215    0.218    0.393   70.410
  301.750   10.410    0.195    0.367   70.422
  302.000   10.607    0.211    0.347   77.115
  302.250   10.610    0.281    0.378   80.773
  302.500    9.666    0.297    0.390   82.001
  302.750    9.142    0.300    0.404   83.832
  303.000    8.974    0.296    0.411   85.667
  303.250    8.976    0.292    0.415   87.504
  303.500    8.977    0.292    0.418   89.943
  303.750    8.813    0.299    0.408   93.598
  304.000    8.492    0.303    0.396  100.900
  304.250    8.336    0.311    0.391  110.020
  304.500    7.883    0.311    0.428  117.929
  304.750    7.596    0.292    0.464  110.654
  305.000    7.597    0.246    0.456  101.554
  305.250    7.458    0.234    0.432   89.423
  305.500    7.890    0.244    0.425   82.753
  305.750    8.040    0.252    0.420   74.875
  306.000    8.193    0.263    0.417   72.455
  306.250    8.506    0.269    0.413   78.539
  306.500    8.508    0.255    0.408   87.058
  306.750    8.510    0.250    0.408   91.931
  307.000    8.511    0.260    0.411   93.151
  307.250    8.513    0.278    0.410   96.808
  307.500    8.357    0.299    0.402  102.895
  307.750    8.359    0.310    0.397  108.981
  308.000    8.205    0.294    0.425  113.244
  308.250    7.617    0.261    0.446  112.040
  308.500    6.939    0.237    0.439  102.947
  308.750    6.205    0.176    0.426  102.956
  309.000    5.548    0.163    0.437  115.117
  309.250    5.055    0.191    0.460  119.985
  309.500    4.692    0.215    0.470  118.788
  309.750    4.275    0.211    0.493  116.368
  310.000    4.043    0.205    0.512  115.772
  310.250    3.823    0.202    0.527  116.390
  310.500    3.683    0.210    0.550  118.224
  310.750    3.616    0.221    0.568  121.273
  311.000    4.199    0.232    0.563  124.322
  311.250    5.158    0.251    0.535  114.010
  311.500    5.770    0.274    0.507   72.121
  311.750    6.455    0.296    0.473   60.594
  312.000    7.639    0.324    0.406   74.575
  312.250    8.080    0.240    0.374   83.089
  312.500    8.233    0.205    0.375   92.214
  312.750    7.643    0.179    0.412   97.082
  313.000    7.094    0.199    0.433  100.739
  313.250    7.095    0.295    0.455   65.528
  313.500    7.506    0.320    0.445   50.357
  313.750    7.793    0.331    0.406   44.299
  314.000    7.941    0.343    0.393   44.917
  314.250    8.092    0.350    0.407   46.144
  314.500    8.402    0.350    0.410   49.195
  314.750    8.724    0.348    0.409   51.637
  315.000    8.725    0.344    0.411   53.470
  315.250    8.891    0.342    0.411   57.736
  315.500    9.060    0.337    0.410   62.607
  315.750    9.406    0.312    0.406   65.045
  316.000    9.585    0.306    0.418   58.379
  316.250    9.587    0.295    0.398   53.531
  316.500    9.770    0.283    0.378   66.297
  316.750    9.771    0.278    0.353   85.741
  317.000    9.773    0.266    0.394   90.613
  317.250    9.595    0.258    0.401   91.839
  317.500    9.596    0.247    0.418   88.209
  317.750    9.599    0.225    0.426   83.364
  318.000    9.600    0.212    0.413   80.340
  318.250    9.602    0.213    0.401   76.711
  318.500    9.426    0.299    0.417   71.256
  318.750    9.253    0.311    0.411   65.801
  319.000    9.085    0.316    0.386   63.993
  319.250    9.086    0.319    0.379   63.397
  319.500    8.919    0.327    0.374   59.767
  319.750    8.756    0.330    0.403   57.957
  320.000    8.758    0.335    0.426   59.790
  320.250    8.760    0.339    0.438   61.017
  320.500    8.927    0.342    0.449   62.248
  320.750    8.928    0.335    0.443   65.902
  321.000    9.098    0.324    0.442   72.598
  321.250    9.100    0.311    0.432   75.035
  321.500    9.101    0.302    0.426   78.693
  321.750    9.103    0.286    0.414   77.488
  322.000    9.105    0.268    0.409   67.784
  322.250    9.107    0.252    0.418   56.260
  322.500    9.108    0.260    0.425   52.018
  322.750    8.776    0.296    0.404   56.282
  323.000    8.616    0.304    0.409   61.761
  323.250    8.617    0.304    0.428   66.023
  323.500    8.781    0.308    0.436   67.861
  323.750    8.949    0.302    0.442   68.481
  324.000    8.950    0.293    0.420   71.526
  324.250    9.120    0.278    0.414   72.753
  324.500    9.294    0.269    0.416   74.588
  324.750    9.650    0.267    0.422   76.423
  325.000    9.834    0.275    0.433   77.648
  325.250   10.020    0.280    0.420   80.094
  325.500   10.211    0.282    0.415   83.142
  325.750   10.602    0.273    0.408   84.973
  326.000   10.804    0.256    0.404   84.987
  326.250   10.806    0.237    0.410   81.359
  326.500   10.411    0.218    0.397   75.296
  326.750    9.138    0.206    0.383   81.987
  327.000    8.482    0.243    0.414   94.146
  327.250    8.022    0.272    0.429  102.662
  327.500    8.023    0.272    0.450  101.460
  327.750    8.025    0.277    0.445   94.789
  328.000    8.178    0.281    0.433   86.301
  328.250    8.179    0.289    0.417   87.526
  328.500    8.181    0.280    0.404   93.004
  328.750    8.183    0.259    0.395   96.660
  329.000    8.032    0.250    0.425   99.105
  329.250    7.596    0.244    0.455  100.331
  329.500    7.051    0.250    0.463   96.699
  329.750    6.668    0.254    0.474   99.752
  330.000    6.425    0.250    0.465  102.800
  330.250    6.426    0.249    0.458  104.631
  330.500    6.427    0.248    0.467  100.392
  330.750    6.550    0.253    0.481   96.153
  331.000    6.551    0.254    0.485   97.382
  331.250    6.676    0.271    0.472   98.606
  331.500    6.803    0.274    0.468  101.664
  331.750    6.933    0.261    0.472  102.279
  332.000    7.198    0.251    0.462  102.895
  332.250    7.473    0.250    0.452   96.838
  332.500    7.758    0.273    0.458   91.384
  332.750    8.055    0.291    0.448   87.143
  333.000    8.363    0.303    0.444   88.374
  333.250    8.522    0.301    0.443   93.854
