~VERSION INFORMATION
 VERS.                 2.0:   CWLS LOG ASCII STANDARD -VERSION 2.0
 WRAP.                  NO:   ONE LINE PER DEPTH STEP
~WELL INFORMATION BLOCK
#MNEM.UNIT           DATA                    DESCRIPTION OF MNEMONIC
#---------    -------------------            -------------------------------
# Generated from Intellog Unique Number	CW_73_75/WELL/2733
WELL.         ANADARKO ER AL FRANCIS 07-32   : Well_name    - WELL
LOC .         00/07-32-073-21W4/0            : Location     - LOCATION
UWI .         00/07-32-073-21W4/0            : Uwi          - UNIQUE WELL ID
ENTR.         JAYE                           : Entered      - ENTERED BY
SRVC.         SCHLUMBERGER                   : Scn          - SERVICE COMPANY
DATE.         18 FEB 79                      : Date         - LOG DATE
STRT.M        325                            : top_depth    - START DEPTH
STOP.M        575                            : bot_depth    - STOP DEPTH
STEP.M        0.25                           : increment    - STEP LENGTH
 NULL. -999.2500:NULL Value
~CURVE INFORMATION BLOCK
#MNEM UNIT       ERCB CURVE CODE    CURVE DESCRIPTION
#-----------   ------------------   ----------------------------------
DEPT.M        00 001 00 00         : DEPTH        - DEPTH
ILD .OHMM     00 120 00 00         : RESD         - DEEP RESISTIVITY (DIL)
NPHI.V/V      00 330 00 00         : PHIN         - NEUTRON POROSITY (SANDSTONE)
DPHI.V/V      00 890 00 00         : PHID         - DENSITY POROSITY (SANDSTONE)
GR  .API      00 310 00 00         : GR           - GAMMA RAY
CALI.MM       00 280 01 00         : CAL          - CALIPER
~PARAMETER INFORMATION
#MNEM.UNIT           DATA             DESCRIPTION OF MNEMONIC
#---------         -----------     ------------------------------
GL  .M        674                  : gl           - GROUND LEVEL ELEVATION
EREF.M        677.8                : kb           - ELEVATION OF DEPTH REFERENCE
DATM.M        674                  : datum        - DATUM ELEVATION
TDD .M        600                  : tdd          - TOTAL DEPTH DRILLER
RUN .         ONE                  : Run          - RUN NUMBER
ENG .         WESOIOWSKY           : Engineer     - RECORDING ENGINEER
WIT .         ROGERS               : Witness      - WITNESSED BY
BASE.         EDM                  : Branch       - HOME BASE OF LOGGING UNIT
MUD .         GEL CHEM             : Mud_type     - MUD TYPE
MATR.         SANDSTONE            : Logunit      - NEUTRON MATRIX
TMAX.C        24                   : BHT          - MAXIMUM RECORDED TEMPERATURE
BHTD.M        601                  : BHTDEP       - MAXIMUM RECORDED TEMPERATURE
RMT .C        18                   : MDTP         - TEMPERATURE OF MUD
MUDD.KG/M     1090                 : MWT          - MUD DENSITY
NEUT.         1                    : NEUTRON      - NEUTRON TYPE
RESI.         0                    : RESIST       - RESISTIVITY TYPE
RM  .OHMM     5.8                  : RM           - RESISTIVITY OF MUD
RMC .OHMM     0                    : RMC          - RESISTIVITY OF MUD CAKE
RMF .OHMM     5.1                  : RMF          - RESISTIVITY OF MUD FILTRATE
SUFT.C        0                    : SUFT         - SURFACE TEMPERATURE
~A  DEPTH     RESD     PHIN     PHID       GR      CAL
# ...
  507.500    9.218    0.310    0.136   63.954  160.222
  507.750    9.015    0.309    0.122   69.384  160.681
  508.000    8.492    0.300    0.109   67.673  160.101
  508.250    7.894    0.289    0.115   64.291  160.258
  508.500    7.081    0.274    0.130   66.799  161.958
  508.750    6.340    0.295    0.146   68.194  163.453
  509.000    5.838    0.314    0.149   68.843  164.227
  509.250    5.356    0.328    0.148   72.409  164.579
  509.500    4.961    0.337    0.191   76.349  164.012
  509.750    4.442    0.361    0.218   77.869  163.643
  510.000    4.191    0.404    0.243   79.446  162.960
  510.250    3.948    0.409    0.267   86.549  161.566
  510.500    3.789    0.421    0.267   90.239  160.685
  510.750    3.672    0.425    0.241   90.207  160.106
  511.000    3.564    0.389    0.216   92.223  160.567
  511.250    3.447    0.400    0.197   99.882  164.237
  511.500    3.346    0.421    0.187  112.696  168.525
  511.750    3.297    0.437    0.202  105.897  170.532
  512.000    3.336    0.449    0.221  104.188  171.721
  512.250    3.446    0.493    0.218  105.147  171.355
  512.500    3.592    0.496    0.206  103.996  170.784
  512.750    3.802    0.471    0.204  103.468  169.902
  513.000    4.086    0.434    0.210  100.019  170.566
  513.250    4.324    0.426    0.216   97.070  170.609
  513.500    4.673    0.407    0.229   96.103  169.313
  513.750    4.974    0.395    0.227   94.455  167.087
  514.000    5.264    0.413    0.221   94.298  164.856
  514.250    5.562    0.432    0.211   93.457  163.357
  514.500    5.669    0.418    0.180   90.819  163.298
  514.750    5.889    0.363    0.170   88.550  163.658
  515.000    5.936    0.356    0.168   87.149  163.910
  515.250    5.773    0.375    0.191   86.806  164.059
  515.500    5.657    0.394    0.209   88.698  163.905
  515.750    5.595    0.392    0.219   89.658  163.326
  516.000    5.535    0.412    0.232   90.430  162.652
  516.250    5.485    0.425    0.222   91.326  162.081
  516.500    5.477    0.404    0.208   95.823  162.123
  516.750    5.468    0.390    0.204   91.693  161.757
  517.000    5.450    0.406    0.201   89.859  161.702
  517.250    5.452    0.397    0.198   96.405  163.607
  517.500    5.434    0.416    0.203  102.516  166.344
  517.750    5.435    0.406    0.204  107.819  167.633
  518.000    5.428    0.402    0.201  103.193  167.165
  518.250    5.440    0.473    0.167  102.725  166.698
  518.500    5.431    0.448    0.134  101.884  166.948
  518.750    5.433    0.430    0.169  104.643  167.209
  519.000    5.415    0.417    0.183  108.893  167.364
  519.250    5.407    0.433    0.182  109.357  167.605
  519.500    5.439    0.412    0.187  111.744  168.380
  519.750    5.442    0.384    0.194  108.357  168.846
  520.000    5.443    0.408    0.177  101.249  169.617
  520.250    5.415    0.426    0.162  101.214  170.077
  520.500    5.407    0.416    0.143  106.456  170.231
  520.750    5.379    0.418    0.136  102.201  170.691
  521.000    5.360    0.412    0.149  109.181  170.942
  521.250    5.322    0.410    0.156  113.991  170.989
  521.500    5.294    0.416    0.181  112.095  171.037
  521.750    5.286    0.425    0.196  110.818  171.083
  522.000    5.288    0.444    0.206  106.812  171.343
  522.250    5.300    0.442    0.195  103.055  171.488
  522.500    5.332    0.431    0.204  102.339  171.533
  522.750    5.334    0.445    0.191   99.138  171.796
  523.000    5.356    0.426    0.184   97.741  171.938
  523.250    5.430    0.411    0.166   98.762  171.986
  523.500    5.503    0.398    0.176   97.052  171.722
  523.750    5.599    0.421    0.155   92.984  170.938
  524.000    5.740    0.425    0.117   94.873  169.953
  524.250    5.907    0.414    0.168   98.627  169.177
  524.500    6.067    0.398    0.195  102.937  168.393
  524.750    6.196    0.390    0.206  104.393  167.714
  525.000    6.399    0.404    0.196  101.195  167.039
  525.250    6.499    0.403    0.181   98.056  166.470
  525.500    6.489    0.389    0.166   93.801  165.890
  525.750    6.322    0.364    0.191   94.265  165.939
  526.000    5.989    0.385    0.187  101.058  165.881
  526.250    5.663    0.396    0.174  108.101  169.244
  526.500    5.456    0.404    0.182  110.117  173.115
  526.750    5.346    0.392    0.185  110.021  176.368
  527.000    5.308    0.410    0.173  112.593  174.247
  527.250    5.391    0.425    0.171  113.117  172.427
  527.500    5.695    0.420    0.164  109.546  174.029
  527.750    6.131    0.405    0.163  114.913  175.526
  528.000    6.550    0.382    0.163  106.685  174.123
  528.250    6.959    0.351    0.160   90.018  171.792
  528.500    7.041    0.328    0.154   85.887  168.321
  528.750    7.096    0.331    0.171   92.556  166.098
  529.000    7.207    0.343    0.184   98.048  165.936
  529.250    7.429    0.356    0.188   96.461  166.707
  529.500    7.776    0.371    0.180   99.409  167.474
  529.750    8.123    0.376    0.158   92.485  168.146
  530.000    8.295    0.322    0.133   88.788  168.921
  530.250    8.205    0.279    0.123   81.306  168.961
  530.500    8.193    0.303    0.139   73.391  166.842
  530.750    9.314    0.321    0.158   68.516  164.609
  531.000   10.179    0.351    0.127   65.501  164.347
  531.250   10.613    0.273    0.090   70.063  165.425
  531.500    9.866    0.215    0.012   76.608  167.236
  531.750    8.669    0.219    0.031   84.269  168.835
  532.000    7.645    0.273    0.121   93.298  169.918
  532.250    6.679    0.371    0.130   97.858  170.067
  532.500    6.037    0.391    0.154  101.858  170.423
  532.750    5.948    0.385    0.169   99.341  170.473
  533.000    5.951    0.366    0.169  100.302  170.514
  533.250    6.043    0.362    0.159  105.297  170.572
  533.500    6.195    0.384    0.178  109.170  170.308
  533.750    6.303    0.400    0.178  107.028  170.348
  534.000    6.353    0.395    0.169  100.601  170.195
  534.250    6.344    0.387    0.156  101.374  170.136
  534.500    6.358    0.397    0.168  104.817  170.385
  534.750    6.421    0.407    0.174  102.857  170.345
  535.000    6.447    0.389    0.156  101.770  170.281
  535.250    6.413    0.365    0.136  104.590  170.218
  535.500    6.392    0.384    0.141  109.834  169.958
  535.750    6.406    0.374    0.170  112.530  170.118
  536.000    6.445    0.371    0.164  111.258  170.365
  536.250    6.435    0.390    0.146  110.601  170.411
  536.500    6.401    0.392    0.133  105.477  170.252
  536.750    6.284    0.374    0.127  101.472  170.089
  537.000    6.135    0.347    0.110  103.798  170.245
  537.250    5.978    0.367    0.152  109.164  170.283
  537.500    5.857    0.379    0.176  111.425  170.127
  537.750    5.815    0.380    0.183  106.550  169.972
  538.000    5.818    0.382    0.163  103.412  169.702
  538.250    5.831    0.374    0.166  102.696  168.819
  538.500    5.899    0.353    0.129   99.624  167.213
  538.750    5.935    0.355    0.126  104.304  165.294
  539.000    5.904    0.368    0.160   99.802  164.203
  539.250    5.742    0.368    0.170   94.370  164.149
  539.500    5.429    0.345    0.129   98.869  165.231
  539.750    4.734    0.352    0.104  102.992  167.454
  540.000    4.113    0.393    0.171  107.364  169.873
  540.250    3.150    0.410    0.200  108.757  172.300
  540.500    2.496    0.447    0.204  108.476  171.313
  540.750    2.092    0.476    0.211  109.435  168.567
  541.000    2.008    0.454    0.223  113.373  166.547
  541.250    2.032    0.448    0.222  117.189  165.873
  541.500    2.040    0.453    0.216  117.031  166.019
  541.750    2.107    0.464    0.214  117.245  166.381
  542.000    2.255    0.497    0.208  115.038  166.427
  542.250    2.507    0.476    0.201  116.184  166.067
  542.500    2.888    0.488    0.195  111.683  166.103
  542.750    3.766    0.480    0.183  112.145  166.566
  543.000    4.766    0.392    0.169  108.820  166.930
  543.250    5.140    0.403    0.155  103.697  167.181
  543.500    5.162    0.361    0.120  108.567  167.639
  543.750    5.193    0.372    0.131  115.301  168.314
