~VERSION INFORMATION
 VERS.                 2.0:   CWLS LOG ASCII STANDARD -VERSION 2.0
 WRAP.                  NO:   ONE LINE PER DEPTH STEP
~WELL INFORMATION BLOCK
#MNEM.UNIT           DATA                    DESCRIPTION OF MNEMONIC
#---------    -------------------            -------------------------------
# Generated from Intellog Unique Number	CS_69_70/WELL/782
WELL.         UNIVERSAL EXPLORATIONS LT      : Well_name    - WELL
LOC .         00/06-30-069-09W4/0            : Location     - LOCATION
UWI .         00/06-30-069-09W4/0            : Uwi          - UNIQUE WELL ID
ENTR.         SP                             : Entered      - ENTERED BY
SRVC.         SCHLUMBERGER                   : Scn          - SERVICE COMPANY
STRT.M        420                            : top_depth    - START DEPTH
STOP.M        635                            : bot_depth    - STOP DEPTH
STEP.M        0.25                           : increment    - STEP LENGTH
 NULL. -999.2500:NULL Value
~CURVE INFORMATION BLOCK
#MNEM UNIT       ERCB CURVE CODE    CURVE DESCRIPTION
#-----------   ------------------   ----------------------------------
DEPT.M        00 001 00 00         : DEPTH        - DEPTH
ILD .OHMM     00 120 00 00         : RESD         - DEEP RESISTIVITY (DIL)
DPHI.V/V      00 890 00 00         : PHID         - DENSITY POROSITY (LIMESTONE)
NPHI.V/V      00 330 00 00         : PHIN         - NEUTRON POROSITY (LIMESTONE)
GR  .API      00 310 00 00         : GR           - GAMMA RAY
~PARAMETER INFORMATION
#MNEM.UNIT           DATA             DESCRIPTION OF MNEMONIC
#---------         -----------     ------------------------------
GL  .M        749.7                : gl           - GROUND LEVEL ELEVATION
EREF.M        753.2                : kb           - ELEVATION OF DEPTH REFERENCE
DATM.M        749.7                : datum        - DATUM ELEVATION
TDD .M        643                  : tdd          - TOTAL DEPTH DRILLER
RUN .         ONE                  : Run          - RUN NUMBER
ENG .         BILL                 : Engineer     - RECORDING ENGINEER
WIT .         JIM                  : Witness      - WITNESSED BY
MUD .         GEL                  : Mud_type     - MUD TYPE
MATR.         LIMESTONE            : Logunit      - NEUTRON MATRIX
TMAX.C        22                   : BHT          - MAXIMUM RECORDED TEMPERATURE
BHTD.M        643                  : BHTDEP       - MAXIMUM RECORDED TEMPERATURE
MATR.         1                    : LOGUNIT      - NEUTRON MATRIX
RMT .C        25                   : MDTP         - TEMPERATURE OF MUD
NEUT.         1                    : NEUTRON      - NEUTRON TYPE
RESI.         0                    : RESIST       - RESISTIVITY TYPE
RMC .OHMM     0.25                 : RMC          - RESISTIVITY OF MUD CAKE
RMF .OHMM     0.25                 : RMF          - RESISTIVITY OF MUD FILTRATE
SUFT.C        15                   : SUFT         - SURFACE TEMPERATURE
~A  DEPTH     RESD     PHID     PHIN       GR
# ...
  507.000    6.469    0.366    0.450   64.158
  507.250    6.481    0.361    0.444   66.235
  507.500    6.481    0.358    0.442   68.863
  507.750    6.482    0.353    0.444   69.960
  508.000    6.506    0.353    0.449   64.751
  508.250    6.518    0.361    0.448   61.930
  508.500    6.543    0.356    0.446   63.885
  508.750    6.543    0.352    0.442   64.554
  509.000    6.519    0.350    0.430   63.875
  509.250    6.507    0.354    0.418   65.829
  509.500    6.519    0.364    0.408   67.784
  509.750    6.531    0.365    0.430   68.575
  510.000    6.556    0.360    0.448   68.447
  510.250    6.605    0.364    0.441   69.728
  510.500    6.667    0.363    0.430   71.438
  510.750    6.793    0.360    0.421   72.719
  511.000    6.999    0.359    0.424   73.266
  511.250    7.361    0.357    0.434   72.281
  511.500    7.947    0.357    0.438   68.909
  511.750    8.856    0.356    0.451   66.761
  512.000   10.516    0.294    0.453   65.287
  512.250   11.962    0.126    0.398   63.691
  512.500   13.709    0.082    0.325   60.747
  512.750   15.740    0.041    0.257   56.518
  513.000   17.443   -0.000    0.196   52.840
  513.250   19.365   -0.016    0.168   50.447
  513.500   18.448   -0.016    0.150   48.054
  513.750   15.566    0.014    0.133   53.008
  514.000   13.307    0.041    0.369   57.596
  514.250   10.938    0.306    0.403   61.387
  514.500    9.110    0.338    0.423   63.464
  514.750    7.730    0.347    0.422   64.806
  515.000    7.041    0.349    0.427   67.924
  515.250    6.859    0.344    0.438   69.695
  515.500    6.898    0.343    0.440   71.648
  515.750    7.028    0.346    0.435   72.502
  516.000    7.081    0.347    0.431   72.558
  516.250    7.134    0.346    0.434   71.819
  516.500    7.148    0.346    0.437   68.079
  516.750    7.161    0.343    0.433   64.830
  517.000    7.175    0.339    0.441   64.519
  517.250    7.188    0.336    0.443   66.228
  517.500    7.162    0.330    0.441   66.591
  517.750    7.162    0.328    0.440   68.974
  518.000    7.162    0.340    0.439   72.153
  518.250    7.216    0.349    0.421   74.107
  518.500    7.284    0.352    0.408   73.919
  518.750    7.407    0.352    0.430   69.382
  519.000    7.604    0.352    0.455   67.419
  519.250    7.820    0.353    0.463   65.088
  519.500    7.864    0.357    0.453   64.960
  519.750    7.762    0.360    0.455   63.915
  520.000    7.604    0.360    0.461   66.298
  520.250    7.464    0.355    0.462   69.355
  520.500    7.326    0.351    0.468   71.126
  520.750    7.204    0.355    0.466   72.223
  521.000    7.084    0.357    0.448   71.360
  521.250    6.979    0.352    0.440   70.560
  521.500    6.876    0.350    0.432   70.065
  521.750    6.863    0.349    0.442   69.816
  522.000    6.915    0.349    0.448   69.934
  522.250    6.674    0.346    0.448   68.092
  522.500    6.649    0.344    0.453   64.475
  522.750    6.502    0.342    0.461   65.143
  523.000    6.370    0.341    0.448   68.323
  523.250    6.194    0.344    0.432   71.930
  523.500    5.990    0.325    0.418   76.516
  523.750    5.857    0.292    0.419   79.573
  524.000    5.771    0.264    0.431   82.752
  524.250    5.601    0.229    0.437   85.686
  524.500    5.406    0.232    0.432   87.396
  524.750    5.198    0.239    0.440   88.371
  525.000    5.036    0.246    0.466   87.571
  525.250    4.842    0.249    0.488   89.708
  525.500    4.753    0.246    0.495   92.091
  525.750    4.851    0.243    0.471   93.495
  526.000    4.925    0.243    0.458   93.919
  526.250    4.952    0.244    0.450   93.975
  526.500    4.952    0.241    0.460   92.378
  526.750    4.843    0.238    0.471   89.986
  527.000    4.354    0.239    0.484   90.471
  527.250    3.828    0.256    0.492   92.548
  527.500    3.248    0.284    0.499   94.196
  527.750    2.861    0.263    0.502   95.477
  528.000    2.616    0.249    0.495   96.635
  528.250    2.534    0.250    0.488   97.366
  528.500    2.553    0.247    0.484   97.483
  528.750    2.596    0.243    0.489   96.622
  529.000    2.685    0.236    0.490   96.311
  529.250    2.835    0.240    0.478  100.469
  529.500    3.004    0.250    0.499  103.526
  529.750    3.243    0.257    0.515  102.725
  530.000    3.514    0.262    0.489   96.719
  530.250    3.758    0.265    0.445   91.756
  530.500    4.019    0.259    0.445   86.425
  530.750    4.291    0.248    0.455   88.868
  531.000    4.496    0.235    0.443   91.925
  531.250    4.809    0.238    0.432   94.186
  531.500    4.909    0.252    0.427   90.079
  531.750    5.039    0.269    0.442   85.727
  532.000    5.105    0.283    0.448   82.967
  532.250    5.058    0.286    0.438   82.657
  532.500    5.002    0.284    0.433   83.937
  532.750    4.974    0.280    0.438   85.770
  533.000    4.974    0.294    0.453   87.785
  533.250    5.002    0.309    0.460   84.842
  533.500    5.087    0.321    0.442   77.673
  533.750    5.163    0.326    0.433   73.444
  534.000    5.271    0.328    0.446   69.398
  534.250    5.390    0.329    0.445   72.577
  534.500    5.512    0.330    0.437   75.022
  534.750    5.616    0.330    0.423   77.772
  535.000    5.712    0.319    0.414   79.543
  535.250    5.744    0.310    0.407   81.313
  535.500    5.733    0.301    0.409   82.105
  535.750    5.659    0.296    0.421   80.937
  536.000    5.607    0.301    0.431   77.320
  536.250    5.513    0.320    0.444   79.947
  536.500    5.432    0.334    0.429   86.494
  536.750    5.391    0.322    0.423   92.795
  537.000    5.422    0.305    0.436   92.362
  537.250    5.524    0.291    0.449   86.847
  537.500    5.392    0.304    0.441   82.924
  537.750    5.524    0.293    0.427   79.613
  538.000    5.799    0.263    0.445   82.486
  538.250    6.202    0.237    0.458   85.359
  538.500    6.784    0.220    0.412   78.251
  538.750    7.379    0.193    0.281   66.369
  539.000    7.819    0.099    0.241   63.364
  539.250    7.775    0.064    0.294   70.400
  539.500    6.585    0.126    0.344   75.294
  539.750    5.725    0.168    0.378   79.881
  540.000    5.109    0.203    0.404   82.264
  540.250    4.688    0.234    0.422   81.708
  540.500    4.567    0.245    0.431   82.010
  540.750    4.593    0.250    0.435   84.699
  541.000    4.645    0.244    0.439   86.897
  541.250    4.689    0.235    0.440   87.567
  541.500    4.742    0.246    0.441   87.561
  541.750    4.777    0.246    0.427   87.312
  542.000    4.777    0.236    0.427   85.041
  542.250    4.795    0.228    0.442   82.833
  542.500    4.742    0.220    0.428   81.910
  542.750    4.698    0.215    0.417   83.986
  543.000    4.646    0.210    0.414   85.207
  543.250    4.569    0.213    0.431   85.569
  543.500    4.476    0.218    0.449   88.380
  543.750    4.385    0.215    0.459   90.580
  544.000    4.288    0.216    0.457   91.617
  544.250    4.201    0.233    0.448   92.223
  544.500    4.115    0.243    0.442   91.668
  544.750    4.055    0.249    0.448   90.990
  545.000    3.995    0.247    0.458   87.924
  545.250    3.965    0.244    0.468   88.348
  545.500    3.943    0.242    0.473   89.567
  545.750    3.950    0.242    0.475   89.869
  546.000    3.987    0.244    0.470   89.864
  546.250    4.032    0.244    0.470   90.471
  546.500    4.093    0.243    0.483   91.630
  546.750    4.155    0.240    0.496   92.910
  547.000    4.257    0.236    0.489   93.274
  547.250    4.354    0.233    0.490   93.207
  547.500    4.346    0.232    0.494   92.161
  547.750    4.210    0.234    0.473   92.647
  548.000    3.907    0.237    0.457   94.417
  548.250    3.612    0.243    0.463   96.188
  548.500    3.340    0.246    0.466   97.653
  548.750    3.100    0.247    0.484   97.954
  549.000    2.882    0.250    0.513   99.112
  549.250    2.766    0.257    0.528  100.210
  549.500    2.730    0.258    0.528  102.348
  549.750    2.626    0.258    0.520  104.425
  550.000    2.423    0.262    0.511  105.890
  550.250    2.300    0.269    0.508  106.559
