~VERSION INFORMATION
 VERS.                 2.0:   CWLS LOG ASCII STANDARD -VERSION 2.0
 WRAP.                  NO:   ONE LINE PER DEPTH STEP
~WELL INFORMATION BLOCK
#MNEM.UNIT           DATA                    DESCRIPTION OF MNEMONIC
#---------    -------------------            -------------------------------
# Generated from Intellog Unique Number	CW_73_75/WELL/2723
WELL.         TRICENT ET AL MITSUE 02-26     : Well_name    - WELL
LOC .         00/02-26-073-05W5/0            : Location     - LOCATION
UWI .         00/02-26-073-05W5/0            : Uwi          - UNIQUE WELL ID
ENTR.         JAYE                           : Entered      - ENTERED BY
SRVC.         SCHLUMBERGER                   : Scn          - SERVICE COMPANY
DATE.         23 MAR 82                      : Date         - LOG DATE
STRT.M        350                            : top_depth    - START DEPTH
STOP.M        590                            : bot_depth    - STOP DEPTH
STEP.M        0.25                           : increment    - STEP LENGTH
 NULL. -999.2500:NULL Value
~CURVE INFORMATION BLOCK
#MNEM UNIT       ERCB CURVE CODE    CURVE DESCRIPTION
#-----------   ------------------   ----------------------------------
DEPT.M        00 001 00 00         : DEPTH        - DEPTH
DPHI.V/V      00 890 00 00         : PHID         - DENSITY POROSITY (SANDSTONE)
NPHI.V/V      00 330 00 00         : PHIN         - NEUTRON POROSITY (SANDSTONE)
GR  .API      00 310 00 00         : GR           - GAMMA RAY
CALI.MM       00 280 01 00         : CAL          - CALIPER
ILD .OHMM     00 120 00 00         : RESD         - DEEP RESISTIVITY (DIL)
~PARAMETER INFORMATION
#MNEM.UNIT           DATA             DESCRIPTION OF MNEMONIC
#---------         -----------     ------------------------------
GL  .M        576                  : gl           - GROUND LEVEL ELEVATION
EREF.M        583                  : kb           - ELEVATION OF DEPTH REFERENCE
DATM.M        576                  : datum        - DATUM ELEVATION
TDD .M        1695                 : tdd          - TOTAL DEPTH DRILLER
RUN .         ONE                  : Run          - RUN NUMBER
ENG .         HEATH                : Engineer     - RECORDING ENGINEER
WIT .         MACKASEY             : Witness      - WITNESSED BY
BASE.         EDM                  : Branch       - HOME BASE OF LOGGING UNIT
MUD .         GEL CHEM             : Mud_type     - MUD TYPE
MATR.         SANDSTONE            : Logunit      - NEUTRON MATRIX
TMAX.C        46.1                 : BHT          - MAXIMUM RECORDED TEMPERATURE
BHTD.M        1695.8               : BHTDEP       - MAXIMUM RECORDED TEMPERATURE
RMT .C        17.7                 : MDTP         - TEMPERATURE OF MUD
MUDD.KG/M     1090                 : MWT          - MUD DENSITY
NEUT.         1                    : NEUTRON      - NEUTRON TYPE
RESI.         0                    : RESIST       - RESISTIVITY TYPE
RM  .OHMM     1.08                 : RM           - RESISTIVITY OF MUD
RMC .OHMM     0                    : RMC          - RESISTIVITY OF MUD CAKE
RMF .OHMM     0.79                 : RMF          - RESISTIVITY OF MUD FILTRATE
SUFT.C        0                    : SUFT         - SURFACE TEMPERATURE
~A  DEPTH     PHID     PHIN       GR      CAL     RESD
# ...
  569.000    0.187    0.387  110.253  244.516    5.091
  569.250    0.221    0.458  111.295  258.606    4.456
  569.500    0.317    0.502  107.420  280.061    3.777
  569.750    0.402    0.526  102.049  344.690    2.991
  570.000    0.442    0.539   99.169  310.000    2.265
  570.250    0.427    0.555   95.479  287.348    1.898
  570.500    0.399    0.593   89.983  286.076    1.615
  570.750    0.500    0.604   84.176  300.268    1.403
  571.000    0.501    0.558   86.338  307.713    1.278
  571.250    0.457    0.551   91.365  306.854    1.243
  571.500    0.438    0.560   94.091  305.792    1.230
  571.750    0.463    0.567   97.499  299.745    1.238
  572.000    0.409    0.575   98.978  292.244    1.291
  572.250    0.387    0.553   98.214  286.512    1.380
  572.500    0.368    0.532   95.021  281.607    1.454
  572.750    0.378    0.540   92.017  274.626    1.657
  573.000    0.337    0.465   90.506  268.580    2.184
  573.250    0.296    0.435   90.926  270.838    3.029
  573.500    0.294    0.489   92.715  294.680    3.823
  573.750    0.495    0.512   92.762  321.429    4.424
  574.000    0.473    0.435   91.377  314.345    4.784
  574.250    0.394    0.377   90.426  298.855    4.707
  574.500    0.349    0.392   88.916  268.731    4.360
  574.750    0.399    0.434   91.764  279.394    3.918
  575.000    0.450    0.465   95.982  326.689    3.629
  575.250    0.405    0.484   96.277  329.985    3.578
  575.500    0.353    0.483   95.266  320.410    3.574
  575.750    0.321    0.468   93.382  314.468    3.603
  576.000    0.294    0.482   91.497  311.119    3.689
  576.250    0.287    0.518   92.290  310.262    3.734
  576.500    0.346    0.563   92.709  320.302    3.544
  576.750    0.419    0.513   94.187  344.768    3.377
  577.000    0.471    0.472   95.603  367.988    3.496
  577.250    0.348    0.449   96.957  343.884    3.731
  577.500    0.291    0.443   98.873  307.015    4.064
  577.750    0.244    0.445  100.662  285.714    4.470
  578.000    0.251    0.512  100.896  277.695    4.448
  578.250    0.333    0.504  100.132  283.062    3.975
  578.500    0.405    0.482   94.263  290.822    3.559
  578.750    0.372    0.471   95.490  281.559    3.247
  579.000    0.342    0.476  100.644  265.862    3.025
  579.250    0.356    0.535  104.986  276.312    2.915
  579.500    0.355    0.557  104.348  274.837    2.857
  579.750    0.333    0.515  100.221  267.960    2.801
  580.000    0.308    0.487   97.840  267.931    2.776
  580.250    0.293    0.461   97.138  273.924    2.779
  580.500    0.284    0.477   97.807  276.805    2.812
  580.750    0.279    0.482   99.036  276.882    2.879
  581.000    0.268    0.470  100.515  279.553    2.980
  581.250    0.284    0.481  104.171  281.602    3.175
  581.500    0.317    0.473  107.208  280.537    3.299
  581.750    0.302    0.453  108.997  278.643    3.364
  582.000    0.271    0.465  109.104  274.361    3.412
  582.250    0.257    0.493  108.716  271.947    3.434
  582.500    0.250    0.473  108.200  270.779    3.541
  582.750    0.247    0.484  106.069  284.865    3.743
  583.000    0.272    0.509  101.818  318.671    3.995
  583.250    0.303    0.522  100.618  322.584    4.113
  583.500    0.301    0.521  104.090  314.673    4.107
  583.750    0.314    0.517  109.367  305.718    3.966
  584.000    0.326    0.502  107.169  298.425    3.751
  584.250    0.319    0.500  105.973  293.940    3.371
  584.500    0.311    0.524  107.637  291.420    3.001
  584.750    0.304    0.506  110.424  295.441    2.854
  585.000    0.277    0.502  110.531  307.145    2.730
  585.250    0.338    0.544  109.394  292.692    2.631
  585.500    0.386    0.559  109.192  282.806    2.583
  585.750    0.372    0.529  110.671  288.485    2.571
  586.000    0.345    0.477  111.837  297.798    2.632
  586.250    0.317    0.488  110.327  301.615    2.771
  586.500    0.346    0.556  105.142  299.407    3.048
  586.750    0.423    0.473   99.336  322.109    3.461
  587.000    0.331    0.411   98.258  351.140    4.519
  587.250    0.256    0.377   99.424  352.774    7.140
  587.500    0.234    0.330   86.024  254.156   10.499
  587.750    0.197    0.305   62.907  231.609   13.202
  588.000    0.165    0.280   65.689  215.601   14.686
  588.250    0.144    0.255   69.910  211.938   13.809
  588.500    0.140    0.269   73.631  210.460   10.551
  588.750    0.213    0.305   76.914  208.254    8.961
  589.000    0.248    0.351   79.885  208.124    7.948
  589.250    0.258    0.361   82.110  209.135    7.473
  589.500    0.250    0.346   84.152  209.833    7.188
  589.750    0.239    0.330   87.063  213.645    7.006
  590.000    0.228    0.321   90.095  218.910    6.973
