~VERSION INFORMATION
 VERS.                 2.0:   CWLS LOG ASCII STANDARD -VERSION 2.0
 WRAP.                  NO:   ONE LINE PER DEPTH STEP
~WELL INFORMATION BLOCK
#MNEM.UNIT           DATA                    DESCRIPTION OF MNEMONIC
#---------    -------------------            -------------------------------
# Generated from Intellog Unique Number	CW_73_75/WELL/2725
WELL.         CANTERRA MARTEN H 04-25        : Well_name    - WELL
LOC .         00/04-25-073-25W4/0            : Location     - LOCATION
UWI .         00/04-25-073-25W4/0            : Uwi          - UNIQUE WELL ID
ENTR.         JAYE                           : Entered      - ENTERED BY
SRVC.         WESTERN ATLAS                  : Scn          - SERVICE COMPANY
DATE.         21 JAN 86                      : Date         - LOG DATE
STRT.M        385                            : top_depth    - START DEPTH
STOP.M        615                            : bot_depth    - STOP DEPTH
STEP.M        0.25                           : increment    - STEP LENGTH
 NULL. -999.2500:NULL Value
~CURVE INFORMATION BLOCK
#MNEM UNIT       ERCB CURVE CODE    CURVE DESCRIPTION
#-----------   ------------------   ----------------------------------
DEPT.M        00 001 00 00         : DEPTH        - DEPTH
RHOB.KG/M3    00 350 00 00         : DENS         - BULK DENSITY
DPHI.V/V      00 890 00 00         : PHID         - DENSITY POROSITY (SANDSTONE)
ILD .OHMM     00 120 00 00         : RESD         - DEEP RESISTIVITY (DLL)
CALI.MM       00 280 01 00         : CAL          - CALIPER
GR  .API      00 310 00 00         : GR           - GAMMA RAY
NPHI.V/V      00 330 00 00         : PHIN         - NEUTRON POROSITY (SANDSTONE)
~PARAMETER INFORMATION
#MNEM.UNIT           DATA             DESCRIPTION OF MNEMONIC
#---------         -----------     ------------------------------
GL  .M        637.6                : gl           - GROUND LEVEL ELEVATION
EREF.M        641                  : kb           - ELEVATION OF DEPTH REFERENCE
DATM.M        637.6                : datum        - DATUM ELEVATION
TDD .M        617                  : tdd          - TOTAL DEPTH DRILLER
RUN .         ONE                  : Run          - RUN NUMBER
ENG .         MASHON               : Engineer     - RECORDING ENGINEER
WIT .         HUDSON/REID          : Witness      - WITNESSED BY
BASE.         EDM                  : Branch       - HOME BASE OF LOGGING UNIT
MUD .         GEL CHEM             : Mud_type     - MUD TYPE
MATR.         SANDSTONE            : Logunit      - NEUTRON MATRIX
TMAX.C        42                   : BHT          - MAXIMUM RECORDED TEMPERATURE
BHTD.M        617                  : BHTDEP       - MAXIMUM RECORDED TEMPERATURE
RMT .C        22                   : MDTP         - TEMPERATURE OF MUD
MUDD.KG/M     1130                 : MWT          - MUD DENSITY
NEUT.         0                    : NEUTRON      - NEUTRON TYPE
RESI.         1                    : RESIST       - RESISTIVITY TYPE
RM  .OHMM     2.3                  : RM           - RESISTIVITY OF MUD
RMC .OHMM     3.5                  : RMC          - RESISTIVITY OF MUD CAKE
RMF .OHMM     3.2                  : RMF          - RESISTIVITY OF MUD FILTRATE
SUFT.C        0                    : SUFT         - SURFACE TEMPERATURE
~A  DEPTH     DENS     PHID     RESD      CAL       GR     PHIN
  385.000 2262.520    0.235    1.841  182.234  105.128    0.504
  385.250 2248.830    0.243    1.899  181.847  100.619    0.521
  385.500 2231.410    0.254    2.158  180.631  104.538    0.495
  385.750 2180.330    0.285    2.577  178.175  105.793    0.520
  386.000 2148.360    0.304    3.090  174.688  101.530    0.589
  386.250 2178.110    0.286    3.781  171.716  101.917    0.512
  386.500 2305.920    0.209    4.756  169.366   90.899    0.483
  386.750 2331.510    0.193    5.434  168.151   84.218    0.438
  387.000 2270.240    0.230    6.185  167.039   70.536    0.382
  387.250 2307.260    0.208    6.671  166.132   64.722    0.369
  387.500 2193.430    0.277    6.755  164.918   57.298    0.373
  387.750 2135.910    0.312    6.482  163.912   65.249    0.388
  388.000 2109.140    0.328    5.872  164.348   66.378    0.375
  388.250 2094.000    0.337    5.359  165.201   61.992    0.375
  388.500 2096.110    0.336    5.020  165.742   60.521    0.363
  388.750 2116.290    0.323    4.650  165.454   62.703    0.378
  389.000 2136.890    0.311    4.413  164.857   69.660    0.460
  389.250 2168.090    0.292    4.274  162.714   74.510    0.439
  389.500 2298.810    0.213    4.201  159.950   70.619    0.403
  389.750 2350.360    0.182    4.114  158.321   64.436    0.371
  390.000 2215.340    0.263    3.847  157.003   64.202    0.365
  390.250 2195.640    0.275    3.610  158.474   76.738    0.386
  390.500 2233.480    0.252    3.363  163.146   84.625    0.405
  390.750 2249.510    0.243    3.257  167.611   95.735    0.397
  391.000 2285.490    0.221    3.267  168.669  109.759    0.397
  391.250 2253.930    0.240    3.371  167.662  113.616    0.480
  391.500 2240.260    0.248    3.490  167.582  121.813    0.426
  391.750 2206.210    0.269    3.574  167.090  115.009    0.415
  392.000 2180.060    0.285    3.653  166.188   93.081    0.374
  392.250 2160.350    0.297    3.796  165.178   90.059    0.356
  392.500 2106.570    0.329    3.960  164.374   81.891    0.362
  392.750 2097.460    0.335    4.153  165.225   64.798    0.389
  393.000 2105.590    0.330    4.317  165.561   58.304    0.366
  393.250 2155.700    0.300    4.519  165.691   63.712    0.368
  393.500 2201.650    0.272    4.517  166.643   84.368    0.397
  393.750 2250.290    0.242    4.367  168.113   97.647    0.395
  394.000 2228.300    0.256    4.277  168.242   96.484    0.393
  394.250 2262.200    0.235    4.470  168.058   89.680    0.395
  394.500 2330.170    0.194    4.697  170.770  108.477    0.410
  394.750 2335.610    0.191    5.010  177.716  114.008    0.412
  395.000 2329.200    0.194    5.017  180.427  112.907    0.403
  395.250 2268.970    0.231    4.978  179.727  102.385    0.397
  395.500 2210.410    0.266    4.911  167.664   91.737    0.392
  395.750 2149.770    0.303    4.828  169.135   79.169    0.387
  396.000 2119.880    0.321    4.702  168.023   67.221    0.382
  396.250 2218.610    0.261    4.579  165.466   59.053    0.375
  396.500 2267.260    0.232    4.468  161.873   60.617    0.384
  396.750 2340.630    0.187    4.319  161.797   61.749    0.386
  397.000 2345.440    0.185    4.238  165.025   73.230    0.362
  397.250 2301.010    0.212    4.182  167.011   89.485    0.390
  397.500 2249.300    0.243    4.227  168.686   97.744    0.405
  397.750 2261.180    0.236    4.401  171.501  107.676    0.396
  398.000 2254.350    0.240    4.633  173.905  116.865    0.391
  398.250 2268.720    0.231    4.851  174.546  119.360    0.406
  398.500 2267.500    0.232    5.184  172.195  113.981    0.423
  398.750 2244.260    0.246    5.458  168.603  101.537    0.418
  399.000 2211.670    0.266    5.578  166.458   80.600    0.407
  399.250 2217.310    0.262    5.545  165.555   78.693    0.395
  399.500 2224.620    0.258    5.430  166.199   76.725    0.382
  399.750 2226.930    0.256    5.288  167.464   76.677    0.379
  400.000 2237.770    0.250    5.131  168.523   86.052    0.389
  400.250 2251.100    0.242    5.062  169.267   97.348    0.392
  400.500 2277.510    0.226    5.098  169.498  105.421    0.407
  400.750 2289.180    0.219    5.162  167.662   98.741    0.415
  401.000 2221.270    0.260    5.208  165.210   86.606    0.401
  401.250 2171.230    0.290    5.206  165.750   66.228    0.384
  401.500 2174.170    0.288    5.184  166.807   66.430    0.363
  401.750 2192.480    0.277    5.172  168.381   68.612    0.332
  402.000 2231.370    0.254    5.151  171.611   89.827    0.355
  402.250 2275.030    0.227    5.082  170.084   98.086    0.355
  402.500 2229.760    0.255    4.877  166.285   94.320    0.359
  402.750 2190.730    0.278    4.426  167.032   83.362    0.345
  403.000 2152.540    0.301    3.929  166.540   60.195    0.334
  403.250 2134.490    0.312    3.566  164.706   46.262    0.347
  403.500 2124.750    0.318    3.309  165.765   37.847    0.358
  403.750 2149.920    0.303    3.123  169.196   33.584    0.358
  404.000 2157.650    0.298    3.087  167.775   42.029    0.352
  404.250 2178.250    0.286    3.342  166.043   47.191    0.366
  404.500 2227.100    0.256    3.598  165.551   57.308    0.344
  404.750 2306.090    0.208    3.880  168.158  104.307    0.334
  405.000 2274.750    0.227    4.116  169.320   95.644    0.391
  405.250 2259.190    0.237    4.301  166.454   86.918    0.387
  405.500 2257.560    0.238    4.372  164.100   94.558    0.375
  405.750 2254.890    0.239    4.411  164.847  101.454    0.387
  406.000 2249.940    0.242    4.441  169.523  107.728    0.390
  406.250 2244.980    0.245    4.431  172.541  114.251    0.355
  406.500 2268.690    0.231    4.268  172.464  116.312    0.346
  406.750 2251.900    0.241    3.968  168.354  109.012    0.384
  407.000 2252.550    0.241    3.582  169.619  104.192    0.402
  407.250 2288.320    0.219    3.185  172.020  122.740    0.438
  407.500 2315.770    0.203    2.848  173.905  125.793    0.462
  407.750 2352.580    0.180    2.542  174.445  123.575    0.518
  408.000 2407.670    0.147    2.422  174.055  127.433    0.496
  408.250 2385.050    0.161    2.376  173.151  132.159    0.493
  408.500 2357.040    0.178    2.370  171.419  127.773    0.472
  408.750 2357.270    0.177    2.369  170.722  126.858    0.458
  409.000 2316.790    0.202    2.413  171.261  136.108    0.500
  409.250 2292.720    0.217    2.484  173.149  143.252    0.489
  409.500 2293.790    0.216    2.616  175.961  137.067    0.541
  409.750 2291.740    0.217    2.790  177.637  125.862    0.477
  410.000 2267.460    0.232    2.992  173.427  122.963    0.426
  410.250 2255.240    0.239    3.215  172.830  124.528    0.435
  410.500 2275.000    0.227    3.599  178.640  122.497    0.446
  410.750 2285.420    0.221    3.962  178.769  126.107    0.433
  411.000 2261.980    0.235    4.156  175.488  133.002    0.418
  411.250 2237.490    0.250    4.319  173.551  111.942    0.403
  411.500 2331.020    0.193    4.430  170.680   98.630    0.411
  411.750 2269.960    0.230    4.494  165.642   81.599    0.439
  412.000 2180.860    0.284    4.509  163.707   86.325    0.430
  412.250 2139.750    0.309    4.466  163.523   96.504    0.426
  412.500 2134.180    0.313    4.365  163.650   98.503    0.405
  412.750 2111.970    0.326    4.252  163.674   87.236    0.395
  413.000 2124.050    0.319    4.005  164.731   79.316    0.409
  413.250 2143.200    0.307    3.907  166.926   82.059    0.400
  413.500 2172.530    0.289    4.046  168.706   87.405    0.365
  413.750 2150.530    0.303    4.276  166.045   91.014    0.387
  414.000 2125.420    0.318    4.435  162.765   81.482    0.417
  414.250 2118.390    0.322    4.408  161.240   75.051    0.413
  414.500 2129.430    0.315    4.326  160.956   77.855    0.396
  414.750 2149.620    0.303    4.181  161.082   73.159    0.396
  415.000 2174.170    0.288    4.042  161.209   73.793    0.424
  415.250 2172.530    0.289    3.951  162.164   76.226    0.454
  415.500 2150.750    0.303    3.906  163.014   73.017    0.422
  415.750 2170.720    0.290    3.861  163.869   73.714    0.421
  416.000 2207.740    0.268    3.774  164.717   78.936    0.427
