~VERSION INFORMATION
 VERS.                 2.0:   CWLS LOG ASCII STANDARD -VERSION 2.0
 WRAP.                  NO:   ONE LINE PER DEPTH STEP
~WELL INFORMATION BLOCK
#MNEM.UNIT           DATA                    DESCRIPTION OF MNEMONIC
#---------    -------------------            -------------------------------
# Generated from Intellog Unique Number	CW_82_90/WELL/591
WELL.         07-11-082-20W4                 : Well_name    - WELL
LOC .         00/07-11-082-20W4/0            : Location     - LOCATION
UWI .         00/07-11-082-20W4/0            : Uwi          - UNIQUE WELL ID
ENTR.         JAYE                           : Entered      - ENTERED BY
SRVC.         SCHLUMBERGER                   : Scn          - SERVICE COMPANY
DATE.         07 FEB 77                      : Date         - LOG DATE
STRT.M        182.88                         : top_depth    - START DEPTH
STOP.M        373.13                         : bot_depth    - STOP DEPTH
STEP.M        0.25                           : increment    - STEP LENGTH
 NULL. -999.2500:NULL Value
~CURVE INFORMATION BLOCK
#MNEM UNIT       ERCB CURVE CODE    CURVE DESCRIPTION
#-----------   ------------------   ----------------------------------
DEPT.M        00 001 00 00         : DEPTH        - DEPTH
CALI.MM       00 280 01 00         : CAL          - CALIPER
GR  .API      00 310 00 00         : GR           - GAMMA RAY
NPHI.V/V      00 330 00 00         : PHIN         - NEUTRON POROSITY (SANDSTONE)
DPHI.V/V      00 890 00 00         : PHID         - DENSITY POROSITY (SANDSTONE)
ILD .OHMM     00 120 00 00         : RESD         - DEEP RESISTIVITY (DIL)
~PARAMETER INFORMATION
#MNEM.UNIT           DATA             DESCRIPTION OF MNEMONIC
#---------         -----------     ------------------------------
GL  .M        572.719              : gl           - GROUND LEVEL ELEVATION
EREF.M        581.863              : kb           - ELEVATION OF DEPTH REFERENCE
DATM.M        572.719              : datum        - DATUM ELEVATION
TDD .M        384.048              : tdd          - TOTAL DEPTH DRILLER
RUN .         ONE                  : Run          - RUN NUMBER
ENG .         CERANTOIA            : Engineer     - RECORDING ENGINEER
WIT .         GRAHAM               : Witness      - WITNESSED BY
BASE.         EDMONTON             : Branch       - HOME BASE OF LOGGING UNIT
MUD .         GEL CHEM             : Mud_type     - MUD TYPE
MATR.         SANDSTONE            : Logunit      - NEUTRON MATRIX
TMAX.C        24.4444              : BHT          - MAXIMUM RECORDED TEMPERATURE
BHTD.M        375.514              : BHTDEP       - MAXIMUM RECORDED TEMPERATURE
RMT .C        24.4444              : MDTP         - TEMPERATURE OF MUD
MUDD.KG/M     0                    : MWT          - MUD DENSITY
NEUT.         1                    : NEUTRON      - NEUTRON TYPE
RESI.         0                    : RESIST       - RESISTIVITY TYPE
RM  .OHMM     5                    : RM           - RESISTIVITY OF MUD
RMC .OHMM     5                    : RMC          - RESISTIVITY OF MUD CAKE
RMF .OHMM     5                    : RMF          - RESISTIVITY OF MUD FILTRATE
SUFT.C        4                    : SUFT         - SURFACE TEMPERATURE
~A  DEPTH      CAL       GR     PHIN     PHID     RESD
# ...
  292.380  149.697   81.374    0.501    0.237    6.049
  292.630  151.272   86.096    0.481    0.243    5.935
  292.880  151.908   91.297    0.483    0.257    5.824
  293.130  152.328   89.686    0.495    0.252    5.704
  293.380  152.383   89.929    0.498    0.243    5.659
  293.630  152.454   90.093    0.496    0.233    5.613
  293.880  152.495   85.993    0.479    0.237    5.670
  294.130  152.798   80.585    0.473    0.231    5.760
  294.380  154.379   83.588    0.513    0.247    5.872
  294.630  154.890   87.691    0.509    0.246    5.965
  294.880  155.183   89.718    0.494    0.234    6.025
  295.130  155.700   90.444    0.484    0.228    6.021
  295.380  156.809   89.593    0.488    0.226    5.951
  295.630  157.572   89.199    0.512    0.223    5.904
  295.880  158.446   89.860    0.545    0.247    5.750
  296.130  157.568   90.098    0.544    0.256    5.581
  296.380  149.395   87.450    0.529    0.276    5.457
  296.630  146.661   88.305    0.520    0.268    5.443
  296.880  146.274   88.067    0.541    0.253    5.498
  297.130  146.088   87.758    0.532    0.260    5.758
  297.380  146.958   89.443    0.510    0.248    5.851
  297.630  144.938   84.103    0.503    0.240    6.153
  297.880  141.052   72.909    0.495    0.271    6.673
  298.130  140.303   74.526    0.479    0.278    7.133
  298.380  140.356   76.562    0.475    0.266    7.133
  298.630  139.715   74.807    0.474    0.247    8.478
  298.880  139.429   66.982    0.468    0.228    8.710
  299.130  139.381   62.333    0.448    0.235    9.276
  299.380  139.670   64.504    0.427    0.237   10.150
  299.630  140.093   65.915    0.415    0.233   10.618
  299.880  140.268   69.952    0.420    0.197   11.432
  300.130  140.324   71.707    0.406    0.187   12.286
  300.380  140.491   72.910    0.375    0.174   13.569
  300.630  140.783   70.329    0.390    0.141   14.269
  300.880  140.967   66.024    0.431    0.152   14.520
  301.130  141.368   62.200    0.431    0.183   12.983
  301.380  141.671   59.613    0.394    0.166   11.910
  301.630  141.963   58.134    0.371    0.136   12.479
  301.880  142.841   59.961    0.282    0.097   14.113
  302.130  143.360   63.373    0.270    0.086   15.334
  302.380  143.770   74.635    0.480    0.209   16.631
  302.630  144.172   89.348    0.477    0.237   16.587
  302.880  144.463   94.208    0.466    0.239   14.833
  303.130  144.875   93.079    0.455    0.227   12.445
  303.380  145.278   89.796    0.446    0.213   10.829
  303.630  145.817   86.730    0.441    0.202    9.861
  303.880  146.340   87.317    0.474    0.207    9.029
  304.130  146.630   90.864    0.475    0.241    8.620
  304.380  146.573   90.280    0.458    0.228    8.444
  304.630  146.980   88.453    0.452    0.231    8.390
  304.880  147.620   87.733    0.453    0.220    8.492
  305.130  148.023   87.151    0.455    0.205    8.657
  305.380  148.089   86.701    0.455    0.202    8.698
  305.630  148.382   87.077    0.452    0.231    8.677
  305.880  148.444   91.452    0.463    0.232    8.560
  306.130  148.503   90.936    0.464    0.238    8.521
  306.380  148.450   87.526    0.465    0.234    8.500
  306.630  148.976   87.153    0.474    0.228    8.447
  306.880  149.962   87.595    0.476    0.233    8.411
  307.130  151.185   90.047    0.478    0.222    8.329
  307.380  151.828   91.110    0.487    0.211    8.229
  307.630  152.475   93.073    0.481    0.208    8.210
  307.880  152.531   96.421    0.475    0.212    8.219
  308.130  152.815   95.210    0.487    0.215    8.196
  308.380  152.674   94.427    0.500    0.211    8.116
  308.630  152.721   95.350    0.502    0.212    8.037
  308.880  152.548   94.836    0.485    0.227    8.001
  309.130  152.375   92.524    0.480    0.231    8.053
  309.380  152.204   91.256    0.477    0.221    8.064
  309.630  151.799   91.215    0.485    0.213    8.102
  309.880  151.623   91.320    0.502    0.213    7.906
  310.130  151.208   88.873    0.505    0.216    7.758
  310.380  150.930   91.528    0.498    0.221    7.626
  310.630  150.874   88.805    0.497    0.225    7.523
  310.880  151.068   85.262    0.500    0.224    7.435
  311.130  151.340   86.534    0.513    0.218    7.335
  311.380  151.512   87.949    0.530    0.230    7.265
  311.630  151.462   88.051    0.528    0.231    5.633
  311.880  151.520   85.053    0.520    0.230    6.003
  312.130  151.477   83.849    0.507    0.221    6.679
  312.380  151.407   85.811    0.513    0.254    6.613
  312.630  151.591   88.532    0.503    0.260    6.608
  312.880  152.108   86.983    0.500    0.253    6.675
  313.130  156.116   86.261    0.531    0.246    6.598
  313.380  157.693   87.468    0.529    0.256    6.020
  313.630  158.441   83.921    0.537    0.318    5.603
  313.880  167.324   79.752    0.530    0.319    5.407
  314.130  153.453   79.097    0.500    0.332    5.453
  314.380  140.057   84.089    0.488    0.311    5.631
  314.630  139.416   83.849    0.476    0.210    6.085
  314.880  143.191   76.166    0.454    0.225    6.672
  315.130  144.071   69.107    0.429    0.231    7.490
  315.380  144.823   64.251    0.408    0.142    8.334
  315.630  147.318   61.664    0.314    0.109    9.720
  315.880  146.917   60.333    0.285    0.076   10.855
  316.130  145.475   59.958    0.273    0.064   12.388
  316.380  144.717   59.700    0.269    0.066   13.907
  316.630  144.311   66.005    0.267    0.065   14.704
  316.880  143.788   66.730    0.274    0.054   15.126
  317.130  143.503   65.800    0.305    0.057   15.172
  317.380  143.684   67.974    0.397    0.108   14.777
  317.630  143.635   70.073    0.434    0.127   13.215
  317.880  143.228   73.624    0.456    0.236   11.583
  318.130  142.586   73.524    0.478    0.250   10.530
  318.380  142.299   75.214    0.486    0.261    9.641
  318.630  141.777   76.282    0.481    0.260    8.811
  318.880  140.675   74.931    0.458    0.278    8.156
  319.130  140.045   68.282    0.451    0.275    7.689
  319.380  139.635   66.192    0.447    0.240    7.463
  319.630  142.137   66.084    0.454    0.242    7.282
  319.880  147.306   69.915    0.462    0.239    7.238
  320.130  150.157   69.665    0.463    0.232    7.311
  320.380  151.602   70.661    0.476    0.237    7.346
  320.630  152.483   79.722    0.480    0.235    7.395
  320.880  153.119   80.725    0.483    0.211    7.362
  321.130  153.307   78.275    0.490    0.228    7.250
  321.380  153.237   80.173    0.496    0.222    7.166
  321.630  152.952   84.547    0.492    0.232    7.083
  321.880  152.780   87.139    0.481    0.228    7.116
  322.130  152.955   89.028    0.481    0.231    6.944
  322.380  153.259   92.438    0.476    0.244    6.801
  322.630  153.308   95.169    0.473    0.233    6.673
  322.880  153.371   95.961    0.491    0.209    6.656
  323.130  153.448   94.819    0.489    0.210    6.749
  323.380  153.281   95.125    0.486    0.197    6.880
  323.630  153.216   97.713    0.477    0.201    6.989
  323.880  153.629   97.399    0.477    0.209    7.203
  324.130  153.447   97.300    0.484    0.200    7.464
  324.380  153.510   97.264    0.480    0.196    7.637
  324.630  153.569   96.760    0.466    0.219    7.729
  324.880  153.624   96.712    0.461    0.228    7.739
  325.130  153.928  104.050    0.461    0.233    7.832
  325.380  153.977  103.742    0.468    0.223    7.897
  325.630  154.628  102.331    0.476    0.216    7.978
  325.880  154.914  102.571    0.473    0.205    8.089
  326.130  154.970  103.231    0.460    0.205    7.878
  326.380  154.919  102.369    0.460    0.212    7.620
  326.630  154.418  101.722    0.468    0.208    7.940
  326.880  154.342  101.745    0.482    0.212    7.992
  327.130  153.818  103.435    0.479    0.200    8.072
  327.380  153.778  102.780    0.481    0.204    8.141
  327.630  153.940   98.681    0.492    0.201    8.284
  327.880  153.894   96.303    0.494    0.195    8.415
  328.130  153.607   96.061    0.477    0.203    8.005
  328.380  153.429   98.030    0.457    0.214    8.540
  328.630  153.491  102.264    0.455    0.209    8.819
