~VERSION INFORMATION
 VERS.                 2.0:   CWLS LOG ASCII STANDARD -VERSION 2.0
 WRAP.                  NO:   ONE LINE PER DEPTH STEP
~WELL INFORMATION BLOCK
#MNEM.UNIT           DATA                    DESCRIPTION OF MNEMONIC
#---------    -------------------            -------------------------------
# Generated from Intellog Unique Number	CS_67_68/WELL/2178
WELL.         07-25-067-05W4                 : Well_name    - WELL
LOC .         00/07-25-067-05W4/0            : Location     - LOCATION
UWI .         00/07-25-067-05W4/0            : Uwi          - UNIQUE WELL ID
ENTR.         SP                             : Entered      - ENTERED BY
SRVC.         SCHLUMBERGER                   : Scn          - SERVICE COMPANY
STRT.M        330                            : top_depth    - START DEPTH
STOP.M        560                            : bot_depth    - STOP DEPTH
STEP.M        0.25                           : increment    - STEP LENGTH
 NULL. -999.2500:NULL Value
~CURVE INFORMATION BLOCK
#MNEM UNIT       ERCB CURVE CODE    CURVE DESCRIPTION
#-----------   ------------------   ----------------------------------
DEPT.M        00 001 00 00         : DEPTH        - DEPTH
ILD .OHMM     00 120 00 00         : RESD         - DEEP RESISTIVITY (DIL)
DPHI.V/V      00 890 00 00         : PHID         - DENSITY POROSITY (LIMESTONE)
NPHI.V/V      00 330 00 00         : PHIN         - NEUTRON POROSITY (LIMESTONE)
GR  .API      00 310 00 00         : GR           - GAMMA RAY
CALI.MM       00 280 01 00         : CAL          - CALIPER
~PARAMETER INFORMATION
#MNEM.UNIT           DATA             DESCRIPTION OF MNEMONIC
#---------         -----------     ------------------------------
GL  .M        673.74               : gl           - GROUND LEVEL ELEVATION
EREF.M        677.64               : kb           - ELEVATION OF DEPTH REFERENCE
DATM.M        677.64               : datum        - DATUM ELEVATION
TDD .M        566                  : tdd          - TOTAL DEPTH DRILLER
RUN .         ONE                  : Run          - RUN NUMBER
ENG .         BILL                 : Engineer     - RECORDING ENGINEER
WIT .         JIM                  : Witness      - WITNESSED BY
MUD .         GEL                  : Mud_type     - MUD TYPE
MATR.         LIMESTONE            : Logunit      - NEUTRON MATRIX
TMAX.C        18.8                 : BHT          - MAXIMUM RECORDED TEMPERATURE
BHTD.M        566                  : BHTDEP       - MAXIMUM RECORDED TEMPERATURE
MATR.         1                    : LOGUNIT      - NEUTRON MATRIX
RMT .C        25                   : MDTP         - TEMPERATURE OF MUD
NEUT.         1                    : NEUTRON      - NEUTRON TYPE
RESI.         0                    : RESIST       - RESISTIVITY TYPE
RMC .OHMM     0.25                 : RMC          - RESISTIVITY OF MUD CAKE
RMF .OHMM     0.25                 : RMF          - RESISTIVITY OF MUD FILTRATE
SUFT.C        15                   : SUFT         - SURFACE TEMPERATURE
~A  DEPTH     RESD     PHID     PHIN       GR      CAL
# ...
  366.500    7.540    0.286    0.451   86.431  157.985
  366.750    6.743    0.296    0.465   88.996  157.684
  367.000    6.379    0.288    0.466   90.646  157.789
  367.250    6.263    0.275    0.439   92.845  157.894
  367.500    6.210    0.270    0.434   91.871  157.797
  367.750    6.212    0.276    0.464   83.757  157.902
  368.000    6.226    0.283    0.457   81.562  157.803
  368.250    6.241    0.277    0.450   86.751  157.604
  368.500    6.268    0.268    0.457   87.669  157.608
  368.750    6.282    0.271    0.470   87.244  157.407
  369.000    6.274    0.265    0.486   86.453  156.802
  369.250    6.230    0.253    0.503   87.797  156.195
  369.500    6.164    0.245    0.482   91.217  155.893
  369.750    6.121    0.236    0.458   94.210  156.609
  370.000    6.089    0.240    0.442   94.090  158.546
  370.250    6.013    0.251    0.439   94.885  160.786
  370.500    5.983    0.260    0.455   95.559  162.926
  370.750    5.985    0.281    0.457   94.036  161.099
  371.000    6.056    0.273    0.442   91.231  157.441
  371.250    6.185    0.258    0.436   88.975  155.309
  371.500    6.376    0.253    0.425   87.940  154.398
  371.750    6.697    0.269    0.415   87.088  153.791
  372.000    6.891    0.281    0.421   86.724  153.489
  372.250    7.077    0.279    0.429   86.970  153.289
  372.500    7.282    0.268    0.419   88.254  152.988
  372.750    7.409    0.258    0.415   91.124  152.788
  373.000    7.524    0.250    0.411   89.906  152.588
  373.250    7.430    0.248    0.411   89.725  152.492
  373.500    7.420    0.252    0.415   91.375  152.596
  373.750    7.437    0.242    0.421   93.513  152.803
  374.000    7.441    0.240    0.426   91.562  152.807
  374.250    7.445    0.256    0.439   83.814  152.709
  374.500    7.477    0.276    0.449   75.883  152.610
  374.750    7.342    0.293    0.441   71.186  152.412
  375.000    7.237    0.322    0.422   67.954  152.414
  375.250    7.093    0.328    0.410   68.017  152.215
  375.500    6.938    0.328    0.423   70.949  152.015
  375.750    6.775    0.331    0.434   73.636  151.815
  376.000    6.766    0.322    0.448   71.564  151.412
  376.250    6.910    0.312    0.455   71.810  150.806
  376.500    6.939    0.305    0.445   72.484  150.402
  376.750    6.930    0.299    0.440   73.706  150.406
  377.000    6.933    0.301    0.437   76.454  150.919
  377.250    6.885    0.321    0.428   79.691  151.736
  377.500    6.863    0.299    0.417   82.745  152.249
  377.750    6.840    0.281    0.448   84.272  152.557
  378.000    6.818    0.275    0.462   84.641  152.866
  378.250    6.834    0.281    0.452   84.399  153.175
  378.500    6.863    0.276    0.449   84.218  153.280
  378.750    6.945    0.285    0.451   83.488  153.691
  379.000    7.172    0.274    0.462   81.965  153.999
  379.250    7.748    0.261    0.473   77.939  154.511
  379.500    7.986    0.255    0.478   74.219  154.618
  379.750    8.341    0.256    0.470   69.461  154.621
  380.000    8.663    0.263    0.451   63.910  153.913
  380.250    8.897    0.314    0.436   61.227  152.899
  380.500    8.919    0.328    0.423   60.558  152.292
  380.750    8.840    0.292    0.422   59.767  151.483
  381.000    8.378    0.281    0.444   56.596  150.774
  381.250    7.851    0.307    0.443   48.359  150.371
  381.500    7.234    0.333    0.426   45.737  150.375
  381.750    6.780    0.336    0.413   50.805  150.684
  382.000    6.571    0.336    0.421   53.187  150.585
  382.250    6.513    0.336    0.412   53.677  150.386
  382.500    6.553    0.342    0.416   57.280  150.288
  382.750    6.568    0.335    0.412   61.615  150.495
  383.000    6.547    0.325    0.410   64.180  150.804
  383.250    6.562    0.314    0.408   56.310  151.113
  383.500    6.591    0.314    0.401   50.759  151.320
  383.750    6.618    0.338    0.396   56.193  151.425
  384.000    6.659    0.335    0.411   58.575  150.818
  384.250    6.700    0.331    0.425   64.253  149.805
  384.500    6.740    0.333    0.436   71.151  149.300
  384.750    6.820    0.328    0.418   76.523  149.101
  385.000    6.862    0.319    0.401   80.858  149.003
  385.250    6.930    0.312    0.392   83.912  149.312
  385.500    6.973    0.304    0.396   85.195  149.722
  385.750    7.001    0.303    0.405   83.794  150.234
  386.000    7.072    0.323    0.426   77.144  151.458
  386.250    7.114    0.330    0.441   74.767  152.987
  386.500    7.185    0.312    0.414   78.675  154.008
  386.750    7.256    0.305    0.394   83.437  154.724
  387.000    7.383    0.311    0.383   84.232  155.033
  387.250    7.483    0.308    0.403   84.601  155.240
  387.500    7.600    0.299    0.426   87.410  155.244
  387.750    7.689    0.290    0.442   87.656  155.654
  388.000    7.751    0.290    0.452   85.401  155.760
  388.250    7.798    0.304    0.463   83.999  156.068
  388.500    7.802    0.291    0.437   81.743  156.377
  388.750    7.762    0.279    0.422   75.704  156.889
  389.000    7.636    0.260    0.414   76.500  157.503
  389.250    7.931    0.244    0.408   83.520  158.117
  389.500    7.701    0.225    0.425   87.001  158.426
  389.750    7.272    0.218    0.437   87.857  158.430
  390.000    7.060    0.242    0.447   84.869  158.433
  390.250    6.882    0.267    0.446   82.308  157.725
  390.500    6.834    0.251    0.457   84.385  157.119
  390.750    6.927    0.254    0.471   81.458  156.614
  391.000    7.195    0.281    0.460   73.039  156.516
  391.250    7.514    0.291    0.443   65.169  156.316
  391.500    8.178    0.301    0.414   54.492  155.913
  391.750    8.686    0.319    0.401   49.856  155.611
  392.000    9.022    0.341    0.436   50.469  155.005
  392.250    8.777    0.323    0.457   53.095  154.500
  392.500    8.522    0.299    0.434   54.806  153.893
  392.750    7.987    0.305    0.406   55.601  153.593
  393.000    7.683    0.321    0.406   53.895  153.087
  393.250    7.336    0.325    0.409   52.372  152.481
  393.500    7.190    0.318    0.400   51.519  151.976
  393.750    7.166    0.309    0.396   50.667  151.573
  394.000    7.157    0.303    0.404   49.998  151.271
  394.250    7.094    0.302    0.409   50.123  151.072
  394.500    7.124    0.315    0.404   50.430  151.279
  394.750    7.141    0.321    0.395   50.737  151.690
  395.000    7.145    0.322    0.399   52.021  151.896
  395.250    7.161    0.325    0.397   54.098  151.799
  395.500    7.165    0.323    0.392   56.053  151.599
  395.750    7.182    0.317    0.386   56.788  151.297
  396.000    7.119    0.310    0.378   57.217  151.199
  396.250    7.069    0.308    0.372   57.585  151.203
  396.500    7.007    0.311    0.382   57.588  151.308
  396.750    6.906    0.315    0.398   56.674  151.312
  397.000    6.795    0.319    0.404   55.151  151.519
  397.250    6.747    0.324    0.404   54.299  151.624
  397.500    6.725    0.325    0.420   55.338  151.730
  397.750    6.704    0.324    0.428   56.866  151.632
  398.000    6.707    0.326    0.417   58.150  151.636
  398.250    6.697    0.331    0.424   58.945  151.334
  398.500    6.713    0.321    0.431   59.619  151.033
  398.750    6.716    0.317    0.427   60.232  150.934
  399.000    6.720    0.324    0.419   60.905  151.448
  399.250    6.710    0.331    0.411   61.151  151.756
  399.500    6.752    0.344    0.403   60.482  151.861
  399.750    6.806    0.353    0.399   57.250  151.865
  400.000    6.822    0.348    0.402   57.557  151.360
  400.250    6.838    0.339    0.410   58.231  150.754
  400.500    6.829    0.331    0.420   58.233  150.961
  400.750    6.793    0.325    0.428   57.869  151.066
  401.000    6.772    0.338    0.414   58.115  150.968
  401.250    6.775    0.344    0.402   58.057  150.056
  401.500    6.791    0.331    0.407   57.815  149.145
  401.750    6.794    0.331    0.410   56.231  148.538
  402.000    6.772    0.343    0.405   54.829  148.034
  402.250    6.763    0.352    0.408   53.550  148.138
  402.500    6.741    0.336    0.421   52.697  148.651
  402.750    6.695    0.328    0.435   51.907  149.367
