~VERSION INFORMATION
 VERS.                 2.0:   CWLS LOG ASCII STANDARD -VERSION 2.0
 WRAP.                  NO:   ONE LINE PER DEPTH STEP
~WELL INFORMATION BLOCK
#MNEM.UNIT           DATA                    DESCRIPTION OF MNEMONIC
#---------    -------------------            -------------------------------
# Generated from Intellog Unique Number	CS_77_79/WELL/3294
WELL.         LOGAN RESOURCES LTD.           : Well_name    - WELL
LOC .         00/06-25-078-14W4/0            : Location     - LOCATION
UWI .         00/06-25-078-14W4/0            : Uwi          - UNIQUE WELL ID
ENTR.         JOETTE                         : Entered      - ENTERED BY
SRVC.         SCHLUMBERGER                   : Scn          - SERVICE COMPANY
DATE.         08-14-92                       : Date         - LOG DATE
STRT.M        275                            : top_depth    - START DEPTH
STOP.M        510                            : bot_depth    - STOP DEPTH
STEP.M        0.25                           : increment    - STEP LENGTH
 NULL. -999.2500:NULL Value
~CURVE INFORMATION BLOCK
#MNEM UNIT       ERCB CURVE CODE    CURVE DESCRIPTION
#-----------   ------------------   ----------------------------------
DEPT.M        00 001 00 00         : DEPTH        - DEPTH
GR  .API      00 310 00 00         : GR           - GAMMA RAY
NPHI.V/V      00 330 00 00         : PHIN         - NEUTRON POROSITY (SANDSTONE)
DPHI.V/V      00 890 00 00         : PHID         - DENSITY POROSITY (SANDSTONE)
ILD .OHMM     00 120 00 00         : RESD         - DEEP RESISTIVITY (DIL)
~PARAMETER INFORMATION
#MNEM.UNIT           DATA             DESCRIPTION OF MNEMONIC
#---------         -----------     ------------------------------
GL  .M        678.2                : gl           - GROUND LEVEL ELEVATION
EREF.M        681.7                : kb           - ELEVATION OF DEPTH REFERENCE
DATM.M        681.7                : datum        - DATUM ELEVATION
TDD .M        515                  : tdd          - TOTAL DEPTH DRILLER
RUN .         ONE                  : Run          - RUN NUMBER
ENG .         BILL                 : Engineer     - RECORDING ENGINEER
WIT .         JIM                  : Witness      - WITNESSED BY
MUD .         GEL                  : Mud_type     - MUD TYPE
MATR.         SANDSTONE            : Logunit      - NEUTRON MATRIX
TMAX.C        30                   : BHT          - MAXIMUM RECORDED TEMPERATURE
BHTD.M        515                  : BHTDEP       - MAXIMUM RECORDED TEMPERATURE
MATR.         0                    : LOGUNIT      - NEUTRON MATRIX
RMT .C        11                   : MDTP         - TEMPERATURE OF MUD
NEUT.         1                    : NEUTRON      - NEUTRON TYPE
RESI.         0                    : RESIST       - RESISTIVITY TYPE
RM  .OHMM     2.242                : RM           - RESISTIVITY OF MUD
RMC .OHMM     1.969                : RMC          - RESISTIVITY OF MUD CAKE
RMF .OHMM     2.472                : RMF          - RESISTIVITY OF MUD FILTRATE
SUFT.C        5                    : SUFT         - SURFACE TEMPERATURE
~A  DEPTH       GR     PHIN     PHID     RESD
# ...
  405.500   50.342    0.376    0.314    7.623
  405.750   60.088    0.388    0.317    7.927
  406.000   60.154    0.385    0.304    8.096
  406.250   55.991    0.368    0.303    7.960
  406.500   59.697    0.365    0.300    7.976
  406.750   64.595    0.362    0.295    7.846
  407.000   61.624    0.355    0.295    7.866
  407.250   59.273    0.351    0.300    7.742
  407.500   64.775    0.363    0.305    7.750
  407.750   69.085    0.369    0.306    7.766
  408.000   70.359    0.367    0.298    7.790
  408.250   66.196    0.363    0.296    7.798
  408.500   66.865    0.364    0.301    7.818
  408.750   69.951    0.371    0.305    7.834
  409.000   70.620    0.387    0.308    7.711
  409.250   58.622    0.383    0.310    7.719
  409.500   63.503    0.359    0.312    7.593
  409.750   67.193    0.358    0.313    7.612
  410.000   67.275    0.362    0.312    7.628
  410.250   72.172    0.368    0.312    7.791
  410.500   72.825    0.377    0.309    7.944
  410.750   71.079    0.383    0.303    8.419
  411.000   70.540    0.378    0.291    9.964
  411.250   74.867    0.331    0.204   12.236
  411.500   76.728    0.244    0.027   15.308
  411.750   58.656    0.155   -0.020   20.253
  412.000   43.621    0.132    0.017   25.809
  412.250   42.462    0.160    0.044   27.365
  412.500   51.621    0.188    0.115   25.441
  412.750   52.290    0.252    0.166   20.420
  413.000   61.400    0.371    0.253   13.617
  413.250   65.106    0.380    0.298   12.212
  413.500   61.547    0.362    0.327    9.103
  413.750   57.988    0.366    0.320    6.662
  414.000   63.506    0.377    0.323    6.196
  414.250   59.931    0.369    0.323    5.880
  414.500   63.017    0.368    0.318    5.889
  414.750   76.371    0.382    0.318    5.901
  415.000   71.604    0.397    0.318    6.136
  415.250   69.254    0.391    0.317    6.264
  415.500   62.675    0.381    0.310    6.638
  415.750   64.552    0.384    0.303    6.899
  416.000   68.242    0.385    0.304    7.173
  416.250   64.683    0.362    0.307    7.322
  416.500   61.125    0.355    0.306    7.075
  416.750   60.586    0.353    0.301    6.828
  417.000   58.235    0.358    0.303    6.473
  417.250   66.790    0.386    0.312    6.140
  417.500   62.594    0.391    0.318    5.929
  417.750   62.056    0.389    0.315    5.832
  418.000   60.913    0.381    0.315    5.734
  418.250   62.187    0.372    0.315    5.746
  418.500   64.685    0.390    0.309    5.865
  418.750   63.542    0.404    0.310    5.878
  419.000   70.856    0.394    0.321    5.782
  419.250   65.502    0.385    0.320    5.800
  419.500   71.591    0.373    0.316    5.809
  419.750   75.297    0.376    0.317    5.818
  420.000   76.571    0.386    0.319    5.729
  420.250   72.392    0.382    0.311    5.738
  420.500   67.021    0.382    0.311    5.647
  420.750   63.478    0.387    0.309    5.761
  421.000   59.903    0.385    0.298    5.773
  421.250   62.989    0.380    0.298    5.785
  421.500   67.283    0.374    0.321    5.691
  421.750   74.009    0.381    0.317    5.700
  422.000   72.262    0.396    0.303    5.714
  422.250   67.512    0.393    0.295    5.624
  422.500   65.749    0.388    0.282    5.532
  422.750   71.251    0.367    0.287    5.544
  423.000   85.209    0.379    0.293    5.456
  423.250   85.911    0.386    0.295    5.362
  423.500   82.924    0.388    0.300    5.275
  423.750   67.888    0.391    0.299    5.194
  424.000   73.994    0.396    0.290    5.199
  424.250   77.080    0.394    0.286    5.210
  424.500   74.141    0.383    0.281    5.226
  424.750   73.603    0.369    0.277    5.232
  425.000   76.068    0.380    0.270    5.245
  425.250   77.962    0.388    0.259    5.253
  425.500   82.860    0.389    0.236    5.365
  425.750   95.610    0.384    0.225    5.581
  426.000   94.484    0.367    0.243    5.691
  426.250   89.701    0.367    0.271    5.810
  426.500   90.370    0.379    0.263    5.825
  426.750   96.492    0.383    0.268    5.834
  427.000   94.141    0.395    0.282    5.849
  427.250   77.278    0.390    0.293    5.858
  427.500   70.715    0.392    0.261    5.876
  427.750   73.197    0.395    0.234    5.885
  428.000   75.075    0.396    0.229    5.894
  428.250   78.144    0.386    0.227    6.020
  428.500   81.246    0.375    0.217    6.035
  428.750   83.123    0.374    0.196    6.051
  429.000   83.189    0.375    0.190    6.057
  429.250   86.878    0.380    0.186    6.069
  429.500   91.776    0.386    0.212    6.085
  429.750   86.405    0.388    0.216    6.211
  430.000   87.091    0.376    0.208    6.224
  430.250   88.952    0.361    0.203    6.240
  430.500   84.186    0.358    0.200    6.247
  430.750   84.251    0.363    0.201    6.380
  431.000   89.149    0.368    0.206    6.757
  431.250   86.194    0.342    0.209    7.023
  431.500   89.884    0.343    0.205    7.585
  431.750   91.761    0.369    0.196    7.593
  432.000   85.787    0.383    0.176    7.751
  432.250   88.872    0.378    0.181    7.771
  432.500   91.370    0.362    0.192    7.644
  432.750   97.476    0.360    0.193    7.520
  433.000   92.105    0.368    0.199    7.262
  433.250   95.191    0.380    0.211    6.761
  433.500  104.921    0.391    0.210    6.406
  433.750  109.231    0.376    0.207    5.965
  434.000  102.048    0.361    0.197    5.862
  434.250  106.341    0.358    0.186    5.666
  434.500  106.407    0.368    0.193    5.672
  434.750  102.848    0.376    0.202    5.480
  435.000   99.273    0.368    0.204    5.394
  435.250   97.543    0.362    0.203    5.301
  435.500   96.988    0.361    0.206    4.935
  435.750   95.242    0.364    0.217    4.426
  436.000   94.099    0.368    0.245    3.968
  436.250  108.677    0.391    0.256    3.429
  436.500  102.099    0.418    0.276    2.856
  436.750   96.140    0.456    0.283    2.516
  437.000   94.377    0.436    0.298    2.340
  437.250   82.950    0.420    0.296    2.261
  437.500   82.411    0.419    0.289    2.264
  437.750   85.497    0.407    0.275    2.356
  438.000   98.867    0.412    0.259    2.542
  438.250  102.557    0.408    0.214    2.847
  438.500   97.790    0.398    0.202    3.013
  438.750   93.627    0.389    0.189    4.216
  439.000   91.881    0.376    0.180    4.465
  439.250   93.154    0.367    0.170    4.727
  439.500   93.220    0.362    0.158    5.201
  439.750   83.621    0.350    0.158    5.307
  440.000   89.139    0.339    0.176    5.317
  440.250   91.604    0.351    0.193    5.231
  440.500   94.086    0.357    0.208    5.049
  440.750   91.147    0.361    0.198    4.875
  441.000   94.233    0.371    0.186    4.979
  441.250  100.943    0.377    0.171    5.473
  441.500   99.800    0.367    0.152    5.794
  441.750   95.638    0.332    0.143    6.375
  442.000   93.891    0.313    0.116    6.752
  442.250   89.108    0.308    0.081    6.763
  442.500   78.921    0.326    0.149    6.531
  442.750   84.407    0.348    0.184    5.860
  443.000   92.341    0.366    0.223    5.351
  443.250   97.843    0.371    0.225    4.886
  443.500   96.716    0.364    0.209    4.547
  443.750   96.782    0.382    0.216    4.080
  444.000  101.059    0.389    0.219    3.797
  444.250  113.238    0.373    0.211    3.733
  444.500  102.414    0.383    0.229    3.745
  444.750  104.912    0.397    0.238    3.892
  445.000  102.545    0.399    0.183    4.201
  445.250   97.175    0.393    0.160    4.366
  445.500  105.092    0.387    0.168    4.540
  445.750  103.950    0.390    0.191    4.468
  446.000  100.995    0.383    0.203    4.396
  446.250   96.833    0.369    0.199    4.407
  446.500  105.354    0.373    0.203    4.411
  446.750  103.004    0.383    0.209    4.421
  447.000   98.841    0.391    0.210    4.512
  447.250  104.947    0.382    0.208    4.869
  447.500  109.240    0.370    0.200    5.354
  447.750  108.702    0.336    0.156    5.882
  448.000  102.727    0.300    0.122    6.965
  448.250   74.387    0.272    0.095    9.740
  448.500   58.731    0.287    0.149   10.123
  448.750   67.874    0.309    0.199   10.939
