~VERSION INFORMATION
 VERS.                 2.0:   CWLS LOG ASCII STANDARD -VERSION 2.0
 WRAP.                  NO:   ONE LINE PER DEPTH STEP
~WELL INFORMATION BLOCK
#MNEM.UNIT           DATA                    DESCRIPTION OF MNEMONIC
#---------    -------------------            -------------------------------
# Generated from Intellog Unique Number	CS_71_72/WELL/771
WELL.         BVX ET AL CALL                 : Well_name    - WELL
LOC .         00/06-19-071-17W4/0            : Location     - LOCATION
UWI .         00/06-19-071-17W4/0            : Uwi          - UNIQUE WELL ID
ENTR.         SP                             : Entered      - ENTERED BY
SRVC.         SCHLUMBERGER                   : Scn          - SERVICE COMPANY
STRT.M        289.56                         : top_depth    - START DEPTH
STOP.M        469.06                         : bot_depth    - STOP DEPTH
STEP.M        0.25                           : increment    - STEP LENGTH
 NULL. -999.2500:NULL Value
~CURVE INFORMATION BLOCK
#MNEM UNIT       ERCB CURVE CODE    CURVE DESCRIPTION
#-----------   ------------------   ----------------------------------
DEPT.M        00 001 00 00         : DEPTH        - DEPTH
GR  .API      00 310 00 00         : GR           - GAMMA RAY
DPHI.V/V      00 890 00 00         : PHID         - DENSITY POROSITY (SANDSTONE)
NPHI.V/V      00 330 00 00         : PHIN         - NEUTRON POROSITY (SANDSTONE)
ILD .OHMM     00 120 00 00         : RESD         - DEEP RESISTIVITY (DIL)
~PARAMETER INFORMATION
#MNEM.UNIT           DATA             DESCRIPTION OF MNEMONIC
#---------         -----------     ------------------------------
GL  .M        588.569              : gl           - GROUND LEVEL ELEVATION
EREF.M        591.617              : kb           - ELEVATION OF DEPTH REFERENCE
DATM.M        588.569              : datum        - DATUM ELEVATION
TDD .M        487.68               : tdd          - TOTAL DEPTH DRILLER
RUN .         ONE                  : Run          - RUN NUMBER
ENG .         BILL                 : Engineer     - RECORDING ENGINEER
WIT .         JIM                  : Witness      - WITNESSED BY
MUD .         GEL                  : Mud_type     - MUD TYPE
MATR.         SANDSTONE            : Logunit      - NEUTRON MATRIX
TMAX.C        25.5556              : BHT          - MAXIMUM RECORDED TEMPERATURE
BHTD.M        487.68               : BHTDEP       - MAXIMUM RECORDED TEMPERATURE
MATR.         1                    : LOGUNIT      - NEUTRON MATRIX
RMT .C        25                   : MDTP         - TEMPERATURE OF MUD
NEUT.         1                    : NEUTRON      - NEUTRON TYPE
RESI.         0                    : RESIST       - RESISTIVITY TYPE
RMC .OHMM     0.25                 : RMC          - RESISTIVITY OF MUD CAKE
RMF .OHMM     0.25                 : RMF          - RESISTIVITY OF MUD FILTRATE
SUFT.C        15                   : SUFT         - SURFACE TEMPERATURE
~A  DEPTH       GR     PHID     PHIN     RESD
# ...
  420.060   81.849    0.276    0.454    4.435
  420.310   83.510    0.261    0.445    4.286
  420.560   85.589    0.237    0.442    4.061
  420.810   87.928    0.215    0.445    3.827
  421.060   90.049    0.195    0.456    3.535
  421.310   92.707    0.192    0.493    3.277
  421.560   95.111    0.253    0.566    3.149
  421.810   96.210    0.241    0.550    3.123
  422.060   95.518    0.241    0.556    3.106
  422.310   95.437    0.227    0.534    3.133
  422.560   98.445    0.222    0.512    3.134
  422.810   97.936    0.236    0.535    3.091
  423.060   95.789    0.239    0.566    3.044
  423.310   93.456    0.231    0.578    2.956
  423.560   92.056    0.217    0.601    2.936
  423.810   98.310    0.229    0.585    2.962
  424.060  101.057    0.236    0.581    3.031
  424.310   99.854    0.220    0.583    3.087
  424.560   97.289    0.220    0.564    3.198
  424.810   94.613    0.208    0.530    3.348
  425.060   93.982    0.191    0.501    3.581
  425.310   94.759    0.177    0.489    3.751
  425.560   96.042    0.174    0.485    3.888
  425.810   97.843    0.196    0.494    3.972
  426.060  101.062    0.204    0.517    4.028
  426.310  100.985    0.205    0.531    4.133
  426.560  100.792    0.243    0.541    4.360
  426.810  103.882    0.232    0.521    4.634
  427.060  102.642    0.223    0.460    4.939
  427.310   98.759    0.219    0.413    5.407
  427.560   92.581    0.237    0.388    5.734
  427.810   87.214    0.245    0.369    6.199
  428.060   82.554    0.181    0.369    6.489
  428.310   74.446    0.140    0.366    6.756
  428.560   68.269    0.139    0.368    6.913
  428.810   70.983    0.196    0.390    7.271
  429.060   72.285    0.218    0.385    7.652
  429.310   71.656    0.234    0.382    8.082
  429.560   70.475    0.253    0.368    8.519
  429.810   71.101    0.148    0.354    8.814
  430.060   77.956    0.131    0.331    7.823
  430.310   85.331    0.122    0.317    7.018
  430.560   91.839    0.138    0.353    6.253
  430.810   91.944    0.151    0.486    5.734
  431.060   88.972    0.174    0.513    5.380
  431.310   85.168    0.207    0.499    5.152
  431.560   84.758    0.228    0.470    4.976
  431.810   87.610    0.203    0.448    4.916
  432.060   89.846    0.192    0.436    4.912
  432.310   90.612    0.204    0.426    4.954
  432.560   88.352    0.194    0.420    5.061
  432.810   86.748    0.183    0.416    5.132
  433.060   88.335    0.195    0.409    5.210
  433.310   91.201    0.189    0.418    5.275
  433.560   94.375    0.185    0.426    5.368
  433.810   96.418    0.172    0.442    5.412
  434.060   98.936    0.174    0.448    5.479
  434.310   99.571    0.159    0.438    5.502
  434.560   98.151    0.182    0.431    5.550
  434.810   96.693    0.179    0.428    5.632
  435.060   95.523    0.183    0.440    5.686
  435.310   93.974    0.186    0.431    5.794
  435.560   92.543    0.175    0.417    5.852
  435.810   93.974    0.162    0.408    5.815
  436.060   99.182    0.156    0.398    5.565
  436.310  103.651    0.183    0.397    5.345
  436.560  104.261    0.172    0.404    5.217
  436.810  101.192    0.172    0.422    5.191
  437.060   98.397    0.188    0.425    5.214
  437.310   97.365    0.242    0.403    5.264
  437.560   99.618    0.227    0.391    5.273
  437.810   98.288    0.205    0.381    5.292
  438.060   95.157    0.180    0.383    5.263
  438.310   92.462    0.159    0.390    5.205
  438.560   91.819    0.124    0.381    5.143
  438.810   90.293    0.103    0.385    4.962
  439.060   88.045    0.159    0.400    4.802
  439.310   85.853    0.206    0.401    4.493
  439.560   87.101    0.186    0.410    4.005
  439.810   90.129    0.169    0.428    3.629
  440.060   92.745    0.188    0.428    3.098
  440.310   95.715    0.238    0.422    2.776
  440.560   98.343    0.216    0.488    2.446
  440.810  100.823    0.204    0.554    2.164
  441.060  103.355    0.223    0.599    2.221
  441.310  101.450    0.235    0.616    2.362
  441.560   98.752    0.211    0.621    2.645
  441.810   95.804    0.219    0.600    3.056
  442.060   90.222    0.223    0.511    3.514
  442.310   86.810    0.207    0.466    4.044
  442.560   82.038    0.181    0.431    4.566
  442.810   79.448    0.161    0.407    4.815
  443.060   85.324    0.138    0.395    4.936
  443.310   89.674    0.131    0.415    4.749
  443.560   89.136    0.163    0.434    4.468
  443.810   83.495    0.177    0.452    4.437
  444.060   83.955    0.169    0.431    4.701
  444.310   88.830    0.151    0.417    5.162
  444.560   92.599    0.185    0.427    5.653
  444.810   87.631    0.160    0.433    6.135
  445.060   82.662    0.169    0.429    6.461
  445.310   78.605    0.193    0.415    6.750
  445.560   76.177    0.177    0.392    6.835
  445.810   74.862    0.115    0.371    5.893
  446.060   76.002    0.096    0.352    5.185
  446.310   82.910    0.087    0.350    4.684
  446.560   86.496    0.109    0.373    4.141
  446.810   91.575    0.171    0.400    3.726
  447.060   96.900    0.140    0.429    3.261
  447.310   97.714    0.170    0.451    2.946
  447.560   98.052    0.208    0.447    2.726
  447.810   99.885    0.197    0.482    2.687
  448.060  103.135    0.187    0.524    2.850
  448.310  104.631    0.191    0.568    3.076
  448.560  104.119    0.201    0.557    3.264
  448.810   99.431    0.184    0.531    3.560
  449.060   93.841    0.178    0.507    3.825
  449.310   89.990    0.143    0.472    4.028
  449.560   93.715    0.126    0.460    4.024
  449.810   98.258    0.107    0.437    3.910
  450.060  101.125    0.100    0.448    3.735
  450.310  101.552    0.150    0.477    3.486
  450.560  101.492    0.142    0.498    3.390
  450.810  101.662    0.141    0.511    3.347
  451.060  101.797    0.177    0.516    3.348
  451.310  101.782    0.181    0.510    3.445
  451.560  100.595    0.189    0.496    3.534
  451.810   98.799    0.172    0.479    3.667
  452.060   97.165    0.153    0.455    3.654
  452.310   98.613    0.138    0.428    3.654
  452.560  100.048    0.143    0.437    3.774
  452.810  102.331    0.196    0.425    4.008
  453.060  104.567    0.178    0.448    4.241
  453.310  100.756    0.173    0.479    4.453
  453.560   94.057    0.140    0.460    4.493
  453.810   89.942    0.112    0.422    4.370
  454.060   91.771    0.086    0.388    3.901
  454.310   97.530    0.145    0.415    3.380
  454.560  102.255    0.176    0.466    3.110
  454.810  106.259    0.189    0.501    3.111
  455.060  105.870    0.202    0.523    3.458
  455.310  102.681    0.216    0.534    3.789
  455.560  100.042    0.199    0.531    4.322
  455.810   98.320    0.168    0.512    5.192
  456.060   96.978    0.163    0.495    5.917
  456.310   94.690    0.186    0.450    6.892
  456.560   85.649    0.189    0.415    7.818
  456.810   79.647    0.186    0.400    9.341
  457.060   68.258    0.204    0.382   10.663
  457.310   58.078    0.218    0.366   11.333
  457.560   63.211    0.182    0.346   11.050
  457.810   69.533    0.084    0.328   10.200
  458.060   72.164    0.075    0.318    9.222
  458.310   76.508    0.090    0.317    8.771
  458.560   79.219    0.115    0.334    8.151
  458.810   82.995    0.142    0.347    7.923
  459.060   86.636    0.150    0.349    7.908
  459.310   92.102    0.142    0.353    7.993
  459.560   94.518    0.117    0.363    8.096
  459.810   96.290    0.091    0.370    8.064
  460.060   92.817    0.104    0.372    8.084
  460.310   88.299    0.080    0.371    7.986
  460.560   84.172    0.040    0.378    8.023
  460.810   84.627    0.021    0.376    8.186
  461.060   88.787    0.028    0.368    8.243
  461.310   98.000    0.111    0.355    7.658
  461.560  106.742    0.141    0.345    6.712
  461.810  113.471    0.160    0.368    6.217
  462.060  122.575    0.176    0.408    5.973
  462.310  127.595    0.174    0.447    5.800
  462.560  120.766    0.191    0.475    5.905
  462.810  110.931    0.204    0.484    6.549
  463.060   98.653    0.217    0.430    7.647
  463.310   90.817    0.222    0.401    9.267
