~VERSION INFORMATION
 VERS.                 2.0:   CWLS LOG ASCII STANDARD -VERSION 2.0
 WRAP.                  NO:   ONE LINE PER DEPTH STEP
~WELL INFORMATION BLOCK
#MNEM.UNIT           DATA                    DESCRIPTION OF MNEMONIC
#---------    -------------------            -------------------------------
# Generated from Intellog Unique Number	CX_WELLS/WELL/2581
WELL.         PARA ET AL PONY                : Well_name    - WELL
LOC .         00/03-11-080-08W4/0            : Location     - LOCATION
UWI .         00/03-11-080-08W400            : Uwi          - UNIQUE WELL ID
ENTR.         T                              : Entered      - ENTERED BY
SRVC.         SCHLUMBERGER                   : Scn          - SERVICE COMPANY
STRT.M        190                            : top_depth    - START DEPTH
STOP.M        410                            : bot_depth    - STOP DEPTH
STEP.M        0.25                           : increment    - STEP LENGTH
 NULL. -999.2500:NULL Value
~CURVE INFORMATION BLOCK
#MNEM UNIT       ERCB CURVE CODE    CURVE DESCRIPTION
#-----------   ------------------   ----------------------------------
DEPT.M        00 001 00 00         : DEPTH        - DEPTH
GR  .API      00 310 00 00         : GR           - GAMMA RAY
NPHI.V/V      00 330 00 00         : PHIN         - NEUTRON POROSITY (SANDSTONE)
DPHI.V/V      00 890 00 00         : PHID         - DENSITY POROSITY (SANDSTONE)
ILD .OHMM     00 120 00 00         : RESD         - DEEP RESISTIVITY (DIL)
~PARAMETER INFORMATION
#MNEM.UNIT           DATA             DESCRIPTION OF MNEMONIC
#---------         -----------     ------------------------------
GL  .M        631                  : gl           - GROUND LEVEL ELEVATION
EREF.M        634.5                : kb           - ELEVATION OF DEPTH REFERENCE
DATM.M        634.5                : datum        - DATUM ELEVATION
TDD .M        411                  : tdd          - TOTAL DEPTH DRILLER
RUN .         ONE                  : Run          - RUN NUMBER
ENG .         BILL                 : Engineer     - RECORDING ENGINEER
WIT .         JIM                  : Witness      - WITNESSED BY
MUD .         GEL                  : Mud_type     - MUD TYPE
MATR.         SANDSTONE            : Logunit      - NEUTRON MATRIX
TMAX.C        25                   : BHT          - MAXIMUM RECORDED TEMPERATURE
BHTD.M        411                  : BHTDEP       - MAXIMUM RECORDED TEMPERATURE
MATR.         1                    : LOGUNIT      - NEUTRON MATRIX
RMT .C        16                   : MDTP         - TEMPERATURE OF MUD
NEUT.         1                    : NEUTRON      - NEUTRON TYPE
RESI.         3.5                  : RESIST       - RESISTIVITY TYPE
RMC .OHMM     3.2                  : RMC          - RESISTIVITY OF MUD CAKE
RMF .OHMM     3.5                  : RMF          - RESISTIVITY OF MUD FILTRATE
SUFT.C        5                    : SUFT         - SURFACE TEMPERATURE
~A  DEPTH       GR     PHIN     PHID     RESD
# ...
  277.000   67.824    0.402    0.332   15.861
  277.250   67.819    0.368    0.335   15.285
  277.500   68.394    0.373    0.339   14.196
  277.750   68.974    0.384    0.341   12.247
  278.000   68.963    0.392    0.342    9.815
  278.250   68.951    0.398    0.339    9.286
  278.500   68.350    0.407    0.336    9.456
  278.750   67.158    0.418    0.329    9.992
  279.000   65.967    0.425    0.327   10.754
  279.250   64.183    0.437    0.319   11.155
  279.500   63.582    0.438    0.308   11.153
  279.750   65.929    0.436    0.300   10.169
  280.000   68.276    0.441    0.300    9.102
  280.250   69.444    0.436    0.304    8.454
  280.500   71.793    0.429    0.310    7.567
  280.750   75.910    0.431    0.316    6.774
  281.000   77.077    0.449    0.315    6.527
  281.250   74.707    0.449    0.304    6.289
  281.500   72.336    0.446    0.304    6.174
  281.750   75.860    0.442    0.306    5.949
  282.000   78.210    0.436    0.310    5.733
  282.250   84.684    0.429    0.316    5.627
  282.500   89.390    0.433    0.318    5.422
  282.750   93.506    0.448    0.301    5.421
  283.000   97.622    0.464    0.284    5.520
  283.250   99.379    0.467    0.272    5.519
  283.500   99.365    0.467    0.266    5.417
  283.750   98.766    0.466    0.261    5.125
  284.000   98.749    0.469    0.265    5.030
  284.250   99.330    0.473    0.271    4.937
  284.500  101.084    0.477    0.276    5.028
  284.750  102.255    0.477    0.282    5.027
  285.000  104.012    0.474    0.281    5.026
  285.250  103.410    0.472    0.269    4.933
  285.500   98.091    0.472    0.262    4.667
  285.750   91.593    0.472    0.268    4.334
  286.000   93.940    0.469    0.276    4.176
  286.250  100.415    0.473    0.273    4.099
  286.500  105.121    0.480    0.258    4.099
  286.750  109.237    0.493    0.237    4.097
  287.000  109.815    0.510    0.240    4.097
  287.250  109.213    0.521    0.242    4.172
  287.500  108.612    0.522    0.245    4.171
  287.750  106.831    0.523    0.247    4.248
  288.000  104.460    0.523    0.247    4.326
  288.250  102.087    0.513    0.248    4.405
  288.500  100.306    0.504    0.248    4.486
  288.750  100.297    0.496    0.249    4.569
  289.000  102.638    0.496    0.249    4.653
  289.250  103.812    0.500    0.249    4.916
  289.500  106.156    0.505    0.247    5.007
  289.750  106.734    0.509    0.245    5.290
  290.000  104.953    0.504    0.246    5.799
  290.250  103.172    0.500    0.249    6.358
  290.500  103.161    0.512    0.252    6.970
  290.750  103.149    0.535    0.254    7.502
  291.000  102.547    0.538    0.256    8.377
  291.250  100.769    0.527    0.258    9.183
  291.500   98.986    0.516    0.263    9.352
  291.750   97.795    0.505    0.268    9.524
  292.000   95.427    0.492    0.272    9.879
  292.250   91.287    0.474    0.276    9.878
  292.500   90.096    0.447    0.285    9.875
  292.750   90.674    0.436    0.294    9.872
  293.000   91.252    0.419    0.299    9.871
  293.250   90.651    0.425    0.281    9.869
  293.500   87.691    0.432    0.267    9.866
  293.750   84.727    0.440    0.275    9.865
  294.000   85.302    0.431    0.277    9.862
  294.250   85.880    0.423    0.284   10.230
  294.500   86.461    0.422    0.289   10.612
  294.750   87.039    0.429    0.290   10.808
  295.000   86.438    0.434    0.287   11.211
  295.250   85.833    0.437    0.281   11.418
  295.500   85.825    0.437    0.276   11.415
  295.750   85.217    0.434    0.275   11.413
  296.000   85.211    0.427    0.275   11.410
  296.250   83.430    0.422    0.275   11.408
  296.500   82.239    0.418    0.275   10.993
  296.750   82.228    0.418    0.275   10.593
  297.000   82.216    0.419    0.274   10.397
  297.250   80.432    0.424    0.270   10.395
  297.500   79.831    0.430    0.270   10.017
  297.750   80.409    0.432    0.270    9.303
  298.000   82.756    0.429    0.271    8.639
  298.250   85.103    0.429    0.270    8.024
  298.500   86.863    0.432    0.266    8.022
  298.750   88.614    0.434    0.264    8.170
  299.000   89.195    0.435    0.259    8.474
  299.250   90.363    0.439    0.257    8.473
  299.500   92.117    0.443    0.253    8.629
  299.750   92.695    0.448    0.247    8.627
  300.000   93.279    0.449    0.245    8.161
  300.250   93.854    0.448    0.242    8.011
  300.500   93.842    0.445    0.242    7.578
  300.750   93.238    0.444    0.242    7.302
  301.000   93.232    0.445    0.246    7.168
  301.250   93.220    0.444    0.248    7.035
  301.500   93.202    0.440    0.251    7.033
  301.750   93.786    0.439    0.251    7.032
  302.000   94.361    0.439    0.250    7.031
  302.250   94.347    0.439    0.249    6.775
  302.500   94.341    0.442    0.247    6.409
  302.750   95.505    0.452    0.247    6.063
  303.000   96.080    0.464    0.246    5.631
  303.250   96.661    0.473    0.246    5.230
  303.500   96.649    0.470    0.246    4.947
  303.750   95.455    0.467    0.246    4.511
  304.000   96.623    0.470    0.245    4.428
  304.250   98.386    0.478    0.243    4.678
  304.500  103.682    0.484    0.242    4.943
  304.750  106.026    0.481    0.243    5.419
  305.000  107.190    0.510    0.245    6.515
  305.250  108.364    0.519    0.248    7.548
  305.500  108.942    0.516    0.251    8.585
  305.750  106.571    0.506    0.251    9.587
  306.000  103.605    0.492    0.251   11.107
  306.250  102.417    0.479    0.260   11.522
  306.500  101.229    0.464    0.278   10.899
  306.750   98.858    0.426    0.306   10.503
  307.000   97.664    0.407    0.333   10.309
  307.250   95.294    0.374    0.338   10.118
  307.500   91.154    0.399    0.333    9.932
  307.750   89.373    0.440    0.328    9.748
  308.000   88.182    0.452    0.323    9.568
  308.250   86.991    0.451    0.318    9.220
  308.500   86.979    0.450    0.316    9.050
  308.750   88.144    0.446    0.310    8.560
  309.000   89.312    0.438    0.301    8.249
  309.250   91.069    0.429    0.286    7.949
  309.500   92.237    0.422    0.271    7.520
  309.750   93.404    0.430    0.265    7.382
  310.000   95.162    0.445    0.259    7.380
  310.250   96.922    0.460    0.252    6.981
  310.500   99.269    0.469    0.245    6.980
  310.750  101.026    0.469    0.235    6.483
  311.000  103.373    0.467    0.229    5.593
  311.250  105.717    0.456    0.225    4.651
  311.500  106.295    0.449    0.222    4.163
  311.750  103.927    0.452    0.219    3.726
  312.000  101.557    0.458    0.220    3.525
  312.250   99.776    0.462    0.226    3.214
  312.500  103.892    0.463    0.235    3.097
  312.750  110.364    0.469    0.246    3.040
  313.000  112.714    0.502    0.259    2.984
  313.250  113.882    0.519    0.267    3.039
  313.500  113.870    0.528    0.273    3.152
  313.750  112.083    0.539    0.274    3.270
  314.000  110.308    0.542    0.274    3.719
  314.250  107.345    0.540    0.273    3.858
  314.500  105.567    0.533    0.270    4.388
  314.750  103.197    0.528    0.268    4.637
  315.000  102.006    0.521    0.267    5.372
  315.250  100.814    0.510    0.264    6.110
  315.500  100.213    0.495    0.266    6.824
  315.750   98.432    0.477    0.267    7.620
  316.000   97.238    0.445    0.267    8.509
  316.250   97.223    0.438    0.268   10.229
  316.500   97.215    0.431    0.275   12.072
  316.750   97.206    0.420    0.286   12.069
  317.000   95.425    0.405    0.295   11.004
  317.250   93.644    0.388    0.308    9.493
  317.500   91.274    0.365    0.325    8.498
  317.750   88.903    0.323    0.305    8.188
  318.000   88.302    0.329    0.268    8.187
  318.250   93.007    0.362    0.244    8.493
  318.500   97.713    0.395    0.240    9.141
  318.750  100.647    0.443    0.251   10.020
  319.000  102.404    0.435    0.257   11.397
  319.250  103.572    0.420    0.250   12.964
  319.500  105.332    0.412    0.243   14.746
  319.750  104.141    0.408    0.242   14.474
  320.000  100.001    0.401    0.242   12.956
  320.250   90.552    0.371    0.236   10.577
