~VERSION INFORMATION
 VERS.                 2.0:   CWLS LOG ASCII STANDARD -VERSION 2.0
 WRAP.                  NO:   ONE LINE PER DEPTH STEP
~WELL INFORMATION BLOCK
#MNEM.UNIT           DATA                    DESCRIPTION OF MNEMONIC
#---------    -------------------            -------------------------------
# Generated from Intellog Unique Number	CN_94_101/WELL/3829
WELL.         08-23-096-18W4                 : Well_name    - WELL
LOC .         00/08-23-096-18W4/0            : Location     - LOCATION
UWI .         00/08-23-096-18W400            : Uwi          - UNIQUE WELL ID
ENTR.         T                              : Entered      - ENTERED BY
SRVC.         SCHLUMBERGER                   : Scn          - SERVICE COMPANY
DATE.         08/05/92                       : Date         - LOG DATE
STRT.M        270                            : top_depth    - START DEPTH
STOP.M        439.75                         : bot_depth    - STOP DEPTH
STEP.M        0.25                           : increment    - STEP LENGTH
 NULL. -999.2500:NULL Value
~CURVE INFORMATION BLOCK
#MNEM UNIT       ERCB CURVE CODE    CURVE DESCRIPTION
#-----------   ------------------   ----------------------------------
DEPT.M        00 001 00 00         : DEPTH        - DEPTH
GR  .API      00 310 00 00         : GR           - GAMMA RAY
CALI.MM       00 280 01 00         : CAL          - CALIPER
NPHI.V/V      00 330 00 00         : PHIN         - NEUTRON POROSITY (SANDSTONE)
DPHI.V/V      00 890 00 00         : PHID         - DENSITY POROSITY (SANDSTONE)
ILD .OHMM     00 120 00 00         : RESD         - DEEP RESISTIVITY (DIL)
~PARAMETER INFORMATION
#MNEM.UNIT           DATA             DESCRIPTION OF MNEMONIC
#---------         -----------     ------------------------------
GL  .M        685                  : gl           - GROUND LEVEL ELEVATION
EREF.M        689.4                : kb           - ELEVATION OF DEPTH REFERENCE
DATM.M        689.4                : datum        - DATUM ELEVATION
TDD .M        440                  : tdd          - TOTAL DEPTH DRILLER
RUN .         0.000000             : Run          - RUN NUMBER
MUD .         GEL                  : Mud_type     - MUD TYPE
MATR.         SANDSTONE            : Logunit      - NEUTRON MATRIX
TMAX.C        0                    : BHT          - MAXIMUM RECORDED TEMPERATURE
BHTD.M        229.972              : BHTDEP       - MAXIMUM RECORDED TEMPERATURE
RMT .C        -17.7778             : MDTP         - TEMPERATURE OF MUD
MUDD.KG/M     6900                 : MWT          - MUD DENSITY
NEUT.         1                    : NEUTRON      - NEUTRON TYPE
RESI.         0                    : RESIST       - RESISTIVITY TYPE
RM  .OHMM     0                    : RM           - RESISTIVITY OF MUD
RMC .OHMM     0                    : RMC          - RESISTIVITY OF MUD CAKE
RMF .OHMM     0                    : RMF          - RESISTIVITY OF MUD FILTRATE
SUFT.C        4                    : SUFT         - SURFACE TEMPERATURE
BTZC.MM       0                    : BITZC        - BIT SIZE CONSTANT
MDW .KG/M     0                    : MDW          - MUD WEIGHT
~A  DEPTH       GR      CAL     PHIN     PHID     RESD
# ...
  416.000  106.250  167.708    0.329    0.104    5.898
  416.250  103.125  168.750    0.332    0.034    5.898
  416.500  106.875  172.917    0.357    0.053    6.012
  416.750  110.000  173.958    0.363    0.122    7.276
  417.000  109.375  171.875    0.375    0.153    6.012
  417.250  114.375  171.875    0.391    0.162    5.787
  417.500  118.125  170.833    0.418    0.155    5.677
  417.750  126.875  170.833    0.445    0.154    5.465
  418.000  127.500  168.750    0.460    0.167    5.361
  418.250  122.500  170.833    0.480    0.180    5.161
  418.500  118.125  172.917    0.480    0.174    4.967
  418.750  111.250  171.875    0.438    0.153    4.874
  419.000  111.250  170.833    0.421    0.125    4.874
  419.250  118.125  162.500    0.422    0.123    4.874
  419.500  119.375  162.500    0.425    0.130    6.489
  419.750  116.875  172.917    0.440    0.130    6.614
  420.000  112.500  171.875    0.426    0.125    7.138
  420.250  105.625  170.833    0.406    0.120    7.559
  420.500   95.625  170.833    0.392    0.122    8.004
  420.750   75.000  171.875    0.362    0.129    8.476
  421.000   63.125  168.750    0.312    0.157   10.455
  421.250   60.000  168.750    0.313    0.208   14.188
  421.500   61.875  168.750    0.347    0.303   19.254
  421.750   65.000  167.708    0.415    0.294   19.254
  422.000   62.500  169.792    0.415    0.284   19.254
  422.250   60.000  169.792    0.416    0.286   18.890
  422.500   62.500  169.792    0.415    0.286   18.890
  422.750   67.500  169.792    0.391    0.272   18.533
  423.000   67.500  169.792    0.359    0.246   17.171
  423.250   61.250  168.750    0.328    0.242   16.216
  423.500   55.000  168.750    0.296    0.262   15.024
  423.750   50.625  168.750    0.299    0.293   14.188
  424.000   59.375  167.708    0.324    0.289   13.920
  424.250   68.125  167.708    0.336    0.276   13.146
  424.500   69.375  167.708    0.387    0.266   12.897
  424.750   63.750  160.417    0.390    0.268   12.897
  425.000   61.250  160.417    0.393    0.286   13.399
  425.250   60.625  160.417    0.397    0.294   13.920
  425.500   61.250  168.750    0.401    0.288   14.462
  425.750   56.875  168.750    0.406    0.283   13.146
  426.000   48.125  168.750    0.400    0.277   11.949
  426.250   42.500  168.750    0.388    0.283   10.657
  426.500   30.000  167.708    0.343    0.294    9.324
  426.750   23.750  164.583    0.332    0.302    7.138
  427.000   23.750  164.583    0.328    0.314    6.246
  427.250   26.250  168.750    0.324    0.314    5.898
  427.500   25.625  166.667    0.328    0.314    5.570
  427.750   28.125  165.625    0.333    0.317    5.161
  428.000   31.250  165.625    0.337    0.321    5.570
  428.250   33.750  165.625    0.341    0.326    6.614
  428.500   25.625  165.625    0.348    0.327    8.639
  428.750   35.000  165.625    0.363    0.323   11.502
  429.000   39.375  165.625    0.380    0.317   18.890
  429.250   42.500  165.625    0.395    0.313   21.182
  429.500   40.000  165.625    0.401    0.311   25.151
  429.750   28.750  165.625    0.362    0.309   26.633
  430.000   20.625  166.667    0.314    0.315   28.745
  430.250   19.375  167.708    0.319    0.318   28.202
  430.500   21.875  167.708    0.323    0.321   30.439
  430.750   23.750  168.750    0.341    0.324   34.131
  431.000   21.875  168.750    0.335    0.323   37.548
  431.250   21.875  169.792    0.315    0.319   40.526
  431.500   24.375  169.792    0.306    0.316   48.119
  431.750   26.250  167.708    0.305    0.316   50.954
  432.000   25.625  166.667    0.308    0.315   56.056
  432.250   25.000  164.583    0.309    0.314   58.236
  432.500   24.375  163.542    0.299    0.310   50.954
  432.750   24.375  162.500    0.299    0.310   44.583
  433.000   23.750  162.500    0.299    0.310   39.009
  433.250   23.125  159.375    0.303    0.309   32.853
  433.500   21.875  158.333    0.289    0.309   35.459
  433.750   23.125  158.333    0.295    0.305   39.760
  434.000   23.750  157.292    0.295    0.304   48.119
  434.250   24.375  156.250    0.269    0.299   60.502
  434.500   25.000  156.250    0.272    0.298   74.633
  434.750   25.000  158.333    0.272    0.298   79.030
  435.000   25.625  158.333    0.295    0.298   86.941
  435.250   25.625  158.333    0.285    0.299   86.941
  435.500   26.250  159.375    0.291    0.288   79.030
  435.750   28.125  159.375    0.285    0.288   70.480
  436.000   30.000  159.375    0.285    0.398   61.667
  436.250   30.625  160.417    0.449    0.468   54.996
  436.500   30.625  160.417    0.472    0.460   17.559
  436.750   30.000  159.375    0.481    0.378   17.559
  437.000   30.000  161.458    0.559    0.320   17.559
  437.250   30.000  161.458    0.565    0.360   18.449
  437.500   30.625  161.458    0.565    0.486   18.449
  437.750   31.250  161.458    0.562    0.549   18.449
  438.000   46.250  161.458    0.556    0.438   18.449
  438.250   47.500  161.458    0.549    0.363   17.559
  438.500   33.750  161.458    0.546    0.323   15.906
  438.750   31.875  161.458    0.517    0.390   14.409
  439.000   31.250  161.458    0.459    0.399   14.409
  439.250   31.250  161.458    0.456    0.396   13.713
  439.500   31.875  161.458    0.449    0.384   13.713
  439.750   31.875  161.458    0.330    0.369   15.139
