~VERSION INFORMATION
 VERS.                 2.0:   CWLS LOG ASCII STANDARD -VERSION 2.0
 WRAP.                  NO:   ONE LINE PER DEPTH STEP
~WELL INFORMATION BLOCK
#MNEM.UNIT           DATA                    DESCRIPTION OF MNEMONIC
#---------    -------------------            -------------------------------
# Generated from Intellog Unique Number	CS_73_76/WELL/591
WELL.         BOW VALLLEY INDUSTRIES         : Well_name    - WELL
LOC .         00/02-29-073-15W4/0            : Location     - LOCATION
UWI .         00/02-29-073-15W4/0            : Uwi          - UNIQUE WELL ID
ENTR.         SP                             : Entered      - ENTERED BY
SRVC.         SCHLUMBERGER                   : Scn          - SERVICE COMPANY
STRT.M        270                            : top_depth    - START DEPTH
STOP.M        480                            : bot_depth    - STOP DEPTH
STEP.M        0.25                           : increment    - STEP LENGTH
 NULL. -999.2500:NULL Value
~CURVE INFORMATION BLOCK
#MNEM UNIT       ERCB CURVE CODE    CURVE DESCRIPTION
#-----------   ------------------   ----------------------------------
DEPT.M        00 001 00 00         : DEPTH        - DEPTH
ILD .OHMM     00 120 00 00         : RESD         - DEEP RESISTIVITY (DIL)
DPHI.V/V      00 890 00 00         : PHID         - DENSITY POROSITY (LIMESTONE)
NPHI.V/V      00 330 00 00         : PHIN         - NEUTRON POROSITY (LIMESTONE)
GR  .API      00 310 00 00         : GR           - GAMMA RAY
~PARAMETER INFORMATION
#MNEM.UNIT           DATA             DESCRIPTION OF MNEMONIC
#---------         -----------     ------------------------------
GL  .M        613                  : gl           - GROUND LEVEL ELEVATION
EREF.M        616.57               : kb           - ELEVATION OF DEPTH REFERENCE
DATM.M        613                  : datum        - DATUM ELEVATION
TDD .M        490.2                : tdd          - TOTAL DEPTH DRILLER
RUN .         ONE                  : Run          - RUN NUMBER
ENG .         BILL                 : Engineer     - RECORDING ENGINEER
WIT .         JIM                  : Witness      - WITNESSED BY
MUD .         GEL                  : Mud_type     - MUD TYPE
MATR.         LIMESTONE            : Logunit      - NEUTRON MATRIX
TMAX.C        24                   : BHT          - MAXIMUM RECORDED TEMPERATURE
BHTD.M        490.2                : BHTDEP       - MAXIMUM RECORDED TEMPERATURE
MATR.         1                    : LOGUNIT      - NEUTRON MATRIX
RMT .C        25                   : MDTP         - TEMPERATURE OF MUD
NEUT.         1                    : NEUTRON      - NEUTRON TYPE
RESI.         0                    : RESIST       - RESISTIVITY TYPE
RMC .OHMM     0.25                 : RMC          - RESISTIVITY OF MUD CAKE
RMF .OHMM     0.25                 : RMF          - RESISTIVITY OF MUD FILTRATE
SUFT.C        15                   : SUFT         - SURFACE TEMPERATURE
~A  DEPTH     RESD     PHID     PHIN       GR
# ...
  357.000    4.431    0.219    0.445   90.362
  357.250    4.602    0.202    0.422   87.947
  357.500    4.871    0.193    0.433   84.919
  357.750    5.155    0.186    0.470   83.105
  358.000    5.157    0.199    0.497   86.762
  358.250    4.788    0.231    0.476   90.413
  358.500    4.281    0.246    0.441   89.211
  358.750    3.688    0.246    0.455   90.434
  359.000    3.424    0.255    0.463   89.837
  359.250    3.362    0.269    0.446   87.416
  359.500    3.428    0.293    0.470   85.607
  359.750    3.429    0.345    0.449   83.186
  360.000    3.495    0.376    0.528   75.300
  360.250    3.563    0.408    0.554   71.667
  360.500    3.701    0.612    0.538   66.212
  360.750    3.844    0.673    0.516   60.148
  361.000    4.145    0.712    0.501   55.907
  361.250    4.555    0.643    0.576   61.383
  361.500    4.730    0.602    0.605   65.040
  361.750    5.197    0.534    0.489   59.584
  362.000    5.710    0.358    0.412   57.162
  362.250    6.514    0.337    0.393   58.996
  362.500    6.892    0.325    0.406   57.790
  362.750    7.573    0.306    0.414   54.764
  363.000    7.720    0.311    0.430   59.631
  363.250    7.582    0.317    0.437   68.145
  363.500    7.444    0.328    0.413   64.512
  363.750    7.309    0.339    0.396   60.270
  364.000    7.451    0.346    0.395   60.282
  364.250    7.596    0.328    0.417   58.467
  364.500    8.039    0.320    0.440   62.126
  364.750    8.668    0.308    0.404   61.527
  365.000    9.347    0.139    0.355   59.712
  365.250    9.709    0.108    0.327   53.652
  365.500    9.714    0.169    0.288   57.308
  365.750    9.362    0.228    0.339   61.567
  366.000    9.023    0.260    0.391   67.648
  366.250    9.028    0.271    0.415   70.089
  366.500    9.376    0.282    0.407   66.458
  366.750   10.497    0.300    0.419   63.426
  367.000   11.108    0.312    0.404   53.723
  367.250   11.755    0.129    0.332   50.087
  367.500   11.120    0.141    0.285   49.489
  367.750    9.759    0.193    0.253   59.216
  368.000    8.727    0.248    0.308   69.550
  368.250    7.952    0.273    0.386   78.064
  368.500    7.807    0.258    0.425   83.538
  368.750    7.386    0.257    0.427   74.440
  369.000    7.253    0.278    0.404   72.021
  369.250    7.256    0.270    0.384   74.460
  369.500    7.258    0.257    0.368   70.222
  369.750    7.262    0.264    0.390   66.586
  370.000    7.404    0.302    0.392   62.344
  370.250    7.407    0.324    0.408   58.106
  370.500    7.411    0.336    0.445   56.898
  370.750    7.277    0.314    0.454   60.554
  371.000    6.884    0.300    0.437   67.850
  371.250    6.634    0.289    0.417   76.971
  371.500    6.275    0.311    0.442   70.303
  371.750    6.162    0.319    0.448   67.880
  372.000    6.050    0.324    0.431   64.247
  372.250    6.285    0.327    0.426   64.258
  372.500    6.651    0.334    0.465   64.874
  372.750    7.307    0.338    0.459   63.065
  373.000    8.180    0.324    0.424   66.111
  373.250    9.507    0.313    0.402   66.119
  373.500   11.470    0.194    0.422   61.271
  373.750   14.637    0.126    0.227   52.780
  374.000   19.393    0.020    0.184   46.715
  374.250   22.964    0.008    0.150   43.081
  374.500   23.408    0.015    0.145   41.269
  374.750   18.708    0.061    0.172   48.570
  375.000   12.872    0.106    0.221   55.866
  375.250    8.857    0.135    0.266   62.556
  375.500    7.348    0.179    0.309   69.246
  375.750    6.571    0.243    0.352   72.295
  376.000    6.216    0.281    0.365   72.305
  376.250    6.218    0.271    0.385   80.819
  376.500    6.222    0.265    0.413   85.686
  376.750    6.342    0.263    0.427   86.911
  377.000    6.347    0.270    0.418   85.704
  377.250    6.349    0.278    0.400   81.466
  377.500    6.352    0.286    0.386   80.258
  377.750    6.357    0.282    0.395   83.305
  378.000    6.360    0.266    0.381   79.070
  378.250    6.482    0.254    0.382   79.075
  378.500    6.733    0.255    0.415   76.657
  378.750    6.994    0.282    0.397   68.774
  379.000    7.264    0.299    0.384   63.316
  379.250    7.545    0.292    0.369   59.680
  379.500    7.692    0.284    0.381   62.120
  379.750    7.695    0.301    0.375   60.309
  380.000    7.845    0.306    0.392   62.140
  380.250    7.704    0.310    0.403   57.902
  380.500    7.424    0.320    0.413   61.554
  380.750    7.292    0.319    0.434   56.709
  381.000    7.159    0.323    0.420   54.894
  381.250    7.030    0.332    0.435   60.976
  381.500    6.905    0.328    0.404   66.453
  381.750    6.908    0.333    0.376   62.211
  382.000    6.783    0.347    0.383   62.828
  382.250    6.787    0.353    0.396   65.268
  382.500    6.790    0.356    0.405   62.242
  382.750    6.793    0.366    0.427   67.112
  383.000    6.795    0.353    0.415   66.513
  383.250    6.798    0.337    0.416   71.382
  383.500    6.677    0.332    0.435   76.250
  383.750    6.679    0.326    0.425   68.976
  384.000    6.809    0.316    0.435   68.986
  384.250    6.814    0.307    0.448   70.208
  384.500    6.816    0.300    0.400   72.042
  384.750    6.822    0.294    0.410   72.659
  385.000    6.826    0.284    0.417   72.063
  385.250    6.829    0.270    0.425   73.898
  385.500    6.706    0.264    0.420   75.726
  385.750    7.094    0.259    0.400   75.129
  386.000    7.098    0.263    0.384   73.315
  386.250    6.841    0.263    0.420   72.110
  386.500    6.593    0.267    0.454   73.336
  386.750    5.896    0.269    0.447   73.955
  387.000    5.271    0.281    0.436   79.429
  387.250    4.293    0.334    0.450   86.728
  387.500    3.838    0.377    0.460   90.988
  387.750    3.433    0.394    0.508   93.427
  388.000    3.186    0.350    0.536   87.978
  388.250    3.071    0.314    0.521   87.375
  388.500    3.311    0.296    0.515   84.349
  388.750    3.849    0.307    0.543   78.896
  389.000    4.229    0.322    0.578   85.585
  389.250    4.645    0.319    0.566   89.844
  389.500    5.200    0.221    0.449   86.213
  389.750    5.714    0.224    0.432   83.183
  390.000    5.934    0.228    0.417   78.942
  390.250    6.166    0.232    0.391   81.990
  390.500    6.054    0.242    0.386   86.861
  390.750    6.056    0.260    0.422   88.692
  391.000    6.059    0.271    0.450   89.915
  391.250    5.950    0.253    0.465   88.103
  391.500    5.952    0.249    0.462   86.294
  391.750    5.955    0.260    0.468   86.302
  392.000    5.960    0.264    0.489   82.671
  392.250    5.962    0.265    0.450   82.070
  392.500    6.079    0.263    0.425   85.724
  392.750    6.081    0.263    0.401   85.735
  393.000    6.199    0.255    0.392   80.889
  393.250    6.202    0.210    0.408   74.823
  393.500    6.443    0.223    0.401   77.264
  393.750    6.819    0.256    0.378   76.059
  394.000    7.081    0.267    0.407   73.032
  394.250    7.636    0.259    0.374   68.793
  394.500    8.081    0.264    0.347   66.977
  394.750    8.552    0.141    0.322   60.307
  395.000    8.556    0.096    0.313   63.356
  395.250    7.651    0.211    0.325   68.227
  395.500    6.842    0.240    0.365   68.233
  395.750    6.352    0.273    0.396   67.029
  396.000    6.237    0.311    0.403   64.610
  396.250    6.126    0.342    0.398   62.191
  396.500    6.128    0.354    0.374   62.808
  396.750    6.131    0.353    0.354   57.958
  397.000    6.134    0.386    0.380   53.717
  397.250    6.254    0.410    0.407   55.550
  397.500    6.257    0.363    0.441   58.596
  397.750    6.259    0.344    0.442   53.142
  398.000    6.262    0.349    0.426   51.328
  398.250    6.267    0.355    0.424   55.593
  398.500    6.387    0.348    0.456   55.602
  398.750    6.272    0.345    0.419   53.791
  399.000    6.277    0.355    0.392   53.799
  399.250    6.398    0.360    0.424   55.632
  399.500    6.402    0.360    0.429   56.859
  399.750    6.404    0.339    0.441   57.476
  400.000    6.654    0.324    0.431   58.697
  400.250    6.782    0.300    0.399   52.032
