~VERSION INFORMATION
 VERS.                 2.0:   CWLS LOG ASCII STANDARD -VERSION 2.0
 WRAP.                  NO:   ONE LINE PER DEPTH STEP
~WELL INFORMATION BLOCK
#MNEM.UNIT           DATA                    DESCRIPTION OF MNEMONIC
#---------    -------------------            -------------------------------
# Generated from Intellog Unique Number	CS_73_76/WELL/2159
WELL.         WAINOCO OIL & GAS LIMITED      : Well_name    - WELL
LOC .         00/06-05-074-12W4/0            : Location     - LOCATION
UWI .         00/06-05-074-12W4/0            : Uwi          - UNIQUE WELL ID
ENTR.         SP                             : Entered      - ENTERED BY
SRVC.         SCHLUMBERGER                   : Scn          - SERVICE COMPANY
STRT.M        295                            : top_depth    - START DEPTH
STOP.M        530                            : bot_depth    - STOP DEPTH
STEP.M        0.25                           : increment    - STEP LENGTH
 NULL. -999.2500:NULL Value
~CURVE INFORMATION BLOCK
#MNEM UNIT       ERCB CURVE CODE    CURVE DESCRIPTION
#-----------   ------------------   ----------------------------------
DEPT.M        00 001 00 00         : DEPTH        - DEPTH
ILD .OHMM     00 120 00 00         : RESD         - DEEP RESISTIVITY (DIL)
DPHI.V/V      00 890 00 00         : PHID         - DENSITY POROSITY (LIMESTONE)
NPHI.V/V      00 330 00 00         : PHIN         - NEUTRON POROSITY (LIMESTONE)
GR  .API      00 310 00 00         : GR           - GAMMA RAY
~PARAMETER INFORMATION
#MNEM.UNIT           DATA             DESCRIPTION OF MNEMONIC
#---------         -----------     ------------------------------
GL  .M        661.2                : gl           - GROUND LEVEL ELEVATION
EREF.M        664.2                : kb           - ELEVATION OF DEPTH REFERENCE
DATM.M        661.2                : datum        - DATUM ELEVATION
TDD .M        543                  : tdd          - TOTAL DEPTH DRILLER
RUN .         ONE                  : Run          - RUN NUMBER
ENG .         BILL                 : Engineer     - RECORDING ENGINEER
WIT .         JIM                  : Witness      - WITNESSED BY
MUD .         GEL                  : Mud_type     - MUD TYPE
MATR.         LIMESTONE            : Logunit      - NEUTRON MATRIX
TMAX.C        23                   : BHT          - MAXIMUM RECORDED TEMPERATURE
BHTD.M        5432                 : BHTDEP       - MAXIMUM RECORDED TEMPERATURE
MATR.         1                    : LOGUNIT      - NEUTRON MATRIX
RMT .C        25                   : MDTP         - TEMPERATURE OF MUD
NEUT.         1                    : NEUTRON      - NEUTRON TYPE
RESI.         0                    : RESIST       - RESISTIVITY TYPE
RMC .OHMM     0.25                 : RMC          - RESISTIVITY OF MUD CAKE
RMF .OHMM     0.25                 : RMF          - RESISTIVITY OF MUD FILTRATE
SUFT.C        15                   : SUFT         - SURFACE TEMPERATURE
~A  DEPTH     RESD     PHID     PHIN       GR
# ...
  338.500    6.086    0.279    0.422   84.723
  338.750    6.442    0.272    0.428   88.971
  339.000    6.565    0.262    0.435   94.430
  339.250    6.691    0.255    0.431   96.855
  339.500    6.819    0.252    0.430  100.491
  339.750    6.566    0.239    0.432  101.703
  340.000    6.443    0.236    0.441  101.091
  340.250    6.322    0.238    0.442  102.300
  340.500    6.204    0.244    0.447  104.116
  340.750    6.088    0.258    0.449   98.645
  341.000    5.974    0.261    0.458   96.211
  341.250    5.975    0.256    0.464   94.383
  341.500    6.089    0.254    0.470   91.342
  341.750    6.206    0.254    0.478   86.480
  342.000    6.694    0.246    0.478   82.222
  342.250    6.953    0.244    0.464   80.396
  342.500    6.953    0.245    0.448   77.960
  342.750    7.086    0.250    0.446   77.957
  343.000    6.954    0.243    0.451   78.559
  343.250    6.824    0.239    0.465   80.983
  343.500    6.570    0.229    0.472   85.836
  343.750    6.208    0.223    0.477   88.868
  344.000    6.092    0.227    0.479   94.327
  344.250    5.542    0.230    0.463   97.966
  344.500    5.337    0.235    0.456   99.783
  344.750    5.237    0.243    0.448   98.562
  345.000    5.139    0.246    0.435   96.129
  345.250    5.237    0.239    0.432   92.479
  345.500    5.439    0.237    0.434   94.294
  345.750    5.544    0.230    0.441   95.506
  346.000    5.758    0.224    0.444   97.321
  346.250    5.868    0.226    0.448   96.709
  346.500    5.868    0.235    0.450   93.668
  346.750    5.981    0.250    0.451   88.196
  347.000    6.095    0.262    0.449   85.156
  347.250    6.575    0.273    0.441   79.684
  347.500    6.959    0.284    0.426   77.251
  347.750    7.093    0.280    0.423   76.032
  348.000    7.229    0.258    0.419   77.848
  348.250    7.229    0.245    0.428   82.091
  348.500    7.094    0.217    0.445   84.517
  348.750    6.702    0.199    0.461   87.549
  349.000    6.214    0.198    0.472   86.936
  349.250    5.871    0.196    0.482   91.181
  349.500    5.547    0.192    0.490   92.999
  349.750    5.242    0.198    0.494   96.027
  350.000    5.242    0.220    0.484   96.632
  350.250    5.242    0.233    0.479   91.767
  350.500    5.342    0.247    0.481   89.334
  350.750    5.549    0.260    0.474   85.075
  351.000    5.655    0.272    0.467   85.074
  351.250    5.874    0.280    0.462   87.497
  351.500    5.986    0.282    0.465   85.671
  351.750    6.101    0.283    0.474   86.273
  352.000    6.218    0.283    0.478   85.660
  352.250    6.218    0.279    0.478   83.226
  352.500    6.218    0.275    0.467   80.789
  352.750    6.102    0.271    0.461   80.787
  353.000    6.102    0.266    0.453   78.958
  353.250    6.219    0.264    0.448   77.740
  353.500    6.338    0.264    0.445   76.519
  353.750    6.338    0.265    0.443   75.907
  354.000    6.339    0.275    0.443   74.688
  354.250    6.339    0.276    0.454   73.465
  354.500    6.339    0.289    0.464   72.855
  354.750    6.339    0.293    0.473   72.850
  355.000    6.340    0.298    0.482   72.238
  355.250    6.461    0.301    0.491   72.233
  355.500    6.585    0.298    0.497   71.620
  355.750    6.711    0.293    0.496   69.793
  356.000    6.839    0.285    0.496   69.787
  356.250    6.840    0.280    0.486   70.996
  356.500    6.840    0.275    0.480   70.993
  356.750    6.841    0.275    0.474   72.809
  357.000    6.841    0.278    0.461   74.019
  357.250    6.587    0.269    0.443   73.406
  357.500    6.464    0.257    0.428   72.794
  357.750    6.107    0.252    0.427   74.610
  358.000    5.993    0.242    0.450   79.463
  358.250    5.771    0.239    0.471   82.495
  358.500    5.663    0.258    0.488   81.882
  358.750    5.557    0.269    0.465   76.411
  359.000    5.557    0.283    0.432   70.333
  359.250    5.772    0.291    0.408   65.468
  359.500    5.995    0.296    0.398   63.641
  359.750    6.467    0.302    0.395   61.815
  360.000    6.716    0.316    0.401   63.026
  360.250    6.845    0.323    0.408   62.412
  360.500    7.109    0.330    0.409   61.193
  360.750    7.384    0.338    0.414   63.009
  361.000    7.384    0.334    0.414   64.217
  361.250    7.385    0.327    0.408   65.428
  361.500    7.385    0.323    0.406   66.031
  361.750    7.385    0.322    0.405   65.418
  362.000    7.247    0.327    0.404   62.984
  362.250    7.247    0.329    0.408   60.548
  362.500    7.248    0.332    0.419   59.935
  362.750    7.248    0.332    0.427   59.932
  363.000    7.248    0.328    0.437   59.927
  363.250    7.249    0.324    0.446   59.921
  363.500    7.249    0.328    0.447   60.524
  363.750    7.249    0.332    0.447   62.337
  364.000    7.114    0.336    0.443   63.548
  364.250    7.114    0.338    0.442   64.152
  364.500    7.115    0.321    0.441   64.146
  364.750    7.115    0.309    0.440   63.533
  365.000    6.982    0.312    0.436   59.277
  365.250    6.982    0.311    0.434   55.021
  365.500    6.983    0.316    0.434   53.196
  365.750    6.983    0.328    0.441   51.976
  366.000    6.852    0.336    0.445   54.399
  366.250    6.852    0.332    0.447   58.643
  366.500    6.853    0.338    0.448   60.461
  366.750    6.725    0.341    0.456   61.064
  367.000    6.725    0.334    0.456   61.058
  367.250    6.725    0.326    0.457   59.231
  367.500    6.726    0.323    0.463   58.616
  367.750    6.726    0.322    0.466   58.005
  368.000    6.726    0.325    0.464   57.395
  368.250    6.601    0.328    0.463   56.782
  368.500    6.601    0.327    0.462   57.383
  368.750    6.601    0.324    0.458   59.200
  369.000    6.601    0.320    0.458   61.621
  369.250    6.602    0.324    0.462   62.831
  369.500    6.602    0.331    0.458   63.435
  369.750    6.602    0.337    0.453   63.429
  370.000    6.603    0.342    0.451   61.603
  370.250    6.603    0.344    0.449   57.347
  370.500    6.729    0.346    0.451   54.307
  370.750    6.730    0.347    0.452   53.086
  371.000    6.730    0.347    0.452   53.688
  371.250    6.730    0.346    0.452   55.503
  371.500    6.730    0.342    0.444   56.107
  371.750    6.731    0.340    0.440   58.529
  372.000    6.731    0.337    0.438   59.132
  372.250    6.732    0.332    0.436   60.343
  372.500    6.732    0.330    0.443   62.157
  372.750    6.732    0.329    0.449   62.154
  373.000    6.732    0.327    0.447   62.755
  373.250    6.733    0.326    0.446   62.749
  373.500    6.733    0.324    0.446   62.138
  373.750    6.733    0.321    0.445   61.524
  374.000    6.734    0.319    0.446   60.913
  374.250    6.734    0.319    0.448   60.909
  374.500    6.608    0.334    0.454   60.901
  374.750    6.608    0.352    0.461   61.504
  375.000    6.609    0.370    0.471   61.501
  375.250    6.609    0.378    0.477   62.708
  375.500    6.485    0.384    0.479   63.311
  375.750    6.486    0.375    0.466   64.518
  376.000    6.486    0.366    0.453   64.515
  376.250    6.486    0.351    0.448   65.725
  376.500    6.365    0.345    0.449   65.113
  376.750    6.365    0.355    0.454   61.464
  377.000    6.365    0.358    0.455   59.028
  377.250    6.247    0.364    0.459   57.810
  377.500    6.015    0.364    0.462   55.983
  377.750    5.576    0.358    0.462   55.978
  378.000    4.885    0.333    0.481   63.259
  378.250    4.361    0.309    0.489   70.542
  378.500    3.748    0.281    0.494   79.646
  378.750    3.410    0.263    0.496   84.499
  379.000    3.044    0.246    0.494   87.530
  379.250    2.876    0.242    0.494   88.738
  379.500    2.822    0.245    0.499   89.341
  379.750    2.876    0.245    0.498   87.514
  380.000    2.987    0.240    0.498   86.901
  380.250    3.103    0.231    0.504   88.718
  380.500    3.223    0.224    0.512   89.321
  380.750    3.476    0.221    0.521   89.923
  381.000    3.611    0.227    0.530   88.095
  381.250    3.822    0.231    0.535   85.662
  381.500    3.969    0.231    0.509   82.621
  381.750    4.123    0.241    0.499   75.935
