~VERSION INFORMATION
 VERS.                 2.0:   CWLS LOG ASCII STANDARD -VERSION 2.0
 WRAP.                  NO:   ONE LINE PER DEPTH STEP
~WELL INFORMATION BLOCK
#MNEM.UNIT           DATA                    DESCRIPTION OF MNEMONIC
#---------    -------------------            -------------------------------
# Generated from Intellog Unique Number	CS_77_79/WELL/887
WELL.         MESA PORTAGE                   : Well_name    - WELL
LOC .         00/06-33-078-18W4/0            : Location     - LOCATION
UWI .         00/06-33-078-18W4/0            : Uwi          - UNIQUE WELL ID
ENTR.         JHS                            : Entered      - ENTERED BY
SRVC.         SCHLUMBERGER                   : Scn          - SERVICE COMPANY
STRT.M        213.360                        : top_depth    - START DEPTH
STOP.M        396.110                        : bot_depth    - STOP DEPTH
STEP.M        0.25                           : increment    - STEP LENGTH
 NULL. -999.2500:NULL Value
~CURVE INFORMATION BLOCK
#MNEM UNIT       ERCB CURVE CODE    CURVE DESCRIPTION
#-----------   ------------------   ----------------------------------
DEPT.M        00 001 00 00         : DEPTH        - DEPTH
RHOB.KG/M3    00 350 00 00         : DENS         - BULK DENSITY
GR  .API      00 310 00 00         : GR           - GAMMA RAY
DPHI.V/V      00 890 00 00         : PHID         - DENSITY POROSITY (SANDSTONE)
NPHI.V/V      00 330 00 00         : PHIN         - NEUTRON POROSITY (SANDSTONE)
ILD .OHMM     00 120 00 00         : RESD         - DEEP RESISTIVITY (DIL)
~PARAMETER INFORMATION
#MNEM.UNIT           DATA             DESCRIPTION OF MNEMONIC
#---------         -----------     ------------------------------
GL  .M        552.816              : gl           - GROUND LEVEL ELEVATION
EREF.M        555.955              : kb           - ELEVATION OF DEPTH REFERENCE
DATM.M        555.955              : datum        - DATUM ELEVATION
TDD .M        422.148              : tdd          - TOTAL DEPTH DRILLER
RUN .         ONE                  : Run          - RUN NUMBER
ENG .         BILL                 : Engineer     - RECORDING ENGINEER
WIT .         JIM                  : Witness      - WITNESSED BY
MUD .         GEL                  : Mud_type     - MUD TYPE
MATR.         SANDSTONE            : Logunit      - NEUTRON MATRIX
TMAX.C        21.1111              : BHT          - MAXIMUM RECORDED TEMPERATURE
BHTD.M        422.148              : BHTDEP       - MAXIMUM RECORDED TEMPERATURE
MATR.         1                    : LOGUNIT      - NEUTRON MATRIX
RMT .C        25                   : MDTP         - TEMPERATURE OF MUD
NEUT.         1                    : NEUTRON      - NEUTRON TYPE
RESI.         0                    : RESIST       - RESISTIVITY TYPE
RMC .OHMM     0.25                 : RMC          - RESISTIVITY OF MUD CAKE
RMF .OHMM     0.25                 : RMF          - RESISTIVITY OF MUD FILTRATE
SUFT.C        15                   : SUFT         - SURFACE TEMPERATURE
~A  DEPTH     DENS       GR     PHID     PHIN     RESD
# ...
  322.860   -0.000   63.651    0.227    0.400   11.663
  323.110   -0.000   61.172    0.244    0.452    9.308
  323.360    0.000   55.700    0.215    0.441    9.030
  323.610    0.000   50.441    0.150    0.212    9.605
  323.860    0.000   52.750    0.066    0.205   10.534
  324.110   -0.000   58.696    0.061    0.215   11.430
  324.360   -0.000   59.846    0.086    0.287   11.433
  324.610    0.000   59.847    0.172    0.393   10.545
  324.860    0.000   60.549    0.217    0.448    9.248
  325.110    0.000   61.756    0.253    0.471    8.152
  325.360   -0.000   60.630    0.260    0.478    7.201
  325.610   -0.000   60.009    0.268    0.463    6.948
  325.860   -0.000   62.473    0.268    0.445    7.044
  326.110    0.000   64.357    0.246    0.439    7.135
  326.360    0.000   66.076    0.236    0.459    7.306
  326.610    0.000   65.295    0.256    0.456    7.456
  326.860   -0.000   63.228    0.277    0.461    7.347
  327.110   -0.000   63.297    0.280    0.472    7.326
  327.360   -0.000   66.029    0.273    0.486    7.323
  327.610    0.000   65.597    0.289    0.494    7.449
  327.860    0.000   64.185    0.277    0.437    7.831
  328.110   -0.000   58.021    0.176    0.347    8.461
  328.360   -0.000   47.985    0.106    0.245    9.757
  328.610   -0.000   48.641    0.053    0.209   12.588
  328.860    0.000   58.514    0.046    0.202   14.837
  329.110    0.000   64.270    0.057    0.218   16.723
  329.360    0.000   69.043    0.103    0.287   17.465
  329.610   -0.000   73.189    0.174    0.374   15.330
  329.860   -0.000   74.982    0.187    0.375   11.993
  330.110   -0.000   74.553    0.222    0.396   10.015
  330.360    0.000   72.081    0.279    0.427    8.370
  330.610    0.000   65.406    0.259    0.452    7.634
  330.860   -0.000   64.986    0.265    0.450    7.245
  331.110   -0.000   67.743    0.271    0.442    7.018
  331.360   -0.000   68.032    0.260    0.436    6.962
  331.610    0.000   68.073    0.263    0.433    6.864
  331.860    0.000   66.507    0.243    0.436    6.936
  332.110    0.000   65.070    0.246    0.454    6.995
  332.360   -0.000   65.084    0.252    0.457    7.007
  332.610   -0.000   66.520    0.273    0.440    7.067
  332.860   -0.000   68.936    0.251    0.440    7.146
  333.110    0.000   72.051    0.223    0.456    7.379
  333.360    0.000   74.613    0.215    0.469    7.604
  333.610    0.000   74.187    0.232    0.461    7.843
  333.860   -0.000   73.544    0.239    0.449    7.948
  334.110   -0.000   74.561    0.241    0.454    8.030
  334.360    0.000   76.049    0.250    0.464    8.152
  334.610    0.000   74.677    0.255    0.464    8.244
  334.860    0.000   74.225    0.256    0.458    8.308
  335.110   -0.000   73.060    0.234    0.457    8.311
  335.360   -0.000   74.969    0.200    0.463    8.235
  335.610   -0.000   77.012    0.197    0.460    8.144
  335.860    0.000   80.468    0.238    0.448    7.767
  336.110    0.000   84.590    0.224    0.443    7.348
  336.360    0.000   87.060    0.195    0.455    6.782
  336.610   -0.000   89.689    0.196    0.479    6.290
  336.860   -0.005   92.925    0.203    0.476    5.857
  337.110    0.003   93.686    0.212    0.477    5.778
  337.360    0.352   91.769    0.207    0.473    5.844
  337.610    2.577   94.757    0.188    0.456    6.043
  337.860   -8.925   96.653    0.190    0.456    6.546
  338.110 -249.627   96.743    0.194    0.462    7.235
  338.360 2554.620   95.898    0.205    0.444    8.189
  338.610 2330.610   89.732    0.208    0.445    9.053
  338.860 2376.140   84.565    0.192    0.443   10.576
  339.110 2380.400   80.352    0.193    0.416   11.510
  339.360 2410.340   79.181    0.175    0.398   11.840
  339.610 2429.730   80.677    0.164    0.390   12.166
  339.860 2376.530   80.567    0.195    0.413   11.910
  340.110 2368.950   79.410    0.199    0.439   11.411
  340.360 2387.380   80.922    0.189    0.428   10.960
  340.610 2402.420   81.195    0.180    0.412   10.682
  340.860 2439.490   83.472    0.158    0.395   10.672
  341.110 2417.670   86.404    0.171    0.412   10.940
  341.360 2377.070   84.657    0.195    0.440   11.461
  341.610 2462.550   80.968    0.145    0.395   12.160
  341.860 2550.550   77.284    0.093    0.337   13.203
  342.110 2595.880   79.293    0.067    0.315   14.239
  342.360 2538.150   82.373    0.100    0.317   15.219
  342.610 2504.260   85.078    0.120    0.307   15.510
  342.860 2464.300   85.762    0.144    0.327   15.330
  343.110 2419.490   84.097    0.170    0.374   14.808
  343.360 2416.000   79.575    0.172    0.352   13.914
  343.610 2447.960   79.138    0.153    0.348   13.049
  343.860 2393.840   84.414    0.185    0.390   12.071
  344.110 2416.960   85.037    0.171    0.380   11.388
  344.360 2393.800   85.092    0.185    0.385   11.044
  344.610 2388.180   84.325    0.188    0.399   10.985
  344.860 2427.020   83.732    0.165    0.405   10.956
  345.110 2447.900   86.354    0.153    0.399   11.559
  345.360 2487.320   88.283    0.130    0.391   11.374
  345.610 2454.540   91.358    0.149    0.399   11.239
  345.860 2381.950   93.492    0.192    0.417   10.303
  346.110 2427.680   94.164    0.165    0.438    9.134
  346.360 2385.710   92.736    0.190    0.450    7.908
  346.610 2349.340   91.437    0.211    0.451    7.322
  346.860 2362.800   90.045    0.203    0.461    6.838
  347.110 2394.460   88.708    0.185    0.454    6.529
  347.360 2409.190   88.790    0.176    0.432    6.085
  347.610 2375.430   89.376    0.196    0.422    5.732
  347.860 2356.000   89.173    0.207    0.423    5.360
  348.110 2329.040   88.180    0.223    0.443    4.668
  348.360 2288.420   84.193    0.247    0.472    3.707
  348.610 2238.920   80.247    0.275    0.501    2.924
  348.860 2206.550   77.305    0.294    0.545    2.262
  349.110 2221.200   75.178    0.286    0.575    2.088
  349.360 2187.520   74.250    0.306    0.576    2.098
  349.610 2195.260   72.683    0.301    0.533    2.686
  349.860 2209.880   64.707    0.292    0.464    3.610
  350.110 2277.770   63.141    0.253    0.404    5.854
  350.360 2351.090   67.806    0.210    0.396    8.464
  350.610 2384.480   67.355    0.190    0.405   11.049
  350.860 2337.290   64.622    0.218    0.413   13.345
  351.110 2279.690   63.144    0.252    0.401   15.091
  351.360 2325.650   64.122    0.225    0.369   15.548
  351.610 2450.470   65.244    0.152    0.339   14.830
  351.860 2515.870   74.710    0.114    0.330   12.440
  352.110 2529.010   83.150    0.106    0.341    8.946
  352.360 2443.050   85.579    0.156    0.393    7.267
  352.610 2385.750   88.848    0.190    0.429    5.963
  352.860 2405.840   88.327    0.178    0.437    5.321
  353.110 2387.330   84.367    0.189    0.441    4.627
  353.360 2348.920   84.398    0.211    0.443    4.312
  353.610 2346.950   85.582    0.212    0.449    4.043
  353.860 2442.950   82.764    0.156    0.461    3.916
  354.110 2474.710   81.181    0.138    0.469    4.181
  354.360 2516.820   78.190    0.113    0.463    5.456
  354.610 2536.690   77.748    0.101    0.411    6.919
  354.860 2573.690   80.609    0.080    0.380    8.317
  355.110 2547.130   88.474    0.095    0.373    8.865
  355.360 2465.890   94.567    0.143    0.392    8.657
  355.610 2465.470   98.445    0.143    0.441    8.026
  355.860 2428.350  100.752    0.165    0.451    7.085
  356.110 2363.320  100.506    0.203    0.480    6.210
  356.360 2383.840   97.975    0.191    0.483    6.008
  356.610 2417.140   95.001    0.171    0.462    6.119
  356.860 2363.600   89.051    0.203    0.422    6.425
  357.110 2427.840   85.391    0.165    0.413    6.961
  357.360 2486.210   84.022    0.131    0.422    7.846
  357.610 2490.710   84.274    0.128    0.430    8.986
  357.860 2463.810   84.543    0.144    0.442    9.808
  358.110 2445.890   83.432    0.154    0.406   10.112
  358.360 2501.540   84.007    0.122    0.401   10.407
  358.610 2510.430   80.865    0.117    0.414   10.730
  358.860 2389.600   73.433    0.187    0.432   11.860
  359.110 2318.940   58.711    0.229    0.455   13.178
