~VERSION INFORMATION
 VERS.                 2.0:   CWLS LOG ASCII STANDARD -VERSION 2.0
 WRAP.                  NO:   ONE LINE PER DEPTH STEP
~WELL INFORMATION BLOCK
#MNEM.UNIT           DATA                    DESCRIPTION OF MNEMONIC
#---------    -------------------            -------------------------------
# Generated from Intellog Unique Number	CW_76_78/WELL/2795
NULL.         -999.25                        : NULL_VALUE
WELL.         PAN AM A1 SANDY LAKE           : Well_name    - WELL              
LOC .         07-06-078-22W4                 : Location     - LOCATION          
UWI .         00/07-06-078-22W4/0            : Uwi          - UNIQUE WELL ID    
ENTR.         JJ                             : Entered      - ENTERED BY        
SRVC.         SCHLUMBERGER                   : Scn          - SERVICE COMPANY   
DATE.         13 MAR 66                      : Date         - LOG DATE          
STRT.M        381                            : top_depth    - START DEPTH       
STOP.M        509                            : bot_depth    - STOP DEPTH        
STEP.M        0.25                           : increment    - STEP LENGTH       
~CURVE INFORMATION BLOCK
#MNEM UNIT       ERCB CURVE CODE    CURVE DESCRIPTION
#-----------   ------------------   ----------------------------------
DEPT.M        00 001 00 00         : DEPTH        - DEPTH                       
CALI.MM       00 280 01 00         : CAL          - CALIPER                     
DELT.US/F     00 520 00 00         : DELT         - SONIC TRAVEL TIME           
GR  .API      00 310 00 00         : GR           - GAMMA RAY                   
ILD .OHMM     00 120 00 00         : RESD         - DEEP RESISTIVITY (DIL)      
~PARAMETER INFORMATION       
#MNEM.UNIT           DATA             DESCRIPTION OF MNEMONIC
#---------         -----------     ------------------------------
GL  .M        598.902              : gl           - GROUND LEVEL ELEVATION      
EREF.M        602.346              : kb           - ELEVATION OF DEPTH REFERENCE
DATM.M        598.902              : datum        - DATUM ELEVATION             
TDD .M        509.016              : tdd          - TOTAL DEPTH DRILLER         
RUN .         ONE                  : Run          - RUN NUMBER                  
ENG .         PICKFORD             : Engineer     - RECORDING ENGINEER          
WIT .         SANDERSON            : Witness      - WITNESSED BY                
BASE.         SL                   : Branch       - HOME BASE OF LOGGING UNIT   
MUD .         GEL                  : Mud_type     - MUD TYPE                    
MATR.         SANDSTONE            : Logunit      - NEUTRON MATRIX              
TMAX.C        23.3333              : BHT          - MAXIMUM RECORDED TEMPERATURE
BHTD.M        508.711              : BHTDEP       - MAXIMUM RECORDED TEMPERATURE
RMT .C        18.3333              : MDTP         - TEMPERATURE OF MUD          
MUDD.KG/M     1092                 : MWT          - MUD DENSITY                 
NEUT.         1                    : NEUTRON      - NEUTRON TYPE                
RESI.         0                    : RESIST       - RESISTIVITY TYPE            
RM  .OHMM     2.68                 : RM           - RESISTIVITY OF MUD          
RMC .OHMM     3.44                 : RMC          - RESISTIVITY OF MUD CAKE     
RMF .OHMM     2.74                 : RMF          - RESISTIVITY OF MUD FILTRATE 
SUFT.C        5                    : SUFT         - SURFACE TEMPERATURE         
~A  DEPTH      CAL     DELT       GR     RESD
# ...
  468.000  223.201  343.716   64.431   10.456
  468.250  223.288  340.300   60.129   10.605
  468.500  224.242  334.592   61.727   10.784
  468.750  225.286  329.544   58.336   10.853
  469.000  225.699  328.198   50.580   10.746
  469.250  225.735  326.304   51.091   10.783
  469.500  224.373  318.448   56.330   11.684
  469.750  221.622  299.694   52.423   13.252
  470.000  220.912  274.504   44.596   14.893
  470.250  222.442  263.273   36.792   16.504
  470.500  224.243  270.977   32.550   15.316
  470.750  225.450  308.315   43.359   12.034
  471.000  225.170  364.175   61.818    8.940
  471.250  222.777  388.459   77.497    6.891
  471.500  222.087  414.946   88.299    5.649
  471.750  224.158  420.583   91.764    5.302
  472.000  226.354  413.447   77.470    5.334
  472.250  224.247  423.402   69.112    5.548
  472.500  224.013  421.696   71.374    6.141
  472.750  225.069  399.578   82.031    7.130
  473.000  225.602  381.793   80.747    8.097
  473.250  225.670  369.216   77.685    8.772
  473.500  225.648  370.003   82.832    8.897
  473.750  225.757  378.673   88.435    8.277
  474.000  226.507  385.692   91.837    7.506
  474.250  227.516  391.736   96.359    6.996
  474.500  227.396  390.466   93.946    6.840
  474.750  226.413  376.542   85.158    7.395
  475.000  225.288  364.625   68.820    9.585
  475.250  224.624  360.456   57.558   13.212
  475.500  225.978  366.660   51.930   19.993
  475.750  227.238  370.033   52.243   27.685
  476.000  227.864  365.398   55.705   29.412
  476.250  226.514  362.413   56.728   28.762
  476.500  226.469  359.333   56.216   27.325
  476.750  227.253  356.410   58.122   26.448
  477.000  227.603  356.700   58.475   25.206
  477.250  226.137  358.608   56.221   23.721
  477.500  222.567  359.472   56.183   21.854
  477.750  222.726  356.215   58.893   20.384
  478.000  224.819  335.472   59.003   21.682
  478.250  225.413  286.890   52.605   23.465
  478.500  225.521  261.661   45.911   26.261
  478.750  227.798  246.654   39.926   30.428
  479.000  225.382  223.569   35.109   35.171
  479.250  221.773  205.165   32.315   38.196
  479.500  222.261  199.955   32.952   35.786
  479.750  225.363  197.358   28.703   29.227
  480.000  226.846  226.094   25.701   22.125
  480.250  224.291  253.479   25.699   17.015
  480.500  221.562  301.622   33.799   14.815
  480.750  220.140  335.190   48.616   13.070
  481.000  219.564  354.532   62.518   12.010
  481.250  219.454  363.351   67.357   11.194
  481.500  219.457  368.923   68.410   10.373
  481.750  220.458  374.462   68.125    9.714
  482.000  223.441  373.397   64.259    9.513
  482.250  226.042  369.896   61.122    9.725
  482.500  226.754  370.201   64.649   10.502
  482.750  224.845  363.468   68.884   12.758
  483.000  222.215  366.032   67.046   16.725
  483.250  221.024  369.953   62.440   19.718
  483.500  224.743  368.163   60.304   20.024
  483.750  226.656  365.053   68.514   16.295
  484.000  225.819  365.837   80.483   12.525
  484.250  225.630  371.766   91.659   10.009
  484.500  225.419  377.918  101.352    8.559
  484.750  225.514  384.051  102.462    7.579
  485.000  225.816  390.924   94.541    7.470
  485.250  226.658  382.552   85.891    8.461
  485.500  226.878  375.788   81.779    9.702
  485.750  226.551  368.560   76.465   10.764
  486.000  226.290  360.009   67.794   11.839
  486.250  226.095  363.724   60.421   12.832
  486.500  225.266  360.355   65.677   12.931
  486.750  224.419  355.908   73.559   11.712
  487.000  226.032  354.852   80.204   10.547
  487.250  225.835  353.121   84.318    9.368
  487.500  224.749  368.023   86.901    8.392
  487.750  226.763  387.662   92.328    7.649
  488.000  226.347  400.961   99.096    7.006
  488.250  226.878  403.450  101.367    6.471
  488.500  228.413  380.366   95.151    6.446
  488.750  226.663  362.780   78.433    7.355
  489.000  223.858  346.528   61.607    8.935
  489.250  224.161  352.318   52.907   10.572
  489.500  226.023  361.941   46.620   12.424
  489.750  227.154  367.082   48.170   13.797
  490.000  226.772  369.130   48.904   14.530
  490.250  226.340  371.661   46.845   14.501
  490.500  224.697  375.057   47.231   13.417
  490.750  222.594  383.278   51.484   12.411
  491.000  221.524  364.178   56.590   11.172
  491.250  221.899  366.268   60.244   10.168
  491.500  222.325  364.043   60.084    9.482
  491.750  222.636  358.989   57.934    8.908
  492.000  223.174  355.642   59.861    8.362
  492.250  224.027  354.471   65.297    7.787
  492.500  223.532  346.390   71.207    7.347
  492.750  222.063  342.243   77.244    6.878
  493.000  222.650  338.051   85.034    6.477
  493.250  227.730  336.753   91.799    6.126
  493.500  229.239  326.534   96.197    5.756
  493.750  226.592  321.030   92.310    5.496
  494.000  222.852  320.460   85.480    5.336
  494.250  223.385  319.140   79.017    5.330
  494.500  227.605  320.117   79.675    5.373
  494.750  227.893  310.459   78.799    5.339
  495.000  227.618  305.536   80.326    5.279
  495.250  226.762  303.909   85.410    5.157
  495.500  225.652  305.644   87.558    5.225
  495.750  225.929  309.731   89.815    5.273
  496.000  227.928  318.460   91.575    5.252
  496.250  227.862  325.516   92.769    5.205
  496.500  226.668  332.170   94.510    5.150
  496.750  225.853  336.042   95.952    5.164
  497.000  224.592  333.455   94.608    5.304
  497.250  222.944  331.894   88.130    5.273
  497.500  223.205  330.349   81.312    5.216
  497.750  223.908  335.813   73.538    5.148
  498.000  224.346  352.941   72.323    5.174
  498.250  223.620  351.743   78.254    5.221
  498.500  224.444  349.235   88.196    5.219
  498.750  227.275  348.203   93.060    5.198
  499.000  226.909  344.263   95.479    5.192
  499.250  225.349  347.985  120.197    5.299
  499.500  226.148  344.313  135.691    5.338
  499.750  224.706  340.938  134.466    5.695
  500.000  222.520  340.893  123.046    6.290
  500.250  221.226  342.192   98.946    6.847
  500.500  221.234  342.007   71.778    7.372
  500.750  220.865  348.336   48.056    7.885
  501.000  220.773  355.590   25.374    8.185
  501.250  220.835  362.506   13.818    7.797
  501.500  220.519  369.881    6.057    7.286
  501.750  220.357  377.264    2.269    6.761
  502.000  220.187  382.774    3.036    6.437
  502.250  220.088  387.298    3.567    6.220
  502.500  220.116  382.855    3.948    5.895
  502.750  219.722  357.056    5.291    5.394
  503.000  219.391  337.020    3.986    5.250
  503.250  221.349  326.324    3.959    5.762
  503.500  222.248  312.165    4.897    6.238
  503.750  222.125  344.590    4.537    6.676
  504.000  225.109  367.115    4.396    6.957
  504.250  223.736  296.961    3.062    7.090
  504.500  221.073  345.374    2.386    7.019
  504.750  221.766  383.329    4.213    6.685
  505.000  222.916  373.603    4.440    5.845
  505.250  223.547  373.633    4.617    4.933
  505.500  224.226  360.050    3.069    4.221
  505.750  224.600  362.921    4.127    4.082
  506.000  224.698  387.039    5.021    4.217
  506.250  224.669  408.945    2.668    4.612
  506.500  224.116  364.077    3.379    5.323
  506.750  223.413  291.081    4.506    5.440
  507.000  223.175  261.080    3.071    5.371
  507.250  223.007  264.604    4.569    5.315
  507.500  222.686  266.498    5.912    5.281
  507.750  218.186  264.596    3.818    5.287
  508.000  211.310  265.890    1.458    5.263
  508.250  206.812  265.523    0.784    5.306
  508.500  205.736  263.605    0.865    5.287
  508.750  205.701  264.321    0.830    5.205
  509.000  205.701  264.322    0.830    5.205
