~VERSION INFORMATION
 VERS.                 2.0:   CWLS LOG ASCII STANDARD -VERSION 2.0
 WRAP.                  NO:   ONE LINE PER DEPTH STEP
~WELL INFORMATION BLOCK
#MNEM.UNIT           DATA                    DESCRIPTION OF MNEMONIC
#---------    -------------------            -------------------------------
# Generated from Intellog Unique Number	CS_77_79/WELL/919
WELL.         NOVALTA WINEFRED               : Well_name    - WELL
LOC .         00/08-17-078-03W4/0            : Location     - LOCATION
UWI .         00/08-17-078-03W4/0            : Uwi          - UNIQUE WELL ID
ENTR.         JHS                            : Entered      - ENTERED BY
SRVC.         SCHLUMBERGER                   : Scn          - SERVICE COMPANY
STRT.M        150                            : top_depth    - START DEPTH
STOP.M        430                            : bot_depth    - STOP DEPTH
STEP.M        0.25                           : increment    - STEP LENGTH
 NULL. -999.2500:NULL Value
~CURVE INFORMATION BLOCK
#MNEM UNIT       ERCB CURVE CODE    CURVE DESCRIPTION
#-----------   ------------------   ----------------------------------
DEPT.M        00 001 00 00         : DEPTH        - DEPTH
DPHI.V/V      00 890 00 00         : PHID         - DENSITY POROSITY (LIMESTONE)
NPHI.V/V      00 330 00 00         : PHIN         - NEUTRON POROSITY (LIMESTONE)
GR  .API      00 310 00 00         : GR           - GAMMA RAY
ILD .OHMM     00 120 00 00         : RESD         - DEEP RESISTIVITY (DIL)
RHOB.KG/M3    00 350 00 00         : DENS         - BULK DENSITY
~PARAMETER INFORMATION
#MNEM.UNIT           DATA             DESCRIPTION OF MNEMONIC
#---------         -----------     ------------------------------
GL  .M        567                  : gl           - GROUND LEVEL ELEVATION
EREF.M        570                  : kb           - ELEVATION OF DEPTH REFERENCE
DATM.M        570                  : datum        - DATUM ELEVATION
TDD .M        428                  : tdd          - TOTAL DEPTH DRILLER
RUN .         ONE                  : Run          - RUN NUMBER
ENG .         BILL                 : Engineer     - RECORDING ENGINEER
WIT .         JIM                  : Witness      - WITNESSED BY
MUD .         GEL                  : Mud_type     - MUD TYPE
MATR.         LIMESTONE            : Logunit      - NEUTRON MATRIX
TMAX.C        25                   : BHT          - MAXIMUM RECORDED TEMPERATURE
BHTD.M        428                  : BHTDEP       - MAXIMUM RECORDED TEMPERATURE
MATR.         1                    : LOGUNIT      - NEUTRON MATRIX
RMT .C        25                   : MDTP         - TEMPERATURE OF MUD
NEUT.         1                    : NEUTRON      - NEUTRON TYPE
RESI.         0                    : RESIST       - RESISTIVITY TYPE
RMC .OHMM     0.25                 : RMC          - RESISTIVITY OF MUD CAKE
RMF .OHMM     0.25                 : RMF          - RESISTIVITY OF MUD FILTRATE
SUFT.C        15                   : SUFT         - SURFACE TEMPERATURE
~A  DEPTH     PHID     PHIN       GR     RESD     DENS
# ...
  223.000    0.263    0.412   73.948   23.030    0.000
  223.250    0.281    0.397   61.782   25.554    0.000
  223.500    0.282    0.386   55.693   27.205    0.000
  223.750    0.265    0.368   53.850   28.387    0.000
  224.000    0.274    0.399   56.867   29.002    0.000
  224.250    0.300    0.421   59.886   28.440    0.000
  224.500    0.315    0.411   59.864   27.891    0.000
  224.750    0.320    0.398   59.840   27.920    0.000
  225.000    0.317    0.395   65.290   26.825    0.000
  225.250    0.301    0.405   69.525   26.842    0.000
  225.500    0.290    0.408   65.252   26.878    0.000
  225.750    0.289    0.410   56.733   26.906    0.000
  226.000    0.298    0.389   58.536   26.380    0.000
  226.250    0.338    0.379   63.373   25.868    0.000
  226.500    0.394    0.455   62.142   24.347    0.000
  226.750    0.378    0.478   59.694   22.455    0.000
  227.000    0.271    0.394   62.102   21.132    0.000
  227.250    0.254    0.347   60.865   19.480    0.000
  227.500    0.270    0.352   60.243   17.963    0.000
  227.750    0.276    0.355   64.475   16.559    0.000
  228.000    0.282    0.418   72.957   14.957    0.000
  228.250    0.293    0.461   75.365   15.283    0.000
  228.500    0.306    0.407   56.521   16.611    0.000
  228.750    0.325    0.365   44.360   19.206    0.000
  229.000    0.348    0.352   35.841   21.302    0.000
  229.250    0.355    0.354   35.815   24.127    0.000
  229.500    0.359    0.359   39.442   26.214    0.000
  229.750    0.361    0.364   42.458   27.914    0.000
  230.000    0.365    0.368   41.229   28.521    0.000
  230.250    0.369    0.370   38.168   27.974    0.000
  230.500    0.365    0.366   37.546   27.999    0.000
  230.750    0.363    0.378   37.529   27.457    0.000
  231.000    0.364    0.391   41.760   26.928    0.000
  231.250    0.375    0.386   44.166   26.960    0.000
  231.500    0.380    0.376   43.538   26.446    0.000
  231.750    0.369    0.370   42.916   26.460    0.000
  232.000    0.365    0.374   42.284   26.490    0.000
  232.250    0.367    0.385   42.265   26.513    0.000
  232.500    0.370    0.392   42.856   26.546    0.000
  232.750    0.373    0.393   43.446   26.576    0.000
  233.000    0.370    0.381   44.642   26.065    0.000
  233.250    0.364    0.374   40.368   26.082    0.000
  233.500    0.363    0.366   42.780   25.575    0.000
  233.750    0.367    0.369   47.619   25.602    0.000
  234.000    0.375    0.392   50.637   25.109    0.000
  234.250    0.377    0.383   53.654   24.626    0.000
  234.500    0.369    0.377   52.416   24.156    0.000
  234.750    0.356    0.375   51.184   24.169    0.000
  235.000    0.353    0.384   53.596   24.195    0.000
  235.250    0.354    0.407   57.828   24.227    0.000
  235.500    0.360    0.414   52.947   24.248    0.000
  235.750    0.367    0.400   47.468   23.775    0.000
  236.000    0.374    0.391   42.591   23.802    0.000
  236.250    0.376    0.389   45.608   23.824    0.000
  236.500    0.372    0.382   45.585   23.852    0.000
  236.750    0.371    0.374   43.749   23.881    0.000
  237.000    0.373    0.371   41.899   23.419    0.000
  237.250    0.376    0.372   42.494   22.970    0.000
  237.500    0.373    0.373   44.298   22.994    0.000
  237.750    0.366    0.376   46.100   22.543    0.000
  238.000    0.358    0.365   41.831   22.110    0.000
  238.250    0.351    0.359   40.596   22.124    0.000
  238.500    0.348    0.358   46.651   21.266    0.000
  238.750    0.355    0.381   46.021   21.276    0.000
  239.000    0.360    0.394   44.177   20.873    0.000
  239.250    0.363    0.409   44.767   20.467    0.000
  239.500    0.360    0.365   46.570   20.489    0.000
  239.750    0.362    0.353   49.589   20.506    0.000
  240.000    0.366    0.370   53.210   20.526    0.000
  240.250    0.371    0.393   58.656   19.318    0.000
  240.500    0.286    0.385   64.712   16.748    0.000
  240.750    0.252    0.397   95.054   14.518    0.000
  241.000    0.235    0.424  104.747   11.355    0.000
  241.250    0.235    0.421  105.336    9.067    0.000
  241.500    0.238    0.420  104.709    8.359    0.000
  241.750    0.235    0.429  102.262    7.709    0.000
  242.000    0.243    0.444   96.778    7.404    0.000
  242.250    0.250    0.457   91.293    6.968    0.000
  242.500    0.248    0.462   97.345    6.425    0.000
  242.750    0.243    0.480  102.187    6.300    0.000
  243.000    0.257    0.509   91.237    7.136    0.000
  243.250    0.280    0.439   76.039    8.079    0.000
  243.500    0.320    0.408   60.233   10.143    0.000
  243.750    0.347    0.406   53.534   12.217    0.000
  244.000    0.361    0.403   52.298   13.835    0.000
  244.250    0.362    0.396   52.879   15.347    0.000
  244.500    0.357    0.386   54.685   15.681    0.000
  244.750    0.349    0.382   56.494   14.758    0.000
  245.000    0.339    0.386   58.901   14.176    0.000
  245.250    0.326    0.373   60.095   13.905    0.000
  245.500    0.327    0.366   60.079   14.206    0.000
  245.750    0.329    0.378   61.882   14.518    0.000
  246.000    0.325    0.400   64.895   14.833    0.000
  246.250    0.324    0.417   65.481   15.159    0.000
  246.500    0.334    0.412   65.463   15.175    0.000
  246.750    0.343    0.406   66.659   13.990    0.000
  247.000    0.294    0.401   75.142   11.401    0.000
  247.250    0.253    0.405   95.162    9.294    0.000
  247.500    0.237    0.428  101.214    8.393    0.000
  247.750    0.239    0.445   99.983    7.582    0.000
  248.000    0.243    0.443   96.320    6.990    0.000
  248.250    0.247    0.429  102.980    6.316    0.000
  248.500    0.251    0.425  115.708    6.066    0.000
  248.750    0.244    0.451  115.086    5.949    0.000
  249.000    0.246    0.454  104.742    6.205    0.000
  249.250    0.256    0.442   97.438    6.474    0.000
  249.500    0.259    0.434   95.595    6.749    0.000
  249.750    0.253    0.422  100.434    7.335    0.000
  250.000    0.243    0.414   99.810    7.972    0.000
  250.250    0.246    0.411   96.144    8.490    0.000
  250.500    0.257    0.427   93.696    8.679    0.000
  250.750    0.250    0.432   89.430    8.684    0.000
  251.000    0.237    0.422   87.587    8.515    0.000
  251.250    0.229    0.426   91.213    8.523    0.000
  251.500    0.240    0.450   89.975    8.892    0.000
  251.750    0.269    0.442   86.920    9.275    0.000
  252.000    0.278    0.427   84.474    9.673    0.000
  252.250    0.267    0.413   81.421   10.733    0.000
  252.500    0.253    0.410   84.438   11.424    0.000
  252.750    0.239    0.421   88.060   11.437    0.000
  253.000    0.237    0.431   90.471   10.763    0.000
  253.250    0.248    0.427   86.201   10.340    0.000
  253.500    0.265    0.430   77.681   10.566    0.000
  253.750    0.280    0.435   72.805   11.725    0.000
  254.000    0.296    0.406   73.392   13.004    0.000
  254.250    0.315    0.389   73.977   15.670    0.000
  254.500    0.331    0.406   70.926   17.384    0.000
  254.750    0.328    0.419   69.084   18.123    0.000
  255.000    0.324    0.429   73.316   19.702    0.000
  255.250    0.320    0.436   73.297   19.721    0.000
  255.500    0.318    0.424   69.635   20.153    0.000
  255.750    0.323    0.411   69.009   20.183    0.000
  256.000    0.331    0.411   71.415   20.613    0.000
  256.250    0.336    0.417   67.754   20.636    0.000
  256.500    0.337    0.414   68.336   21.084    0.000
  256.750    0.328    0.407   70.147   21.539    0.000
  257.000    0.317    0.422   70.124   20.693    0.000
  257.250    0.316    0.445   68.281   19.880    0.000
  257.500    0.313    0.435   71.300   17.594    0.000
  257.750    0.299    0.419   78.569   15.571    0.000
  258.000    0.289    0.415   84.623   14.355    0.000
  258.250    0.275    0.422   88.244   12.963    0.000
  258.500    0.261    0.426   88.836   11.238    0.000
  258.750    0.253    0.427   90.024    9.543    0.000
  259.000    0.250    0.438   93.652    7.939    0.000
  259.250    0.251    0.449   98.491    7.025    0.000
