~VERSION INFORMATION
 VERS.                 2.0:   CWLS LOG ASCII STANDARD -VERSION 2.0
 WRAP.                  NO:   ONE LINE PER DEPTH STEP
~WELL INFORMATION BLOCK
#MNEM.UNIT           DATA                    DESCRIPTION OF MNEMONIC
#---------    -------------------            -------------------------------
# Generated from Intellog Unique Number	CS_71_72/WELL/689
WELL.         AEC IPIATIK                    : Well_name    - WELL
LOC .         00/05-21-071-04W4/0            : Location     - LOCATION
UWI .         00/05-21-071-04W4/0            : Uwi          - UNIQUE WELL ID
ENTR.         SP                             : Entered      - ENTERED BY
SRVC.         SCHLUMBERGER                   : Scn          - SERVICE COMPANY
STRT.M        290                            : top_depth    - START DEPTH
STOP.M        505                            : bot_depth    - STOP DEPTH
STEP.M        0.25                           : increment    - STEP LENGTH
 NULL. -999.2500:NULL Value
~CURVE INFORMATION BLOCK
#MNEM UNIT       ERCB CURVE CODE    CURVE DESCRIPTION
#-----------   ------------------   ----------------------------------
DEPT.M        00 001 00 00         : DEPTH        - DEPTH
ILD .OHMM     00 120 00 00         : RESD         - DEEP RESISTIVITY (DIL)
DPHI.V/V      00 890 00 00         : PHID         - DENSITY POROSITY (LIMESTONE)
NPHI.V/V      00 330 00 00         : PHIN         - NEUTRON POROSITY (LIMESTONE)
GR  .API      00 310 00 00         : GR           - GAMMA RAY
~PARAMETER INFORMATION
#MNEM.UNIT           DATA             DESCRIPTION OF MNEMONIC
#---------         -----------     ------------------------------
GL  .M        673.76               : gl           - GROUND LEVEL ELEVATION
EREF.M        677.96               : kb           - ELEVATION OF DEPTH REFERENCE
DATM.M        673.76               : datum        - DATUM ELEVATION
TDD .M        594                  : tdd          - TOTAL DEPTH DRILLER
RUN .         ONE                  : Run          - RUN NUMBER
ENG .         BILL                 : Engineer     - RECORDING ENGINEER
WIT .         JIM                  : Witness      - WITNESSED BY
MUD .         GEL                  : Mud_type     - MUD TYPE
MATR.         LIMESTONE            : Logunit      - NEUTRON MATRIX
TMAX.C        21                   : BHT          - MAXIMUM RECORDED TEMPERATURE
BHTD.M        594                  : BHTDEP       - MAXIMUM RECORDED TEMPERATURE
MATR.         1                    : LOGUNIT      - NEUTRON MATRIX
RMT .C        25                   : MDTP         - TEMPERATURE OF MUD
NEUT.         1                    : NEUTRON      - NEUTRON TYPE
RESI.         0                    : RESIST       - RESISTIVITY TYPE
RMC .OHMM     0.25                 : RMC          - RESISTIVITY OF MUD CAKE
RMF .OHMM     0.25                 : RMF          - RESISTIVITY OF MUD FILTRATE
SUFT.C        15                   : SUFT         - SURFACE TEMPERATURE
~A  DEPTH     RESD     PHID     PHIN       GR
# ...
  333.500    5.745    0.252    0.457   89.369
  333.750    5.685    0.257    0.476   87.753
  334.000    5.574    0.261    0.470   88.197
  334.250    5.435    0.261    0.467   88.943
  334.500    5.300    0.266    0.470   89.868
  334.750    5.225    0.275    0.476   91.582
  335.000    5.161    0.279    0.478   91.420
  335.250    5.155    0.280    0.477   90.109
  335.500    5.307    0.275    0.472   89.829
  335.750    5.349    0.271    0.464   90.452
  336.000    5.435    0.261    0.457   91.743
  336.250    5.437    0.244    0.453   95.210
  336.500    5.421    0.238    0.451   99.764
  336.750    5.375    0.249    0.449  102.447
  337.000    5.338    0.241    0.447  104.039
  337.250    5.234    0.238    0.454  105.449
  337.500    5.278    0.237    0.466  105.591
  337.750    5.410    0.251    0.479  102.465
  338.000    5.558    0.257    0.492   97.645
  338.250    5.562    0.271    0.505   94.337
  338.500    5.403    0.280    0.493   91.271
  338.750    5.327    0.282    0.463   88.628
  339.000    5.371    0.290    0.445   91.133
  339.250    5.517    0.285    0.431   92.479
  339.500    5.666    0.277    0.431   92.983
  339.750    5.788    0.267    0.435   91.913
  340.000    5.859    0.254    0.433   87.638
  340.250    5.862    0.246    0.427   83.908
  340.500    5.823    0.246    0.426   85.015
  340.750    5.656    0.243    0.433   88.544
  341.000    5.296    0.256    0.450   91.590
  341.250    5.229    0.275    0.463   91.910
  341.500    4.996    0.290    0.472   87.634
  341.750    4.870    0.306    0.476   82.936
  342.000    4.732    0.322    0.459   77.028
  342.250    4.623    0.329    0.449   71.120
  342.500    4.592    0.332    0.442   68.052
  342.750    4.620    0.336    0.448   70.675
  343.000    4.764    0.328    0.449   74.443
  343.250    4.893    0.302    0.438   77.245
  343.500    5.016    0.285    0.432   80.290
  343.750    5.095    0.273    0.429   80.793
  344.000    5.081    0.268    0.434   78.454
  344.250    5.018    0.267    0.437   74.542
  344.500    4.749    0.266    0.433   68.936
  344.750    4.227    0.304    0.428   62.724
  345.000    3.898    0.323    0.429   55.969
  345.250    3.602    0.343    0.422   52.116
  345.500    3.459    0.344    0.420   49.114
  345.750    3.305    0.350    0.439   47.861
  346.000    3.169    0.353    0.417   47.215
  346.250    3.073    0.349    0.415   46.992
  346.500    3.013    0.348    0.419   49.553
  346.750    2.977    0.350    0.413   52.054
  347.000    2.979    0.358    0.414   53.526
  347.250    2.980    0.367    0.422   54.876
  347.500    3.006    0.358    0.426   55.561
  347.750    3.007    0.350    0.421   55.337
  348.000    3.032    0.351    0.418   57.053
  348.250    3.080    0.346    0.425   59.308
  348.500    3.054    0.344    0.428   61.263
  348.750    3.079    0.344    0.427   63.704
  349.000    3.104    0.347    0.430   65.538
  349.250    3.177    0.345    0.442   67.131
  349.500    3.220    0.340    0.455   68.058
  349.750    3.279    0.334    0.453   68.439
  350.000    3.298    0.330    0.436   68.763
  350.250    3.240    0.327    0.425   69.144
  350.500    3.124    0.333    0.422   69.647
  350.750    3.013    0.333    0.434   71.545
  351.000    2.916    0.325    0.431   72.409
  351.250    3.220    0.324    0.426   73.275
  351.500    3.110    0.318    0.424   73.174
  351.750    3.124    0.305    0.432   72.951
  352.000    3.115    0.296    0.443   72.789
  352.250    2.992    0.308    0.428   72.689
  352.500    2.858    0.322    0.410   72.224
  352.750    2.787    0.314    0.406   70.912
  353.000    2.804    0.319    0.416   68.935
  353.250    2.870    0.331    0.424   70.709
  353.500    3.048    0.332    0.430   74.784
  353.750    3.231    0.327    0.423   77.284
  354.000    3.331    0.322    0.424   78.332
  354.250    3.404    0.310    0.431   78.291
  354.500    3.392    0.304    0.437   77.525
  354.750    3.148    0.307    0.438   77.057
  355.000    3.097    0.295    0.429   73.448
  355.250    2.947    0.293    0.437   54.896
  355.500    2.779    0.310    0.448   48.625
  355.750    2.644    0.325    0.408   46.285
  356.000    2.711    0.313    0.389   44.550
  356.250    3.613    0.285    0.370   43.483
  356.500    4.700    0.217    0.341   43.925
  356.750    6.090    0.157    0.235   44.308
  357.000    7.258    0.047    0.164   42.512
  357.250    6.934    0.104    0.210   43.075
  357.500    5.012    0.200    0.262   44.727
  357.750    4.013    0.286    0.305   48.075
  358.000    3.493    0.298    0.355   52.874
  358.250    2.996    0.293    0.383   57.672
  358.500    2.825    0.287    0.414   63.984
  358.750    2.733    0.287    0.439   66.725
  359.000    2.680    0.293    0.445   69.229
  359.250    2.677    0.295    0.445   70.578
  359.500    2.716    0.298    0.437   71.929
  359.750    2.742    0.300    0.439   71.460
  360.000    2.806    0.309    0.440   70.876
  360.250    2.894    0.320    0.436   69.566
  360.500    2.934    0.326    0.434   65.773
  360.750    2.924    0.305    0.444   60.532
  361.000    2.783    0.293    0.419   56.314
  361.250    2.538    0.289    0.401   51.494
  361.500    2.375    0.300    0.390   49.093
  361.750    2.265    0.307    0.391   49.598
  362.000    2.144    0.306    0.402   49.921
  362.250    2.109    0.309    0.409   49.031
  362.500    2.057    0.317    0.415   48.448
  362.750    2.005    0.325    0.412   49.555
  363.000    1.956    0.334    0.405   50.848
  363.250    1.929    0.333    0.401   51.409
  363.500    1.905    0.323    0.395   52.457
  363.750    1.917    0.317    0.396   53.142
  364.000    1.900    0.319    0.401   53.223
  364.250    1.898    0.328    0.409   51.669
  364.500    1.900    0.330    0.415   50.419
  364.750    1.887    0.329    0.417   50.498
  365.000    1.885    0.328    0.411   51.364
  365.250    1.879    0.328    0.397   54.469
  365.500    1.867    0.331    0.388   55.577
  365.750    1.868    0.335    0.385   53.722
  366.000    1.866    0.340    0.393   49.870
  366.250    1.871    0.341    0.412   52.251
  366.500    1.876    0.346    0.425   54.207
  366.750    1.889    0.355    0.436   55.495
  367.000    1.897    0.355    0.444   53.762
  367.250    1.898    0.351    0.436   50.635
  367.500    1.903    0.343    0.410   48.052
  367.750    1.908    0.337    0.405   49.705
  368.000    1.906    0.330    0.401   51.782
  368.250    1.896    0.329    0.397   52.587
  368.500    1.869    0.335    0.403   53.090
  368.750    1.847    0.326    0.404   58.013
  369.000    1.807    0.336    0.413   61.359
  369.250    1.763    0.350    0.432   62.101
  369.500    1.728    0.350    0.441   58.434
  369.750    1.688    0.348    0.442   56.156
  370.000    1.643    0.348    0.436   55.628
  370.250    1.602    0.349    0.432   56.195
  370.500    1.574    0.349    0.445   56.029
  370.750    1.563    0.343    0.455   54.597
  371.000    1.584    0.333    0.442   52.260
  371.250    1.621    0.321    0.430   52.458
  371.500    1.739    0.308    0.419   53.633
  371.750    1.829    0.295    0.407   54.493
  372.000    1.893    0.286    0.391   56.639
  372.250    1.863    0.300    0.404   58.952
  372.500    1.734    0.338    0.420   62.481
  372.750    1.632    0.353    0.428   63.585
  373.000    1.573    0.353    0.445   62.516
  373.250    1.546    0.355    0.451   59.211
  373.500    1.538    0.359    0.445   57.355
  373.750    1.536    0.357    0.436   57.191
  374.000    1.532    0.352    0.430   58.481
  374.250    1.530    0.351    0.430   56.626
  374.500    1.523    0.349    0.431   53.802
  374.750    1.519    0.350    0.439   52.795
  375.000    1.517    0.352    0.452   52.933
  375.250    1.521    0.351    0.439   54.531
  375.500    1.510    0.357    0.430   55.755
  375.750    1.500    0.351    0.427   59.044
  376.000    1.507    0.325    0.417   62.575
  376.250    1.517    0.311    0.407   67.071
  376.500    1.541    0.332    0.408   71.988
  376.750    1.571    0.350    0.433   77.207
