~VERSION INFORMATION
 VERS.                 2.0:   CWLS LOG ASCII STANDARD -VERSION 2.0
 WRAP.                  NO:   ONE LINE PER DEPTH STEP
~WELL INFORMATION BLOCK
#MNEM.UNIT           DATA                    DESCRIPTION OF MNEMONIC
#---------    -------------------            -------------------------------
# Generated from Intellog Unique Number	CC_84_87/WELL/1174
NULL.         -999.25                        : NULL_VALUE
WELL.         NOVALTA NEWBY                  : Well_name    - WELL              
LOC .         09-04-084-04W4                 : Location     - LOCATION          
UWI .         00/09-04-084-04W400            : Uwi          - UNIQUE WELL ID    
ENTR.         JHS                            : Entered      - ENTERED BY        
SRVC.         SCHLUMBERGER                   : Scn          - SERVICE COMPANY   
DATE.         09 JAN 85                      : Date         - LOG DATE
STRT.M        65                             : top_depth    - START DEPTH       
STOP.M        299.9                          : bot_depth    - STOP DEPTH        
STEP.M        0.3                            : increment    - STEP LENGTH       
~CURVE INFORMATION BLOCK
#MNEM UNIT       ERCB CURVE CODE    CURVE DESCRIPTION
#-----------   ------------------   ----------------------------------
DEPT.M        00 001 00 00         : DEPTH        - DEPTH                       
DPHI.V/V      00 890 00 00         : PHID         - DENSITY POROSITY (LIMESTONE)
NPHI.V/V      00 330 00 00         : PHIN         - NEUTRON POROSITY (LIMESTONE)
GR  .API      00 310 00 00         : GR           - GAMMA RAY                   
ILD .OHMM     00 120 00 00         : RESD         - DEEP RESISTIVITY (DIL)      
~PARAMETER INFORMATION       
#MNEM.UNIT           DATA             DESCRIPTION OF MNEMONIC
#---------         -----------     ------------------------------
GL  .M        474.5                : gl           - GROUND LEVEL ELEVATION      
EREF.M        477.5                : kb           - ELEVATION OF DEPTH REFERENCE
DATM.M        477.5                : datum        - DATUM ELEVATION             
TDD .M        308                  : tdd          - TOTAL DEPTH DRILLER         
RUN .         ONE                  : Run          - RUN NUMBER                  
ENG .         BILL                 : Engineer     - RECORDING ENGINEER          
WIT .         JIM                  : Witness      - WITNESSED BY                
MUD .         GEL                  : Mud_type     - MUD TYPE                    
MATR.         LIMESTONE            : Logunit      - NEUTRON MATRIX              
TMAX.C        21                   : BHT          - MAXIMUM RECORDED TEMPERATURE
BHTD.M        308                  : BHTDEP       - MAXIMUM RECORDED TEMPERATURE
MATR.         1                    : LOGUNIT      - NEUTRON MATRIX              
RMT .C        25                   : MDTP         - TEMPERATURE OF MUD          
NEUT.         1                    : NEUTRON      - NEUTRON TYPE                
RESI.         0                    : RESIST       - RESISTIVITY TYPE            
RMC .OHMM     0.25                 : RMC          - RESISTIVITY OF MUD CAKE     
RMF .OHMM     0.25                 : RMF          - RESISTIVITY OF MUD FILTRATE 
SUFT.C        15                   : SUFT         - SURFACE TEMPERATURE         
~A  DEPTH     PHID     PHIN       GR     RESD
# ...
  117.201    0.354    0.410   67.451    5.918
  117.501    0.365    0.427   66.859    5.916
  117.801    0.352    0.472   70.605    5.912
  118.101    0.341    0.455   70.635    5.909
  118.401    0.345    0.407   68.807    5.685
  118.701    0.337    0.407   71.933    5.368
  119.001    0.328    0.433   78.774    4.352
  119.301    0.314    0.453   91.199    3.528
  119.601    0.307    0.531  100.523    3.087
  119.901    0.314    0.527   99.317    2.752
  120.201    0.317    0.517   99.339    2.750
  120.501    0.320    0.514  103.086    2.911
  120.801    0.321    0.489  103.114    3.080
  121.101    0.316    0.473   98.183    3.451
  121.401    0.329    0.478   91.398    3.866
  121.701    0.347    0.448   83.363    4.331
  122.001    0.351    0.427   62.318    4.498
  122.301    0.332    0.418   66.066    4.852
  122.601    0.329    0.430   74.772    5.037
  122.901    0.323    0.444   81.616    5.131
  123.201    0.315    0.454   83.504    5.129
  123.501    0.306    0.457   86.013    5.125
  123.801    0.307    0.450   83.562    5.124
  124.101    0.326    0.441   74.909    5.220
  124.401    0.349    0.438   64.402    5.317
  124.701    0.345    0.422   62.569    5.416
  125.001    0.350    0.404   63.217    5.624
  125.301    0.349    0.414   60.772    5.729
  125.601    0.345    0.442   62.037    6.542
  125.901    0.332    0.411   62.062    7.760
  126.201    0.302    0.307   50.312    9.383
  126.501    0.139    0.215   44.145   13.209
  126.801    0.031    0.146   43.553   20.065
  127.101    0.000    0.127   42.346   20.834
  127.401    0.000    0.122   43.609   17.545
  127.701    0.000    0.181   47.974    8.510
  128.001    0.187    0.292   52.340    6.641
  128.301    0.353    0.365   54.230    5.593
  128.601    0.367    0.433   55.496    5.083
  128.901    0.366    0.419   54.283    4.619
  129.201    0.358    0.407   53.696    4.530
  129.501    0.351    0.415   57.439    4.703
  129.801    0.347    0.431   58.085    4.701
  130.101    0.358    0.432   56.872    4.787
  130.401    0.352    0.442   57.523    4.785
  130.701    0.353    0.453   59.408    4.784
  131.001    0.369    0.442   60.054    4.780
  131.301    0.363    0.430   58.227    4.779
  131.601    0.361    0.447   57.015    4.686
  131.901    0.361    0.431   57.671    4.596
  132.201    0.355    0.407   59.549    4.506
  132.501    0.346    0.418   62.057    4.505
  132.801    0.341    0.453   62.708    4.417
  133.101    0.345    0.460   62.114    4.416
  133.401    0.377    0.450   59.038    4.414
  133.701    0.373    0.445   55.970    4.411
  134.001    0.352    0.452   55.377    4.409
  134.301    0.347    0.444   56.026    4.491
  134.601    0.353    0.433   57.910    4.488
  134.901    0.353    0.422   59.798    4.487
  135.201    0.350    0.417   59.830    4.570
  135.501    0.353    0.415   59.853    4.568
  135.801    0.361    0.411   57.405    4.566
  136.101    0.351    0.402   55.576    4.564
  136.401    0.336    0.392   55.603    4.561
  136.701    0.349    0.406   56.246    4.560
  137.001    0.348    0.417   58.757    4.556
  137.301    0.344    0.445   62.502    4.469
  137.601    0.357    0.456   61.910    4.553
  137.901    0.358    0.430   61.320    4.549
  138.201    0.349    0.435   61.345    4.548
  138.501    0.343    0.442   58.895    4.546
  138.801    0.350    0.431   60.164    4.544
  139.101    0.346    0.443   61.429    4.541
  139.401    0.343    0.439   61.461    4.539
  139.701    0.355    0.428   62.725    4.536
  140.001    0.360    0.431   61.516    4.534
  140.301    0.351    0.429   61.539    4.532
  140.601    0.340    0.427   64.668    4.530
  140.901    0.336    0.420   66.561    4.527
  141.201    0.339    0.396   65.350    4.525
  141.501    0.351    0.399   64.132    4.523
  141.801    0.351    0.426   63.540    4.521
  142.101    0.345    0.436   62.950    4.604
  142.401    0.342    0.441   63.594    4.602
  142.701    0.349    0.440   66.106    4.601
  143.001    0.349    0.427   66.130    4.598
  143.301    0.342    0.410   64.299    4.596
  143.601    0.342    0.405   64.945    4.594
  143.901    0.338    0.420   68.076    4.591
  144.201    0.333    0.425   68.724    4.590
  144.501    0.333    0.417   68.126    4.588
  144.801    0.340    0.412   67.540    4.854
  145.101    0.338    0.420   65.703    4.852
  145.401    0.333    0.418   68.212    4.849
  145.701    0.335    0.408   68.861    4.940
  146.001    0.338    0.401   65.787    4.937
  146.301    0.335    0.431   66.437    4.842
  146.601    0.331    0.442   64.603    4.840
  146.901    0.330    0.435   65.875    4.930
  147.201    0.331    0.428   69.623    4.927
  147.501    0.330    0.420   70.269    4.832
  147.801    0.326    0.417   68.436    4.739
  148.101    0.319    0.423   69.082    4.648
  148.401    0.324    0.420   66.014    4.645
  148.701    0.326    0.397   65.421    4.470
  149.001    0.326    0.398   67.305    4.383
  149.301    0.327    0.420   71.057    4.381
  149.601    0.329    0.435   71.085    4.548
  149.901    0.322    0.445   74.206    4.633
  150.201    0.310    0.452   77.337    4.720
  150.501    0.300    0.438   76.742    4.901
  150.801    0.293    0.420   75.537    4.898
  151.101    0.302    0.427   76.182    4.896
  151.401    0.320    0.420   73.108    4.893
  151.701    0.304    0.421   74.998    4.799
  152.001    0.296    0.438   79.980    4.617
  152.301    0.312    0.438   79.390    4.528
  152.601    0.315    0.457   82.518    4.441
  152.901    0.290    0.476   92.460    4.192
  153.201    0.279    0.485   98.068    3.958
  153.501    0.275    0.505  101.193    3.666
  153.801    0.282    0.523  104.940    3.395
  154.101    0.285    0.521  108.688    3.267
  154.401    0.280    0.516  102.519    3.265
  154.701    0.288    0.507  103.789    3.141
  155.001    0.307    0.469  106.912    3.140
  155.301    0.314    0.490  104.467    3.079
  155.601    0.310    0.565  106.348    2.907
  155.901    0.305    0.556  110.712    2.693
  156.201    0.312    0.544  114.461    2.447
  156.501    0.312    0.543  112.009    2.446
  156.801    0.305    0.544  105.222    2.539
  157.101    0.297    0.541  105.251    2.687
  157.401    0.290    0.544  109.618    2.790
  157.701    0.278    0.537  110.262    2.897
  158.001    0.282    0.526  110.291    3.246
  158.301    0.284    0.490  110.319    3.777
  158.601    0.260    0.462  107.249    4.396
  158.901    0.212    0.405  102.317    5.216
  159.201    0.224    0.414   96.769    5.733
  159.501    0.266    0.452   96.176    5.952
  159.801    0.269    0.458   99.303    5.950
  160.101    0.275    0.444   98.713    6.061
  160.401    0.288    0.430   96.256    6.174
  160.701    0.295    0.433   91.950    6.290
  161.001    0.290    0.455   93.221    6.530
  161.301    0.279    0.450   93.241    6.911
  161.601    0.283    0.444   92.029    7.597
  161.901    0.263    0.430   85.858    8.675
  162.201    0.258    0.431   82.788    9.719
  162.501    0.256    0.437   80.962   10.091
  162.801    0.266    0.445   81.606    9.526
  163.101    0.312    0.466   87.210    7.157
  163.401    0.307    0.476   94.059    6.504
  163.701    0.290    0.467   96.564    6.378
  164.001    0.267    0.432   94.111    6.623
  164.301    0.254    0.415   94.140    7.280
  164.601    0.236    0.422   96.649    8.156
  164.901    0.260    0.413  102.252    8.798
  165.201    0.237    0.407  101.040    8.792
  165.501    0.252    0.426   95.495    8.301
  165.801    0.287    0.432   95.520    7.402
  166.101    0.283    0.442   97.407    6.856
  166.401    0.272    0.453   99.914    6.350
  166.701    0.258    0.446  107.380    6.227
  167.001    0.251    0.427  106.168    5.991
  167.301    0.264    0.439  100.617    5.764
  167.601    0.284    0.426   97.548    5.653
  167.901    0.286    0.439   98.192    5.544
  168.201    0.280    0.471   99.465    5.541
  168.501    0.287    0.478  104.453    5.133
  168.801    0.294    0.481  108.194    4.577
  169.101    0.280    0.482  107.603    3.928
