~VERSION INFORMATION
 VERS.                 2.0:   CWLS LOG ASCII STANDARD -VERSION 2.0
 WRAP.                  NO:   ONE LINE PER DEPTH STEP
~WELL INFORMATION BLOCK
#MNEM.UNIT           DATA                    DESCRIPTION OF MNEMONIC
#---------    -------------------            -------------------------------
# Generated from Intellog Unique Number	CS_73_76/WELL/2391
WELL.         ALLIED ROXANA MINERALS LT      : Well_name    - WELL
LOC .         00/07-25-075-16W4/0            : Location     - LOCATION
UWI .         00/07-25-075-16W4/0            : Uwi          - UNIQUE WELL ID
ENTR.         SP                             : Entered      - ENTERED BY
SRVC.         SCHLUMBERGER                   : Scn          - SERVICE COMPANY
STRT.M        371.856                        : top_depth    - START DEPTH
STOP.M        581.856                        : bot_depth    - STOP DEPTH
STEP.M        0.25                           : increment    - STEP LENGTH
 NULL. -999.2500:NULL Value
~CURVE INFORMATION BLOCK
#MNEM UNIT       ERCB CURVE CODE    CURVE DESCRIPTION
#-----------   ------------------   ----------------------------------
DEPT.M        00 001 00 00         : DEPTH        - DEPTH
GR  .API      00 310 00 00         : GR           - GAMMA RAY
DPHI.V/V      00 890 00 00         : PHID         - DENSITY POROSITY (SANDSTONE)
NPHI.V/V      00 330 00 00         : PHIN         - NEUTRON POROSITY (SANDSTONE)
ILD .OHMM     00 120 00 00         : RESD         - DEEP RESISTIVITY (DIL)
~PARAMETER INFORMATION
#MNEM.UNIT           DATA             DESCRIPTION OF MNEMONIC
#---------         -----------     ------------------------------
GL  .M        742.493              : gl           - GROUND LEVEL ELEVATION
EREF.M        745.541              : kb           - ELEVATION OF DEPTH REFERENCE
DATM.M        742.493              : datum        - DATUM ELEVATION
TDD .M        600.456              : tdd          - TOTAL DEPTH DRILLER
RUN .         ONE                  : Run          - RUN NUMBER
ENG .         BILL                 : Engineer     - RECORDING ENGINEER
WIT .         JIM                  : Witness      - WITNESSED BY
MUD .         GEL                  : Mud_type     - MUD TYPE
MATR.         SANDSTONE            : Logunit      - NEUTRON MATRIX
TMAX.C        10.5556              : BHT          - MAXIMUM RECORDED TEMPERATURE
BHTD.M        448.056              : BHTDEP       - MAXIMUM RECORDED TEMPERATURE
MATR.         1                    : LOGUNIT      - NEUTRON MATRIX
RMT .C        25                   : MDTP         - TEMPERATURE OF MUD
NEUT.         1                    : NEUTRON      - NEUTRON TYPE
RESI.         0                    : RESIST       - RESISTIVITY TYPE
RMC .OHMM     0.25                 : RMC          - RESISTIVITY OF MUD CAKE
RMF .OHMM     0.25                 : RMF          - RESISTIVITY OF MUD FILTRATE
SUFT.C        15                   : SUFT         - SURFACE TEMPERATURE
~A  DEPTH       GR     PHID     PHIN     RESD
# ...
  415.356   90.064    0.264    0.440    6.813
  415.606   91.826    0.257    0.439    6.983
  415.856   94.092    0.256    0.450    7.068
  416.106   94.903    0.254    0.466    6.949
  416.356   93.447    0.257    0.482    6.819
  416.606   93.096    0.264    0.492    6.632
  416.856   95.099    0.260    0.500    6.443
  417.106   97.525    0.247    0.504    6.184
  417.356   97.416    0.239    0.504    6.014
  417.606   93.316    0.220    0.497    5.865
  417.856   84.179    0.243    0.508    6.069
  418.106   76.189    0.263    0.517    6.519
  418.356   67.410    0.296    0.473    7.198
  418.606   58.265    0.293    0.444    8.461
  418.856   51.346    0.305    0.423    9.514
  419.106   48.966    0.314    0.430   10.253
  419.356   47.891    0.321    0.433   10.491
  419.606   48.587    0.311    0.427   10.464
  419.856   49.563    0.307    0.431   10.325
  420.106   49.577    0.319    0.429   10.154
  420.356   49.665    0.316    0.436    9.899
  420.606   50.679    0.307    0.447    9.773
  420.856   51.349    0.331    0.447    9.634
  421.106   52.003    0.335    0.438    9.595
  421.356   51.945    0.317    0.446    9.520
  421.606   51.947    0.308    0.460    9.523
  421.856   51.944    0.310    0.458    9.523
  422.106   51.940    0.314    0.446    9.522
  422.356   51.935    0.322    0.443    9.517
  422.606   51.931    0.332    0.453    9.602
  422.856   51.937    0.333    0.458    9.591
  423.106   52.006    0.327    0.455    9.684
  423.356   53.634    0.331    0.441    9.756
  423.606   54.654    0.337    0.432    9.795
  423.856   54.729    0.333    0.432    9.926
  424.106   53.145    0.330    0.445    9.913
  424.356   53.129    0.330    0.445   10.007
  424.606   53.165    0.325    0.435    9.997
  424.856   53.246    0.331    0.432   10.062
  425.106   53.085    0.326    0.436   10.076
  425.356   53.728    0.331    0.436   10.078
  425.606   55.266    0.333    0.426   10.075
  425.856   56.962    0.325    0.422   10.053
  426.106   57.284    0.326    0.421    9.999
  426.356   56.229    0.334    0.423    9.909
  426.606   55.950    0.339    0.429    9.903
  426.856   55.447    0.333    0.437    9.769
  427.106   55.494    0.326    0.436    9.689
  427.356   54.721    0.337    0.431    9.508
  427.606   54.279    0.350    0.430    9.460
  427.856   53.564    0.356    0.431    9.354
  428.106   53.608    0.352    0.433    9.360
  428.356   52.558    0.348    0.433    9.298
  428.606   52.612    0.340    0.433    9.281
  428.856   53.628    0.332    0.431    9.279
  429.106   54.206    0.331    0.441    9.225
  429.356   55.002    0.342    0.447    9.200
  429.606   55.970    0.340    0.451    9.201
  429.856   57.010    0.341    0.451    9.071
  430.106   57.274    0.343    0.461    8.939
  430.356   58.304    0.343    0.468    8.882
  430.606   59.043    0.345    0.468    8.760
  430.856   58.989    0.345    0.450    8.638
  431.106   59.042    0.348    0.441    8.575
  431.356   58.317    0.358    0.436    8.554
  431.606   58.377    0.357    0.451    8.640
  431.856   58.378    0.355    0.450    8.699
  432.106   58.399    0.345    0.437    8.762
  432.356   57.791    0.334    0.432    8.952
  432.606   57.194    0.311    0.431    9.296
  432.856   56.533    0.276    0.414    9.660
  433.106   55.978    0.241    0.397    9.975
  433.356   56.913    0.247    0.387   10.211
  433.606   57.938    0.318    0.437   10.124
  433.856   59.384    0.326    0.442    9.929
  434.106   60.798    0.342    0.441    9.672
  434.356   61.370    0.357    0.446    9.505
  434.606   60.968    0.355    0.452    9.435
  434.856   59.271    0.341    0.456    9.508
  435.106   57.700    0.331    0.458    9.834
  435.356   56.072    0.335    0.461   10.183
  435.606   54.971    0.326    0.468   10.456
  435.856   53.537    0.330    0.470   10.781
  436.106   52.551    0.347    0.466   10.964
  436.356   51.559    0.341    0.461   11.018
  436.606   50.618    0.333    0.458   11.097
  436.856   48.881    0.346    0.464   11.103
  437.106   48.692    0.348    0.477   11.105
  437.356   48.638    0.335    0.477   11.105
  437.606   49.591    0.335    0.473   11.104
  437.856   49.885    0.339    0.469   11.104
  438.106   50.937    0.344    0.457   11.104
  438.356   50.952    0.356    0.443   11.104
  438.606   49.269    0.348    0.433   11.104
  438.856   48.990    0.336    0.436   11.103
  439.106   47.092    0.325    0.444   11.103
  439.356   45.727    0.316    0.446   11.103
  439.606   44.058    0.318    0.447   11.101
  439.856   43.131    0.323    0.464   11.094
  440.106   42.097    0.331    0.472   10.951
  440.356   41.980    0.332    0.468   10.942
  440.606   42.642    0.322    0.458   10.937
  440.856   43.080    0.325    0.454   10.867
  441.106   43.238    0.331    0.460   10.780
  441.356   42.599    0.307    0.451   10.702
  441.606   41.192    0.317    0.450   10.753
  441.856   40.004    0.324    0.455   10.890
  442.106   39.597    0.287    0.436   11.397
  442.356   39.951    0.245    0.398   11.982
  442.606   40.182    0.195    0.347   12.317
  442.856   40.144    0.169    0.423   12.377
  443.106   40.835    0.236    0.448   12.140
  443.356   40.762    0.305    0.463   11.687
  443.606   41.262    0.330    0.457   11.149
  443.856   41.350    0.345    0.448   10.637
  444.106   41.359    0.333    0.451   10.211
  444.356   41.422    0.328    0.450    9.953
  444.606   40.691    0.336    0.450    9.710
  444.856   40.750    0.347    0.458    9.586
  445.106   40.678    0.345    0.462    9.455
  445.356   41.377    0.350    0.463    9.324
  445.606   41.864    0.350    0.458    9.193
  445.856   42.549    0.342    0.450    9.062
  446.106   42.390    0.350    0.446    8.931
  446.356   40.282    0.355    0.447    8.802
  446.606   39.217    0.358    0.449    8.706
  446.856   38.967    0.351    0.456    8.616
  447.106   39.909    0.350    0.466    8.542
  447.356   41.622    0.356    0.479    8.515
  447.606   42.537    0.350    0.484    8.466
  447.856   44.144    0.348    0.479    8.381
  448.106   45.101    0.343    0.477    8.385
  448.356   46.043    0.341    0.470    8.389
  448.606   47.331    0.359    0.458    8.300
  448.856   48.066    0.377    0.449    8.307
  449.106   48.488    0.353    0.445    8.305
  449.356   48.481    0.360    0.457    8.265
  449.606   48.489    0.355    0.469    8.228
  449.856   47.963    0.358    0.473    8.226
  450.106   47.824    0.367    0.472    8.224
  450.356   48.486    0.361    0.470    8.222
  450.606   48.381    0.360    0.478    8.141
  450.856   49.106    0.364    0.488    8.145
  451.106   49.044    0.371    0.490    8.146
  451.356   49.455    0.374    0.484    8.145
  451.606   49.774    0.372    0.479    8.145
  451.856   50.213    0.374    0.478    8.145
  452.106   50.820    0.377    0.471    8.145
  452.356   51.459    0.373    0.465    8.146
  452.606   51.897    0.378    0.458    8.138
  452.856   52.865    0.382    0.477    8.226
  453.106   54.602    0.378    0.479    8.313
  453.356   57.560    0.371    0.481    8.504
  453.606   60.297    0.363    0.488    8.620
  453.856   62.873    0.357    0.498    8.704
  454.106   65.722    0.369    0.482    8.640
  454.356   69.144    0.364    0.492    8.596
  454.606   69.959    0.345    0.499    8.617
  454.856   71.055    0.319    0.497    8.736
  455.106   70.511    0.304    0.491    9.095
  455.356   70.555    0.290    0.491    9.614
  455.606   71.781    0.279    0.490   10.228
  455.856   73.852    0.281    0.482   10.740
  456.106   75.902    0.291    0.481   11.006
  456.356   77.141    0.289    0.480   10.823
  456.606   77.755    0.279    0.487   10.607
  456.856   76.889    0.288    0.493   10.472
  457.106   75.726    0.296    0.491   10.527
  457.356   71.112    0.261    0.480   11.731
  457.606   65.006    0.126    0.428   12.707
  457.856   56.729    0.040    0.352   13.827
  458.106   55.306    0.029    0.350   14.650
  458.356   62.448    0.198    0.461   14.836
  458.606   68.969    0.339    0.498   13.854
