~VERSION INFORMATION
 VERS.                 2.0:   CWLS LOG ASCII STANDARD -VERSION 2.0
 WRAP.                  NO:   ONE LINE PER DEPTH STEP
~WELL INFORMATION BLOCK
#MNEM.UNIT           DATA                    DESCRIPTION OF MNEMONIC
#---------    -------------------            -------------------------------
# Generated from Intellog Unique Number	CW_70_72/WELL/502
NULL.         -999.25                        : NULL_VALUE
WELL.         NORCEN ET AL VICTOR 05-07      : Well_name    - WELL              
LOC .         05-07-071-01W5                 : Location     - LOCATION          
UWI .         00/05-07-071-01W5/0            : Uwi          - UNIQUE WELL ID    
ENTR.         JAYE                           : Entered      - ENTERED BY        
SRVC.         COMPUTALOG                     : Scn          - SERVICE COMPANY   
DATE.         16 MAR 82                      : Date         - LOG DATE          
STRT.M        390                            : top_depth    - START DEPTH       
STOP.M        626                            : bot_depth    - STOP DEPTH        
STEP.M        0.25                           : increment    - STEP LENGTH       
~CURVE INFORMATION BLOCK
#MNEM UNIT       ERCB CURVE CODE    CURVE DESCRIPTION
#-----------   ------------------   ----------------------------------
DEPT.M        00 001 00 00         : DEPTH        - DEPTH                       
DPHI.V/V      00 890 00 00         : PHID         - DENSITY POROSITY (SANDSTONE)
NPHI.V/V      00 330 00 00         : PHIN         - NEUTRON POROSITY (SANDSTONE)
GR  .API      00 310 00 00         : GR           - GAMMA RAY                   
CALI.MM       00 280 01 00         : CAL          - CALIPER                     
ILD .OHMM     00 120 00 00         : RESD         - DEEP RESISTIVITY (DIL)      
~PARAMETER INFORMATION       
#MNEM.UNIT           DATA             DESCRIPTION OF MNEMONIC
#---------         -----------     ------------------------------
GL  .M        591.23               : gl           - GROUND LEVEL ELEVATION      
EREF.M        595.33               : kb           - ELEVATION OF DEPTH REFERENCE
DATM.M        591.23               : datum        - DATUM ELEVATION             
TDD .M        642                  : tdd          - TOTAL DEPTH DRILLER         
RUN .         ONE                  : Run          - RUN NUMBER                  
ENG .         DROMLEWICZ/MURRAY    : Engineer     - RECORDING ENGINEER          
WIT .         BOGNER               : Witness      - WITNESSED BY                
BASE.         EDM                  : Branch       - HOME BASE OF LOGGING UNIT   
MUD .         GEL CHEM             : Mud_type     - MUD TYPE                    
MATR.         SANDSTONE            : Logunit      - NEUTRON MATRIX              
TMAX.C        30                   : BHT          - MAXIMUM RECORDED TEMPERATURE
BHTD.M        643                  : BHTDEP       - MAXIMUM RECORDED TEMPERATURE
RMT .C        10                   : MDTP         - TEMPERATURE OF MUD          
MUDD.KG/M     1140                 : MWT          - MUD DENSITY                 
NEUT.         1                    : NEUTRON      - NEUTRON TYPE                
RESI.         0                    : RESIST       - RESISTIVITY TYPE            
RM  .OHMM     3.2                  : RM           - RESISTIVITY OF MUD          
RMC .OHMM     2.2                  : RMC          - RESISTIVITY OF MUD CAKE     
RMF .OHMM     1.8                  : RMF          - RESISTIVITY OF MUD FILTRATE 
SUFT.C        0                    : SUFT         - SURFACE TEMPERATURE         
~A  DEPTH     PHID     PHIN       GR      CAL     RESD
# ...
  499.500    0.195    0.331   63.218  195.317    3.874
  499.750    0.241    0.335   71.968  196.630    3.453
  500.000    0.254    0.341   82.769  194.934    3.060
  500.250    0.249    0.336   83.433  193.962    2.732
  500.500    0.240    0.319   77.252  193.929    2.458
  500.750    0.232    0.333   74.618  194.308    2.358
  501.000    0.222    0.356   76.088  194.478    2.404
  501.250    0.214    0.379   79.241  194.442    2.468
  501.500    0.207    0.396   82.890  194.302    2.511
  501.750    0.200    0.406   83.427  194.166    2.559
  502.000    0.225    0.389   76.813  193.819    2.594
  502.250    0.245    0.377   70.695  193.366    2.619
  502.500    0.252    0.377   64.513  192.187    2.669
  502.750    0.250    0.340   66.545  191.014    2.725
  503.000    0.231    0.308   66.523  190.976    2.778
  503.250    0.222    0.282   65.321  191.667    2.783
  503.500    0.228    0.274   66.418  193.499    2.757
  503.750    0.237    0.284   69.258  195.640    2.701
  504.000    0.235    0.300   73.964  196.227    2.611
  504.250    0.229    0.312   77.863  196.084    2.524
  504.500    0.220    0.325   78.960  195.632    2.472
  504.750    0.220    0.338   76.326  195.495    2.463
  505.000    0.222    0.353   75.433  194.839    2.450
  505.250    0.231    0.344   76.531  193.663    2.455
  505.500    0.238    0.325   77.565  192.072    2.418
  505.750    0.238    0.317   78.977  190.687    2.391
  506.000    0.233    0.347   81.814  189.817    2.405
  506.250    0.236    0.378   84.222  190.508    2.461
  506.500    0.238    0.370   86.936  192.339    2.527
  506.750    0.233    0.361   82.375  194.169    2.595
  507.000    0.219    0.343   77.128  195.484    2.675
  507.250    0.189    0.355   73.871  196.899    2.727
  507.500    0.202    0.402   73.975  197.796    2.763
  507.750    0.216    0.388   71.962  198.177    2.774
  508.000    0.224    0.364   72.872  198.242    2.785
  508.250    0.215    0.339   78.699  197.685    2.785
  508.500    0.214    0.339   79.423  197.027    2.786
  508.750    0.215    0.354   77.038  196.058    2.812
  509.000    0.212    0.351   74.467  195.196    2.861
  509.250    0.212    0.354   72.517  194.433    2.944
  509.500    0.214    0.325   70.564  193.879    3.017
  509.750    0.227    0.293   72.101  193.530    3.041
  510.000    0.237    0.310   77.118  193.288    3.047
  510.250    0.238    0.352   77.593  192.942    3.030
  510.500    0.228    0.376   77.324  192.699    3.019
  510.750    0.229    0.375   77.800  192.246    3.008
  511.000    0.222    0.344   79.956  191.588    3.003
  511.250    0.214    0.356   80.121  190.618    3.014
  511.500    0.210    0.373   76.926  189.758    3.061
  511.750    0.215    0.385   76.594  188.063    3.143
  512.000    0.201    0.387   77.130  185.951    3.234
  512.250    0.164    0.303   81.466  184.979    3.488
  512.500    0.076    0.254   82.998  185.566    4.144
  512.750    0.048    0.212   72.277  188.539    5.629
  513.000   -0.007    0.152   65.849  192.028    7.404
  513.250   -0.015    0.099   58.050  195.204    9.945
  513.500   -0.017    0.065   54.606  196.932   12.669
  513.750   -0.016    0.096   53.217  198.038   14.246
  514.000   -0.010    0.176   52.260  200.491   12.768
  514.250   -0.005    0.212   55.101  197.864    9.988
  514.500    0.013    0.278   63.914  191.606    7.740
  514.750    0.104    0.321   72.416  194.579    6.456
  515.000    0.147    0.321   83.094  199.831    5.396
  515.250    0.149    0.307   90.538  200.831    4.622
  515.500    0.158    0.336   92.628  200.269    4.042
  515.750    0.156    0.321   94.725  199.512    3.848
  516.000    0.158    0.299   99.370  199.369    3.990
  516.250    0.148    0.283   92.191  199.748    4.167
  516.500    0.144    0.280   84.521  200.029    4.370
  516.750    0.144    0.274   79.832  200.504    4.556
  517.000    0.147    0.266   81.054  200.676    4.539
  517.250    0.155    0.247   85.450  201.057    4.371
  517.500    0.152    0.269   89.908  201.129    4.194
  517.750    0.164    0.282   91.005  201.401    4.116
  518.000    0.159    0.284   90.175  201.674    4.187
  518.250    0.143    0.292   91.834  201.742    4.316
  518.500    0.146    0.300   90.133  201.917    4.309
  518.750    0.156    0.304   84.202  202.081    4.252
  519.000    0.163    0.291   82.750  202.467    4.181
  519.250    0.164    0.292   88.078  202.536    4.004
  519.500    0.160    0.312   95.520  202.291    3.900
  519.750    0.161    0.330   98.547  202.050    3.813
  520.000    0.157    0.353   99.023  201.904    3.770
  520.250    0.150    0.358   99.874  201.869    3.721
  520.500    0.147    0.343  101.470  202.150    3.687
  520.750    0.147    0.325  100.266  202.524    3.687
  521.000    0.159    0.310   98.253  202.803    3.695
  521.250    0.154    0.322   96.674  202.765    3.752
  521.500    0.159    0.351   92.735  202.214    3.809
  521.750    0.159    0.349   88.173  199.793    3.860
  522.000    0.151    0.355   90.018  197.268    3.935
  522.250    0.145    0.361   94.165  197.437    4.003
  522.500    0.140    0.358   99.244  198.543    4.033
  522.750    0.143    0.336  100.838  199.958    4.065
  523.000    0.136    0.313  101.564  201.782    4.088
  523.250    0.138    0.322  102.041  202.578    4.128
  523.500    0.142    0.336  102.142  202.855    4.159
  523.750    0.146    0.333  101.561  203.128    4.199
  524.000    0.117    0.315   99.051  203.095    4.264
  524.250    0.101    0.299   92.064  202.749    4.330
  524.500    0.091    0.278   84.389  202.297    4.388
  524.750    0.115    0.264   84.183  202.050    4.380
  525.000    0.136    0.278   89.759  201.917    4.348
  525.250    0.146    0.283   94.464  201.986    4.275
  525.500    0.151    0.288  100.168  202.051    4.227
  525.750    0.152    0.300  104.438  201.597    4.244
  526.000    0.144    0.308  104.230  200.841    4.342
  526.250    0.122    0.300   94.815  198.419    4.408
  526.500    0.101    0.306   86.209  196.830    4.426
  526.750    0.114    0.316   85.874  196.788    4.418
  527.000    0.132    0.334   94.003  197.582    4.402
  527.250    0.140    0.338  100.575  198.684    4.353
  527.500    0.140    0.350  104.037  199.795    4.304
  527.750    0.142    0.360  103.020  201.315    4.321
  528.000    0.138    0.362  104.990  202.727    4.396
  528.250    0.135    0.354  104.719  203.210    4.609
  528.500    0.120    0.307   98.105  203.590    4.953
  528.750    0.062    0.218   89.560  203.765    5.486
  529.000    0.062    0.205   82.322  201.342    6.042
  529.250    0.124    0.217   74.214  198.814    6.567
  529.500    0.147    0.251   82.589  196.391    7.151
  529.750    0.170    0.262   93.082  193.563    7.399
  530.000    0.162    0.273  100.587  192.799    6.965
  530.250    0.146    0.294   95.279  194.009    6.338
  530.500    0.137    0.314   91.647  196.358    5.789
  530.750    0.143    0.339   92.685  198.909    5.399
  531.000    0.144    0.354   94.403  200.328    5.170
  531.250    0.136    0.312   96.374  201.327    4.969
  531.500    0.131    0.287   98.904  201.814    4.786
  531.750    0.126    0.288   97.575  200.632    4.644
  532.000    0.135    0.303   97.863  198.630    4.523
  532.250    0.144    0.320   98.650  195.689    4.397
  532.500    0.133    0.326   99.935  197.311    4.332
  532.750    0.125    0.333  101.782  200.181    4.300
  533.000    0.130    0.319  106.238  201.908    4.349
  533.250    0.136    0.309  102.859  201.042    4.492
  533.500    0.130    0.305   97.674  200.383    4.683
  533.750    0.117    0.302   98.955  200.451    4.837
  534.000    0.106    0.299   97.567  200.829    4.976
  534.250    0.106    0.296   95.182  201.310    5.188
  534.500    0.118    0.290   95.716  201.588    5.258
  534.750    0.126    0.281   96.818  201.653    5.219
  535.000    0.127    0.270   98.476  201.929    5.113
  535.250    0.127    0.287  100.633  202.302    5.084
  535.500    0.128    0.298  102.415  202.483    5.075
  535.750    0.121    0.298  102.021  202.963    5.038
