~VERSION INFORMATION
 VERS.                 2.0:   CWLS LOG ASCII STANDARD -VERSION 2.0
 WRAP.                  NO:   ONE LINE PER DEPTH STEP
~WELL INFORMATION BLOCK
#MNEM.UNIT           DATA                    DESCRIPTION OF MNEMONIC
#---------    -------------------            -------------------------------
# Generated from Intellog Unique Number	CS_73_76/WELL/1044
WELL.         CANADIAN SUPERIOR OIL LTD.     : Well_name    - WELL
LOC .         00/06-20-076-14W4/0            : Location     - LOCATION
UWI .         00/06-20-076-14W4/0            : Uwi          - UNIQUE WELL ID
ENTR.         SP                             : Entered      - ENTERED BY
SRVC.         SCHLUMBERGER                   : Scn          - SERVICE COMPANY
STRT.M        315                            : top_depth    - START DEPTH
STOP.M        530                            : bot_depth    - STOP DEPTH
STEP.M        0.25                           : increment    - STEP LENGTH
 NULL. -999.2500:NULL Value
~CURVE INFORMATION BLOCK
#MNEM UNIT       ERCB CURVE CODE    CURVE DESCRIPTION
#-----------   ------------------   ----------------------------------
DEPT.M        00 001 00 00         : DEPTH        - DEPTH
DPHI.V/V      00 890 00 00         : PHID         - DENSITY POROSITY (LIMESTONE)
NPHI.V/V      00 330 00 00         : PHIN         - NEUTRON POROSITY (LIMESTONE)
GR  .API      00 310 00 00         : GR           - GAMMA RAY
ILD .OHMM     00 120 00 00         : RESD         - DEEP RESISTIVITY (DIL)
~PARAMETER INFORMATION
#MNEM.UNIT           DATA             DESCRIPTION OF MNEMONIC
#---------         -----------     ------------------------------
GL  .M        694.7                : gl           - GROUND LEVEL ELEVATION
EREF.M        698.7                : kb           - ELEVATION OF DEPTH REFERENCE
DATM.M        694.7                : datum        - DATUM ELEVATION
TDD .M        539                  : tdd          - TOTAL DEPTH DRILLER
RUN .         ONE                  : Run          - RUN NUMBER
ENG .         BILL                 : Engineer     - RECORDING ENGINEER
WIT .         JIM                  : Witness      - WITNESSED BY
MUD .         GEL                  : Mud_type     - MUD TYPE
MATR.         LIMESTONE            : Logunit      - NEUTRON MATRIX
TMAX.C        21                   : BHT          - MAXIMUM RECORDED TEMPERATURE
BHTD.M        539                  : BHTDEP       - MAXIMUM RECORDED TEMPERATURE
MATR.         1                    : LOGUNIT      - NEUTRON MATRIX
RMT .C        25                   : MDTP         - TEMPERATURE OF MUD
NEUT.         1                    : NEUTRON      - NEUTRON TYPE
RESI.         0                    : RESIST       - RESISTIVITY TYPE
RMC .OHMM     0.25                 : RMC          - RESISTIVITY OF MUD CAKE
RMF .OHMM     0.25                 : RMF          - RESISTIVITY OF MUD FILTRATE
SUFT.C        15                   : SUFT         - SURFACE TEMPERATURE
~A  DEPTH     PHID     PHIN       GR     RESD
# ...
  402.000    0.340    0.460   70.689   11.551
  402.250    0.346    0.465   71.310   11.556
  402.500    0.318    0.434   69.504   11.564
  402.750    0.193    0.378   65.286   11.568
  403.000    0.160    0.392   70.135   11.575
  403.250    0.183    0.414   75.589   11.368
  403.500    0.274    0.437   78.626   10.960
  403.750    0.308    0.451   75.009    9.997
  404.000    0.340    0.452   69.578    9.818
  404.250    0.335    0.427   68.378   10.194
  404.500    0.343    0.415   68.994   10.782
  404.750    0.339    0.420   70.217   10.787
  405.000    0.322    0.409   72.044   10.023
  405.250    0.295    0.429   76.289    9.312
  405.500    0.268    0.440   81.139    8.652
  405.750    0.239    0.448   82.361    7.890
  406.000    0.225    0.439   83.587    6.935
  406.250    0.219    0.435   84.806    6.444
  406.500    0.194    0.420   85.422    6.099
  406.750    0.208    0.436   85.436    5.562
  407.000    0.220    0.450   85.449    4.294
  407.250    0.239    0.468   86.064    3.377
  407.500    0.253    0.479   84.260    2.376
  407.750    0.248    0.482   80.037    1.939
  408.000    0.229    0.466   83.076    1.769
  408.250    0.231    0.473   88.532    1.613
  408.500    0.242    0.465   91.567    1.527
  408.750    0.228    0.448   90.973    1.317
  409.000    0.218    0.444   88.566    1.528
  409.250    0.232    0.455   88.577    1.946
  409.500    0.236    0.467   89.193    2.300
  409.750    0.263    0.482   89.811    3.153
  410.000    0.283    0.485   84.378    3.939
  410.250    0.265    0.480   81.366    4.743
  410.500    0.293    0.497   78.959    5.111
  410.750    0.306    0.496   75.344    5.306
  411.000    0.313    0.455   73.538    5.718
  411.250    0.313    0.424   66.898    6.759
  411.500    0.311    0.416   64.491    7.283
  411.750    0.334    0.411   67.529    7.703
  412.000    0.325    0.407   68.749    8.147
  412.250    0.310    0.417   69.971    8.303
  412.500    0.308    0.432   71.191    7.714
  412.750    0.302    0.417   70.603    7.863
  413.000    0.296    0.424   71.216    8.014
  413.250    0.305    0.435   76.672    7.176
  413.500    0.314    0.447   83.339    6.191
  413.750    0.292    0.485   90.607    5.542
  414.000    0.290    0.516   94.248    4.523
  414.250    0.291    0.546   95.470    3.243
  414.500    0.314    0.559   96.086    2.746
  414.750    0.304    0.572   96.099    2.283
  415.000    0.294    0.554   88.853    2.161
  415.250    0.313    0.554   86.444    2.162
  415.500    0.318    0.556   91.294    2.163
  415.750    0.330    0.533   91.912    2.125
  416.000    0.338    0.473   90.109    2.289
  416.250    0.308    0.441   85.887    2.560
  416.500    0.299    0.452   79.852    3.199
  416.750    0.344    0.459   75.628    3.997
  417.000    0.350    0.438   69.592    4.725
  417.250    0.338    0.429   66.581    5.283
  417.500    0.334    0.423   69.616    5.907
  417.750    0.321    0.426   71.443    6.605
  418.000    0.300    0.426   73.874    7.116
  418.250    0.288    0.430   78.119    7.526
  418.500    0.300    0.421   80.550    8.110
  418.750    0.313    0.422   76.330    8.421
  419.000    0.325    0.422   75.734    8.584
  419.250    0.333    0.428   78.167    8.275
  419.500    0.316    0.436   81.807    8.127
  419.750    0.280    0.444   82.428    7.982
  420.000    0.266    0.436   83.043    7.842
  420.250    0.247    0.425   85.473    7.701
  420.500    0.247    0.438   85.486    7.705
  420.750    0.253    0.449   86.102    7.854
  421.000    0.255    0.449   78.855    7.858
  421.250    0.226    0.372   71.004    8.008
  421.500    0.181    0.323   63.152    8.316
  421.750    0.107    0.303   72.845    8.795
  422.000    0.212    0.364   78.903    9.131
  422.250    0.250    0.409   77.706    9.138
  422.500    0.239    0.431   78.322    8.973
  422.750    0.253    0.435   76.521    8.493
  423.000    0.281    0.440   75.927    7.892
  423.250    0.294    0.446   76.546    7.608
  423.500    0.290    0.457   79.584    7.336
  423.750    0.297    0.474   82.010    7.205
  424.000    0.283    0.484   80.813    7.076
  424.250    0.289    0.472   77.800    7.080
  424.500    0.274    0.444   77.208    7.084
  424.750    0.267    0.434   77.219    6.958
  425.000    0.277    0.446   79.047    6.833
  425.250    0.289    0.455   78.455    6.838
  425.500    0.297    0.464   76.046    6.841
  425.750    0.292    0.470   74.242    7.103
  426.000    0.278    0.464   72.440    7.512
  426.250    0.275    0.445   72.454    7.946
  426.500    0.201    0.402   72.466    8.405
  426.750    0.170    0.350   72.476    8.727
  427.000    0.184    0.358   75.512    8.895
  427.250    0.198    0.372   74.314    8.900
  427.500    0.244    0.400   70.093    8.582
  427.750    0.229    0.409   66.474    8.746
  428.000    0.209    0.409   77.374    8.914
  428.250    0.255    0.417   81.016    8.756
  428.500    0.281    0.417   79.212    8.600
  428.750    0.327    0.409   75.595    8.290
  429.000    0.331    0.406   70.166    7.703
  429.250    0.332    0.402   66.546    7.567
  429.500    0.328    0.420   64.138    7.570
  429.750    0.325    0.434   62.940    7.573
  430.000    0.315    0.425   64.767    7.441
  430.250    0.313    0.409   63.571    7.444
  430.500    0.322    0.414   64.791    7.446
  430.750    0.321    0.420   65.410    7.314
  431.000    0.314    0.427   65.420    7.319
  431.250    0.328    0.421   61.198    7.189
  431.500    0.320    0.412   62.421    7.192
  431.750    0.331    0.422   64.245    7.195
  432.000    0.327    0.407   65.471    7.067
  432.250    0.323    0.399   64.270    7.072
  432.500    0.333    0.422   66.702    7.076
  432.750    0.328    0.415   69.742    7.079
  433.000    0.324    0.427   70.354    7.082
  433.250    0.316    0.428   72.787    7.086
  433.500    0.309    0.420   73.404    7.090
  433.750    0.302    0.426   72.809    7.094
  434.000    0.294    0.429   74.638    6.968
  434.250    0.273    0.439   76.465    6.972
  434.500    0.279    0.436   78.290    6.974
  434.750    0.296    0.425   79.511    6.851
  435.000    0.290    0.440   83.153    6.854
  435.250    0.285    0.445   78.325    6.731
  435.500    0.278    0.441   76.525    6.736
  435.750    0.273    0.446   76.536    6.739
  436.000    0.280    0.455   75.946    6.744
  436.250    0.269    0.437   75.955    6.747
  436.500    0.249    0.439   75.967    6.626
  436.750    0.234    0.445   79.002    6.388
  437.000    0.254    0.446   83.248    6.046
  437.250    0.263    0.469   81.453    5.414
  437.500    0.254    0.467   81.460    5.220
  437.750    0.261    0.452   81.470    5.032
  438.000    0.279    0.440   81.481    5.035
  438.250    0.256    0.427   85.729    5.038
  438.500    0.244    0.451   86.344    5.041
  438.750    0.236    0.441   88.171    5.043
  439.000    0.259    0.427   88.787    5.046
  439.250    0.249    0.416   90.613    4.956
  439.500    0.233    0.424   92.441    4.868
  439.750    0.255    0.434   88.823    4.871
  440.000    0.247    0.425   84.606    4.873
  440.250    0.236    0.440   82.798    4.967
  440.500    0.245    0.443   79.785    4.969
  440.750    0.274    0.439   78.587    5.066
  441.000    0.259    0.442   82.230    5.068
  441.250    0.248    0.431   84.661    5.262
  441.500    0.251    0.421   84.071    5.464
  441.750    0.265    0.417   83.476    5.466
  442.000    0.249    0.441   82.278    5.571
  442.250    0.262    0.455   81.683    5.679
  442.500    0.257    0.459   82.906    5.896
  442.750    0.255    0.463   85.337    6.122
  443.000    0.243    0.457   84.141    6.476
  443.250    0.218    0.448   81.126    6.724
  443.500    0.208    0.429   76.906    6.981
  443.750    0.229    0.443   75.102    7.115
  444.000    0.292    0.433   70.274    7.252
  444.250    0.334    0.420   66.657    7.256
  444.500    0.346    0.428   61.225    7.396
  444.750    0.357    0.421   57.609    7.399
  445.000    0.358    0.405   57.621    7.404
  445.250    0.295    0.394   57.632    7.408
