~VERSION INFORMATION
 VERS.                 2.0:   CWLS LOG ASCII STANDARD -VERSION 2.0
 WRAP.                  NO:   ONE LINE PER DEPTH STEP
~WELL INFORMATION BLOCK
#MNEM.UNIT           DATA                    DESCRIPTION OF MNEMONIC
#---------    -------------------            -------------------------------
# Generated from Intellog Unique Number	CS_73_76/WELL/2164
WELL.         PEX KIRBY                      : Well_name    - WELL
LOC .         00/06-15-074-08W4/0            : Location     - LOCATION
UWI .         00/06-15-074-08W4/0            : Uwi          - UNIQUE WELL ID
ENTR.         SP                             : Entered      - ENTERED BY
SRVC.         SCHLUMBERGER                   : Scn          - SERVICE COMPANY
STRT.M        305                            : top_depth    - START DEPTH
STOP.M        525                            : bot_depth    - STOP DEPTH
STEP.M        0.25                           : increment    - STEP LENGTH
 NULL. -999.2500:NULL Value
~CURVE INFORMATION BLOCK
#MNEM UNIT       ERCB CURVE CODE    CURVE DESCRIPTION
#-----------   ------------------   ----------------------------------
DEPT.M        00 001 00 00         : DEPTH        - DEPTH
ILD .OHMM     00 120 00 00         : RESD         - DEEP RESISTIVITY (DIL)
DPHI.V/V      00 890 00 00         : PHID         - DENSITY POROSITY (LIMESTONE)
NPHI.V/V      00 330 00 00         : PHIN         - NEUTRON POROSITY (LIMESTONE)
GR  .API      00 310 00 00         : GR           - GAMMA RAY
~PARAMETER INFORMATION
#MNEM.UNIT           DATA             DESCRIPTION OF MNEMONIC
#---------         -----------     ------------------------------
GL  .M        683.67               : gl           - GROUND LEVEL ELEVATION
EREF.M        686.87               : kb           - ELEVATION OF DEPTH REFERENCE
DATM.M        683.67               : datum        - DATUM ELEVATION
TDD .M        534                  : tdd          - TOTAL DEPTH DRILLER
RUN .         ONE                  : Run          - RUN NUMBER
ENG .         BILL                 : Engineer     - RECORDING ENGINEER
WIT .         JIM                  : Witness      - WITNESSED BY
MUD .         GEL                  : Mud_type     - MUD TYPE
MATR.         LIMESTONE            : Logunit      - NEUTRON MATRIX
TMAX.C        34                   : BHT          - MAXIMUM RECORDED TEMPERATURE
BHTD.M        534                  : BHTDEP       - MAXIMUM RECORDED TEMPERATURE
MATR.         1                    : LOGUNIT      - NEUTRON MATRIX
RMT .C        25                   : MDTP         - TEMPERATURE OF MUD
NEUT.         1                    : NEUTRON      - NEUTRON TYPE
RESI.         0                    : RESIST       - RESISTIVITY TYPE
RMC .OHMM     0.25                 : RMC          - RESISTIVITY OF MUD CAKE
RMF .OHMM     0.25                 : RMF          - RESISTIVITY OF MUD FILTRATE
SUFT.C        15                   : SUFT         - SURFACE TEMPERATURE
~A  DEPTH     RESD     PHID     PHIN       GR
# ...
  392.000    4.191    0.247    0.400   89.979
  392.250    4.876    0.234    0.411   91.835
  392.500    6.235    0.247    0.427   89.989
  392.750    7.118    0.260    0.420   86.908
  393.000    8.126    0.264    0.413   84.443
  393.250    8.767    0.262    0.406   81.362
  393.500    8.938    0.252    0.401   80.751
  393.750    9.110    0.234    0.396   80.753
  394.000    8.943    0.226    0.391   78.289
  394.250    8.615    0.206    0.388   75.209
  394.500    8.458    0.187    0.380   77.064
  394.750    8.460    0.206    0.374   79.540
  395.000    8.626    0.224    0.375   77.692
  395.250    8.960    0.250    0.368   75.228
  395.500    9.134    0.264    0.360   75.851
  395.750    9.669    0.243    0.368   79.561
  396.000   10.044    0.214    0.376   80.798
  396.250   10.241    0.208    0.376   82.655
  396.500    9.865    0.225    0.376   78.956
  396.750    9.325    0.228    0.376   74.640
  397.000    8.488    0.237    0.383   72.177
  397.250    7.582    0.266    0.386   72.798
  397.500    6.281    0.264    0.397   75.889
  397.750    5.610    0.232    0.411   77.746
  398.000    4.918    0.201    0.413   82.690
  398.250    4.476    0.179    0.424   85.781
  398.500    4.075    0.188    0.432   88.871
  398.750    3.926    0.199    0.433   93.816
  399.000    3.711    0.211    0.448   95.671
  399.250    3.642    0.219    0.451   96.295
  399.500    3.444    0.212    0.453   95.681
  399.750    3.445    0.222    0.471   96.921
  400.000    3.511    0.227    0.466   98.160
  400.250    3.788    0.237    0.451   97.548
  400.500    4.325    0.244    0.445   88.911
  400.750    4.578    0.242    0.437   92.620
  401.000    5.637    0.205    0.427   93.859
  401.250    6.811    0.190    0.408   92.630
  401.500    7.775    0.194    0.408   90.166
  401.750    8.548    0.207    0.389   88.318
  402.000    8.880    0.206    0.390   85.855
  402.250    9.052    0.199    0.382   87.094
  402.500    9.227    0.195    0.379   87.098
  402.750    9.407    0.197    0.385   84.017
  403.000    9.410    0.199    0.379   84.022
  403.250    9.237    0.202    0.370   82.792
  403.500    9.243    0.211    0.371   78.475
  403.750    9.422    0.211    0.381   79.717
  404.000    9.425    0.204    0.370   80.956
  404.250    9.428    0.231    0.376   81.577
  404.500    9.611    0.236    0.380   81.583
  404.750    9.613    0.224    0.363   82.821
  405.000    9.988    0.216    0.355   84.678
  405.250   10.182    0.202    0.361   84.683
  405.500   10.577    0.221    0.363   80.987
  405.750   10.783    0.229    0.366   81.606
  406.000   10.786    0.254    0.366   82.846
  406.250   10.790    0.216    0.366   84.704
  406.500   10.394    0.119    0.359   84.091
  406.750    9.642    0.034    0.349   80.392
  407.000    9.114    0.038    0.375   77.928
  407.250    8.456    0.117    0.412   81.019
  407.500    8.146    0.152    0.414   86.580
  407.750    7.847    0.166    0.415   89.670
  408.000    7.702    0.160    0.399   92.763
  408.250    7.560    0.150    0.403   92.149
  408.500    7.422    0.147    0.404   92.154
  408.750    7.286    0.156    0.392   93.394
  409.000    7.152    0.160    0.381   94.017
  409.250    6.762    0.156    0.367   93.404
  409.500    6.513    0.163    0.356   91.556
  409.750    6.042    0.158    0.348   88.475
  410.000    5.296    0.158    0.367   92.184
  410.250    4.642    0.172    0.376   94.658
  410.500    4.147    0.176    0.385   96.514
  410.750    3.567    0.217    0.401   99.605
  411.000    3.126    0.232    0.410   98.993
  411.250    2.846    0.238    0.423   96.530
  411.500    2.848    0.225    0.408   92.831
  411.750    2.958    0.209    0.389   89.131
  412.000    3.252    0.227    0.413   89.137
  412.250    3.575    0.216    0.418   91.611
  412.500    3.856    0.203    0.408   97.171
  412.750    4.403    0.196    0.400   95.941
  413.000    4.749    0.196    0.393   93.477
  413.250    5.321    0.207    0.399   88.545
  413.500    5.740    0.208    0.404   87.316
  413.750    6.193    0.194    0.399   86.085
  414.000    6.556    0.187    0.402   87.324
  414.250    6.683    0.193    0.408   92.269
  414.500    6.686    0.201    0.407   94.124
  414.750    6.688    0.213    0.403   87.957
  415.000    6.818    0.228    0.395   86.109
  415.250    6.951    0.249    0.393   89.818
  415.500    6.953    0.234    0.392   88.588
  415.750    7.089    0.203    0.398   86.125
  416.000    7.226    0.199    0.399   84.277
  416.250    7.508    0.224    0.382   82.430
  416.500    7.653    0.276    0.365   79.966
  416.750    7.800    0.286    0.370   77.502
  417.000    8.258    0.292    0.372   77.507
  417.250    8.909    0.275    0.356   75.660
  417.500    9.981    0.259    0.340   71.344
  417.750   10.566    0.265    0.330   72.584
  418.000   10.977    0.249    0.323   74.440
  418.250   10.377    0.231    0.313   72.593
  418.500    9.626    0.076    0.294   68.894
  418.750    9.098    0.000    0.283   66.431
  419.000    8.128    0.021    0.286   71.374
  419.250    7.829    0.097    0.326   76.933
  419.500    7.542    0.175    0.368   83.111
  419.750    7.545    0.191    0.381   86.202
  420.000    7.839    0.174    0.377   88.059
  420.250    7.991    0.199    0.372   88.681
  420.500    8.300    0.218    0.368   87.451
  420.750    8.624    0.209    0.374   84.987
  421.000    8.791    0.177    0.360   83.141
  421.250    9.132    0.171    0.348   83.763
  421.500    9.310    0.202    0.344   85.003
  421.750    9.312    0.214    0.345   85.010
  422.000    9.142    0.224    0.334   85.013
  422.250    9.678    0.226    0.311   80.697
  422.500   10.053    0.218    0.292   77.614
  422.750   10.444    0.215    0.263   73.916
  423.000   10.253    0.205    0.239   69.600
  423.250    8.988    0.003    0.214   64.049
  423.500    8.181    0.000    0.196   59.116
  423.750    7.589    0.004    0.229   62.208
  424.000    6.780    0.047    0.305   69.001
  424.250    6.408    0.156    0.351   80.119
  424.500    5.618    0.203    0.387   85.679
  424.750    5.515    0.213    0.398   86.919
  425.000    5.413    0.211    0.403   86.924
  425.250    5.416    0.199    0.416   88.162
  425.500    5.418    0.168    0.438   90.019
  425.750    5.523    0.166    0.446   90.025
  426.000    5.524    0.179    0.417   86.942
  426.250    5.632    0.192    0.405   85.096
  426.500    5.850    0.213    0.407   85.100
  426.750    6.312    0.240    0.416   85.722
  427.000    6.682    0.257    0.415   85.727
  427.250    6.942    0.273    0.398   83.263
  427.500    7.211    0.287    0.384   77.095
  427.750    7.490    0.282    0.372   74.013
  428.000    7.931    0.291    0.370   70.315
  428.250    8.084    0.303    0.363   68.468
  428.500    8.242    0.310    0.361   71.561
  428.750    8.244    0.300    0.361   72.800
  429.000    8.248    0.269    0.365   72.805
  429.250    8.250    0.245    0.377   72.808
  429.500    8.099    0.235    0.383   74.048
  429.750    7.512    0.236    0.388   76.524
  430.000    6.585    0.247    0.391   77.761
  430.250    5.882    0.244    0.399   80.854
  430.500    5.156    0.240    0.401   82.094
  430.750    4.694    0.236    0.394   83.950
  431.000    4.354    0.249    0.407   87.659
  431.250    4.355    0.247    0.401   88.897
  431.500    4.789    0.209    0.412   90.136
  431.750    4.974    0.202    0.401   90.142
  432.000    5.366    0.206    0.396   87.678
  432.250    5.575    0.186    0.391   87.682
  432.500    5.473    0.173    0.396   89.539
  432.750    5.475    0.189    0.406   90.161
  433.000    5.688    0.196    0.400   88.932
  433.250    6.136    0.207    0.400   90.171
  433.500    6.374    0.217    0.392   88.942
  433.750    7.142    0.222    0.380   87.094
  434.000    7.560    0.215    0.378   88.334
  434.250    8.470    0.212    0.383   88.338
  434.500    9.488    0.210    0.371   85.875
  434.750   10.629    0.195    0.355   88.349
  435.000   11.252    0.173    0.341   86.501
  435.250   11.256    0.076    0.334   82.803
