~VERSION INFORMATION
 VERS.                 2.0:   CWLS LOG ASCII STANDARD -VERSION 2.0
 WRAP.                  NO:   ONE LINE PER DEPTH STEP
~WELL INFORMATION BLOCK
#MNEM.UNIT           DATA                    DESCRIPTION OF MNEMONIC
#---------    -------------------            -------------------------------
# Generated from Intellog Unique Number	CS_71_72/WELL/769
WELL.         PEX PHILLIPS AEC GRIST         : Well_name    - WELL
LOC .         00/06-12-072-08W4/0            : Location     - LOCATION
UWI .         00/06-12-072-08W4/0            : Uwi          - UNIQUE WELL ID
ENTR.         SP                             : Entered      - ENTERED BY
SRVC.         SCHLUMBERGER                   : Scn          - SERVICE COMPANY
STRT.M        310                            : top_depth    - START DEPTH
STOP.M        535                            : bot_depth    - STOP DEPTH
STEP.M        0.25                           : increment    - STEP LENGTH
 NULL. -999.2500:NULL Value
~CURVE INFORMATION BLOCK
#MNEM UNIT       ERCB CURVE CODE    CURVE DESCRIPTION
#-----------   ------------------   ----------------------------------
DEPT.M        00 001 00 00         : DEPTH        - DEPTH
ILD .OHMM     00 120 00 00         : RESD         - DEEP RESISTIVITY (DIL)
DPHI.V/V      00 890 00 00         : PHID         - DENSITY POROSITY (LIMESTONE)
NPHI.V/V      00 330 00 00         : PHIN         - NEUTRON POROSITY (LIMESTONE)
GR  .API      00 310 00 00         : GR           - GAMMA RAY
~PARAMETER INFORMATION
#MNEM.UNIT           DATA             DESCRIPTION OF MNEMONIC
#---------         -----------     ------------------------------
GL  .M        675.8                : gl           - GROUND LEVEL ELEVATION
EREF.M        679.3                : kb           - ELEVATION OF DEPTH REFERENCE
DATM.M        675.8                : datum        - DATUM ELEVATION
TDD .M        544                  : tdd          - TOTAL DEPTH DRILLER
RUN .         ONE                  : Run          - RUN NUMBER
ENG .         BILL                 : Engineer     - RECORDING ENGINEER
WIT .         JIM                  : Witness      - WITNESSED BY
MUD .         GEL                  : Mud_type     - MUD TYPE
MATR.         LIMESTONE            : Logunit      - NEUTRON MATRIX
TMAX.C        22.5                 : BHT          - MAXIMUM RECORDED TEMPERATURE
BHTD.M        544                  : BHTDEP       - MAXIMUM RECORDED TEMPERATURE
MATR.         1                    : LOGUNIT      - NEUTRON MATRIX
RMT .C        25                   : MDTP         - TEMPERATURE OF MUD
NEUT.         1                    : NEUTRON      - NEUTRON TYPE
RESI.         0                    : RESIST       - RESISTIVITY TYPE
RMC .OHMM     0.25                 : RMC          - RESISTIVITY OF MUD CAKE
RMF .OHMM     0.25                 : RMF          - RESISTIVITY OF MUD FILTRATE
SUFT.C        15                   : SUFT         - SURFACE TEMPERATURE
~A  DEPTH     RESD     PHID     PHIN       GR
  310.000    3.310    0.231    0.538   95.738
  310.250    3.391    0.226    0.523   96.355
  310.500    3.457    0.217    0.514   96.974
  310.750    3.526    0.218    0.513   96.374
  311.000    3.596    0.220    0.517   95.773
  311.250    3.737    0.212    0.519   96.392
  311.500    3.883    0.208    0.507   97.618
  311.750    4.035    0.210    0.503   99.458
  312.000    4.114    0.182    0.518  100.074
  312.250    4.118    0.078    0.465   95.205
  312.500    4.044    0.055    0.446   87.287
  312.750    3.755    0.137    0.468   86.686
  313.000    3.619    0.186    0.485   94.012
  313.250    3.424    0.198    0.474   98.289
  313.500    3.363    0.202    0.486   99.518
  313.750    3.365    0.210    0.505   98.918
  314.000    3.498    0.214    0.516   97.098
  314.250    3.635    0.218    0.519   97.109
  314.500    3.706    0.219    0.518   96.504
  314.750    3.780    0.221    0.509   94.076
  315.000    3.783    0.224    0.504   96.527
  315.250    3.785    0.220    0.493   98.361
  315.500    3.788    0.213    0.482  102.034
  315.750    3.791    0.210    0.500  103.868
  316.000    3.941    0.220    0.518   98.387
  316.250    4.018    0.219    0.524   93.518
  316.500    4.175    0.216    0.531   94.136
  316.750    4.339    0.231    0.484   95.974
  317.000    4.341    0.236    0.483   94.763
  317.250    4.346    0.204    0.497   91.723
  317.500    4.189    0.179    0.497   91.123
  317.750    4.114    0.217    0.478   92.959
  318.000    4.356    0.233    0.471   95.409
  318.250    4.971    0.230    0.475   95.418
  318.500    6.002    0.227    0.493   89.329
  318.750    7.247    0.231    0.503   82.631
  319.000    8.750    0.252    0.462   80.198
  319.250   11.609    0.394    0.439   85.086
  319.500   13.754    0.476    0.516   86.314
  319.750   18.242    0.512    0.618   63.151
  320.000   26.080    0.483    0.545   47.305
  320.250   37.988    0.406    0.250   41.217
  320.500   48.536    0.380    0.198   40.006
  320.750   49.496    0.368    0.214   43.677
  321.000   46.823    0.353    0.228   46.730
  321.250   47.755    0.347    0.245   51.617
  321.500   49.619    0.335    0.242   55.895
  321.750   51.550    0.322    0.237   58.342
  322.000   55.627    0.319    0.234   58.353
  322.250   57.822    0.335    0.238   60.803
  322.500   57.845    0.346    0.233   63.249
  322.750   55.753    0.347    0.229   66.305
  323.000   48.931    0.344    0.231   57.168
  323.250   44.575    0.339    0.234   49.251
  323.500   36.289    0.338    0.237   45.599
  323.750   29.000    0.338    0.246   55.975
  324.000   21.902    0.332    0.261   60.251
  324.250   16.541    0.322    0.277   58.430
  324.500   13.216    0.309    0.294   71.246
  324.750   11.595    0.293    0.312   77.962
  325.000    9.987    0.236    0.336   86.509
  325.250    8.932    0.211    0.365   89.564
  325.500    8.772    0.198    0.394   96.282
  325.750    8.780    0.195    0.410  101.779
  326.000    8.790    0.196    0.414   98.738
  326.250    8.795    0.206    0.411   89.602
  326.500    8.801    0.231    0.407   83.511
  326.750    8.976    0.263    0.394   79.251
  327.000    8.982    0.280    0.398   78.042
  327.250    9.162    0.268    0.407   81.099
  327.500    9.342    0.269    0.408   84.156
  327.750    9.526    0.258    0.419   84.166
  328.000    9.715    0.249    0.404   83.565
  328.250    9.907    0.236    0.398   84.184
  328.500    9.914    0.269    0.392   78.707
  328.750    9.924    0.297    0.395   76.883
  329.000   10.118    0.323    0.413   73.233
  329.250   10.129    0.333    0.433   80.560
  329.500   10.135    0.253    0.428   84.836
  329.750   10.145    0.226    0.404   78.747
  330.000   10.151    0.241    0.371   65.341
  330.250    9.972    0.259    0.366   59.863
  330.500    9.434    0.263    0.383   58.651
  330.750    9.264    0.272    0.378   55.614
  331.000    8.604    0.270    0.363   54.400
  331.250    8.291    0.257    0.352   55.019
  331.500    7.557    0.240    0.357   58.076
  331.750    7.282    0.242    0.361   67.233
  332.000    6.761    0.251    0.357   74.558
  332.250    6.396    0.260    0.389   84.934
  332.500    6.052    0.220    0.420   95.917
  332.750    5.832    0.159    0.432  102.633
  333.000    5.217    0.145    0.447  100.205
  333.250    5.028    0.133    0.455   95.945
  333.500    4.756    0.131    0.471  106.930
  333.750    4.416    0.169    0.486  114.257
  334.000    4.177    0.194    0.516  116.703
  334.250    3.952    0.200    0.535  116.101
  334.500    3.670    0.195    0.547  114.281
  334.750    3.536    0.200    0.522  111.852
  335.000    3.409    0.216    0.548  111.861
  335.250    3.411    0.228    0.568  117.968
  335.500    4.278    0.235    0.581  113.706
  335.750    5.672    0.247    0.497  100.300
  336.000    7.959    0.274    0.455   74.699
  336.250   10.167    0.301    0.430   58.245
  336.500   12.513    0.331    0.407   49.106
  336.750   13.753    0.324    0.400   42.406
  337.000   14.836    0.320    0.402   37.537
  337.250   15.415    0.326    0.395   35.724
  337.500   16.018    0.327    0.417   36.950
  337.750   16.036    0.335    0.450   38.175
  338.000   16.043    0.348    0.447   43.063
  338.250   16.060    0.359    0.422   47.341
  338.500   16.070    0.365    0.413   48.566
  338.750   16.086    0.374    0.428   49.794
  339.000   16.095    0.380    0.471   49.194
  339.250   16.424    0.366    0.455   47.375
  339.500   16.435    0.348    0.431   45.552
  339.750   16.449    0.330    0.420   43.123
  340.000   16.774    0.322    0.417   43.132
  340.250   16.786    0.328    0.407   44.361
  340.500   17.116    0.327    0.399   44.367
  340.750   17.126    0.319    0.396   44.382
  341.000   17.472    0.322    0.387   44.387
  341.250   17.482    0.323    0.383   44.396
  341.500   17.166    0.325    0.377   47.452
  341.750   17.189    0.322    0.371   52.339
  342.000   17.200    0.319    0.368   57.836
  342.250   17.214    0.312    0.369   59.675
  342.500   16.911    0.310    0.402   66.390
  342.750   16.925    0.316    0.430   79.816
  343.000   16.623    0.327    0.432   87.752
  343.250   16.639    0.342    0.421   92.027
  343.500   16.341    0.340    0.416   88.987
  343.750   16.352    0.322    0.413   96.314
  344.000   16.362    0.318    0.430   95.713
  344.250   16.071    0.322    0.447   89.016
  344.500   16.082    0.328    0.467   85.364
  344.750   16.094    0.328    0.471   81.713
  345.000   16.108    0.334    0.463   80.503
  345.250   15.820    0.317    0.447   81.122
  345.500   15.842    0.289    0.436   80.520
  345.750   15.850    0.279    0.433   79.311
  346.000   15.860    0.277    0.437   79.319
  346.250   16.180    0.284    0.444   78.718
  346.500   16.497    0.288    0.447   73.849
  346.750   16.821    0.301    0.455   65.321
  347.000   17.478    0.330    0.423   56.791
  347.250   17.821    0.344    0.405   42.166
  347.500   18.185    0.346    0.404   37.906
  347.750   17.857    0.295    0.412   42.796
  348.000   17.864    0.263    0.395   48.902
  348.250   17.549    0.263    0.388   52.567
  348.500   16.923    0.284    0.404   56.846
  348.750   16.617    0.297    0.421   58.682
  349.000   15.724    0.311    0.425   56.861
  349.250   15.442    0.264    0.418   58.090
  349.500   15.163    0.256    0.412   61.148
  349.750   14.084    0.269    0.427   64.208
  350.000   13.830    0.284    0.421   64.824
  350.250   13.330    0.300    0.424   64.833
  350.500   12.849    0.300    0.427   71.550
  350.750   12.384    0.290    0.402   78.266
  351.000   11.722    0.280    0.395   84.984
  351.250   11.511    0.273    0.402   87.431
  351.500   11.305    0.253    0.423   84.392
  351.750   11.103    0.248    0.390   86.840
  352.000   11.111    0.246    0.385   89.897
  352.250   11.331    0.242    0.410   89.904
  352.500   11.554    0.236    0.419   84.425
  352.750   11.788    0.233    0.399   78.340
  353.000   11.794    0.228    0.401   78.955
  353.250   11.582    0.225    0.426   85.673
