~VERSION INFORMATION
 VERS.                 2.0:   CWLS LOG ASCII STANDARD -VERSION 2.0
 WRAP.                  NO:   ONE LINE PER DEPTH STEP
~WELL INFORMATION BLOCK
#MNEM.UNIT           DATA                    DESCRIPTION OF MNEMONIC
#---------    -------------------            -------------------------------
# Generated from Intellog Unique Number	CS_67_68/WELL/689
WELL.         DOME PETROLEUM LIMITED         : Well_name    - WELL
LOC .         00/06-26-068-02W4/0            : Location     - LOCATION
UWI .         00/06-26-068-02W4/0            : Uwi          - UNIQUE WELL ID
ENTR.         SP                             : Entered      - ENTERED BY
SRVC.         SCHLUMBERGER                   : Scn          - SERVICE COMPANY
STRT.M        385                            : top_depth    - START DEPTH
STOP.M        630                            : bot_depth    - STOP DEPTH
STEP.M        0.25                           : increment    - STEP LENGTH
 NULL. -999.2500:NULL Value
~CURVE INFORMATION BLOCK
#MNEM UNIT       ERCB CURVE CODE    CURVE DESCRIPTION
#-----------   ------------------   ----------------------------------
DEPT.M        00 001 00 00         : DEPTH        - DEPTH
ILD .OHMM     00 120 00 00         : RESD         - DEEP RESISTIVITY (DIL)
DPHI.V/V      00 890 00 00         : PHID         - DENSITY POROSITY (LIMESTONE)
NPHI.V/V      00 330 00 00         : PHIN         - NEUTRON POROSITY (LIMESTONE)
GR  .API      00 310 00 00         : GR           - GAMMA RAY
~PARAMETER INFORMATION
#MNEM.UNIT           DATA             DESCRIPTION OF MNEMONIC
#---------         -----------     ------------------------------
GL  .M        709.94               : gl           - GROUND LEVEL ELEVATION
EREF.M        713.29               : kb           - ELEVATION OF DEPTH REFERENCE
DATM.M        709.94               : datum        - DATUM ELEVATION
TDD .M        640                  : tdd          - TOTAL DEPTH DRILLER
RUN .         ONE                  : Run          - RUN NUMBER
ENG .         BILL                 : Engineer     - RECORDING ENGINEER
WIT .         JIM                  : Witness      - WITNESSED BY
MUD .         GEL                  : Mud_type     - MUD TYPE
MATR.         LIMESTONE            : Logunit      - NEUTRON MATRIX
TMAX.C        29                   : BHT          - MAXIMUM RECORDED TEMPERATURE
BHTD.M        640                  : BHTDEP       - MAXIMUM RECORDED TEMPERATURE
MATR.         1                    : LOGUNIT      - NEUTRON MATRIX
RMT .C        25                   : MDTP         - TEMPERATURE OF MUD
NEUT.         1                    : NEUTRON      - NEUTRON TYPE
RESI.         0                    : RESIST       - RESISTIVITY TYPE
RMC .OHMM     0.25                 : RMC          - RESISTIVITY OF MUD CAKE
RMF .OHMM     0.25                 : RMF          - RESISTIVITY OF MUD FILTRATE
SUFT.C        15                   : SUFT         - SURFACE TEMPERATURE
~A  DEPTH     RESD     PHID     PHIN       GR
# ...
  428.500   10.211    0.250    0.468   94.991
  428.750   10.078    0.243    0.474   95.465
  429.000    9.927    0.238    0.481   97.283
  429.250    9.816    0.250    0.468   99.468
  429.500    9.724    0.266    0.455  101.835
  429.750    9.597    0.280    0.438  104.874
  430.000    9.489    0.289    0.427   99.854
  430.250    9.436    0.301    0.423   97.032
  430.500    9.330    0.308    0.421  100.252
  430.750    9.243    0.309    0.420  102.500
  431.000    9.173    0.309    0.436  103.401
  431.250    9.104    0.310    0.455  103.266
  431.500    8.985    0.310    0.450  105.327
  431.750    8.786    0.303    0.435  108.489
  432.000    8.448    0.292    0.423  110.855
  432.250    8.510    0.283    0.421  108.156
  432.500    8.898    0.279    0.422  103.379
  432.750    9.184    0.284    0.425  101.474
  433.000    9.286    0.294    0.409  104.631
  433.250    9.407    0.302    0.395  107.064
  433.500    9.371    0.293    0.389  110.102
  433.750    9.370    0.288    0.388  109.415
  434.000    9.404    0.283    0.390  105.312
  434.250    9.368    0.282    0.398  100.046
  434.500    9.315    0.286    0.406   96.555
  434.750    9.262    0.291    0.411   93.612
  435.000    9.244    0.293    0.416   91.095
  435.250    9.209    0.294    0.414   95.721
  435.500    9.088    0.295    0.414   95.646
  435.750    8.755    0.296    0.421   93.860
  436.000    7.976    0.296    0.431   93.482
  436.250    7.252    0.294    0.422   94.934
  436.500    6.558    0.283    0.414   99.253
  436.750    6.213    0.268    0.415  104.548
  437.000    6.831    0.258    0.438  109.175
  437.250    7.277    0.252    0.466  111.239
  437.500    7.594    0.261    0.437  102.312
  437.750    7.896    0.268    0.420   96.622
  438.000    8.287    0.269    0.435   92.885
  438.250    8.569    0.267    0.441   95.069
  438.500    9.145    0.265    0.432   95.787
  438.750    9.925    0.264    0.438   94.919
  439.000   10.534    0.265    0.443   89.531
  439.250   11.517    0.277    0.418   81.094
  439.500   12.201    0.311    0.394   73.205
  439.750   13.070    0.342    0.375   66.171
  440.000   13.439    0.349    0.359   58.709
  440.250   13.388    0.348    0.353   54.911
  440.500   13.163    0.347    0.361   54.043
  440.750   12.895    0.344    0.369   53.968
  441.000   12.585    0.344    0.367   53.954
  441.250   12.444    0.350    0.359   53.207
  441.500   12.351    0.352    0.362   53.131
  441.750   11.987    0.346    0.370   56.232
  442.000   11.440    0.334    0.376   59.393
  442.250   11.145    0.323    0.374   61.576
  442.500   10.837    0.314    0.371   63.089
  442.750   10.676    0.305    0.379   65.213
  443.000   10.835    0.327    0.394   67.763
  443.250   11.287    0.349    0.400   68.726
  443.500   11.692    0.362    0.405   69.017
  443.750   12.271    0.360    0.411   70.347
  444.000   12.735    0.355    0.421   71.921
  444.250   13.441    0.352    0.411   73.312
  444.500   13.769    0.348    0.350   74.214
  444.750   13.289    0.296    0.294   65.652
  445.000   12.472    0.237    0.318   61.427
  445.250   12.037    0.223    0.359   66.541
  445.500   12.126    0.249    0.390   77.517
  445.750   12.376    0.289    0.405   87.636
  446.000   12.374    0.318    0.412   94.154
  446.250   12.350    0.333    0.404   88.403
  446.500   12.348    0.334    0.399   78.866
  446.750   12.348    0.328    0.396   70.794
  447.000   12.438    0.323    0.402   68.765
  447.250   12.507    0.316    0.401   69.912
  447.500   12.623    0.327    0.396   66.540
  447.750   12.692    0.337    0.409   63.228
  448.000   12.620    0.343    0.408   65.596
  448.250   12.596    0.346    0.388   68.147
  448.500   12.454    0.348    0.381   70.331
  448.750   11.953    0.335    0.406   71.479
  449.000   10.991    0.325    0.418   70.914
  449.250    9.755    0.319    0.424   72.852
  449.500    8.514    0.313    0.422   76.564
  449.750    7.500    0.305    0.419   81.130
  450.000    7.013    0.290    0.418   85.511
  450.250    6.794    0.272    0.426   90.134
  450.500    6.668    0.256    0.425   92.933
  450.750    6.544    0.239    0.418   97.498
  451.000    6.495    0.225    0.424  105.664
  451.250    6.654    0.215    0.417  115.419
  451.500    7.693    0.207    0.401  109.544
  451.750    8.491    0.209    0.383   93.657
  452.000    9.249    0.223    0.365   87.600
  452.250    9.945    0.240    0.354   91.128
  452.500    9.778    0.253    0.346   97.768
  452.750    9.093    0.265    0.357  103.677
  453.000    8.298    0.271    0.372  107.691
  453.250    7.965    0.266    0.383   96.506
  453.500    7.861    0.256    0.381   93.379
  453.750    8.531    0.248    0.379   92.450
  454.000    8.954    0.287    0.369   82.790
  454.250    9.138    0.300    0.363   73.863
  454.500    9.086    0.311    0.376   66.035
  454.750    8.608    0.322    0.404   66.693
  455.000    8.215    0.331    0.421   73.822
  455.250    8.048    0.333    0.424   79.548
  455.500    8.047    0.331    0.426   85.332
  455.750    8.274    0.330    0.425   89.654
  456.000    8.555    0.326    0.415   89.273
  456.250    8.554    0.319    0.406   89.685
  456.500    8.089    0.314    0.421   90.956
  456.750    7.880    0.312    0.447   93.810
  457.000    8.285    0.323    0.458   95.569
  457.250    8.892    0.334    0.430   86.273
  457.500    9.384    0.339    0.408   81.683
  457.750    9.560    0.345    0.392   78.128
  458.000    9.595    0.350    0.400   76.649
  458.250    9.277    0.344    0.414   78.222
  458.500    9.276    0.335    0.416   80.649
  458.750    9.380    0.336    0.411   78.867
  459.000    9.609    0.347    0.407   69.879
  459.250   10.084    0.352    0.402   64.921
  459.500   10.447    0.341    0.390   61.732
  459.750   10.064    0.329    0.377   61.353
  460.000    9.305    0.317    0.366   61.704
  460.250    8.685    0.308    0.369   64.497
  460.500    8.508    0.305    0.374   66.074
  460.750    8.350    0.309    0.377   66.975
  461.000    8.318    0.311    0.378   67.876
  461.250    8.411    0.307    0.392   69.631
  461.500    8.584    0.302    0.402   71.085
  461.750    8.810    0.306    0.404   72.840
  462.000    8.809    0.312    0.402   73.867
  462.250    8.726    0.315    0.399   68.297
  462.500    8.548    0.315    0.395   67.368
  462.750    8.297    0.306    0.391   70.160
  463.000    7.918    0.298    0.386   70.881
  463.250    7.743    0.291    0.385   72.333
  463.500    7.656    0.286    0.396   75.799
  463.750    7.712    0.296    0.412   77.067
  464.000    8.704    0.304    0.434   75.526
  464.250   10.027    0.308    0.447   76.917
  464.500   11.811    0.310    0.405   74.217
  464.750   14.685    0.306    0.250   65.901
  465.000   16.822    0.123    0.165   58.927
  465.250   18.054    0.078    0.145   53.846
  465.500   18.052    0.048    0.155   49.927
  465.750   16.476    0.284    0.259   46.922
  466.000   14.760    0.313    0.313   49.044
  466.250   12.598    0.328    0.355   54.157
  466.500   10.593    0.334    0.399   58.050
  466.750    9.297    0.343    0.432   62.126
  467.000    9.040    0.359    0.424   64.253
  467.250    8.972    0.374    0.421   59.599
  467.500    8.888    0.379    0.428   58.669
  467.750    8.970    0.382    0.433   62.257
  468.000    9.121    0.383    0.440   63.465
  468.250    9.223    0.382    0.436   61.620
  468.500    9.360    0.379    0.423   60.873
  468.750    9.394    0.374    0.426   60.555
  469.000    9.272    0.370    0.432   61.088
  469.250    9.032    0.367    0.433   61.747
  469.500    8.782    0.367    0.448   62.406
  469.750    8.619    0.366    0.460   63.308
  470.000    8.459    0.362    0.458   65.797
  470.250    8.333    0.359    0.429   61.754
  470.500    8.442    0.350    0.378   58.993
  470.750    8.745    0.331    0.389   57.390
  471.000    9.161    0.313    0.401   58.842
  471.250    9.632    0.311    0.405   61.211
  471.500    9.831    0.323    0.389   62.968
  471.750    9.922    0.333    0.377   63.687
