~VERSION INFORMATION
 VERS.                 2.0:   CWLS LOG ASCII STANDARD -VERSION 2.0
 WRAP.                  NO:   ONE LINE PER DEPTH STEP
~WELL INFORMATION BLOCK
#MNEM.UNIT           DATA                    DESCRIPTION OF MNEMONIC
#---------    -------------------            -------------------------------
# Generated from Intellog Unique Number	CC_88_90/WELL/1057
WELL.         05-26-090-18W4                 : Well_name    - WELL
LOC .         00/05-26-090-18W4/0            : Location     - LOCATION
UWI .         00/05-26-090-18W400            : Uwi          - UNIQUE WELL ID
ENTR.         DW                             : Entered      - ENTERED BY
SRVC.         SCHLUMBERGER                   : Scn          - SERVICE COMPANY
STRT.M        100                            : top_depth    - START DEPTH
STOP.M        211.75                         : bot_depth    - STOP DEPTH
STEP.M        0.25                           : increment    - STEP LENGTH
 NULL. -999.2500:NULL Value
~CURVE INFORMATION BLOCK
#MNEM UNIT       ERCB CURVE CODE    CURVE DESCRIPTION
#-----------   ------------------   ----------------------------------
DEPT.M        00 001 00 00         : DEPTH        - DEPTH
GR  .API      00 310 00 00         : GR           - GAMMA RAY
DPHI.V/V      00 890 00 00         : PHID         - DENSITY POROSITY (SANDSTONE)
NPHI.V/V      00 330 00 00         : PHIN         - NEUTRON POROSITY (SANDSTONE)
ILD .OHMM     00 120 00 00         : RESD         - DEEP RESISTIVITY (DIL)
~PARAMETER INFORMATION
#MNEM.UNIT           DATA             DESCRIPTION OF MNEMONIC
#---------         -----------     ------------------------------
GL  .M        504.31               : gl           - GROUND LEVEL ELEVATION
EREF.M        508.81               : kb           - ELEVATION OF DEPTH REFERENCE
DATM.M        508.81               : datum        - DATUM ELEVATION
TDD .M        214                  : tdd          - TOTAL DEPTH DRILLER
RUN .         ONE                  : Run          - RUN NUMBER
ENG .         BILL                 : Engineer     - RECORDING ENGINEER
WIT .         JIM                  : Witness      - WITNESSED BY
MUD .         GEL                  : Mud_type     - MUD TYPE
MATR.         SANDSTONE            : Logunit      - NEUTRON MATRIX
TMAX.C        17                   : BHT          - MAXIMUM RECORDED TEMPERATURE
BHTD.M        214                  : BHTDEP       - MAXIMUM RECORDED TEMPERATURE
MATR.         1                    : LOGUNIT      - NEUTRON MATRIX
RMT .C        25                   : MDTP         - TEMPERATURE OF MUD
NEUT.         1                    : NEUTRON      - NEUTRON TYPE
RESI.         0                    : RESIST       - RESISTIVITY TYPE
RMC .OHMM     0.25                 : RMC          - RESISTIVITY OF MUD CAKE
RMF .OHMM     0.25                 : RMF          - RESISTIVITY OF MUD FILTRATE
SUFT.C        15                   : SUFT         - SURFACE TEMPERATURE
~A  DEPTH       GR     PHID     PHIN     RESD
# ...
  143.500   91.472    0.247    0.381   23.147
  143.750   94.718    0.257    0.371   23.226
  144.000   88.876    0.255    0.354   22.687
  144.250  115.340    0.246    0.377   21.477
  144.500  143.124    0.226    0.390   20.289
  144.750  136.131    0.209    0.351   19.863
  145.000  128.564    0.208    0.314   19.905
  145.250  116.977    0.213    0.322   20.215
  145.500  109.742    0.218    0.337   20.589
  145.750  108.266    0.219    0.355   20.717
  146.000  108.981    0.218    0.359   20.675
  146.250  108.137    0.214    0.344   20.706
  146.500  104.885    0.209    0.351   20.696
  146.750  104.556    0.203    0.374   21.075
  147.000  106.420    0.171    0.353   24.385
  147.250  105.550    0.128    0.344   25.680
  147.500   99.102    0.133    0.360   24.762
  147.750   91.134    0.173    0.365   23.013
  148.000   89.889    0.179    0.361   18.842
  148.250   97.757    0.201    0.339   16.723
  148.500  107.245    0.204    0.325   15.799
  148.750  113.736    0.201    0.330   15.418
  149.000  116.627    0.198    0.345   14.450
  149.250  117.038    0.195    0.343   14.175
  149.500  115.209    0.195    0.324   17.139
  149.750  108.542    0.155    0.351   19.216
  150.000   96.953    0.093    0.354   17.845
  150.250   86.713    0.078    0.341   15.558
  150.500   82.916    0.125    0.321   12.351
  150.750   88.643    0.180    0.287    8.132
  151.000  104.462    0.202    0.289    5.936
  151.250  121.039    0.230    0.375    5.343
  151.500  125.184    0.239    0.419    5.054
  151.750  122.887    0.229    0.442    4.818
  152.000  118.148    0.207    0.481    6.951
  152.250  110.327    0.165    0.470   11.898
  152.500  103.202    0.117    0.373   15.623
  152.750   99.288    0.120    0.323   15.572
  153.000  103.257    0.166    0.327   14.548
  153.250  107.688    0.198    0.347   13.873
  153.500  109.220    0.203    0.361   14.384
  153.750  110.935    0.206    0.377   16.402
  154.000  112.969    0.211    0.405   18.555
  154.250  113.950    0.216    0.431   19.767
  154.500  115.017    0.202    0.460   21.364
  154.750  110.188    0.145    0.404   22.805
  155.000  100.230    0.112    0.324   24.710
  155.250   92.635    0.146    0.329   26.946
  155.500   93.000    0.187    0.372   27.162
  155.750  102.471    0.213    0.392   25.907
  156.000  106.626    0.223    0.379   25.034
  156.250  103.909    0.225    0.363   24.006
  156.500  100.671    0.229    0.361   23.137
  156.750  100.622    0.237    0.352   23.528
  157.000  102.820    0.242    0.353   25.189
  157.250  103.023    0.231    0.430   27.767
  157.500   94.925    0.222    0.460   30.973
  157.750   79.078    0.181    0.458   44.941
  158.000   65.867    0.106    0.372   60.937
  158.250   60.330    0.048    0.225   67.246
  158.500   56.839    0.030    0.181   68.984
  158.750   55.622    0.025    0.158   65.064
  159.000   55.901    0.029    0.198   59.545
  159.250   59.336    0.085    0.259   52.976
  159.500   65.567    0.158    0.306   46.999
  159.750   71.284    0.192    0.348   43.050
  160.000   74.679    0.198    0.371   39.826
  160.250   77.021    0.181    0.342   37.943
  160.500   76.362    0.149    0.303   36.252
  160.750   76.083    0.152    0.325   34.556
  161.000   79.612    0.191    0.374   33.017
  161.250   83.717    0.233    0.406   34.377
  161.500   83.874    0.257    0.439   41.366
  161.750   83.573    0.236    0.437   48.859
  162.000   80.160    0.168    0.400   52.611
  162.250   73.126    0.085    0.373   48.482
  162.500   67.090    0.046    0.309   41.447
  162.750   66.958    0.090    0.238   37.950
  163.000   74.415    0.179    0.286   36.978
  163.250   86.940    0.211    0.352   37.975
  163.500   89.768    0.213    0.395   40.571
  163.750   81.874    0.134    0.331   41.930
  164.000   73.907    0.048    0.225   40.732
  164.250   73.722    0.076    0.202   37.751
  164.500   81.120    0.169    0.254   33.681
  164.750   93.175    0.206    0.303   28.620
  165.000  101.572    0.211    0.351   21.826
  165.250  104.724    0.195    0.386   18.805
  165.500   99.154    0.127    0.383   19.193
  165.750   88.886    0.052    0.356   19.577
  166.000   87.238    0.072    0.344   20.570
  166.250   93.715    0.139    0.345   21.155
  166.500  105.308    0.176    0.400   22.779
  166.750  107.947    0.154    0.432   24.173
  167.000  100.761    0.116    0.389   24.412
  167.250   97.322    0.123    0.332   23.759
  167.500  103.837    0.166    0.328   22.647
  167.750  110.276    0.187    0.343   22.289
  168.000  108.291    0.185    0.388   21.710
  168.250  101.760    0.163    0.389   20.988
  168.500   99.661    0.137    0.350   20.345
  168.750  104.305    0.135    0.331   19.738
  169.000  108.711    0.156    0.337   19.472
  169.250  106.603    0.157    0.372   19.769
  169.500  101.241    0.124    0.367   20.108
  169.750   97.950    0.106    0.371   20.438
  170.000  102.216    0.140    0.392   20.704
  170.250  110.441    0.182    0.417   20.544
  170.500  111.708    0.168    0.465   19.868
  170.750  107.501    0.123    0.479   19.239
  171.000  105.776    0.101    0.393   18.693
  171.250  109.549    0.120    0.337   17.914
  171.500  114.516    0.158    0.342   17.142
  171.750  116.885    0.186    0.362   16.680
  172.000  115.939    0.180    0.402   16.449
  172.250  109.541    0.123    0.404   16.677
  172.500  106.792    0.109    0.383   17.185
  172.750  106.074    0.135    0.362   17.761
  173.000  109.679    0.165    0.382   18.294
  173.250  117.803    0.182    0.418   18.394
  173.500  122.611    0.176    0.399   17.764
  173.750  125.405    0.156    0.379   17.173
  174.000  119.981    0.094    0.358   17.044
  174.250  111.676    0.069    0.343   17.302
  174.500  107.126    0.108    0.342   18.313
  174.750  110.417    0.159    0.369   20.395
  175.000  119.389    0.188    0.417   22.748
  175.250  119.740    0.192    0.422   23.989
  175.500  118.247    0.174    0.404   24.170
  175.750  110.245    0.113    0.393   23.957
  176.000  101.484    0.063    0.336   23.298
  176.250  103.028    0.093    0.262   22.100
  176.500  111.811    0.160    0.294   20.723
  176.750  120.164    0.181    0.361   19.102
  177.000  122.358    0.181    0.377   18.183
  177.250  125.428    0.175    0.380   16.957
  177.500  128.358    0.171    0.396   15.995
  177.750  125.875    0.171    0.399   15.821
  178.000  122.894    0.173    0.377   15.021
  178.250  125.248    0.188    0.351   13.907
  178.500  127.958    0.197    0.352   12.670
  178.750  128.230    0.194    0.395   11.574
  179.000  122.844    0.195    0.454   10.880
  179.250  113.847    0.170    0.465   11.005
  179.500  107.924    0.098    0.406   12.194
  179.750  104.562    0.093    0.373   13.528
  180.000  114.743    0.141    0.370   13.642
  180.250  125.618    0.177    0.386   13.058
  180.500  129.167    0.190    0.396   12.429
  180.750  130.357    0.195    0.396   11.895
  181.000  130.115    0.197    0.408   11.537
  181.250  124.685    0.188    0.416   11.156
  181.500  118.203    0.122    0.389   11.151
  181.750  115.334    0.106    0.351   11.750
  182.000  118.294    0.151    0.363   12.464
  182.250  125.227    0.182    0.421   13.082
  182.500  131.207    0.191    0.435   13.698
  182.750  135.309    0.191    0.388   13.805
  183.000  143.337    0.184    0.358   15.378
  183.250  131.350    0.184    0.382   17.515
  183.500  113.511    0.140    0.353   22.015
  183.750  102.949    0.083    0.241   29.769
  184.000   78.505    0.135    0.157   40.394
  184.250   57.927    0.227    0.088   58.167
  184.500   35.024    0.290    0.066   69.253
  184.750   22.012    0.331    0.066   68.203
  185.000   20.434    0.356    0.068   60.579
  185.250   20.861    0.356    0.077   50.547
  185.500   22.481    0.351    0.099   37.587
  185.750   23.257    0.346    0.137   25.701
  186.000   21.396    0.332    0.176   18.791
  186.250   20.180    0.302    0.275   17.026
  186.500   21.006    0.279    0.356   16.576
  186.750   21.829    0.281    0.352   15.596
