~VERSION INFORMATION
 VERS.                 2.0:   CWLS LOG ASCII STANDARD -VERSION 2.0
 WRAP.                  NO:   ONE LINE PER DEPTH STEP
~WELL INFORMATION BLOCK
#MNEM.UNIT           DATA                    DESCRIPTION OF MNEMONIC
#---------    -------------------            -------------------------------
# Generated from Intellog Unique Number	CS_73_76/WELL/2912
WELL.         BRALORNE OIL TOWER             : Well_name    - WELL
LOC .         00/07-32-076-15W4/0            : Location     - LOCATION
UWI .         00/07-32-076-15W4/0            : Uwi          - UNIQUE WELL ID
ENTR.         SP                             : Entered      - ENTERED BY
SRVC.         SCHLUMBERGER                   : Scn          - SERVICE COMPANY
STRT.M        305                            : top_depth    - START DEPTH
STOP.M        545                            : bot_depth    - STOP DEPTH
STEP.M        0.25                           : increment    - STEP LENGTH
 NULL. -999.2500:NULL Value
~CURVE INFORMATION BLOCK
#MNEM UNIT       ERCB CURVE CODE    CURVE DESCRIPTION
#-----------   ------------------   ----------------------------------
DEPT.M        00 001 00 00         : DEPTH        - DEPTH
DPHI.V/V      00 890 00 00         : PHID         - DENSITY POROSITY (LIMESTONE)
NPHI.V/V      00 330 00 00         : PHIN         - NEUTRON POROSITY (LIMESTONE)
GR  .API      00 310 00 00         : GR           - GAMMA RAY
ILD .OHMM     00 120 00 00         : RESD         - DEEP RESISTIVITY (DIL)
~PARAMETER INFORMATION
#MNEM.UNIT           DATA             DESCRIPTION OF MNEMONIC
#---------         -----------     ------------------------------
GL  .M        679.7                : gl           - GROUND LEVEL ELEVATION
EREF.M        684                  : kb           - ELEVATION OF DEPTH REFERENCE
DATM.M        679.7                : datum        - DATUM ELEVATION
TDD .M        557                  : tdd          - TOTAL DEPTH DRILLER
RUN .         ONE                  : Run          - RUN NUMBER
ENG .         BILL                 : Engineer     - RECORDING ENGINEER
WIT .         JIM                  : Witness      - WITNESSED BY
MUD .         GEL                  : Mud_type     - MUD TYPE
MATR.         LIMESTONE            : Logunit      - NEUTRON MATRIX
TMAX.C        21                   : BHT          - MAXIMUM RECORDED TEMPERATURE
BHTD.M        557                  : BHTDEP       - MAXIMUM RECORDED TEMPERATURE
MATR.         1                    : LOGUNIT      - NEUTRON MATRIX
RMT .C        25                   : MDTP         - TEMPERATURE OF MUD
NEUT.         1                    : NEUTRON      - NEUTRON TYPE
RESI.         0                    : RESIST       - RESISTIVITY TYPE
RMC .OHMM     0.25                 : RMC          - RESISTIVITY OF MUD CAKE
RMF .OHMM     0.25                 : RMF          - RESISTIVITY OF MUD FILTRATE
SUFT.C        15                   : SUFT         - SURFACE TEMPERATURE
~A  DEPTH     PHID     PHIN       GR     RESD
# ...
  479.000    0.225    0.524  100.518    2.251
  479.250    0.216    0.477   98.066    2.566
  479.500    0.205    0.442   97.441    2.715
  479.750    0.191    0.437   97.431    3.274
  480.000    0.171    0.432   96.806    3.596
  480.250    0.172    0.414   96.185    4.419
  480.500    0.167    0.398   94.345    4.945
  480.750    0.162    0.378   90.064    5.431
  481.000    0.151    0.341   87.002    6.078
  481.250    0.137    0.432   93.693    6.675
  481.500    0.199    0.439   96.120    7.611
  481.750    0.210    0.441   95.497    7.196
  482.000    0.202    0.438   90.604    6.678
  482.250    0.199    0.418   86.326    6.679
  482.500    0.191    0.398   81.436    7.200
  482.750    0.182    0.356   78.374    7.475
  483.000    0.057    0.316   74.691    8.684
  483.250    0.034    0.270   74.075    9.360
  483.500    0.034    0.253   74.676   13.361
  483.750    0.036    0.322   78.321   14.402
  484.000    0.169    0.350   81.966   16.732
  484.250    0.194    0.372   91.707   19.077
  484.500    0.210    0.401   98.398   13.879
  484.750    0.203    0.397   99.606   11.511
  485.000    0.191    0.404   97.155   10.484
  485.250    0.203    0.422   95.308    7.918
  485.500    0.212    0.410   95.906    7.348
  485.750    0.212    0.407   98.331    6.819
  486.000    0.203    0.433  100.149    6.569
  486.250    0.201    0.433   98.917    6.448
  486.500    0.198    0.442   98.904    6.329
  486.750    0.183    0.434   95.231    6.572
  487.000    0.142    0.422   90.952    6.697
  487.250    0.142    0.429   92.154    6.825
  487.500    0.203    0.426   97.014    6.826
  487.750    0.218    0.423   98.834    6.576
  488.000    0.215    0.441  101.871    6.102
  488.250    0.176    0.452  103.689    5.770
  488.500    0.167    0.454  103.065    5.455
  488.750    0.158    0.448   91.467    5.456
  489.000    0.142    0.416   83.526    5.665
  489.250    0.131    0.338   77.419    6.832
  489.500    0.123    0.296   66.430    8.716
  489.750    0.230    0.289   59.709   10.711
  490.000    0.270    0.317   61.527   14.186
  490.250    0.240    0.341   68.827   17.108
  490.500    0.215    0.341   72.472   18.442
  490.750    0.205    0.366   71.242   17.114
  491.000    0.226    0.364   63.914   16.181
  491.250    0.246    0.326   58.412   15.883
  491.500    0.259    0.363   63.886   15.886
  491.750    0.250    0.404   68.751   16.806
  492.000    0.272    0.412   71.782   19.893
  492.250    0.283    0.403   75.431   27.352
  492.500    0.261    0.387   88.219   30.039
  492.750    0.179    0.365   96.745   19.170
  493.000    0.175    0.389  106.486   15.900
  493.250    0.173    0.408  112.568   12.942
  493.500    0.173    0.415  113.166   10.148
  493.750    0.179    0.398  108.274    9.071
  494.000    0.184    0.388  108.257    8.577
  494.250    0.201    0.367  109.465    8.740
  494.500    0.149    0.382  109.451    9.075
  494.750    0.137    0.402  108.829    9.076
  495.000    0.157    0.397  100.890    8.744
  495.250    0.175    0.401   93.562    8.745
  495.500    0.169    0.396   85.619    8.912
  495.750    0.167    0.378   80.119    9.253
  496.000    0.151    0.348   74.623    9.429
  496.250    0.123    0.291   66.074   10.356
  496.500    0.096    0.261   66.058   11.374
  496.750    0.165    0.305   72.751   12.260
  497.000    0.172    0.330   80.665   12.493
  497.250    0.201    0.348   84.921   12.036
  497.500    0.196    0.358   87.957   12.038
  497.750    0.169    0.383   90.990   11.171
  498.000    0.155    0.376   90.977   11.599
  498.250    0.167    0.354   89.136   12.271
  498.500    0.190    0.348   92.776   13.227
  498.750    0.179    0.357   98.857   14.527
  499.000    0.179    0.356  101.289   16.876
  499.250    0.214    0.347  107.981   18.885
  499.500    0.240    0.331  111.019   20.741
  499.750    0.257    0.328  102.469   24.095
  500.000    0.281    0.315   90.260   45.945
  500.250    0.267    0.322   85.621   48.603
  500.500    0.284    0.321   83.189   53.370
  500.750    0.279    0.317   80.757   56.454
  501.000    0.279    0.317   77.110   59.718
  501.250    0.285    0.327   73.463   64.363
  501.500    0.294    0.338   75.281   68.084
  501.750    0.293    0.355   78.922   73.378
  502.000    0.299    0.373   78.919   76.185
  502.250    0.279    0.385   76.485   69.410
  502.500    0.262    0.383   75.875   52.467
  502.750    0.261    0.362   75.872   43.539
  503.000    0.245    0.355   83.763   38.934
  503.250    0.247    0.368   88.618   39.676
  503.500    0.261    0.378   88.008   40.432
  503.750    0.265    0.390   79.502   38.237
  504.000    0.276    0.370   75.249   38.246
  504.250    0.253    0.339   76.460   40.456
  504.500    0.245    0.326   81.314   45.263
  504.750    0.267    0.307   84.955   48.780
  505.000    0.278    0.287   86.773   56.651
  505.250    0.270    0.270   85.555   62.206
  505.500    0.278    0.273   82.515   69.597
  505.750    0.292    0.298   74.010   75.006
  506.000    0.291    0.329   69.756   87.107
  506.250    0.304    0.322   66.109  105.012
  506.500    0.313    0.339   62.462  117.482
  506.750    0.305    0.358   60.637  131.435
  507.000    0.294    0.375   60.633  133.940
  507.250    0.288    0.367   61.844   99.371
  507.500    0.292    0.362   63.055   65.911
  507.750    0.277    0.377   65.482   40.572
  508.000    0.258    0.361   69.730   25.445
  508.250    0.233    0.348   79.442   17.520
  508.500    0.209    0.366   89.155   13.493
  508.750    0.224    0.400  100.083   12.065
  509.000    0.199    0.405  108.581   10.590
  509.250    0.208    0.399  112.221   10.396
  509.500    0.218    0.395  112.218   11.415
  509.750    0.196    0.360  111.001   12.076
  510.000    0.199    0.356  105.531   12.306
  510.250    0.185    0.373  102.492   12.080
  510.500    0.174    0.355  100.060   11.640
  510.750    0.181    0.367  105.522   11.642
  511.000    0.187    0.394  109.162   12.548
  511.250    0.208    0.414  108.551   13.778
  511.500    0.221    0.383  104.297   14.575
  511.750    0.206    0.371  103.079   14.853
  512.000    0.196    0.380  103.683   14.855
  512.250    0.198    0.370  105.502   15.425
  512.500    0.204    0.361  106.105   15.142
  512.750    0.203    0.364  106.709   14.590
  513.000    0.187    0.381  106.099   13.798
  513.250    0.176    0.370  104.274   13.801
  513.500    0.164    0.354  100.627   16.027
  513.750    0.174    0.360   93.337   17.599
  514.000    0.217    0.375   78.151   20.823
  514.250    0.253    0.358   69.038   26.549
  514.500    0.265    0.354   65.999   30.262
  514.750    0.263    0.352   62.958   32.615
  515.000    0.280    0.339   61.134   33.864
  515.250    0.295    0.321   57.486   28.631
  515.500    0.307    0.304   54.448   17.299
  515.750    0.331    0.266   48.978   14.901
  516.000    0.335    0.276   44.724   12.836
  516.250    0.289    0.318   45.936   11.479
  516.500    0.250    0.381   59.292   10.264
  516.750    0.225    0.357   63.540    9.707
  517.000    0.224    0.347   64.751   10.079
  517.250    0.229    0.359   66.570   11.068
  517.500    0.218    0.375   68.388   11.707
  517.750    0.150    0.352   69.599   13.098
  518.000    0.114    0.303   65.952   12.386
  518.250    0.171    0.307   61.697   10.871
  518.500    0.212    0.338   66.553   10.475
  518.750    0.216    0.351   79.909   10.477
  519.000    0.171    0.351   89.623   10.878
  519.250    0.175    0.349   89.012   11.507
  519.500    0.207    0.362   80.506   11.947
  519.750    0.235    0.372   73.215   12.405
  520.000    0.264    0.386   68.354   13.121
  520.250    0.280    0.392   63.493   14.681
  520.500    0.295    0.385   73.205   15.822
  520.750    0.285    0.368   77.453   17.051
  521.000    0.272    0.353   79.880   17.376
  521.250    0.256    0.347   80.483   15.251
  521.500    0.243    0.342   76.836   11.967
  521.750    0.263    0.343   71.368   10.308
  522.000    0.279    0.351   61.648    8.880
  522.250    0.291    0.366   53.143    8.243
