~VERSION INFORMATION
 VERS.                 2.0:   CWLS LOG ASCII STANDARD -VERSION 2.0
 WRAP.                  NO:   ONE LINE PER DEPTH STEP
~WELL INFORMATION BLOCK
#MNEM.UNIT           DATA                    DESCRIPTION OF MNEMONIC
#---------    -------------------            -------------------------------
# Generated from Intellog Unique Number	CS_77_79/WELL/913
WELL.         NOVALTA VIOLET                 : Well_name    - WELL
LOC .         00/07-32-078-03W4/0            : Location     - LOCATION
UWI .         00/07-32-078-03W4/0            : Uwi          - UNIQUE WELL ID
ENTR.         JHS                            : Entered      - ENTERED BY
SRVC.         SCHLUMBERGER                   : Scn          - SERVICE COMPANY
STRT.M        135                            : top_depth    - START DEPTH
STOP.M        400                            : bot_depth    - STOP DEPTH
STEP.M        0.25                           : increment    - STEP LENGTH
 NULL. -999.2500:NULL Value
~CURVE INFORMATION BLOCK
#MNEM UNIT       ERCB CURVE CODE    CURVE DESCRIPTION
#-----------   ------------------   ----------------------------------
DEPT.M        00 001 00 00         : DEPTH        - DEPTH
DPHI.V/V      00 890 00 00         : PHID         - DENSITY POROSITY (LIMESTONE)
NPHI.V/V      00 330 00 00         : PHIN         - NEUTRON POROSITY (LIMESTONE)
GR  .API      00 310 00 00         : GR           - GAMMA RAY
ILD .OHMM     00 120 00 00         : RESD         - DEEP RESISTIVITY (DIL)
RHOB.KG/M3    00 350 00 00         : DENS         - BULK DENSITY
~PARAMETER INFORMATION
#MNEM.UNIT           DATA             DESCRIPTION OF MNEMONIC
#---------         -----------     ------------------------------
GL  .M        549.79               : gl           - GROUND LEVEL ELEVATION
EREF.M        552.8                : kb           - ELEVATION OF DEPTH REFERENCE
DATM.M        552.8                : datum        - DATUM ELEVATION
TDD .M        405                  : tdd          - TOTAL DEPTH DRILLER
RUN .         ONE                  : Run          - RUN NUMBER
ENG .         BILL                 : Engineer     - RECORDING ENGINEER
WIT .         JIM                  : Witness      - WITNESSED BY
MUD .         GEL                  : Mud_type     - MUD TYPE
MATR.         LIMESTONE            : Logunit      - NEUTRON MATRIX
TMAX.C        23                   : BHT          - MAXIMUM RECORDED TEMPERATURE
BHTD.M        405                  : BHTDEP       - MAXIMUM RECORDED TEMPERATURE
MATR.         1                    : LOGUNIT      - NEUTRON MATRIX
RMT .C        25                   : MDTP         - TEMPERATURE OF MUD
NEUT.         1                    : NEUTRON      - NEUTRON TYPE
RESI.         0                    : RESIST       - RESISTIVITY TYPE
RMC .OHMM     0.25                 : RMC          - RESISTIVITY OF MUD CAKE
RMF .OHMM     0.25                 : RMF          - RESISTIVITY OF MUD FILTRATE
SUFT.C        15                   : SUFT         - SURFACE TEMPERATURE
~A  DEPTH     PHID     PHIN       GR     RESD     DENS
# ...
  317.500    0.306    0.297   32.170    2.031 2187.570
  317.750    0.302    0.324   33.412    2.031 2193.890
  318.000    0.298    0.324   29.185    2.032 2200.200
  318.250    0.296    0.319   24.355    2.033 2204.460
  318.500    0.294    0.321   24.985    2.033 2206.630
  318.750    0.297    0.331   29.866    2.034 2202.560
  319.000    0.304    0.341   34.144    2.034 2190.180
  319.250    0.303    0.339   31.133    1.997 2192.330
  319.500    0.299    0.322   28.123    1.961 2198.660
  319.750    0.301    0.306   32.405    1.962 2194.600
  320.000    0.303    0.307   34.854    1.926 2192.610
  320.250    0.304    0.327   32.452    1.927 2190.630
  320.500    0.305    0.329   29.442    1.927 2188.610
  320.750    0.304    0.326   28.260    1.892 2190.770
  321.000    0.300    0.329   28.277    1.928 2197.100
  321.250    0.295    0.336   34.987    1.929 2205.520
  321.500    0.299    0.341   34.407    1.929 2199.370
  321.750    0.305    0.331   33.215    1.930 2189.050
  322.000    0.309    0.303   33.849    1.930 2180.830
  322.250    0.313    0.298   38.729    1.895 2174.650
  322.500    0.312    0.312   41.186    1.861 2176.820
  322.750    0.306    0.335   35.138    1.861 2187.340
  323.000    0.308    0.353   27.273    1.827 2183.250
  323.250    0.315    0.354   25.472    1.828 2170.860
  323.500    0.312    0.343   24.892    1.829 2177.190
  323.750    0.309    0.337   21.279    1.829 2181.460
  324.000    0.310    0.327   20.694    1.830 2179.440
  324.250    0.318    0.311   23.156    1.830 2167.070
  324.500    0.321    0.319   27.428    1.865 2160.920
  324.750    0.321    0.330   32.311    1.866 2160.970
  325.000    0.328    0.340   35.978    1.866 2148.580
  325.250    0.351    0.357   39.040    1.866 2109.120
  325.500    0.359    0.395   37.855    1.867 2096.730
  325.750    0.349    0.385   33.624    1.868 2113.460
  326.000    0.322    0.352   27.584    1.834 2159.350
  326.250    0.313    0.341   26.392    1.834 2173.990
  326.500    0.313    0.341   30.075    1.834 2174.080
  326.750    0.332    0.364   31.909    1.835 2142.970
  327.000    0.344    0.356   33.150    1.836 2122.240
  327.250    0.327    0.333   37.423    1.836 2151.460
  327.500    0.310    0.317   42.308    1.906 2180.670
  327.750    0.300    0.306   42.939    1.943 2197.430
  328.000    0.289    0.309   40.538    1.980 2216.240
  328.250    0.273    0.324   39.956    2.017 2243.370
  328.500    0.261    0.315   39.379    2.056 2264.270
  328.750    0.264    0.298   33.939    2.095 2258.110
  329.000    0.281    0.299   30.322    2.096 2229.060
  329.250    0.287    0.297   27.920    1.946 2218.760
  329.500    0.296    0.305   27.331    1.946 2204.270
  329.750    0.313    0.318   27.968    2.021 2175.230
  330.000    0.292    0.314   35.887    2.137 2210.700
  330.250    0.237    0.326   63.238    2.303 2304.430
  330.500    0.209    0.376   83.910    2.625 2352.370
  330.750    0.197    0.389   90.619    2.882 2373.270
  331.000    0.209    0.370   88.220    2.883 2352.570
  331.250    0.230    0.368   80.955    2.727 2317.270
  331.500    0.256    0.381   71.868    2.439 2271.580
  331.750    0.294    0.384   57.320    2.182 2207.150
  332.000    0.322    0.371   48.237    1.988 2159.370
  332.250    0.315    0.352   44.627    1.881 2171.960
  332.500    0.312    0.352   53.754    1.953 2176.210
  332.750    0.302    0.351   73.819    2.144 2192.950
  333.000    0.271    0.338   75.668    2.398 2247.130
  333.250    0.239    0.340   79.335    2.682 2301.330
  333.500    0.223    0.362   87.864    2.837 2328.470
  333.750    0.227    0.391   89.712    2.635 2322.310
  334.000    0.269    0.407   75.162    2.446 2249.570
  334.250    0.287    0.408   60.006    2.188 2218.440
  334.500    0.312    0.399   53.351    1.886 2176.910
  334.750    0.393    0.405   38.195    1.784 2037.570
  335.000    0.409    0.416   27.294    1.687 2010.610
  335.250    0.331    0.372   30.961    1.626 2143.880
  335.500    0.312    0.342   38.880    1.597 2177.300
  335.750    0.311    0.336   40.730    1.597 2177.360
  336.000    0.325    0.332   34.685    1.628 2154.560
  336.250    0.321    0.332   30.462    1.659 2160.910
  336.500    0.317    0.336   27.453    1.690 2167.220
  336.750    0.317    0.342   26.869    1.723 2167.300
  337.000    0.327    0.344   28.107    1.723 2150.740
  337.250    0.314    0.342   28.740    1.723 2173.720
  337.500    0.286    0.338   28.766    1.789 2221.680
  337.750    0.276    0.318   35.472    1.893 2238.410
  338.000    0.268    0.303   39.748    1.965 2250.990
  338.250    0.272    0.290   38.563    2.003 2244.830
  338.500    0.277    0.285   32.514    2.003 2236.620
  338.750    0.276    0.283   28.290    2.004 2238.760
  339.000    0.276    0.279   25.287    2.004 2238.870
  339.250    0.286    0.284   25.299    2.005 2220.220
  339.500    0.291    0.289   25.932    2.005 2212.010
  339.750    0.290    0.288   27.172    1.969 2214.140
  340.000    0.253    0.277   29.027    1.969 2276.670
  340.250    0.264    0.276   29.046    1.933 2258.030
  340.500    0.283    0.283   27.859    1.899 2226.910
  340.750    0.297    0.292   26.676    1.864 2202.030
  341.000    0.302    0.307   27.306    1.865 2193.770
  341.250    0.301    0.323   27.937    1.831 2195.950
  341.500    0.287    0.315   27.962    1.831 2218.930
  341.750    0.277    0.296   27.384    1.866 2235.670
  342.000    0.275    0.285   26.798    1.867 2239.920
  342.250    0.285    0.299   26.226    1.902 2223.380
  342.500    0.288    0.308   26.243    1.975 2217.220
  342.750    0.281    0.308   26.884    1.975 2229.780
  343.000    0.273    0.292   28.119    1.976 2242.350
  343.250    0.275    0.284   29.364    1.976 2240.380
  343.500    0.287    0.295   28.168    1.977 2219.640
  343.750    0.300    0.311   25.165    1.978 2196.850
  344.000    0.304    0.311   27.003    1.978 2190.670
  344.250    0.293    0.301   27.032    1.979 2209.530
  344.500    0.289    0.293   28.270    2.016 2215.830
  344.750    0.276    0.286   31.335    2.017 2238.850
  345.000    0.272    0.288   31.964    2.056 2245.150
  345.250    0.264    0.289   29.569    2.095 2257.740
  345.500    0.261    0.280   28.377    2.135 2264.040
  345.750    0.253    0.277   28.398    2.135 2276.620
  346.000    0.258    0.281   28.431    2.176 2268.390
  346.250    0.264    0.287   28.453    2.177 2258.070
  346.500    0.257    0.281   29.692    2.177 2270.640
  346.750    0.251    0.269   30.932    2.178 2281.130
  347.000    0.247    0.264   29.742    2.179 2287.470
  347.250    0.242    0.269   27.339    2.179 2295.870
  347.500    0.238    0.277   26.152    2.180 2302.230
  347.750    0.249    0.279   26.788    2.180 2283.580
  348.000    0.257    0.274   27.415    2.181 2271.170
  348.250    0.257    0.268   29.270    2.222 2271.270
  348.500    0.260    0.261   29.903    2.223 2265.110
  348.750    0.255    0.258   30.535    2.266 2273.510
  349.000    0.248    0.261   29.344    2.266 2286.090
  349.250    0.254    0.289   29.366    2.267 2275.780
  349.500    0.259    0.290   30.614    2.268 2267.530
  349.750    0.260    0.273   29.427    2.268 2265.550
  350.000    0.242    0.256   27.622    2.269 2296.860
  350.250    0.237    0.260   28.266    2.270 2305.260
  350.500    0.248    0.272   28.894    2.270 2286.620
  350.750    0.258    0.279   30.133    2.270 2267.990
  351.000    0.261    0.268   29.546    2.271 2263.900
  351.250    0.246    0.264   27.143    2.315 2288.980
  351.500    0.236    0.270   26.566    2.315 2305.720
  351.750    0.230    0.273   27.203    2.316 2316.200
  352.000    0.227    0.275   27.831    2.274 2322.520
  352.250    0.239    0.283   28.470    2.191 2301.810
  352.500    0.264    0.304   27.880    2.112 2258.190
  352.750    0.290    0.324   26.700    2.073 2214.580
  353.000    0.293    0.319   28.546    1.998 2208.450
  353.250    0.296    0.303   29.174    1.926 2204.350
  353.500    0.303    0.296   29.807    1.926 2191.960
  353.750    0.302    0.296   28.014    1.927 2194.150
