~VERSION INFORMATION
 VERS.                 2.0:   CWLS LOG ASCII STANDARD -VERSION 2.0
 WRAP.                  NO:   ONE LINE PER DEPTH STEP
~WELL INFORMATION BLOCK
#MNEM.UNIT           DATA                    DESCRIPTION OF MNEMONIC
#---------    -------------------            -------------------------------
# Generated from Intellog Unique Number	CS_77_79/WELL/5037
WELL.         MESA HB LEISMER                : Well_name    - WELL
LOC .         00/07-35-078-10W4/0            : Location     - LOCATION
UWI .         00/07-35-078-10W4/0            : Uwi          - UNIQUE WELL ID
ENTR.         JOE                            : Entered      - ENTERED BY
SRVC.         SCHLUMBERGER                   : Scn          - SERVICE COMPANY
STRT.M        231.648                        : top_depth    - START DEPTH
STOP.M        463.148                        : bot_depth    - STOP DEPTH
STEP.M        0.25                           : increment    - STEP LENGTH
 NULL. -999.2500:NULL Value
~CURVE INFORMATION BLOCK
#MNEM UNIT       ERCB CURVE CODE    CURVE DESCRIPTION
#-----------   ------------------   ----------------------------------
DEPT.M        00 001 00 00         : DEPTH        - DEPTH
RHOB.KG/M3    00 350 00 00         : DENS         - BULK DENSITY
GR  .API      00 310 00 00         : GR           - GAMMA RAY
DPHI.V/V      00 890 00 00         : PHID         - DENSITY POROSITY (SANDSTONE)
NPHI.V/V      00 330 00 00         : PHIN         - NEUTRON POROSITY (SANDSTONE)
ILD .OHMM     00 120 00 00         : RESD         - DEEP RESISTIVITY (DIL)
~PARAMETER INFORMATION
#MNEM.UNIT           DATA             DESCRIPTION OF MNEMONIC
#---------         -----------     ------------------------------
GL  .M        657.454              : gl           - GROUND LEVEL ELEVATION
EREF.M        661.416              : kb           - ELEVATION OF DEPTH REFERENCE
DATM.M        661.416              : datum        - DATUM ELEVATION
TDD .M        475.488              : tdd          - TOTAL DEPTH DRILLER
RUN .         ONE                  : Run          - RUN NUMBER
ENG .         BILL                 : Engineer     - RECORDING ENGINEER
WIT .         JIM                  : Witness      - WITNESSED BY
MUD .         GEL                  : Mud_type     - MUD TYPE
MATR.         SANDSTONE            : Logunit      - NEUTRON MATRIX
TMAX.C        23                   : BHT          - MAXIMUM RECORDED TEMPERATURE
BHTD.M        405                  : BHTDEP       - MAXIMUM RECORDED TEMPERATURE
MATR.         1                    : LOGUNIT      - NEUTRON MATRIX
RMT .C        25                   : MDTP         - TEMPERATURE OF MUD
NEUT.         1                    : NEUTRON      - NEUTRON TYPE
RESI.         0                    : RESIST       - RESISTIVITY TYPE
RMC .OHMM     0.25                 : RMC          - RESISTIVITY OF MUD CAKE
RMF .OHMM     0.25                 : RMF          - RESISTIVITY OF MUD FILTRATE
SUFT.C        15                   : SUFT         - SURFACE TEMPERATURE
~A  DEPTH     DENS       GR     PHID     PHIN     RESD
# ...
  414.148 2324.580   90.229    0.225    0.401    9.122
  414.398 2331.290   93.393    0.221    0.404    8.336
  414.648 2321.920   96.929    0.227    0.411    7.804
  414.898 2350.350  103.380    0.210    0.411    7.610
  415.148 2340.190  109.015    0.216    0.398    7.943
  415.398 2365.480  117.362    0.201    0.391    8.500
  415.648 2375.400  119.826    0.196    0.386    9.752
  415.898 2394.740  121.446    0.184    0.390   11.631
  416.148 2404.890  123.064    0.178    0.413   13.796
  416.398 2382.410  121.460    0.192    0.418   16.435
  416.648 2335.360  100.226    0.219    0.380   18.173
  416.898 2311.800   90.282    0.233    0.362   19.197
  417.148 2322.920   84.526    0.226    0.361   18.850
  417.398 2342.890   76.079    0.215    0.371   17.681
  417.648 2350.950   62.648    0.210    0.361   16.701
  417.898 2340.180   63.597    0.216    0.362   14.575
  418.148 2303.830   67.992    0.238    0.370   13.305
  418.398 2283.460   78.970    0.249    0.354   12.068
  418.648 2304.120   89.367    0.237    0.342   11.310
  418.898 2367.570   92.069    0.200    0.346   11.256
  419.148 2438.050   95.296    0.159    0.361   12.121
  419.398 2428.460   97.269    0.165    0.373   14.199
  419.648 2405.620   95.216    0.178    0.371   17.535
  419.898 2368.710   80.445    0.200    0.377   21.797
  420.148 2315.470   72.282    0.231    0.398   24.938
  420.398 2251.250   74.605    0.268    0.404   24.667
  420.648 2251.000   73.264    0.268    0.412   23.113
  420.898 2259.330   74.057    0.264    0.406   19.704
  421.148 2267.550   79.301    0.259    0.386   18.227
  421.398 2307.910   84.963    0.235    0.375   16.081
  421.648 2340.540   85.368    0.216    0.370   15.142
  421.898 2355.120   87.833    0.208    0.354   14.687
  422.148 2371.180   86.248    0.198    0.353   14.703
  422.398 2333.540   86.251    0.220    0.356   14.547
  422.648 2315.160   87.296    0.231    0.358   13.981
  422.898 2344.250   82.219    0.214    0.364   12.540
  423.148 2291.120   84.074    0.245    0.384   11.554
  423.398 2314.830   89.250    0.231    0.413   10.915
  423.648 2298.800   93.367    0.240    0.438   12.380
  423.898 2269.960   88.257    0.257    0.458   15.291
  424.148 2337.790   69.514    0.218    0.404   30.054
  424.398 2341.240   43.416    0.216    0.390   48.346
  424.648 2280.070   29.231    0.251    0.392  107.295
  424.898 2212.400   23.455    0.291    0.363  219.057
  425.148 2229.730   20.986    0.281    0.371  259.876
  425.398 2221.820   21.263    0.285    0.357  254.696
  425.648 2197.880   22.261    0.299    0.353  235.861
  425.898 2228.980   24.521    0.281    0.355  243.580
  426.148 2204.560   26.951    0.296    0.365  238.719
  426.398 2198.410   28.353    0.299    0.374  218.301
  426.648 2195.200   29.416    0.301    0.380  177.475
  426.898 2189.320   29.724    0.304    0.391  161.805
  427.148 2201.860   31.197    0.297    0.399  139.186
  427.398 2216.510   34.368    0.289    0.409   97.610
  427.648 2212.750   37.016    0.291    0.389   48.045
  427.898 2176.370   41.192    0.312    0.386   25.176
  428.148 2208.430   48.461    0.293    0.388   17.085
  428.398 2258.000   61.946    0.264    0.371   12.818
  428.648 2309.170   76.791    0.234    0.364   11.751
  428.898 2343.370   84.748    0.214    0.379   13.088
  429.148 2361.460   87.548    0.204    0.364   17.747
  429.398 2361.070   86.343    0.204    0.370   23.496
  429.648 2351.800   83.395    0.209    0.392   32.344
  429.898 2327.520   76.449    0.224    0.402   36.411
  430.148 2266.220   69.207    0.260    0.414   36.262
  430.398 2233.820   66.660    0.278    0.427   31.919
  430.648 2238.950   67.776    0.275    0.407   26.247
  430.898 2287.620   67.661    0.247    0.405   21.862
  431.148 2326.030   67.959    0.225    0.418   19.579
  431.398 2336.540   70.394    0.218    0.402   16.687
  431.648 2296.140   74.043    0.242    0.393   14.356
  431.898 2256.150   80.978    0.265    0.403   12.193
  432.148 2249.420   85.287    0.269    0.414   10.293
  432.398 2276.790   93.309    0.253    0.415    8.704
  432.648 2303.530  101.007    0.238    0.402    7.593
  432.898 2331.750  107.384    0.221    0.405    7.048
  433.148 2335.430  109.863    0.219    0.418    6.722
  433.398 2350.480  114.931    0.210    0.402    6.816
  433.648 2362.230  121.407    0.203    0.415    7.290
  433.898 2365.800  124.602    0.201    0.417    7.832
  434.148 2374.240  121.287    0.196    0.397    9.272
  434.398 2398.890  117.206    0.182    0.380   10.930
  434.648 2413.800  105.034    0.173    0.381   13.798
  434.898 2364.100   99.598    0.202    0.399   18.009
  435.148 2329.650   89.416    0.222    0.410   23.959
  435.398 2370.370   81.106    0.199    0.413   30.183
  435.648 2347.910   58.756    0.212    0.402   41.775
  435.898 2260.820   35.578    0.263    0.363   49.289
  436.148 2226.490   35.152    0.283    0.348   41.495
  436.398 2204.310   39.920    0.296    0.355   30.673
  436.648 2209.460   51.180    0.293    0.386   23.172
  436.898 2225.110   63.327    0.284    0.367   18.039
  437.148 2253.560   75.553    0.267    0.384   15.039
  437.398 2293.990   76.965    0.243    0.402   14.133
  437.648 2307.400   74.251    0.235    0.410   13.447
  437.898 2300.200   74.881    0.240    0.394   12.959
  438.148 2329.000   79.308    0.223    0.378   12.007
  438.398 2387.200   84.924    0.189    0.380   10.978
  438.648 2410.970   91.140    0.175    0.393    9.961
  438.898 2425.830   96.646    0.166    0.383    9.664
  439.148 2389.130   99.280    0.188    0.373    9.399
  439.398 2411.650   97.860    0.174    0.362    9.824
  439.648 2404.400   93.285    0.179    0.356    9.798
  439.898 2387.030   91.830    0.189    0.366    9.808
  440.148 2353.530   92.980    0.208    0.347    9.813
  440.398 2375.330   96.505    0.196    0.332   10.248
  440.648 2405.810   98.624    0.178    0.321   11.348
  440.898 2437.950   94.849    0.159    0.368   13.669
  441.148 2333.610   84.603    0.220    0.403   16.658
  441.398 2230.700   73.690    0.280    0.426   19.090
  441.648 2190.290   65.300    0.304    0.414   19.820
  441.898 2161.600   61.216    0.321    0.399   19.189
  442.148 2171.000   66.367    0.315    0.376   16.027
  442.398 2208.930   75.252    0.293    0.361   12.314
  442.648 2251.960   82.336    0.268    0.347   10.249
  442.898 2292.410   94.965    0.244    0.334    8.553
  443.148 2350.000  110.706    0.211    0.325    7.795
  443.398 2392.460  117.686    0.186    0.338    7.594
  443.648 2396.030  116.574    0.184    0.386    7.606
  443.898 2397.280  109.058    0.183    0.392    7.742
  444.148 2437.610  105.601    0.159    0.399    7.920
  444.398 2459.030  103.584    0.147    0.392    7.755
  444.648 2429.510  104.773    0.164    0.373    7.681
  444.898 2457.010  103.532    0.148    0.354    7.442
  445.148 2480.140   99.904    0.134    0.358    7.224
  445.398 2497.630  100.054    0.124    0.396    7.074
  445.648 2377.440  107.200    0.194    0.424    6.921
  445.898 2403.760  109.708    0.179    0.416    6.821
  446.148 2415.940  108.340    0.172    0.409    6.877
  446.398 2415.810  102.926    0.172    0.407    6.951
  446.648 2406.510  100.078    0.177    0.413    6.958
  446.898 2365.460  102.313    0.201    0.414    6.991
  447.148 2379.330  108.656    0.193    0.419    7.220
  447.398 2423.780  115.394    0.167    0.414    7.553
  447.648 2442.940  111.028    0.156    0.420    7.664
  447.898 2419.600  103.665    0.170    0.396    7.783
  448.148 2315.360   97.054    0.231    0.376    7.785
  448.398 2341.630   90.371    0.215    0.367    7.790
  448.648 2366.700   98.970    0.201    0.372    7.663
  448.898 2397.310  105.280    0.183    0.388    7.665
  449.148 2430.460  105.169    0.163    0.404    7.501
  449.398 2426.630  101.568    0.166    0.418    7.428
  449.648 2409.950  102.377    0.175    0.395    7.092
  449.898 2413.290  110.905    0.174    0.404    6.972
  450.148 2410.050  117.004    0.175    0.416    6.861
  450.398 2383.000  124.364    0.191    0.412    6.716
