~VERSION INFORMATION
 VERS.                 2.0:   CWLS LOG ASCII STANDARD -VERSION 2.0
 WRAP.                  NO:   ONE LINE PER DEPTH STEP
~WELL INFORMATION BLOCK
#MNEM.UNIT           DATA                    DESCRIPTION OF MNEMONIC
#---------    -------------------            -------------------------------
# Generated from Intellog Unique Number	CS_73_76/WELL/2176
WELL.         DOME ET AL KIRBY               : Well_name    - WELL
LOC .         00/07-26-074-05W4/0            : Location     - LOCATION
UWI .         00/07-26-074-05W4/0            : Uwi          - UNIQUE WELL ID
ENTR.         SP                             : Entered      - ENTERED BY
SRVC.         SCHLUMBERGER                   : Scn          - SERVICE COMPANY
STRT.M        260                            : top_depth    - START DEPTH
STOP.M        470                            : bot_depth    - STOP DEPTH
STEP.M        0.25                           : increment    - STEP LENGTH
 NULL. -999.2500:NULL Value
~CURVE INFORMATION BLOCK
#MNEM UNIT       ERCB CURVE CODE    CURVE DESCRIPTION
#-----------   ------------------   ----------------------------------
DEPT.M        00 001 00 00         : DEPTH        - DEPTH
ILD .OHMM     00 120 00 00         : RESD         - DEEP RESISTIVITY (DIL)
DPHI.V/V      00 890 00 00         : PHID         - DENSITY POROSITY (LIMESTONE)
NPHI.V/V      00 330 00 00         : PHIN         - NEUTRON POROSITY (LIMESTONE)
GR  .API      00 310 00 00         : GR           - GAMMA RAY
~PARAMETER INFORMATION
#MNEM.UNIT           DATA             DESCRIPTION OF MNEMONIC
#---------         -----------     ------------------------------
GL  .M        659.1                : gl           - GROUND LEVEL ELEVATION
EREF.M        663.6                : kb           - ELEVATION OF DEPTH REFERENCE
DATM.M        659.1                : datum        - DATUM ELEVATION
TDD .M        475                  : tdd          - TOTAL DEPTH DRILLER
RUN .         ONE                  : Run          - RUN NUMBER
ENG .         BILL                 : Engineer     - RECORDING ENGINEER
WIT .         JIM                  : Witness      - WITNESSED BY
MUD .         GEL                  : Mud_type     - MUD TYPE
MATR.         LIMESTONE            : Logunit      - NEUTRON MATRIX
TMAX.C        20                   : BHT          - MAXIMUM RECORDED TEMPERATURE
BHTD.M        475                  : BHTDEP       - MAXIMUM RECORDED TEMPERATURE
MATR.         1                    : LOGUNIT      - NEUTRON MATRIX
RMT .C        25                   : MDTP         - TEMPERATURE OF MUD
NEUT.         1                    : NEUTRON      - NEUTRON TYPE
RESI.         0                    : RESIST       - RESISTIVITY TYPE
RMC .OHMM     0.25                 : RMC          - RESISTIVITY OF MUD CAKE
RMF .OHMM     0.25                 : RMF          - RESISTIVITY OF MUD FILTRATE
SUFT.C        15                   : SUFT         - SURFACE TEMPERATURE
~A  DEPTH     RESD     PHID     PHIN       GR
# ...
  303.500    7.329    0.228    0.446  115.910
  303.750    7.756    0.247    0.454  109.843
  304.000    8.056    0.256    0.460  106.813
  304.250    8.210    0.245    0.467   95.282
  304.500    8.527    0.249    0.438   86.178
  304.750    8.858    0.300    0.361   80.720
  305.000    8.694    0.325    0.305   77.082
  305.250    8.221    0.345    0.312   78.304
  305.500    7.212    0.314    0.360   83.776
  305.750    6.445    0.294    0.437   91.070
  306.000    5.981    0.281    0.488   99.578
  306.250    5.872    0.262    0.492   98.372
  306.500    5.874    0.258    0.449   97.768
  306.750    5.876    0.280    0.421   95.346
  307.000    5.878    0.300    0.390   94.745
  307.250    5.771    0.294    0.398   93.537
  307.500    5.772    0.277    0.416   89.292
  307.750    5.774    0.259    0.416   96.589
  308.000    5.565    0.256    0.427  100.236
  308.250    5.462    0.246    0.435  101.459
  308.500    5.262    0.247    0.435   94.786
  308.750    5.070    0.274    0.432   89.326
  309.000    4.886    0.301    0.429   82.651
  309.250    4.886    0.303    0.421   78.407
  309.500    4.888    0.285    0.409   72.948
  309.750    4.891    0.267    0.396   68.095
  310.000    4.892    0.252    0.400   75.998
  310.250    4.802    0.264    0.418   79.647
  310.500    4.627    0.280    0.435   76.620
  310.750    4.458    0.309    0.445   74.803
  311.000    4.376    0.324    0.440   75.416
  311.250    4.217    0.316    0.435   77.244
  311.500    4.139    0.303    0.413   79.073
  311.750    4.064    0.297    0.402   82.117
  312.000    3.989    0.274    0.405   85.765
  312.250    3.917    0.258    0.426   87.594
  312.500    3.845    0.280    0.438   75.455
  312.750    3.706    0.309    0.424   58.457
  313.000    3.638    0.335    0.424   56.034
  313.250    3.639    0.349    0.434   56.042
  313.500    3.572    0.346    0.422   56.047
  313.750    3.507    0.334    0.393   53.018
  314.000    3.508    0.325    0.388   49.381
  314.250    3.509    0.322    0.395   47.565
  314.500    3.511    0.323    0.397   48.788
  314.750    3.578    0.327    0.396   50.614
  315.000    3.580    0.339    0.393   54.873
  315.250    3.581    0.340    0.396   57.916
  315.500    3.582    0.336    0.408   59.743
  315.750    3.516    0.334    0.412   57.927
  316.000    3.517    0.333    0.411   55.505
  316.250    3.585    0.323    0.406   53.691
  316.500    3.586    0.324    0.396   51.269
  316.750    3.725    0.320    0.400   49.452
  317.000    3.797    0.317    0.392   47.029
  317.250    3.870    0.329    0.386   51.288
  317.500    3.944    0.320    0.408   54.937
  317.750    4.096    0.246    0.439   57.374
  318.000    4.255    0.246    0.451   53.735
  318.250    4.256    0.275    0.379   48.276
  318.500    4.179    0.296    0.386   46.461
  318.750    4.102    0.306    0.386   46.468
  319.000    4.028    0.306    0.378   45.866
  319.250    3.954    0.308    0.375   44.051
  319.500    3.955    0.314    0.394   42.844
  319.750    3.956    0.318    0.401   44.066
  320.000    3.885    0.314    0.405   44.071
  320.250    3.886    0.308    0.400   44.684
  320.500    3.815    0.304    0.406   44.087
  320.750    3.816    0.306    0.406   44.091
  321.000    3.818    0.311    0.405   44.100
  321.250    3.748    0.309    0.405   44.104
  321.500    3.749    0.317    0.405   44.109
  321.750    3.750    0.320    0.401   44.120
  322.000    3.752    0.323    0.394   44.733
  322.250    3.753    0.322    0.388   45.343
  322.500    3.684    0.317    0.396   47.172
  322.750    3.685    0.313    0.389   46.572
  323.000    3.686    0.311    0.381   46.578
  323.250    3.687    0.315    0.394   46.585
  323.500    3.620    0.319    0.402   46.590
  323.750    3.622    0.320    0.412   47.206
  324.000    3.236    0.323    0.414   47.211
  324.250    3.177    0.324    0.409   46.003
  324.500    3.178    0.321    0.416   46.617
  324.750    3.121    0.319    0.422   48.447
  325.000    3.121    0.324    0.422   49.059
  325.250    3.008    0.330    0.416   48.458
  325.500    2.952    0.339    0.417   47.857
  325.750    2.953    0.331    0.418   47.257
  326.000    2.900    0.325    0.409   47.266
  326.250    2.847    0.334    0.396   47.877
  326.500    2.847    0.335    0.401   47.883
  326.750    2.796    0.329    0.416   47.284
  327.000    2.796    0.324    0.422   46.074
  327.250    2.745    0.314    0.412   44.868
  327.500    2.746    0.307    0.407   44.874
  327.750    2.696    0.310    0.417   44.272
  328.000    2.647    0.330    0.408   41.242
  328.250    2.551    0.330    0.401   38.821
  328.500    2.504    0.319    0.391   38.218
  328.750    2.458    0.321    0.386   43.086
  329.000    2.368    0.335    0.387   46.734
  329.250    2.325    0.342    0.395   54.030
  329.500    2.240    0.345    0.412   57.678
  329.750    2.199    0.347    0.437   62.542
  330.000    2.119    0.354    0.440   64.979
  330.250    2.119    0.356    0.441   63.163
  330.500    2.042    0.356    0.445   57.703
  330.750    2.005    0.362    0.450   54.066
  331.000    2.005    0.367    0.453   55.288
  331.250    1.969    0.363    0.456   57.118
  331.500    1.969    0.351    0.455   55.910
  331.750    1.934    0.345    0.450   55.307
  332.000    1.934    0.351    0.453   53.493
  332.250    1.899    0.356    0.461   54.106
  332.500    1.900    0.357    0.459   55.935
  332.750    1.865    0.357    0.456   56.549
  333.000    1.865    0.356    0.456   57.162
  333.250    1.866    0.347    0.456   60.205
  333.500    1.938    0.347    0.445   64.462
  333.750    2.090    0.345    0.441   69.328
  334.000    2.212    0.336    0.458   69.941
  334.250    2.212    0.332    0.468   67.519
  334.500    2.213    0.316    0.451   57.202
  334.750    2.092    0.232    0.380   52.349
  335.000    1.836    0.258    0.380   59.642
  335.250    1.735    0.293    0.409   60.866
  335.500    1.581    0.320    0.441   60.263
  335.750    1.467    0.331    0.456   59.662
  336.000    1.387    0.338    0.462   63.921
  336.250    1.362    0.346    0.453   65.748
  336.500    1.337    0.338    0.459   59.684
  336.750    1.312    0.330    0.464   56.656
  337.000    1.313    0.331    0.453   55.445
  337.250    1.313    0.331    0.464   57.882
  337.500    1.289    0.331    0.451   59.709
  337.750    1.290    0.332    0.442   60.929
  338.000    1.290    0.335    0.450   63.365
  338.250    1.267    0.333    0.452   63.980
  338.500    1.244    0.338    0.457   62.163
  338.750    1.244    0.346    0.461   60.347
  339.000    1.221    0.343    0.435   60.354
  339.250    1.221    0.338    0.426   62.790
  339.500    1.269    0.331    0.431   64.618
  339.750    1.293    0.330    0.456   66.446
  340.000    1.343    0.322    0.476   67.061
  340.250    1.476    0.320    0.486   64.637
  340.500    1.652    0.311    0.503   59.785
  340.750    2.109    0.275    0.469   53.719
  341.000    2.275    0.111    0.182   46.438
  341.250    2.151    0.100    0.183   51.303
  341.500    1.996    0.159    0.311   59.204
  341.750    1.751    0.212    0.385   65.285
  342.000    1.452    0.260    0.412   66.504
  342.250    1.322    0.324    0.443   65.903
  342.500    1.138    0.354    0.458   68.341
  342.750    1.056    0.361    0.454   67.132
  343.000    0.980    0.347    0.462   61.066
  343.250    0.980    0.333    0.458   61.678
  343.500    1.018    0.331    0.453   64.724
  343.750    1.098    0.338    0.459   67.768
  344.000    1.119    0.344    0.463   69.594
  344.250    1.162    0.320    0.496   75.673
  344.500    1.163    0.300    0.530   93.897
  344.750    1.120    0.331    0.542   80.544
  345.000    1.020    0.349    0.511   75.692
  345.250    0.947    0.350    0.490   70.842
  345.500    0.895    0.350    0.469   68.419
  345.750    0.863    0.352    0.469   65.995
  346.000    0.863    0.338    0.471   66.004
  346.250    0.879    0.335    0.468   67.224
  346.500    0.896    0.343    0.471   69.053
  346.750    0.931    0.350    0.473   69.665
