~VERSION INFORMATION
 VERS.                 2.0:   CWLS LOG ASCII STANDARD -VERSION 2.0
 WRAP.                  NO:   ONE LINE PER DEPTH STEP
~WELL INFORMATION BLOCK
#MNEM.UNIT           DATA                    DESCRIPTION OF MNEMONIC
#---------    -------------------            -------------------------------
# Generated from Intellog Unique Number	CW_70_72/WELL/829
NULL.         -999.25                        : NULL_VALUE
WELL.         SUNDANCE ET AL SMITH 06-29     : Well_name    - WELL              
LOC .         06-29-071-22W4                 : Location     - LOCATION          
UWI .         00/06-29-071-22W4/0            : Uwi          - UNIQUE WELL ID    
ENTR.         JAYE                           : Entered      - ENTERED BY        
SRVC.         SCHLUMBERGER                   : Scn          - SERVICE COMPANY   
DATE.         9 MAR 76                       : Date         - LOG DATE          
STRT.M        402.336                        : top_depth    - START DEPTH       
STOP.M        603.586                        : bot_depth    - STOP DEPTH        
STEP.M        0.25                           : increment    - STEP LENGTH       
~CURVE INFORMATION BLOCK
#MNEM UNIT       ERCB CURVE CODE    CURVE DESCRIPTION
#-----------   ------------------   ----------------------------------
DEPT.M        00 001 00 00         : DEPTH        - DEPTH                       
DPHI.V/V      00 890 00 00         : PHID         - DENSITY POROSITY (SANDSTONE)
NPHI.V/V      00 330 00 00         : PHIN         - NEUTRON POROSITY (SANDSTONE)
GR  .API      00 310 00 00         : GR           - GAMMA RAY                   
CALI.MM       00 280 01 00         : CAL          - CALIPER                     
ILD .OHMM     00 120 00 00         : RESD         - DEEP RESISTIVITY (DIL)      
~PARAMETER INFORMATION       
#MNEM.UNIT           DATA             DESCRIPTION OF MNEMONIC
#---------         -----------     ------------------------------
GL  .M        641.421              : gl           - GROUND LEVEL ELEVATION      
EREF.M        644.896              : kb           - ELEVATION OF DEPTH REFERENCE
DATM.M        641.421              : datum        - DATUM ELEVATION             
TDD .M        625.754              : tdd          - TOTAL DEPTH DRILLER         
RUN .         ONE                  : Run          - RUN NUMBER                  
BASE.         EDM                  : Branch       - HOME BASE OF LOGGING UNIT   
MUD .         GEL                  : Mud_type     - MUD TYPE                    
MATR.         SANDSTONE            : Logunit      - NEUTRON MATRIX              
TMAX.C        22.7778              : BHT          - MAXIMUM RECORDED TEMPERATURE
BHTD.M        626.669              : BHTDEP       - MAXIMUM RECORDED TEMPERATURE
RMT .C        21.6667              : MDTP         - TEMPERATURE OF MUD          
MUDD.KG/M     0                    : MWT          - MUD DENSITY                 
NEUT.         1                    : NEUTRON      - NEUTRON TYPE                
RESI.         0                    : RESIST       - RESISTIVITY TYPE            
RM  .OHMM     1.67                 : RM           - RESISTIVITY OF MUD          
RMC .OHMM     1.25                 : RMC          - RESISTIVITY OF MUD CAKE     
RMF .OHMM     2.74                 : RMF          - RESISTIVITY OF MUD FILTRATE 
SUFT.C        -17.7778             : SUFT         - SURFACE TEMPERATURE         
~A  DEPTH     PHID     PHIN       GR      CAL     RESD
# ...
  548.336    0.160    0.435  117.478  161.093    4.915
  548.586    0.160    0.437  115.195  160.914    4.885
  548.836    0.156    0.442  112.161  160.539    4.896
  549.086    0.150    0.429  109.686  160.055    4.945
  549.336    0.170    0.418  107.592  159.570    4.982
  549.586    0.172    0.421  109.613  159.499    5.005
  549.836    0.153    0.428  114.812  161.235    5.035
  550.086    0.151    0.429  117.018  163.390    5.047
  550.336    0.167    0.431  117.734  164.166    5.053
  550.586    0.145    0.441  116.947  163.780    5.083
  550.836    0.154    0.453  113.417  162.135    5.095
  551.086    0.165    0.457  108.135  159.747    5.129
  551.336    0.124    0.450  107.158  159.262    5.159
  551.586    0.090    0.444  110.680  160.572    5.180
  551.836    0.114    0.442  118.442  161.668    5.233
  552.086    0.157    0.434  119.277  162.132    5.331
  552.336    0.170    0.421  113.561  162.066    5.556
  552.586    0.184    0.400  108.778  161.786    5.737
  552.836    0.176    0.389  107.682  161.612    5.717
  553.086    0.172    0.415  110.264  161.448    5.503
  553.336    0.179    0.424  117.591  161.366    5.260
  553.586    0.180    0.420  120.735  161.098    5.039
  553.836    0.170    0.419  120.132  161.357    4.895
  554.086    0.164    0.430  119.285  161.616    4.831
  554.336    0.144    0.423  117.751  162.074    4.747
  554.586    0.144    0.419  116.900  162.123    4.699
  554.836    0.152    0.426  116.607  162.043    4.694
  555.086    0.173    0.439  117.508  161.987    4.713
  555.336    0.180    0.450  120.655  162.134    4.742
  555.586    0.153    0.439  120.799  161.964    4.769
  555.836    0.138    0.454  120.766  161.790    4.817
  556.086    0.124    0.457  124.473  161.725    4.891
  556.336    0.151    0.438  130.047  161.876    5.041
  556.586    0.164    0.391  134.441  162.135    5.321
  556.836    0.161    0.369  124.545  161.536    5.850
  557.086    0.105    0.343  109.157  160.528    7.050
  557.336    0.071    0.288   94.455  159.618    8.852
  557.586    0.032    0.262   78.755  159.127   10.711
  557.836   -0.001    0.264   83.457  158.849   12.194
  558.086   -0.008    0.296   88.535  158.686   13.329
  558.336    0.010    0.317   92.618  158.304   13.168
  558.586    0.026    0.337   95.825  158.344    9.956
  558.836    0.038    0.360   98.468  159.007    7.457
  559.086    0.055    0.385  100.115  159.272    5.828
  559.336    0.085    0.400  100.573  160.047    5.156
  559.586    0.099    0.410   99.353  160.824    5.351
  559.836    0.113    0.404   95.822  161.718    5.745
  560.086    0.103    0.368   95.784  162.080    5.996
  560.336    0.088    0.370   98.617  161.268    6.178
  560.586    0.096    0.392  103.694  159.944    6.229
  560.836    0.142    0.407  106.776  158.391    6.142
  561.086    0.147    0.414  108.796  157.908    6.000
  561.336    0.122    0.417  110.131  158.269    5.788
  561.586    0.124    0.421  110.468  158.941    5.662
  561.836    0.141    0.427  110.740  159.725    5.633
  562.086    0.164    0.432  110.017  159.968    5.776
  562.336    0.152    0.428  107.047  160.013    6.052
  562.586    0.138    0.410   98.397  159.942    6.351
  562.836    0.122    0.371   94.054  159.783    6.943
  563.086    0.095    0.351   94.016  159.706    7.425
  563.336    0.060    0.343   94.226  159.648    7.652
  563.586    0.062    0.345   97.434  159.488    7.517
  563.836    0.098    0.364  104.448  159.625    7.187
  564.086    0.119    0.380  111.898  159.778    6.965
  564.336    0.125    0.390  110.487  160.018    6.630
  564.586    0.123    0.399  111.757  160.178    6.312
  564.836    0.134    0.410  116.645  160.107    6.166
  565.086    0.162    0.416  112.679  159.824    6.102
  565.336    0.164    0.385  106.840  159.350    6.086
  565.586    0.111    0.369  100.686  157.915    6.123
  565.836    0.100    0.350  101.021  154.773    6.251
  566.086    0.105    0.341  103.168  155.134    6.538
  566.336    0.096    0.353  102.319  156.343    6.918
  566.586    0.089    0.346  101.283  158.073    7.021
  566.836    0.085    0.359  105.920  158.738    6.973
  567.086    0.078    0.385  110.004  158.371    6.638
  567.336    0.115    0.398  116.142  157.563    6.320
  567.586    0.153    0.385  118.726  157.284    6.083
  567.836    0.154    0.373  122.246  157.223    5.869
  568.086    0.129    0.384  129.321  157.575    5.778
  568.336    0.146    0.396  123.419  158.367    5.735
  568.586    0.144    0.385  117.576  159.572    5.731
  568.836    0.141    0.379  112.670  160.661    5.731
  569.086    0.125    0.379  106.892  160.283    5.705
  569.336    0.147    0.391  101.922  157.896    5.813
  569.586    0.151    0.393  104.384  155.193    6.047
  569.836    0.136    0.387  102.781  156.607    6.208
  570.086    0.107    0.378  100.063  153.998    6.328
  570.336    0.102    0.369  102.582  153.198    6.333
  570.586    0.181    0.387  107.350  155.670    6.128
  570.836    0.208    0.404  111.489  162.895    5.166
  571.086    0.230    0.438  114.386  171.077    3.949
  571.336    0.288    0.506  118.153  192.193    3.098
  571.586    0.327    0.559  120.053  208.989    2.512
  571.836    0.342    0.559  115.958  213.145    2.238
  572.086    0.362    0.559  110.802  217.202    2.320
  572.336    0.357    0.552  106.393  224.744    2.716
  572.586    0.353    0.586  103.926  194.043    3.074
  572.836    0.201    0.470  100.704  162.171    3.531
  573.086    0.084    0.396   98.359  156.711    4.103
  573.336    0.045    0.368   95.886  157.077    5.094
  573.586   -0.002    0.356  100.155  157.434    5.725
  573.836    0.042    0.383  106.232  158.631    5.574
  574.086    0.073    0.428  111.436  159.949    5.048
  574.336    0.086    0.442  119.507  165.588    4.499
  574.586    0.099    0.467  124.274  173.232    4.304
  574.836    0.147    0.476  121.990  172.960    4.324
  575.086    0.138    0.456  116.961  168.779    4.659
  575.336    0.125    0.401  109.622  163.641    5.072
  575.586    0.117    0.365   96.107  158.821    5.980
  575.836    0.074    0.281   73.040  154.206    7.051
  576.086    0.035    0.254   72.880  151.815    7.346
  576.336    0.019    0.262   92.747  153.335    6.697
  576.586    0.063    0.352  104.937  155.166    6.370
  576.836    0.141    0.436  104.837  156.598    5.771
  577.086    0.124    0.417  104.677  158.955    5.208
  577.336    0.115    0.410  107.884  160.692    4.788
  577.586    0.134    0.423  113.081  161.151    4.601
  577.836    0.130    0.431  117.224  160.777    4.486
  578.086    0.134    0.429  118.002  160.177    4.439
  578.336    0.126    0.440  116.213  160.005    4.394
  578.586    0.101    0.442  116.361  159.730    4.378
  578.836    0.103    0.436  117.511  159.757    4.358
  579.086    0.131    0.437  118.845  159.489    4.345
  579.336    0.151    0.446  119.746  159.753    4.285
  579.586    0.137    0.454  118.581  160.001    4.223
  579.836    0.147    0.474  114.613  160.356    4.125
  580.086    0.128    0.453  113.577  161.033    4.016
  580.336    0.046    0.445  116.161  161.717    3.967
  580.586    0.130    0.466  119.680  163.133    3.883
  580.836    0.172    0.451  120.076  164.335    3.778
  581.086    0.159    0.447  119.354  161.625    3.631
  581.336    0.142    0.459  115.134  162.411    3.547
  581.586    0.138    0.449  119.091  163.497    3.496
  581.836    0.179    0.492  117.241  164.494    3.486
  582.086    0.177    0.483  114.957  164.119    3.680
  582.336    0.168    0.439  118.040  158.770    3.877
  582.586    0.155    0.426  118.373  158.382    4.254
  582.836    0.142    0.442  115.032  158.747    4.792
  583.086    0.142    0.437  108.691  159.417    5.094
  583.336    0.084    0.398  113.457  159.571    5.125
  583.586    0.089    0.369  120.471  158.655    4.862
  583.836    0.143    0.397  124.423  157.640    4.331
  584.086    0.146    0.407  121.705  157.156    3.989
  584.336    0.115    0.426  123.225  159.627    3.846
  584.586    0.121    0.451  126.617  165.898    3.772
