~VERSION INFORMATION
 VERS.                 2.0:   CWLS LOG ASCII STANDARD -VERSION 2.0
 WRAP.                  NO:   ONE LINE PER DEPTH STEP
~WELL INFORMATION BLOCK
#MNEM.UNIT           DATA                    DESCRIPTION OF MNEMONIC
#---------    -------------------            -------------------------------
# Generated from Intellog Unique Number	CX_WELLS/WELL/3196
WELL.         HB HORSER                      : Well_name    - WELL
LOC .         00/06-16-083-13W4/0            : Location     - LOCATION
UWI .         00/06-16-083-13W400            : Uwi          - UNIQUE WELL ID
ENTR.         T                              : Entered      - ENTERED BY
SRVC.         SCHLUMBERGER                   : Scn          - SERVICE COMPANY
STRT.F        400                            : top_depth    - START DEPTH
STOP.F        1199.7                         : bot_depth    - STOP DEPTH
STEP.F        0.82                           : increment    - STEP LENGTH
 NULL. -999.2500:NULL Value
~CURVE INFORMATION BLOCK
#MNEM UNIT       ERCB CURVE CODE    CURVE DESCRIPTION
#-----------   ------------------   ----------------------------------
DEPT.F        00 001 00 00         : DEPTH        - DEPTH
GR  .API      00 310 00 00         : GR           - GAMMA RAY
NPHI.V/V      00 330 00 00         : PHIN         - NEUTRON POROSITY (SANDSTONE)
DPHI.V/V      00 890 00 00         : PHID         - DENSITY POROSITY (SANDSTONE)
ILD .OHMM     00 120 00 00         : RESD         - DEEP RESISTIVITY (DIL)
~PARAMETER INFORMATION
#MNEM.UNIT           DATA             DESCRIPTION OF MNEMONIC
#---------         -----------     ------------------------------
GL  .F        1876                 : gl           - GROUND LEVEL ELEVATION
EREF.F        1884                 : kb           - ELEVATION OF DEPTH REFERENCE
DATM.F        1884                 : datum        - DATUM ELEVATION
TDD .F        1204                 : tdd          - TOTAL DEPTH DRILLER
RUN .         ONE                  : Run          - RUN NUMBER
ENG .         BILL                 : Engineer     - RECORDING ENGINEER
WIT .         JIM                  : Witness      - WITNESSED BY
MUD .         GEL                  : Mud_type     - MUD TYPE
MATR.         SANDSTONE            : Logunit      - NEUTRON MATRIX
TMAX.F        78                   : BHT          - MAXIMUM RECORDED TEMPERATURE
BHTD.F        1204                 : BHTDEP       - MAXIMUM RECORDED TEMPERATURE
MATR.         1                    : LOGUNIT      - NEUTRON MATRIX
RMT .F        77                   : MDTP         - TEMPERATURE OF MUD
NEUT.         1                    : NEUTRON      - NEUTRON TYPE
RESI.         5.25                 : RESIST       - RESISTIVITY TYPE
RMC .OHMM     2.8                  : RMC          - RESISTIVITY OF MUD CAKE
RMF .OHMM     3.02                 : RMF          - RESISTIVITY OF MUD FILTRATE
SUFT.F        32                   : SUFT         - SURFACE TEMPERATURE
~A  DEPTH       GR     PHIN     PHID     RESD
  400.000  107.052    0.538    0.239    3.180
  400.820  106.546    0.541    0.235    3.312
  401.640  106.644    0.540    0.232    3.325
  402.461  107.419    0.529    0.232    3.395
  403.281  108.096    0.515    0.234    3.475
  404.101  108.798    0.503    0.238    3.548
  404.921  109.475    0.499    0.246    3.628
  405.741  109.597    0.504    0.250    3.707
  406.562  107.860    0.512    0.249    3.716
  407.382  104.939    0.518    0.251    3.871
  408.202  102.019    0.523    0.258    3.955
  409.022   96.683    0.524    0.260    4.045
  409.843   91.952    0.516    0.265    4.206
  410.663   86.616    0.483    0.267    4.722
  411.483   83.067    0.424    0.236    5.093
  412.303   75.921    0.336    0.183    5.494
  413.123   68.171    0.340    0.167    6.754
  413.944   60.421    0.366    0.196    7.420
  414.764   60.519    0.398    0.268    8.633
  415.584   61.220    0.421    0.286    9.854
  416.404   60.739    0.416    0.293   10.239
  417.224   60.209    0.414    0.270   10.870
  418.045   59.703    0.411    0.258   11.099
  418.865   59.222    0.409    0.226   11.560
  419.685   59.320    0.407    0.210   11.598
  420.505   59.442    0.407    0.230   11.860
  421.325   58.936    0.407    0.275   11.692
  422.146   59.034    0.408    0.289   11.711
  422.966   58.553    0.411    0.290   11.750
  423.786   58.651    0.415    0.292   11.798
  424.606   58.749    0.417    0.296   11.836
  425.427   58.847    0.418    0.297   12.328
  426.247   58.920    0.414    0.293   12.587
  427.067   59.018    0.410    0.290   13.120
  427.887   59.165    0.408    0.285   13.396
  428.707   59.239    0.408    0.282   13.952
  429.528   58.758    0.408    0.270   13.986
  430.348   58.880    0.408    0.241   14.315
  431.168   59.533    0.405    0.242   14.350
  431.988   60.259    0.405    0.281   14.397
  432.808   61.564    0.407    0.289   14.432
  433.629   64.077    0.406    0.278   13.969
  434.449   69.608    0.404    0.269   13.761
  435.269   75.768    0.407    0.267   13.555
  436.089   84.946    0.422    0.282   13.120
  436.909   92.288    0.439    0.276   12.914
  437.730   97.289    0.458    0.265   11.396
  438.550   96.131    0.467    0.261    9.169
  439.370   93.838    0.475    0.262    7.118
  440.190   91.522    0.470    0.268    6.516
  441.010   87.369    0.459    0.279    6.424
  441.831   80.223    0.451    0.293    6.685
  442.651   72.448    0.443    0.301    7.356
  443.471   68.320    0.438    0.302    8.238
  444.291   69.674    0.439    0.302    9.058
  445.112   69.168    0.444    0.301    9.975
  445.932   68.035    0.454    0.301   10.185
  446.752   65.718    0.451    0.301   10.210
  447.572   67.023    0.443    0.301   10.243
  448.392   72.579    0.441    0.301   10.293
  449.213   75.695    0.438    0.300   10.335
  450.033   77.604    0.434    0.298   10.352
  450.853   80.142    0.431    0.289   10.394
  451.673   82.075    0.432    0.282   10.428
  452.493   80.362    0.436    0.239   10.272
  453.314   78.649    0.441    0.224    9.943
  454.134   81.137    0.450    0.209    9.278
  454.954   93.962    0.462    0.267    8.796
  455.774   98.286    0.467    0.298    8.052
  456.594  106.256    0.479    0.300    7.106
  457.415  111.788    0.511    0.294    6.152
  458.235  119.155    0.533    0.300    5.429
  459.055  119.253    0.568    0.306    4.623
  459.875  110.899    0.545    0.316    4.155
  460.696  104.331    0.519    0.309    4.022
  461.516  101.411    0.506    0.284    4.182
  462.336  104.552    0.455    0.231    4.515
  463.156  107.693    0.440    0.217    5.056
  463.976  110.206    0.449    0.230    5.662
  464.797  110.907    0.466    0.249    6.588
  465.617  105.572    0.482    0.256    7.237
  466.437  100.816    0.472    0.259    8.111
  467.257   94.273    0.465    0.259    9.091
  468.077   87.151    0.459    0.254    9.644
  468.898   82.395    0.454    0.249   10.230
  469.718   77.638    0.450    0.261   10.445
  470.538   73.511    0.447    0.276   10.664
  471.358   68.200    0.445    0.292   11.116
  472.178   69.529    0.442    0.303   11.350
  472.999   73.829    0.439    0.315   11.607
  473.819   79.385    0.434    0.312   11.635
  474.639   83.709    0.432    0.300   11.899
  475.459   86.825    0.428    0.281   12.158
  476.280   88.179    0.427    0.285   12.433
  477.100   88.881    0.425    0.296   12.705
  477.920   88.375    0.424    0.306   12.982
  478.740   85.430    0.424    0.311   12.788
  479.560   85.528    0.425    0.311   13.319
  480.381   89.877    0.428    0.305   13.621
  481.201   91.810    0.430    0.308   13.895
  482.021   94.323    0.430    0.311   14.473
  482.841   96.232    0.430    0.310   14.520
  483.661   96.330    0.430    0.310   14.555
  484.482   95.221    0.428    0.308   14.603
  485.302   91.696    0.429    0.305   14.946
  486.122   88.172    0.433    0.304   15.007
  486.942   88.294    0.438    0.308   15.322
  487.762   92.015    0.445    0.309   15.359
  488.583   95.131    0.456    0.312   15.359
  489.403   97.065    0.462    0.314   14.928
  490.223   97.791    0.459    0.314   15.523
  491.043   98.468    0.456    0.311   15.303
  491.864  100.426    0.454    0.305   15.365
  492.684  101.707    0.451    0.299   15.390
  493.504  102.988    0.449    0.284   15.173
  494.324  106.129    0.447    0.268   15.222
  495.144  106.830    0.444    0.263   15.007
  495.965  100.288    0.441    0.273   14.782
  496.785   95.531    0.437    0.279   14.573
  497.605   93.215    0.433    0.264   14.332
  498.425   95.752    0.433    0.253   13.621
  499.245   97.686    0.445    0.263   12.934
  500.066  100.198    0.457    0.265   12.059
  500.886  102.711    0.468    0.229   11.654
  501.706  105.827    0.493    0.213   10.866
  502.526  112.615    0.519    0.190    9.415
  503.346  116.335    0.509    0.181    8.158
  504.167  121.263    0.511    0.156    7.199
  504.987  128.026    0.518    0.152    6.353
  505.807  132.350    0.525    0.159    5.816
  506.627  128.875    0.520    0.178    5.320
  507.448  126.509    0.517    0.185    4.870
  508.268  122.405    0.513    0.192    4.540
  509.088  120.692    0.508    0.191    4.473
  509.908  120.766    0.505    0.192    4.745
  510.728  122.096    0.512    0.220    5.037
  511.549  123.376    0.539    0.246    5.139
  512.369  127.146    0.541    0.256    5.155
  513.189  129.658    0.538    0.283    4.908
  514.009  130.360    0.535    0.294    4.572
  514.829  129.251    0.540    0.285    4.259
  515.650  125.726    0.543    0.272    3.968
  516.470  121.574    0.537    0.285    3.569
  517.290  114.427    0.532    0.301    4.301
  518.110  105.470    0.521    0.308    5.685
  518.930   98.903    0.507    0.314    6.484
  519.751   95.378    0.466    0.302    7.819
  520.571  101.538    0.456    0.272    9.091
  521.391  106.465    0.445    0.262    9.461
  522.211  107.820    0.446    0.243    9.854
  523.031  107.918    0.452    0.238    9.878
  523.852  106.204    0.459    0.271    9.746
  524.672  102.076    0.457    0.278    9.411
  525.492  100.943    0.448    0.273    9.102
  526.312  106.498    0.453    0.268    8.650
  527.133  110.871    0.471    0.262    8.380
  527.953  111.524    0.477    0.268    8.407
  528.773  111.671    0.472    0.282    8.421
  529.593  111.744    0.446    0.281    8.618
  530.413  111.842    0.438    0.277    8.792
  531.234  113.197    0.437    0.278    8.984
  532.054  113.874    0.445    0.279    9.365
  532.874  113.368    0.452    0.281    9.561
  533.694  111.630    0.450    0.284    9.786
  534.514  107.502    0.447    0.274    9.802
  535.335  100.984    0.443    0.260   10.209
  536.155   90.770    0.442    0.256   10.642
  536.975   85.435    0.439    0.263   10.659
  537.795   71.019    0.434    0.288   10.892
  538.615   67.544    0.446    0.302   11.345
  539.436   67.014    0.454    0.307   11.601
  540.256   67.161    0.450    0.307   11.845
  541.076   67.838    0.445    0.311   12.113
  541.896   68.564    0.440    0.312   12.387
