~VERSION INFORMATION
 VERS.                 2.0:   CWLS LOG ASCII STANDARD -VERSION 2.0
 WRAP.                  NO:   ONE LINE PER DEPTH STEP
~WELL INFORMATION BLOCK
#MNEM.UNIT           DATA                    DESCRIPTION OF MNEMONIC
#---------    -------------------            -------------------------------
# Generated from Intellog Unique Number	CW_82_90/WELL/3423
WELL.         COSEKA BCRIC LIEGE             : Well_name    - WELL
LOC .         00/06-31-089-19W4/0            : Location     - LOCATION
UWI .         00/06-31-089-19W400            : Uwi          - UNIQUE WELL ID
ENTR.         MAX                            : Entered      - ENTERED BY
SRVC.         SCHLUMBERGER                   : Scn          - SERVICE COMPANY
STRT.M        175                            : top_depth    - START DEPTH
STOP.M        253                            : bot_depth    - STOP DEPTH
STEP.M        0.25                           : increment    - STEP LENGTH
 NULL. -999.2500:NULL Value
~CURVE INFORMATION BLOCK
#MNEM UNIT       ERCB CURVE CODE    CURVE DESCRIPTION
#-----------   ------------------   ----------------------------------
DEPT.M        00 001 00 00         : DEPTH        - DEPTH
ILD .OHMM     00 120 00 00         : RESD         - DEEP RESISTIVITY (DIL)
NPHI.V/V      00 330 00 00         : PHIN         - NEUTRON POROSITY (SANDSTONE)
DPHI.V/V      00 890 00 00         : PHID         - DENSITY POROSITY (SANDSTONE)
CALI.MM       00 280 01 00         : CAL          - CALIPER
GR  .API      00 310 00 00         : GR           - GAMMA RAY
~PARAMETER INFORMATION
#MNEM.UNIT           DATA             DESCRIPTION OF MNEMONIC
#---------         -----------     ------------------------------
GL  .M        517.4                : gl           - GROUND LEVEL ELEVATION
EREF.M        521                  : kb           - ELEVATION OF DEPTH REFERENCE
DATM.M        517.4                : datum        - DATUM ELEVATION
TDD .M        254                  : tdd          - TOTAL DEPTH DRILLER
RUN .         ONE                  : Run          - RUN NUMBER
ENG .         BILL                 : Engineer     - RECORDING ENGINEER
WIT .         JIM                  : Witness      - WITNESSED BY
MUD .         GEL                  : Mud_type     - MUD TYPE
MATR.         SANDSTONE            : Logunit      - NEUTRON MATRIX
TMAX.C        18.3                 : BHT          - MAXIMUM RECORDED TEMPERATURE
BHTD.M        254                  : BHTDEP       - MAXIMUM RECORDED TEMPERATURE
MATR.         1                    : LOGUNIT      - NEUTRON MATRIX
RMT .C        12.2                 : MDTP         - TEMPERATURE OF MUD
NEUT.         1                    : NEUTRON      - NEUTRON TYPE
RESI.         0                    : RESIST       - RESISTIVITY TYPE
RMC .OHMM     1.741                : RMC          - RESISTIVITY OF MUD CAKE
RMF .OHMM     2.2                  : RMF          - RESISTIVITY OF MUD FILTRATE
SUFT.C        -5                   : SUFT         - SURFACE TEMPERATURE
~A  DEPTH     RESD     PHIN     PHID      CAL       GR
# ...
  211.500   10.326    0.456    0.167  171.762  105.747
  211.750   10.315    0.448    0.160  171.740  109.630
  212.000   10.304    0.449    0.165  171.211  104.217
  212.250   10.107    0.453    0.176  171.186   97.899
  212.500    9.910    0.468    0.196  171.657  101.187
  212.750    9.807    0.444    0.178  172.132  109.871
  213.000    9.800    0.439    0.160  172.107  106.856
  213.250    9.791    0.479    0.158  172.081   99.642
  213.500    9.781    0.429    0.126  172.559   93.926
  213.750    9.681    0.394    0.080  172.531   97.212
  214.000    9.581    0.389    0.126  172.006  103.496
  214.250    9.484    0.415    0.190  171.980  107.078
  214.500    9.649    0.426    0.194  171.955  108.865
  214.750    9.820    0.425    0.188  171.430  110.349
  215.000   10.181    0.445    0.177  170.905  109.732
  215.250   10.458    0.468    0.158  170.379   98.619
  215.500   10.840    0.436    0.135  169.357   93.505
  215.750   11.238    0.392    0.088  168.823   92.888
  216.000   11.651    0.374    0.167  168.804   97.374
  216.250   11.748    0.418    0.187  172.275  105.757
  216.500   12.065    0.400    0.202  172.253  106.942
  216.750   12.508    0.402    0.196  171.228  102.127
  217.000   13.208    0.408    0.178  170.199  100.013
  217.250   13.320    0.389    0.138  170.174   95.195
  217.500   13.182    0.338    0.008  170.152   95.179
  217.750   12.928    0.317    0.062  170.123   96.064
  218.000   12.563    0.341    0.095  171.101  106.249
  218.250   11.653    0.388    0.124  172.572  114.634
  218.500   10.811    0.432    0.171  177.549  113.717
  218.750   10.217    0.451    0.188  178.518  112.201
  219.000    9.926    0.469    0.198  177.499  112.187
  219.250   10.290    0.478    0.195  176.964  115.172
  219.500   10.377    0.448    0.188  177.442  118.154
  219.750   10.366    0.429    0.177  178.420  115.441
  220.000    9.978    0.406    0.169  178.394  113.623
  220.250    9.516    0.426    0.174  178.866  113.609
  220.500    9.078    0.449    0.190  179.840  114.494
  220.750    8.660    0.480    0.200  182.315  117.180
  221.000    7.886    0.481    0.205  183.786  120.464
  221.250    7.248    0.484    0.208  183.264  123.449
  221.500    7.512    0.506    0.210  182.242  124.332
  221.750    8.083    0.525    0.205  181.714  118.919
  222.000    8.940    0.493    0.178  180.192  108.704
  222.250    9.355    0.425    0.041  173.661  104.186
  222.500    9.696    0.393    0.116  172.133  105.372
  222.750    9.687    0.412    0.181  172.608  107.759
  223.000    9.413    0.448    0.168  174.088  108.341
  223.250    8.978    0.464    0.176  175.563  110.126
  223.500    8.644    0.455    0.186  177.037  108.313
  223.750    8.399    0.447    0.185  178.006  111.297
  224.000    8.161    0.448    0.183  178.480  118.481
  224.250    7.929    0.448    0.181  178.458  117.264
  224.500    7.563    0.447    0.176  179.433  119.050
  224.750    7.214    0.442    0.181  179.404  125.934
  225.000    7.140    0.441    0.188  179.385  123.219
  225.250    7.066    0.468    0.195  179.360  111.802
  225.500    7.125    0.481    0.193  179.335  112.387
  225.750    7.318    0.474    0.196  180.806  116.273
  226.000    7.379    0.458    0.193  181.281  121.057
  226.250    7.441    0.447    0.197  181.752  122.238
  226.500    7.641    0.447    0.202  182.230  124.026
  226.750    7.922    0.452    0.197  178.702  122.511
  227.000    8.366    0.487    0.149  177.180  117.097
  227.250    8.999    0.460    0.109  175.649  107.184
  227.500    9.772    0.436    0.011  175.124   98.768
  227.750   10.321    0.381    0.000  175.105  105.652
  228.000   10.599    0.363    0.100  175.076  116.137
  228.250   10.396    0.405    0.184  175.551  117.619
  228.500   10.007    0.431    0.192  176.025  117.302
  228.750    9.815    0.421    0.185  176.500  120.888
  229.000    9.715    0.418    0.192  176.472  126.872
  229.250    9.613    0.438    0.202  174.950  126.855
  229.500    9.518    0.474    0.197  172.918  125.942
  229.750    9.507    0.458    0.190  173.396  123.827
  230.000    9.586    0.441    0.172  173.374  119.613
  230.250    9.576    0.406    0.157  174.349  117.496
  230.500    9.567    0.387    0.153  175.317  115.681
  230.750    9.557    0.357    0.158  175.295  114.764
  231.000    9.457    0.397    0.166  175.273  114.153
  231.250    9.107    0.441    0.178  175.747  112.036
  231.500    8.449    0.431    0.174  175.722  111.121
  231.750    7.693    0.436    0.173  175.697  116.805
  232.000    7.071    0.483    0.194  175.665  120.089
  232.250    6.744    0.511    0.204  175.637  114.975
  232.500    6.863    0.527    0.192  175.115  105.661
  232.750    7.249    0.502    0.170  175.089   98.448
  233.000    7.944    0.469    0.108  174.561   93.031
  233.250    8.951    0.339    0.030  174.539   94.516
  233.500   10.761    0.321    0.069  174.514  100.802
  233.750   12.578    0.367    0.131  174.491  102.584
  234.000   12.569    0.407    0.163  175.466   95.970
  234.250   12.100    0.422    0.203  175.937   79.158
  234.500   11.330    0.427    0.225  175.412   72.242
  234.750    8.897    0.398    0.221  177.383   76.428
  235.000    7.251    0.393    0.203  178.864   84.511
  235.250    5.589    0.423    0.186  182.335   92.295
  235.500    4.771    0.431    0.191  183.310   98.279
  235.750    4.187    0.467    0.206  183.781  101.561
  236.000    3.920    0.505    0.212  183.756  101.248
  236.250    3.953    0.521    0.216  183.228  102.431
  236.500    4.060    0.516    0.236  183.209  105.117
  236.750    4.450    0.504    0.221  182.677  108.999
  237.000    6.931    0.483    0.201  182.658  102.085
  237.250    9.057    0.467    0.175  182.130   92.172
  237.500   11.723    0.439    0.147  181.605   81.058
  237.750   15.317    0.392    0.164  181.083   77.742
  238.000   17.418    0.415    0.236  180.057   82.228
  238.250   18.052    0.429    0.249  179.029   84.612
  238.500   18.376    0.437    0.241  178.504   83.697
  238.750   19.047    0.444    0.244  177.976   82.178
  239.000   19.564    0.449    0.188  177.450   79.766
  239.250   20.282    0.413    0.148  176.925   79.149
  239.500   20.834    0.382    0.172  176.903   80.335
  239.750   22.204    0.403    0.221  176.375   83.016
  240.000   23.448    0.414    0.237  175.849   82.704
  240.250   24.762    0.425    0.249  175.824   80.888
  240.500   25.912    0.436    0.258  175.799   75.175
  240.750   27.109    0.446    0.258  175.774   70.059
  241.000   27.334    0.431    0.231  176.251   71.546
  241.250   26.562    0.454    0.210  176.223   71.829
  241.500   23.311    0.469    0.188  176.198   73.911
  241.750   12.760    0.431    0.047  176.172   80.499
  242.000    9.304    0.358    0.065  176.644   89.482
  242.250    9.125    0.385    0.143  177.118   95.466
  242.500    9.199    0.436    0.190  177.093   95.149
  242.750    9.715    0.496    0.221  177.071   85.533
  243.000   10.847    0.499    0.234  177.543   77.121
  243.250   12.566    0.459    0.247  177.520   61.509
  243.500   15.677    0.432    0.257  177.986   50.094
  243.750   19.376    0.417    0.274  178.470   46.777
  244.000   23.947    0.391    0.273  178.938   57.562
  244.250   23.485    0.376    0.256  181.415   65.046
  244.500   21.191    0.389    0.245  185.393   71.629
  244.750   18.768    0.398    0.229  189.867   76.415
  245.000   17.413    0.408    0.218  190.841   80.596
  245.250   17.394    0.439    0.229  191.816   78.781
  245.500   17.868    0.465    0.241  191.787   72.169
  245.750   18.867    0.482    0.251  190.262   65.255
  246.000   19.927    0.477    0.260  190.234   61.640
  246.250   21.834    0.454    0.267  189.705   62.523
  246.500   22.848    0.438    0.263  189.183   65.509
  246.750   21.791    0.368    0.248  187.155   73.892
  247.000   19.660    0.338    0.221  186.636   78.077
  247.250   17.741    0.371    0.192  185.608   70.863
  247.500   15.857    0.411    0.198  184.586   66.346
  247.750   15.129    0.420    0.187  184.558   65.131
