~VERSION INFORMATION
 VERS.                 2.0:   CWLS LOG ASCII STANDARD -VERSION 2.0
 WRAP.                  NO:   ONE LINE PER DEPTH STEP
~WELL INFORMATION BLOCK
#MNEM.UNIT           DATA                    DESCRIPTION OF MNEMONIC
#---------    -------------------            -------------------------------
# Generated from Intellog Unique Number	CW_73_75/WELL/3517
WELL.         CABRE EXPLORATION              : Well_name    - WELL
LOC .         00/02-05-074-04W5/0            : Location     - LOCATION
UWI .         00/02-05-074-04W5/0            : Uwi          - UNIQUE WELL ID
ENTR.         T                              : Entered      - ENTERED BY
SRVC.         SCHLUMBERGER                   : Scn          - SERVICE COMPANY
DATE.         05\15\92                       : Date         - LOG DATE
STRT.M        335                            : top_depth    - START DEPTH
STOP.M        590                            : bot_depth    - STOP DEPTH
STEP.M        0.25                           : increment    - STEP LENGTH
 NULL. -999.2500:NULL Value
~CURVE INFORMATION BLOCK
#MNEM UNIT       ERCB CURVE CODE    CURVE DESCRIPTION
#-----------   ------------------   ----------------------------------
DEPT.M        00 001 00 00         : DEPTH        - DEPTH
ILD .OHMM     00 120 00 00         : RESD         - DEEP RESISTIVITY (DIL)
DPHI.V/V      00 890 00 00         : PHID         - DENSITY POROSITY (SANDSTONE)
NPHI.V/V      00 330 00 00         : PHIN         - NEUTRON POROSITY (SANDSTONE)
GR  .API      00 310 00 00         : GR           - GAMMA RAY
~PARAMETER INFORMATION
#MNEM.UNIT           DATA             DESCRIPTION OF MNEMONIC
#---------         -----------     ------------------------------
GL  .M        593                  : gl           - GROUND LEVEL ELEVATION
EREF.M        597                  : kb           - ELEVATION OF DEPTH REFERENCE
DATM.M        597                  : datum        - DATUM ELEVATION
TDD .M        1628                 : tdd          - TOTAL DEPTH DRILLER
RUN .         ONE                  : Run          - RUN NUMBER
ENG .         JO                   : Engineer     - RECORDING ENGINEER
WIT .         TIM                  : Witness      - WITNESSED BY
MUD .         GEL                  : Mud_type     - MUD TYPE
MATR.         SANDSTONE            : Logunit      - NEUTRON MATRIX
TMAX.C        44                   : BHT          - MAXIMUM RECORDED TEMPERATURE
BHTD.M        1628                 : BHTDEP       - MAXIMUM RECORDED TEMPERATURE
RMT .C        15                   : MDTP         - TEMPERATURE OF MUD
MUDD.KG/M     1080                 : MWT          - MUD DENSITY
NEUT.         1                    : NEUTRON      - NEUTRON TYPE
RESI.         0                    : RESIST       - RESISTIVITY TYPE
RM  .OHMM     0.97                 : RM           - RESISTIVITY OF MUD
RMC .OHMM     0.688                : RMC          - RESISTIVITY OF MUD CAKE
RMF .OHMM     0.84                 : RMF          - RESISTIVITY OF MUD FILTRATE
SUFT.C        4                    : SUFT         - SURFACE TEMPERATURE
~A  DEPTH     RESD     PHID     PHIN       GR
# ...
  378.500    5.911    0.391    0.354   46.014
  378.750    6.359    0.359    0.339   44.233
  379.000    6.477    0.326    0.344   43.045
  379.250    6.718    0.332    0.353   41.256
  379.500    6.842    0.338    0.358   40.063
  379.750    7.097    0.339    0.358   38.279
  380.000    7.228    0.341    0.355   37.678
  380.250    7.498    0.347    0.346   37.074
  380.500    7.636    0.349    0.356   37.063
  380.750    7.777    0.351    0.366   37.043
  381.000    7.778    0.348    0.371   37.616
  381.250    7.778    0.348    0.371   38.188
  381.500    7.778    0.350    0.368   38.169
  381.750    7.638    0.351    0.351   38.149
  382.000    7.364    0.351    0.351   38.141
  382.250    7.100    0.352    0.357   38.121
  382.500    6.600    0.353    0.364   38.102
  382.750    6.363    0.353    0.366   38.094
  383.000    5.915    0.353    0.362   37.490
  383.250    5.600    0.352    0.353   36.882
  383.500    5.499    0.349    0.354   36.862
  383.750    5.601    0.341    0.354   36.254
  384.000    6.025    0.341    0.353   36.246
  384.250    5.917    0.341    0.351   35.638
  384.500    6.026    0.344    0.347   35.623
  384.750    6.365    0.346    0.340   35.611
  385.000    6.848    0.349    0.336   35.591
  385.250    7.642    0.350    0.337   36.160
  385.500    8.073    0.349    0.341   36.733
  385.750    8.373    0.348    0.346   36.129
  386.000    8.685    0.345    0.360   36.113
  386.250    8.686    0.348    0.371   37.270
  386.500    8.374    0.393    0.359   37.850
  386.750    7.236    0.439    0.369   39.600
  387.000    6.028    0.465    0.407   46.052
  387.250    4.419    0.513    0.431   50.748
  387.500    3.240    0.651    0.479   54.850
  387.750    2.749    0.698    0.499   61.895
  388.000    2.957    0.667    0.472   65.994
  388.250    3.486    0.620    0.444   67.744
  388.500    4.184    0.382    0.384   62.432
  388.750    5.605    0.361    0.371   51.826
  389.000    6.141    0.318    0.366   44.161
  389.250    6.607    0.297    0.337   38.850
  389.500    6.980    0.276    0.332   39.415
  389.750    7.240    0.308    0.327   40.576
  390.000    7.240    0.380    0.321   38.207
  390.250    6.854    0.408    0.320   37.607
  390.500    6.143    0.399    0.326   44.652
  390.750    4.671    0.375    0.370   56.988
  391.000    3.684    0.360    0.404   55.207
  391.250    3.125    0.354    0.383   52.253
  391.500    2.750    0.650    0.411   49.296
  391.750    2.853    0.703    0.491   45.154
  392.000    3.183    0.714    0.570   45.142
  392.250    3.363    0.688    0.557   45.714
  392.500    3.822    0.658    0.525   46.283
  392.750    4.588    0.567    0.497   46.271
  393.000    5.408    0.495    0.354   45.075
  393.250    6.259    0.421    0.350   44.475
  393.500    7.244    0.373    0.356   43.871
  393.750    7.793    0.347    0.361   43.847
  394.000    8.696    0.348    0.362   44.416
  394.250    8.857    0.349    0.366   44.996
  394.500    9.356    0.349    0.367   45.561
  394.750    9.187    0.351    0.368   46.142
  395.000    9.188    0.352    0.362   46.118
  395.250    9.188    0.352    0.363   45.518
  395.500    9.188    0.348    0.363   44.918
  395.750    9.022    0.342    0.363   44.310
  396.000    8.542    0.335    0.363   45.471
  396.250    8.235    0.333    0.366   47.801
  396.500    7.655    0.327    0.373   47.793
  396.750    6.988    0.325    0.393   47.773
  397.000    6.263    0.321    0.404   47.169
  397.250    5.929    0.318    0.399   45.977
  397.500    5.716    0.314    0.382   45.377
  397.750    5.412    0.314    0.366   44.184
  398.000    5.412    0.314    0.370   49.452
  398.250    5.412    0.313    0.376   51.794
  398.500    5.412    0.311    0.381   54.135
  398.750    5.412    0.306    0.383   56.473
  399.000    5.413    0.304    0.388   56.450
  399.250    5.315    0.301    0.394   55.853
  399.500    5.315    0.298    0.403   56.422
  399.750    5.219    0.300    0.416   57.587
  400.000    5.219    0.506    0.439   58.156
  400.250    5.032    0.616    0.466   56.959
  400.500    4.852    0.648    0.488   56.359
  400.750    4.117    0.654    0.497   55.167
  401.000    3.757    0.629    0.519   55.739
  401.250    3.307    0.580    0.552   58.662
  401.500    3.368    0.551    0.547   59.823
  401.750    3.623    0.503    0.527   59.222
  402.000    3.898    0.454    0.464   59.203
  402.250    4.350    0.355    0.418   59.776
  402.500    4.595    0.313    0.398   59.171
  402.750    5.034    0.320    0.368   58.567
  403.000    5.318    0.329    0.354   57.375
  403.250    5.827    0.338    0.368   55.002
  403.500    6.155    0.352    0.379   53.809
  403.750    6.502    0.357    0.385   53.790
  404.000    7.256    0.360    0.379   53.782
  404.250    7.526    0.362    0.378   54.939
  404.500    8.097    0.363    0.379   55.511
  404.750    8.247    0.363    0.379   56.076
  405.000    8.098    0.363    0.375   56.068
  405.250    7.527    0.363    0.375   55.464
  405.500    7.258    0.363    0.376   54.268
  405.750    7.127    0.363    0.376   53.668
  406.000    7.392    0.363    0.372   53.064
  406.250    7.809    0.362    0.374   52.460
  406.500    8.249    0.361    0.376   51.852
  406.750    8.100    0.361    0.377   51.248
  407.000    7.529    0.360    0.377   50.643
  407.250    6.506    0.359    0.369   50.039
  407.500    5.420    0.359    0.363   52.377
  407.750    4.598    0.361    0.364   55.892
  408.000    3.901    0.365    0.374   58.814
  408.250    3.310    0.425    0.407   59.390
  408.500    3.134    0.459    0.432   57.606
  408.750    5.421    0.449    0.392   54.648
  409.000    6.049    0.360    0.379   51.102
  409.250    6.628    0.342    0.352   47.556
  409.500    7.671    0.340    0.355   45.775
  409.750    8.718    0.340    0.356   48.702
  410.000    9.728    0.339    0.355   49.270
  410.250    9.729    0.340    0.351   46.897
  410.500    9.380    0.341    0.353   43.940
  410.750    9.210    0.342    0.356   40.982
  411.000    8.880    0.346    0.367   39.201
  411.250    8.720    0.352    0.383   37.420
  411.500    8.562    0.389    0.407   37.993
  411.750    8.408    0.565    0.436   40.335
  412.000    8.408    0.604    0.482   44.434
  412.250    8.256    0.526    0.450   49.129
  412.500    8.257    0.411    0.400   49.694
  412.750    8.108    0.361    0.378   50.266
  413.000    7.817    0.362    0.377   50.246
  413.250    7.817    0.362    0.380   50.827
  413.500    7.818    0.362    0.371   50.811
  413.750    7.962    0.360    0.370   50.792
  414.000    8.259    0.360    0.366   49.011
  414.250    8.411    0.363    0.369   46.057
  414.500    8.567    0.366    0.375   43.676
  414.750    8.567    0.368    0.382   43.668
  415.000    8.412    0.366    0.387   43.064
  415.250    8.412    0.365    0.384   42.452
  415.500    8.111    0.357    0.374   41.856
  415.750    7.965    0.344    0.353   40.656
  416.000    7.965    0.330    0.341   40.059
  416.250    7.821    0.331    0.352   43.574
  416.500    7.821    0.336    0.373   44.143
  416.750    7.680    0.356    0.390   44.708
  417.000    7.139    0.365    0.401   45.288
  417.250    6.759    0.374    0.386   46.449
  417.500    6.169    0.355    0.372   46.429
  417.750    5.948    0.347    0.360   46.414
  418.000    6.058    0.348    0.355   45.806
  418.250    6.283    0.350    0.353   45.794
  418.500    6.518    0.350    0.354   45.190
  418.750    6.638    0.350    0.359   44.582
  419.000    6.761    0.347    0.361   46.327
  419.250    6.761    0.340    0.362   46.908
  419.500    6.639    0.315    0.366   47.473
  419.750    6.519    0.273    0.360   48.049
  420.000    6.401    0.235    0.344   48.037
  420.250    6.060    0.212    0.329   48.606
  420.500    5.843    0.187    0.311   49.179
  420.750    4.779    0.220    0.284   49.752
  421.000    4.206    0.349    0.334   50.913
  421.250    3.769    0.375    0.364   52.074
  421.500    3.770    0.413    0.409   51.469
  421.750    4.363    0.497    0.453   50.273
