~VERSION INFORMATION
 VERS.                 2.0:   CWLS LOG ASCII STANDARD -VERSION 2.0
 WRAP.                  NO:   ONE LINE PER DEPTH STEP
~WELL INFORMATION BLOCK
#MNEM.UNIT           DATA                    DESCRIPTION OF MNEMONIC
#---------    -------------------            -------------------------------
# Generated from Intellog Unique Number	CW_76_78/WELL/2794
NULL.         -999.25                        : NULL_VALUE
WELL.         06-36-077-02W5                 : Well_name    - WELL              
LOC .         00/06-36-077-02W5/0            : Location     - LOCATION          
UWI .         00/06-36-077-02W5/0            : Uwi          - UNIQUE WELL ID    
ENTR.         JJ                             : Entered      - ENTERED BY        
SRVC.         WESTERN ATLAS                  : Scn          - SERVICE COMPANY   
DATE.         10 JAN 67                      : Date         - LOG DATE          
STRT.M        487.68                         : top_depth    - START DEPTH       
STOP.M        615.68                         : bot_depth    - STOP DEPTH        
STEP.M        0.25                           : increment    - STEP LENGTH       
~CURVE INFORMATION BLOCK
#MNEM UNIT       ERCB CURVE CODE    CURVE DESCRIPTION
#-----------   ------------------   ----------------------------------
DEPT.M        00 001 00 00         : DEPTH        - DEPTH                       
CALI.MM       00 280 01 00         : CAL          - CALIPER                     
GR  .API      00 310 00 00         : GR           - GAMMA RAY                   
ILD .OHMM     00 120 00 00         : RESD         - DEEP RESISTIVITY (DIL)      
DELT.US/F     00 520 00 00         : DELT         - SONIC TRAVEL TIME           
~PARAMETER INFORMATION       
#MNEM.UNIT           DATA             DESCRIPTION OF MNEMONIC
#---------         -----------     ------------------------------
GL  .M        659.282              : gl           - GROUND LEVEL ELEVATION      
EREF.M        662.635              : kb           - ELEVATION OF DEPTH REFERENCE
DATM.M        659.282              : datum        - DATUM ELEVATION             
TDD .M        649.529              : tdd          - TOTAL DEPTH DRILLER         
RUN .         ONE                  : Run          - RUN NUMBER                  
ENG .         OBERMEYER            : Engineer     - RECORDING ENGINEER          
WIT .         GEORGE               : Witness      - WITNESSED BY                
MUD .         GEL                  : Mud_type     - MUD TYPE                    
MATR.         SANDSTONE            : Logunit      - NEUTRON MATRIX              
TMAX.C        22.2222              : BHT          - MAXIMUM RECORDED TEMPERATURE
BHTD.M        650.138              : BHTDEP       - MAXIMUM RECORDED TEMPERATURE
RMT .C        21.1111              : MDTP         - TEMPERATURE OF MUD          
MUDD.KG/M     1140                 : MWT          - MUD DENSITY                 
NEUT.         1                    : NEUTRON      - NEUTRON TYPE                
RESI.         0                    : RESIST       - RESISTIVITY TYPE            
RM  .OHMM     4.65                 : RM           - RESISTIVITY OF MUD          
RMC .OHMM     4.68                 : RMC          - RESISTIVITY OF MUD CAKE     
RMF .OHMM     4.55                 : RMF          - RESISTIVITY OF MUD FILTRATE 
SUFT.C        5                    : SUFT         - SURFACE TEMPERATURE         
~A  DEPTH      CAL       GR     RESD     DELT
# ...
  574.680  230.275   40.408    2.549  282.769
  574.930  230.385   42.264    2.719  268.516
  575.180  222.820   43.292    2.807  280.225
  575.430  221.986   42.697    2.437  312.009
  575.680  222.411   42.467    2.003  332.886
  575.930  222.836   44.787    1.780  354.164
  576.180  223.261   50.053    1.730  352.357
  576.430  223.791   50.750    1.753  349.747
  576.680  223.902   47.209    1.971  348.542
  576.930  223.905   45.323    2.190  345.463
  577.180  224.332   46.384    2.434  343.120
  577.430  225.073   48.637    2.955  338.168
  577.680  226.970   51.188    3.460  323.111
  577.930  228.973   53.772    4.226  302.635
  578.180  230.449   57.350    4.919  279.615
  578.430  226.564   60.398    5.604  266.098
  578.680  224.467   64.439    4.826  275.131
  578.930  223.630   65.666    3.966  291.056
  579.180  222.690   66.892    3.131  308.252
  579.430  221.749   60.470    2.574  316.951
  579.680  221.017   57.392    2.368  331.069
  579.930  220.286   60.341    2.130  344.719
  580.180  219.134   62.263    2.242  352.347
  580.430  221.348   60.941    2.518  358.167
  580.680  223.980   60.710    2.917  361.446
  580.930  228.401   60.579    3.642  353.482
  581.180  232.190   61.773    4.670  336.887
  581.430  233.877   64.258    5.485  295.733
  581.680  234.302   68.862    6.260  284.491
  581.930  234.624   74.095    6.397  289.776
  582.180  234.733   81.348    4.067  302.423
  582.430  234.529   87.442    2.864  320.623
  582.680  234.218   95.755    2.446  337.552
  582.930  233.487   97.578    2.125  364.384
  583.180  233.491   98.705    1.993  385.395
  583.430  233.496   99.899    1.894  400.651
  583.680  233.923   97.582    1.900  409.014
  583.930  234.242   94.140    2.004  410.419
  584.180  234.667   91.725    2.117  407.943
  584.430  234.567   87.190    2.311  410.418
  584.680  234.572   86.364    2.449  450.834
  584.930  235.102   88.219    2.773  434.974
  585.180  237.946   91.334    2.862  430.290
  585.430  236.585   94.117    2.926  413.225
  585.680  228.284   96.535    2.793  390.942
  585.930  228.499   96.305    2.465  378.763
  586.180  229.345   92.102    2.284  379.365
  586.430  225.670   88.461    2.069  381.438
  586.680  225.675   83.230    2.002  390.137
  586.930  226.417   78.861    1.927  386.322
  587.180  227.474   76.380    1.925  422.388
  587.430  227.793   76.017    1.989  405.458
  587.680  228.324   74.959    2.061  399.234
  587.930  228.538   73.040    2.174  409.940
  588.180  228.123   70.690    2.506  424.728
  588.430  227.812   73.308    2.742  378.623
  588.680  228.554   76.323    2.945  374.674
  588.930  233.184   76.787    3.123  368.785
  589.180  228.668   73.776    3.064  407.193
  589.430  226.780   70.334    2.686  456.108
  589.680  230.991   68.779    2.080  414.753
  589.930  234.151   68.019    2.005  399.362
  590.180  234.891   68.617    2.183  383.637
  590.430  234.791   71.499    2.581  382.632
  590.680  233.639   78.553    3.029  284.668
  590.930  232.068   85.178    3.281  274.363
  591.180  230.706   89.914    3.222  281.455
  591.430  229.764   96.008    2.607  332.310
  591.680  229.665   97.433    1.920  349.974
  591.930  229.986   94.422    1.852  387.246
  592.180  230.199   89.986    1.891  410.531
  592.430  231.256   86.445    2.061  391.192
  592.680  232.208   87.870    2.329  409.125
  592.930  232.001   91.282    2.507  367.838
  593.180  229.484   90.986    2.465  356.528
  593.430  229.173   87.908    2.275  376.736
  593.680  229.914   89.797    2.078  391.256
  593.930  231.707   91.885    1.896  398.014
  594.180  232.131   88.707    1.927  383.760
  594.430  231.400   87.484    2.178  370.644
  594.680  229.934   87.485    2.430  400.889
  594.930  230.254   87.288    2.649  412.331
  595.180  231.835   84.409    2.827  377.869
  595.430  233.628   81.165    3.103  368.500
  595.680  234.473   76.300    3.289  381.012
  595.930  231.430   72.096    3.581  374.254
  596.180  229.122   69.515    3.801  363.346
  596.430  232.492   70.477    4.461  356.386
  596.680  233.337   72.531    5.219  340.794
  596.930  228.086   72.070    5.977  308.540
  597.180  228.511   72.667    6.686  289.804
  597.430  230.303   78.330    6.986  269.662
  597.680  231.255   82.570    6.421  290.404
  597.930  231.259   86.148    4.426  307.668
  598.180  231.369   88.004    4.187  323.727
  598.430  231.374   85.389    3.932  342.864
  598.680  231.906   81.550    3.816  351.495
  598.930  232.435   77.015    3.774  352.833
  599.180  232.652   72.315    3.813  340.988
  599.430  231.709   69.072    3.836  333.962
  599.680  227.824   68.609    3.867  330.281
  599.930  224.256   69.604    3.775  329.142
  600.180  223.524   69.308    3.569  326.465
  600.430  225.632   70.369    3.404  334.227
  600.680  227.424   73.417    3.247  380.799
  600.930  231.739   71.862    3.115  403.683
  601.180  233.111   69.082    3.056  399.467
  601.430  233.430   69.018    3.063  363.800
  601.680  232.805   72.430    3.151  344.194
  601.930  231.969   72.266    3.182  339.643
  602.180  230.291   70.777    3.197  337.300
  602.430  224.200   70.415    3.145  338.303
  602.680  221.471   71.178    3.079  340.511
  602.930  221.056   73.630    3.028  344.057
  603.180  221.271   77.240    2.985  344.926
  603.430  221.801   77.838    2.976  341.579
  603.680  223.173   79.462    2.990  336.761
  603.930  224.439   80.755    3.021  335.221
  604.180  226.231   82.379    3.101  339.169
  604.430  228.864   83.937    3.230  357.101
  604.680  231.813   88.177    3.449  333.346
  604.930  233.185   84.801    3.782  327.590
  605.180  234.031   88.213    3.781  341.508
  605.430  234.457   89.605    3.281  352.013
  605.680  233.935   90.302    2.993  363.187
  605.930  232.678   92.423    2.779  380.718
  606.180  229.635   98.351    2.655  379.446
  606.430  231.427  104.015    2.596  374.828
  606.680  234.481  103.917    2.619  375.430
  606.930  234.696   98.886    2.870  366.396
  607.180  231.758   92.232    3.032  358.031
  607.430  232.078   87.068    2.826  347.993
  607.680  233.134   87.798    2.669  339.293
  607.930  233.560   90.680    2.692  333.939
  608.180  233.564   94.026    2.772  329.054
  608.430  232.938   96.114    3.015  338.221
  608.680  232.628   85.486    3.194  340.830
  608.930  232.737   84.792    3.568  338.821
  609.180  232.849   87.245    3.835  335.542
  609.430  232.958   89.166    3.768  329.051
  609.680  233.279   91.618    3.072  336.545
  609.930  234.125   92.481    2.327  358.291
  610.180  234.972   93.774    1.770  372.610
  610.430  235.501   95.464    1.294  382.312
  610.680  235.401   89.903    1.056  379.501
  610.930  232.883   89.871    0.899  374.950
  611.180  233.413   91.296    0.929  375.552
  611.430  234.365   94.146    1.034  379.499
  611.680  234.790   96.399    1.131  381.774
  611.930  235.636   92.990    1.440  382.844
  612.180  236.271   90.011    1.773  375.616
  612.430  236.277   86.735    1.738  381.170
  612.680  235.650   84.948    1.532  379.162
  612.930  233.869   85.745    1.383  371.666
  613.180  232.506   79.124    1.382  371.264
  613.430  225.888   71.841    1.691  370.996
  613.680  209.597   63.299    2.008  366.378
  613.930  211.917   45.917    2.365  348.244
  614.180  217.808   30.256    2.634  357.678
  614.430  223.910   30.026    3.040  298.859
  614.680  232.011   32.014    3.586  262.122
  614.930  237.483   35.361    4.238  254.761
  615.180  242.429   36.753    4.342  288.686
  615.430  248.741   38.575    4.283  304.076
  615.680  256.105   41.425    4.412  297.986
