~VERSION INFORMATION
 VERS.                 2.0:   CWLS LOG ASCII STANDARD -VERSION 2.0
 WRAP.                  NO:   ONE LINE PER DEPTH STEP
~WELL INFORMATION BLOCK
#MNEM.UNIT           DATA                    DESCRIPTION OF MNEMONIC
#---------    -------------------            -------------------------------
# Generated from Intellog Unique Number	CS_73_76/WELL/958
WELL.         DOME PETROLEUM LIMITED         : Well_name    - WELL
LOC .         00/05-12-075-05W4/0            : Location     - LOCATION
UWI .         00/05-12-075-05W4/0            : Uwi          - UNIQUE WELL ID
ENTR.         SP                             : Entered      - ENTERED BY
SRVC.         SCHLUMBERGER                   : Scn          - SERVICE COMPANY
STRT.M        200                            : top_depth    - START DEPTH
STOP.M        410                            : bot_depth    - STOP DEPTH
STEP.M        0.25                           : increment    - STEP LENGTH
 NULL. -999.2500:NULL Value
~CURVE INFORMATION BLOCK
#MNEM UNIT       ERCB CURVE CODE    CURVE DESCRIPTION
#-----------   ------------------   ----------------------------------
DEPT.M        00 001 00 00         : DEPTH        - DEPTH
GR  .API      00 310 00 00         : GR           - GAMMA RAY
NPHI.V/V      00 330 00 00         : PHIN         - NEUTRON POROSITY (LIMESTONE)
DPHI.V/V      00 890 00 00         : PHID         - DENSITY POROSITY (LIMESTONE)
ILD .OHMM     00 120 00 00         : RESD         - DEEP RESISTIVITY (DIL)
~PARAMETER INFORMATION
#MNEM.UNIT           DATA             DESCRIPTION OF MNEMONIC
#---------         -----------     ------------------------------
GL  .M        609.08               : gl           - GROUND LEVEL ELEVATION
EREF.M        612.85               : kb           - ELEVATION OF DEPTH REFERENCE
DATM.M        609.08               : datum        - DATUM ELEVATION
TDD .M        415                  : tdd          - TOTAL DEPTH DRILLER
RUN .         ONE                  : Run          - RUN NUMBER
ENG .         BILL                 : Engineer     - RECORDING ENGINEER
WIT .         JIM                  : Witness      - WITNESSED BY
MUD .         GEL                  : Mud_type     - MUD TYPE
MATR.         LIMESTONE            : Logunit      - NEUTRON MATRIX
TMAX.C        19                   : BHT          - MAXIMUM RECORDED TEMPERATURE
BHTD.M        415                  : BHTDEP       - MAXIMUM RECORDED TEMPERATURE
MATR.         1                    : LOGUNIT      - NEUTRON MATRIX
RMT .C        25                   : MDTP         - TEMPERATURE OF MUD
NEUT.         1                    : NEUTRON      - NEUTRON TYPE
RESI.         0                    : RESIST       - RESISTIVITY TYPE
RMC .OHMM     0.25                 : RMC          - RESISTIVITY OF MUD CAKE
RMF .OHMM     0.25                 : RMF          - RESISTIVITY OF MUD FILTRATE
SUFT.C        15                   : SUFT         - SURFACE TEMPERATURE
~A  DEPTH       GR     PHIN     PHID     RESD
# ...
  330.500   82.865    0.524    0.313    1.732
  330.750   80.443    0.435    0.335    1.764
  331.000   79.237    0.366    0.358    1.866
  331.250   78.638    0.316    0.377    1.937
  331.500   73.182    0.287    0.396    2.049
  331.750   67.119    0.276    0.408    2.338
  332.000   64.089    0.270    0.416    2.666
  332.250   67.136    0.265    0.419    3.041
  332.500   68.965    0.276    0.405    3.278
  332.750   69.582    0.290    0.397    3.467
  333.000   65.947    0.305    0.380    3.402
  333.250   64.133    0.299    0.385    3.275
  333.500   63.535    0.294    0.405    3.095
  333.750   65.365    0.303    0.416    2.979
  334.000   67.197    0.304    0.420    2.923
  334.250   68.419    0.306    0.419    2.868
  334.500   65.392    0.311    0.416    2.922
  334.750   58.112    0.321    0.404    2.921
  335.000   47.189    0.211    0.196    3.090
  335.250   49.020    0.177    0.168    3.394
  335.500   54.494    0.204    0.259    3.728
  335.750   60.576    0.254    0.327    3.798
  336.000   64.837    0.287    0.377    3.726
  336.250   65.453    0.315    0.410    3.455
  336.500   64.855    0.327    0.410    3.086
  336.750   64.863    0.332    0.404    2.755
  337.000   65.480    0.331    0.400    2.326
  337.250   65.486    0.351    0.399    2.000
  337.500   60.029    0.382    0.392    1.786
  337.750   53.966    0.356    0.240    1.819
  338.000   49.117    0.203    0.141    2.036
  338.250   54.590    0.218    0.214    2.237
  338.500   63.101    0.373    0.296    2.154
  338.750   63.717    0.400    0.337    1.887
  339.000   64.332    0.415    0.373    1.623
  339.250   66.165    0.420    0.346    1.319
  339.500   67.388    0.440    0.332    1.178
  339.750   68.003    0.468    0.328    1.113
  340.000   69.833    0.478    0.344    1.072
  340.250   72.273    0.477    0.349    1.052
  340.500   72.279    0.481    0.343    1.012
  340.750   68.037    0.488    0.332    1.012
  341.000   71.083    0.490    0.329    1.012
  341.250   74.735    0.479    0.323    1.050
  341.500   76.566    0.472    0.309    1.090
  341.750   78.396    0.470    0.285    1.175
  342.000   79.618    0.470    0.267    1.243
  342.250   80.237    0.479    0.258    1.366
  342.500   80.851    0.478    0.259    1.472
  342.750   83.899    0.467    0.252    1.557
  343.000   85.120    0.461    0.237    1.679
  343.250   88.166    0.455    0.229    1.844
  343.500   89.387    0.462    0.227    1.951
  343.750   91.217    0.469    0.234    2.063
  344.000   92.442    0.457    0.240    2.102
  344.250   88.805    0.450    0.243    2.141
  344.500   85.171    0.445    0.245    2.101
  344.750   84.573    0.444    0.245    2.101
  345.000   86.406    0.435    0.241    2.100
  345.250   87.018    0.442    0.240    2.100
  345.500   87.029    0.469    0.244    2.060
  345.750   85.822    0.482    0.249    2.059
  346.000   84.008    0.478    0.248    2.059
  346.250   82.195    0.464    0.246    2.058
  346.500   79.776    0.453    0.253    2.058
  346.750   80.999    0.450    0.264    2.057
  347.000   82.223    0.458    0.262    2.018
  347.250   82.838    0.478    0.258    1.943
  347.500   85.883    0.463    0.261    1.943
  347.750   87.712    0.456    0.252    1.942
  348.000   89.543    0.444    0.233    1.979
  348.250   87.123    0.444    0.239    1.978
  348.500   84.702    0.453    0.248    2.015
  348.750   87.747    0.457    0.237    2.053
  349.000   88.970    0.459    0.225    2.172
  349.250   87.157    0.457    0.221    2.255
  349.500   83.530    0.459    0.216    2.297
  349.750   82.928    0.485    0.222    2.254
  350.000   81.719    0.529    0.250    2.129
  350.250   78.692    0.545    0.298    1.902
  350.500   79.308    0.564    0.294    1.763
  350.750   82.352    0.566    0.280    1.730
  351.000   83.574    0.562    0.269    1.729
  351.250   82.975    0.542    0.277    1.729
  351.500   78.734    0.529    0.289    1.761
  351.750   75.098    0.522    0.300    1.829
  352.000   76.321    0.523    0.292    1.898
  352.250   81.796    0.530    0.287    1.971
  352.500   86.663    0.536    0.283    2.007
  352.750   90.315    0.526    0.280    2.045
  353.000   92.146    0.520    0.271    2.083
  353.250   87.298    0.528    0.261    2.123
  353.500   84.877    0.564    0.256    2.288
  353.750   81.847    0.454    0.256    2.466
  354.000   83.680    0.454    0.244    2.760
  354.250   84.903    0.460    0.231    2.920
  354.500   84.304    0.455    0.218    3.268
  354.750   84.312    0.447    0.202    3.523
  355.000   84.927    0.426    0.223    3.727
  355.250   81.293    0.406    0.243    3.942
  355.500   75.837    0.381    0.218    4.170
  355.750   72.808    0.369    0.197    4.412
  356.000   77.676    0.388    0.202    4.411
  356.250   83.757    0.414    0.221    4.167
  356.500   90.445    0.441    0.221    3.792
  356.750   93.490    0.464    0.232    3.200
  357.000   91.070    0.481    0.235    3.024
  357.250   89.864    0.491    0.228    3.023
  357.500   89.267    0.466    0.228    3.080
  357.750   89.276    0.444    0.232    3.320
  358.000   89.284    0.434    0.230    3.512
  358.250   89.294    0.449    0.230    3.646
  358.500   89.301    0.476    0.239    3.714
  358.750   89.310    0.473    0.239    3.713
  359.000   88.103    0.456    0.233    3.643
  359.250   88.720    0.442    0.228    3.508
  359.500   90.550    0.431    0.236    3.441
  359.750   92.379    0.440    0.242    3.376
  360.000   94.212    0.458    0.249    3.313
  360.250   93.613    0.492    0.242    3.250
  360.500   94.836    0.516    0.238    3.249
  360.750   95.450    0.510    0.230    3.248
  361.000   93.031    0.483    0.237    3.248
  361.250   90.005    0.466    0.247    3.371
  361.500   87.584    0.456    0.263    3.435
  361.750   84.555    0.461    0.263    3.917
  362.000   80.313    0.445    0.251    4.303
  362.250   75.463    0.407    0.256    5.291
  362.500   73.041    0.377    0.272    6.385
  362.750   70.014    0.331    0.280    7.562
  363.000   67.593    0.336    0.085    8.307
  363.250   63.351    0.307    0.069    9.298
  363.500   65.791    0.286    0.065   10.406
  363.750   68.834    0.289    0.252   11.008
  364.000   64.592    0.283    0.300   11.005
  364.250   60.350    0.270    0.330   10.596
  364.500   62.180    0.275    0.323   10.202
  364.750   65.832    0.313    0.303   10.010
  365.000   68.878    0.325    0.293    9.637
  365.250   71.923    0.331    0.300    9.635
  365.500   76.183    0.329    0.322    9.632
  365.750   80.443    0.326    0.334    9.451
  366.000   85.310    0.339    0.342    9.448
  366.250   87.746    0.350    0.315    9.269
  366.500   83.505    0.353    0.307    9.268
  366.750   78.655    0.352    0.310    8.922
  367.000   74.413    0.342    0.298    8.754
  367.250   70.172    0.331    0.284    8.428
  367.500   67.750    0.326    0.273    8.269
  367.750   67.150    0.328    0.259    8.114
  368.000   65.946    0.330    0.252    7.960
  368.250   67.778    0.332    0.255    7.810
  368.500   69.606    0.340    0.258    7.956
  368.750   72.045    0.343    0.253    7.954
  369.000   67.197    0.338    0.260    7.953
  369.250   64.774    0.331    0.254    7.950
  369.500   63.568    0.336    0.238    7.948
  369.750   66.615    0.338    0.220    7.947
  370.000   69.658    0.332    0.206    7.944
  370.250   74.526    0.325    0.202    7.943
  370.500   76.963    0.333    0.219    7.940
  370.750   75.757    0.338    0.234    8.089
  371.000   73.949    0.331    0.242    8.088
  371.250   73.348    0.330    0.231    8.239
  371.500   72.746    0.341    0.234    8.394
  371.750   71.540    0.349    0.237    8.714
  372.000   70.944    0.335    0.228    9.217
  372.250   69.736    0.322    0.244    9.751
  372.500   67.317    0.330    0.254   10.123
  372.750   66.110    0.336    0.269   10.508
  373.000   66.725    0.336    0.270   10.705
  373.250   70.987    0.331    0.255   10.703
  373.500   73.423    0.321    0.239   10.499
  373.750   76.468    0.314    0.222   10.301
