~VERSION INFORMATION
 VERS.                 2.0:   CWLS LOG ASCII STANDARD -VERSION 2.0
 WRAP.                  NO:   ONE LINE PER DEPTH STEP
~WELL INFORMATION BLOCK
#MNEM.UNIT           DATA                    DESCRIPTION OF MNEMONIC
#---------    -------------------            -------------------------------
# Generated from Intellog Unique Number	CW_76_78/WELL/619
WELL.         07-12-077-04W5                 : Well_name    - WELL
LOC .         00/07-12-077-04W5/0            : Location     - LOCATION
UWI .         00/07-12-077-04W5/0            : Uwi          - UNIQUE WELL ID
ENTR.         JAYE                           : Entered      - ENTERED BY
SRVC.         WESTERN ATLAS                  : Scn          - SERVICE COMPANY
STRT.M        435.864                        : top_depth    - START DEPTH
STOP.M        633.864                        : bot_depth    - STOP DEPTH
STEP.M        0.25                           : increment    - STEP LENGTH
 NULL. -999.2500:NULL Value
~CURVE INFORMATION BLOCK
#MNEM UNIT       ERCB CURVE CODE    CURVE DESCRIPTION
#-----------   ------------------   ----------------------------------
DEPT.M        00 001 00 00         : DEPTH        - DEPTH
ILD .OHMM     00 120 00 00         : RESD         - DEEP RESISTIVITY (DIL)
DPHI.V/V      00 890 00 00         : PHID         - DENSITY POROSITY (SANDSTONE)
NPHI.V/V      00 330 00 00         : PHIN         - NEUTRON POROSITY (SANDSTONE)
GR  .API      00 310 00 00         : GR           - GAMMA RAY
CALI.MM       00 280 01 00         : CAL          - CALIPER
~PARAMETER INFORMATION
#MNEM.UNIT           DATA             DESCRIPTION OF MNEMONIC
#---------         -----------     ------------------------------
GL  .M        719.938              : gl           - GROUND LEVEL ELEVATION
EREF.M        723.595              : kb           - ELEVATION OF DEPTH REFERENCE
DATM.M        719.938              : datum        - DATUM ELEVATION
TDD .M        694.944              : tdd          - TOTAL DEPTH DRILLER
RUN .         ONE                  : Run          - RUN NUMBER
ENG .         SKOWOEODKO           : Engineer     - RECORDING ENGINEER
WIT .         MIS/STEIDEL          : Witness      - WITNESSED BY
BASE.         EDM                  : Branch       - HOME BASE OF LOGGING UNIT
MUD .         GEL CHEM             : Mud_type     - MUD TYPE
MATR.         SANDSTONE            : Logunit      - NEUTRON MATRIX
TMAX.C        27.2222              : BHT          - MAXIMUM RECORDED TEMPERATURE
BHTD.M        695.858              : BHTDEP       - MAXIMUM RECORDED TEMPERATURE
RMT .C        15.5556              : MDTP         - TEMPERATURE OF MUD
MUDD.KG/M     0                    : MWT          - MUD DENSITY
NEUT.         1                    : NEUTRON      - NEUTRON TYPE
RESI.         0                    : RESIST       - RESISTIVITY TYPE
RM  .OHMM     3.35                 : RM           - RESISTIVITY OF MUD
RMC .OHMM     0                    : RMC          - RESISTIVITY OF MUD CAKE
RMF .OHMM     4.4                  : RMF          - RESISTIVITY OF MUD FILTRATE
SUFT.C        -17.7778             : SUFT         - SURFACE TEMPERATURE
~A  DEPTH     RESD     PHID     PHIN       GR      CAL
  435.864    2.506    0.207    0.522  105.785  192.335
  436.114    2.440    0.213    0.512  106.409  190.707
  436.364    2.448    0.223    0.504  108.196  189.689
  436.614    2.538    0.200    0.492  109.799  188.573
  436.864    2.695    0.204    0.487  106.328  189.223
  437.114    2.639    0.215    0.500  100.594  190.278
  437.364    2.818    0.223    0.496   95.838  192.370
  437.614    3.226    0.245    0.487   92.550  194.155
  437.864    3.694    0.263    0.493   91.157  195.115
  438.114    4.159    0.240    0.507   94.289  192.647
  438.364    4.474    0.262    0.486   92.041  184.699
  438.614    4.937    0.286    0.467   88.814  175.611
  438.864    5.479    0.293    0.430   88.215  168.799
  439.114    6.377    0.292    0.427   85.294  167.269
  439.364    7.589    0.282    0.447   87.203  169.882
  439.614    9.047    0.275    0.464   88.440  172.289
  439.864   10.985    0.300    0.455   83.256  171.999
  440.114   13.510    0.307    0.418   73.242  166.015
  440.364   15.187    0.305    0.394   59.497  160.035
  440.614   14.983    0.303    0.394   57.983  157.889
  440.864   14.565    0.308    0.410   60.198  158.121
  441.114   14.212    0.314    0.417   62.596  158.758
  441.364   14.125    0.322    0.415   62.672  159.817
  441.614   14.063    0.330    0.409   61.523  160.356
  441.864   13.977    0.330    0.397   60.313  160.795
  442.114   13.969    0.312    0.392   59.838  160.713
  442.364   13.858    0.303    0.391   60.097  160.633
  442.614   13.772    0.300    0.390   60.232  160.350
  442.864   13.665    0.297    0.390   60.062  160.370
  443.114   13.581    0.300    0.393   59.587  160.495
  443.364   13.620    0.307    0.403   58.990  160.416
  443.614   13.563    0.309    0.421   59.920  160.752
  443.864   13.380    0.307    0.425   61.952  160.876
  444.114   13.299    0.305    0.415   62.761  160.897
  444.364   13.218    0.299    0.402   62.530  161.232
  444.614   13.159    0.294    0.398   60.831  161.468
  444.864   13.031    0.305    0.406   59.074  161.589
  445.114   12.809    0.315    0.413   59.086  161.720
  445.364   12.567    0.317    0.411   60.015  161.851
  445.614   12.264    0.316    0.407   62.231  161.866
  445.864   11.989    0.327    0.416   64.876  161.898
  446.114   11.591    0.335    0.420   66.783  162.017
  446.364   11.248    0.309    0.425   68.569  162.045
  446.614   11.015    0.286    0.430   68.951  162.167
  446.864   11.171    0.294    0.428   66.825  161.982
  447.114   11.330    0.295    0.420   65.003  161.901
  447.364   11.513    0.291    0.406   63.427  161.205
  447.614   11.611    0.297    0.402   62.523  161.226
  447.864   11.496    0.307    0.437   61.989  161.247
  448.114   11.239    0.327    0.432   62.554  161.169
  448.364   11.068    0.316    0.417   63.544  161.294
  448.614   10.839    0.306    0.411   65.026  161.318
  448.864   10.655    0.314    0.410   66.508  161.341
  449.114   10.379    0.329    0.437   67.620  161.362
  449.364   10.145    0.342    0.431   69.101  161.287
  449.614    9.972    0.344    0.414   69.420  161.205
  449.864    9.695    0.341    0.417   68.456  160.917
  450.114    9.425    0.335    0.453   66.818  160.837
  450.364    9.247    0.331    0.462   65.486  160.756
  450.614    9.175    0.332    0.450   65.929  160.671
  450.864    9.151    0.333    0.438   64.902  160.700
  451.114    9.096    0.333    0.458   63.449  160.721
  451.364    8.990    0.336    0.461   63.523  160.848
  451.614    8.740    0.321    0.449   64.576  161.076
  451.864    7.998    0.314    0.443   66.487  160.996
  452.114    6.700    0.308    0.439   69.251  160.708
  452.364    5.120    0.274    0.435   74.769  160.421
  452.614    3.737    0.257    0.434   81.388  162.514
  452.864    2.774    0.236    0.476   85.618  170.096
  453.114    2.415    0.237    0.506   91.379  181.302
  453.364    2.369    0.233    0.532  100.626  186.813
  453.614    2.683    0.220    0.526  106.327  185.386
  453.864    3.152    0.120    0.494  105.852  178.160
  454.114    3.877    0.170    0.484  100.484  176.116
  454.364    4.382    0.234    0.448   90.776  178.104
  454.614    4.444    0.268    0.395   84.491  175.642
  454.864    4.157    0.267    0.405   85.178  175.771
  455.114    4.463    0.241    0.459   92.529  182.730
  455.364    5.570    0.271    0.515   91.136  186.687
  455.614    6.616    0.339    0.548   81.977  185.985
  455.864    8.197    0.403    0.531   70.679  177.830
  456.114    9.825    0.374    0.404   63.355  168.637
  456.364   10.903    0.327    0.402   58.111  160.066
  456.614   11.367    0.304    0.392   55.191  157.296
  456.864   11.507    0.317    0.395   55.081  157.109
  457.114   11.777    0.319    0.401   56.624  157.546
  457.364   12.009    0.326    0.410   58.288  158.399
  457.614   12.314    0.328    0.413   59.524  160.184
  457.864   12.536    0.312    0.417   57.703  161.866
  458.114   12.736    0.313    0.422   55.088  163.027
  458.364   12.893    0.325    0.426   54.919  163.048
  458.614   12.907    0.321    0.422   56.279  162.448
  458.864   12.830    0.320    0.403   57.024  162.058
  459.114   12.726    0.330    0.405   56.672  161.049
  459.364   12.695    0.338    0.413   54.239  160.451
  459.614   12.688    0.340    0.406   52.908  160.161
  459.864   12.680    0.340    0.405   53.166  160.081
  460.114   12.764    0.340    0.412   54.403  159.793
  460.364   12.849    0.331    0.418   56.127  159.715
  460.614   12.938    0.315    0.405   57.793  159.839
  460.864   13.121    0.316    0.394   58.419  159.762
  461.114   13.304    0.336    0.399   57.760  159.782
  461.364   13.444    0.332    0.404   56.855  159.706
  461.614   13.511    0.311    0.417   55.952  159.827
  461.864   13.477    0.332    0.408   55.721  159.959
  462.114   13.198    0.341    0.401   55.613  160.183
  462.364   12.879    0.343    0.410   55.137  160.626
  462.614   12.522    0.336    0.411   54.357  161.062
  462.864   12.062    0.321    0.407   55.043  161.397
  463.114   11.139    0.299    0.408   58.357  161.831
  463.364   10.080    0.285    0.411   63.996  162.060
  463.614    9.105    0.270    0.411   71.470  162.394
  463.864    8.210    0.258    0.413   74.541  162.524
  464.114    7.083    0.268    0.416   75.900  162.651
  464.364    5.565    0.277    0.415   76.341  163.086
  464.614    4.469    0.268    0.412   76.785  163.628
  464.864    4.142    0.264    0.418   81.811  164.890
  465.114    4.109    0.263    0.453   89.713  172.062
  465.364    4.730    0.273    0.477   97.370  175.602
  465.614    5.981    0.265    0.460   82.953  171.382
  465.864    7.888    0.243    0.430   69.086  164.779
  466.114   12.206    0.265    0.387   61.640  162.418
  466.364   16.855    0.284    0.370   56.089  161.306
  466.614   18.095    0.294    0.385   50.967  160.707
  466.864   16.404    0.304    0.379   48.046  160.522
  467.114   15.123    0.307    0.361   47.754  160.750
  467.364   13.095    0.292    0.359   53.945  160.980
  467.614    7.896    0.299    0.367   58.664  161.523
  467.864    5.946    0.277    0.362   68.828  161.963
  468.114    5.352    0.247    0.377   79.421  162.398
  468.364    5.099    0.217    0.395   90.746  162.731
  468.614    5.105    0.235    0.395  100.849  163.069
  468.864    5.148    0.233    0.389   97.561  163.087
  469.114    5.136    0.218    0.388   94.456  162.803
  469.364    4.522    0.226    0.398   97.160  163.134
  469.614    4.025    0.235    0.415   98.581  164.503
  469.864    3.609    0.223    0.429   99.636  169.186
  470.114    3.230    0.233    0.445  100.076  174.697
  470.364    2.637    0.247    0.482  100.333  180.104
  470.614    2.158    0.269    0.510  100.470  180.851
  470.864    1.896    0.289    0.546   99.996  178.078
  471.114    2.039    0.254    0.579   98.540  185.350
  471.364    2.550    0.285    0.603   93.111  186.514
  471.614    3.554    0.317    0.545   80.102  182.603
  471.864    4.862    0.352    0.520   71.188  177.655
  472.114    5.712    0.406    0.547   63.374  171.983
