~VERSION INFORMATION
 VERS.                 2.0:   CWLS LOG ASCII STANDARD -VERSION 2.0
 WRAP.                  NO:   ONE LINE PER DEPTH STEP
~WELL INFORMATION BLOCK
#MNEM.UNIT           DATA                    DESCRIPTION OF MNEMONIC
#---------    -------------------            -------------------------------
# Generated from Intellog Unique Number	CW_76_78/WELL/199
WELL.         SULPETRO MARTEN HILLS 04-29    : Well_name    - WELL
LOC .         00/04-29-076-23W4/0            : Location     - LOCATION
UWI .         00/04-29-076-23W4/0            : Uwi          - UNIQUE WELL ID
ENTR.         JAYE                           : Entered      - ENTERED BY
SRVC.         SCHLUMBERGER                   : Scn          - SERVICE COMPANY
DATE.         4 MAR 84                       : Date         - LOG DATE
STRT.M        640                            : top_depth    - START DEPTH
STOP.M        891                            : bot_depth    - STOP DEPTH
STEP.M        0.25                           : increment    - STEP LENGTH
 NULL. -999.2500:NULL Value
~CURVE INFORMATION BLOCK
#MNEM UNIT       ERCB CURVE CODE    CURVE DESCRIPTION
#-----------   ------------------   ----------------------------------
DEPT.M        00 001 00 00         : DEPTH        - DEPTH
ILD .OHMM     00 120 00 00         : RESD         - DEEP RESISTIVITY (DIL)
NPHI.V/V      00 330 00 00         : PHIN         - NEUTRON POROSITY (SANDSTONE)
DPHI.V/V      00 890 00 00         : PHID         - DENSITY POROSITY (SANDSTONE)
GR  .API      00 310 00 00         : GR           - GAMMA RAY
CALI.MM       00 280 01 00         : CAL          - CALIPER
~PARAMETER INFORMATION
#MNEM.UNIT           DATA             DESCRIPTION OF MNEMONIC
#---------         -----------     ------------------------------
GL  .M        935.93               : gl           - GROUND LEVEL ELEVATION
EREF.M        939.4                : kb           - ELEVATION OF DEPTH REFERENCE
DATM.M        935.93               : datum        - DATUM ELEVATION
TDD .M        896                  : tdd          - TOTAL DEPTH DRILLER
RUN .         ONE                  : Run          - RUN NUMBER
MUD .         GEL CHEM             : Mud_type     - MUD TYPE
MATR.         SANDSTONE            : Logunit      - NEUTRON MATRIX
TMAX.C        24                   : BHT          - MAXIMUM RECORDED TEMPERATURE
BHTD.M        891                  : BHTDEP       - MAXIMUM RECORDED TEMPERATURE
RMT .C        14                   : MDTP         - TEMPERATURE OF MUD
MUDD.KG/M     1170                 : MWT          - MUD DENSITY
NEUT.         1                    : NEUTRON      - NEUTRON TYPE
RESI.         0                    : RESIST       - RESISTIVITY TYPE
RM  .OHMM     1.374                : RM           - RESISTIVITY OF MUD
RMC .OHMM     0                    : RMC          - RESISTIVITY OF MUD CAKE
RMF .OHMM     1.642                : RMF          - RESISTIVITY OF MUD FILTRATE
SUFT.C        0                    : SUFT         - SURFACE TEMPERATURE
~A  DEPTH     RESD     PHIN     PHID       GR      CAL
# ...
  676.500    2.757    0.415    0.204   85.300  162.362
  676.750    2.803    0.376    0.137  103.434  162.138
  677.000    2.761    0.558    0.244  108.829  165.329
  677.250    2.577    0.587    0.305  110.000  169.147
  677.500    2.419    0.554    0.260  110.735  175.240
  677.750    2.304    0.527    0.248  116.815  172.839
  678.000    2.278    0.510    0.259  119.911  168.783
  678.250    2.448    0.560    0.264  114.806  173.116
  678.500    2.761    0.591    0.284  110.260  183.559
  678.750    3.243    0.534    0.310  105.588  168.008
  679.000    3.726    0.496    0.264  102.410  163.742
  679.250    3.989    0.480    0.266  100.535  166.109
  679.500    4.247    0.469    0.284   98.847  166.817
  679.750    4.334    0.456    0.288   98.961  168.456
  680.000    4.261    0.445    0.279  104.480  167.195
  680.250    4.104    0.451    0.303  105.776  169.355
  680.500    4.126    0.501    0.326  102.907  170.788
  680.750    4.352    0.535    0.345   94.135  168.906
  681.000    4.836    0.540    0.353   83.189  157.808
  681.250    5.597    0.490    0.309   70.688  146.295
  681.500    6.139    0.449    0.310   65.459  144.516
  681.750    6.346    0.432    0.322   67.188  145.741
  682.000    6.308    0.434    0.311   83.147  148.105
  682.250    6.054    0.440    0.264   87.797  149.643
  682.500    5.919    0.460    0.259   78.467  150.248
  682.750    6.006    0.474    0.294   68.701  149.713
  683.000    6.151    0.461    0.311   58.935  150.213
  683.250    6.287    0.450    0.324   59.111  151.852
  683.500    6.379    0.442    0.342   64.072  152.975
  683.750    6.449    0.431    0.320   72.449  153.786
  684.000    6.411    0.455    0.301   72.191  154.391
  684.250    6.373    0.491    0.314   69.260  152.923
  684.500    6.289    0.500    0.336   63.967  152.387
  684.750    6.195    0.496    0.347   61.099  152.161
  685.000    6.090    0.472    0.352   61.711  152.250
  685.250    5.954    0.451    0.344   63.750  152.025
  685.500    5.843    0.442    0.332   64.983  151.387
  685.750    5.745    0.433    0.317   68.080  150.750
  686.000    5.648    0.444    0.300   72.979  150.111
  686.250    5.594    0.461    0.308   70.855  149.369
  686.500    5.593    0.459    0.316   65.191  148.419
  686.750    5.601    0.446    0.325   66.920  147.781
  687.000    5.641    0.442    0.336   65.605  148.175
  687.250    5.692    0.471    0.339   59.940  149.093
  687.500    5.733    0.468    0.330   56.512  150.836
  687.750    5.795    0.428    0.327   58.676  152.786
  688.000    5.858    0.417    0.339   61.835  152.873
  688.250    5.889    0.449    0.349   63.379  150.784
  688.500    5.953    0.453    0.343   64.114  148.696
  688.750    6.007    0.437    0.332   64.415  146.608
  689.000    6.038    0.428    0.322   63.161  147.211
  689.250    6.093    0.439    0.328   58.056  148.023
  689.500    6.159    0.437    0.347   51.147  149.766
  689.750    6.192    0.426    0.356   48.155  151.096
  690.000    6.236    0.419    0.368   56.658  151.804
  690.250    6.268    0.458    0.371   64.290  150.647
  690.500    6.243    0.475    0.348   66.019  149.180
  690.750    6.242    0.489    0.334   68.122  147.918
  691.000    6.217    0.502    0.329   69.852  147.281
  691.250    6.146    0.507    0.324   69.282  146.746
  691.500    6.031    0.499    0.316   72.752  148.076
  691.750    5.886    0.477    0.302   72.866  149.922
  692.000    5.787    0.488    0.301   70.432  150.525
  692.250    5.668    0.502    0.305   71.354  150.717
  692.500    5.542    0.501    0.310   75.507  151.008
  692.750    5.469    0.476    0.312   80.095  151.096
  693.000    5.397    0.482    0.306   76.231  150.974
  693.250    5.335    0.495    0.293   71.561  150.750
  693.500    5.236    0.484    0.301   68.692  150.630
  693.750    5.128    0.445    0.299   72.410  150.510
  694.000    5.099    0.465    0.290   75.506  150.181
  694.250    5.221    0.479    0.286   73.320  149.750
  694.500    5.417    0.494    0.289   70.577  149.007
  694.750    5.725    0.493    0.310   68.144  148.370
  695.000    5.841    0.483    0.330   67.015  148.043
  695.250    5.828    0.468    0.315   69.677  148.751
  695.500    5.730    0.463    0.283   69.791  150.287
  695.750    5.489    0.469    0.268   71.085  151.718
  696.000    5.249    0.464    0.261   75.549  152.013
  696.250    4.936    0.451    0.260   77.900  152.927
  696.500    4.702    0.442    0.259   76.770  156.949
  696.750    4.463    0.463    0.249   76.450  159.936
  697.000    4.228    0.498    0.250   78.490  160.437
  697.250    3.961    0.525    0.274   85.129  150.788
  697.500    3.788    0.507    0.297   87.169  148.699
  697.750    3.893    0.515    0.323   83.555  151.788
  698.000    4.184    0.545    0.349   78.573  151.149
  698.250    4.589    0.533    0.339   74.275  146.472
  698.500    5.099    0.460    0.329   71.096  144.903
  698.750    5.750    0.446    0.324   72.017  145.089
  699.000    6.066    0.455    0.320   71.946  145.904
  699.250    6.212    0.480    0.322   68.828  146.816
  699.500    6.210    0.492    0.327   66.892  147.628
  699.750    6.197    0.479    0.332   68.932  149.475
  700.000    6.138    0.470    0.338   73.333  150.701
  700.250    5.946    0.479    0.339   79.475  152.445
  700.500    5.357    0.488    0.308   83.938  155.327
  700.750    4.828    0.479    0.282   88.588  158.727
  701.000    4.423    0.461    0.256   93.860  162.025
  701.250    4.206    0.462    0.238   94.967  164.391
  701.500    4.030    0.460    0.236   97.629  166.444
  701.750    3.903    0.456    0.228  101.098  168.602
  702.000    3.873    0.472    0.226  103.574  170.034
  702.250    3.908    0.486    0.232   98.779  168.360
  702.500    3.965    0.501    0.241   93.735  163.682
  702.750    4.099    0.495    0.241   94.409  160.661
  703.000    4.237    0.460    0.193   92.659  164.165
  703.250    4.519    0.500    0.174   80.407  166.635
  703.500    4.847    0.542    0.216   60.388  162.888
  703.750    5.171    0.453    0.328   54.289  155.520
  704.000    5.608    0.420    0.350   52.724  149.081
  704.250    6.050    0.433    0.357   54.330  147.407
  704.500    6.418    0.457    0.356   57.178  146.664
  704.750    6.732    0.473    0.348   61.331  146.544
  705.000    6.856    0.466    0.359   61.508  146.732
  705.250    6.880    0.474    0.356   60.378  146.717
  705.500    6.903    0.468    0.344   61.362  146.699
  705.750    6.850    0.453    0.324   64.831  147.097
  706.000    6.735    0.454    0.309   66.810  147.284
  706.250    6.572    0.470    0.298   61.891  147.682
  706.500    6.498    0.481    0.285   61.258  148.081
  706.750    6.412    0.467    0.311   62.242  148.271
  707.000    6.316    0.463    0.326   62.668  148.771
  707.250    6.232    0.454    0.336   61.042  149.375
  707.500    6.207    0.462    0.340   58.545  150.082
  707.750    6.274    0.467    0.346   59.405  150.480
  708.000    6.390    0.464    0.338   61.943  150.047
  708.250    6.496    0.451    0.334   60.504  148.891
  708.500    6.640    0.451    0.336   58.008  148.356
  708.750    6.787    0.446    0.337   59.426  148.442
  709.000    6.925    0.435    0.341   61.653  148.319
  709.250    6.974    0.432    0.350   60.897  148.614
  709.500    6.973    0.447    0.361   58.091  148.806
  709.750    7.048    0.460    0.362   55.160  149.515
  710.000    6.815    0.459    0.354   56.019  150.118
  710.250    5.515    0.440    0.344   68.872  151.033
  710.500    4.488    0.477    0.330   81.226  152.467
  710.750    3.847    0.538    0.316   87.244  160.630
  711.000    3.334    0.567    0.302   93.758  165.999
  711.250    3.308    0.591    0.290   92.754  162.356
  711.500    3.901    0.586    0.287   82.180  157.058
  711.750    4.633    0.593    0.332   74.403  152.898
  712.000    5.205    0.545    0.342   62.586  148.013
  712.250    5.574    0.478    0.348   59.717  146.340
  712.500    6.124    0.457    0.356   59.582  146.218
  712.750    6.484    0.453    0.365   60.194  146.306
