~VERSION INFORMATION
 VERS.                 2.0:   CWLS LOG ASCII STANDARD -VERSION 2.0
 WRAP.                  NO:   ONE LINE PER DEPTH STEP
~WELL INFORMATION BLOCK
#MNEM.UNIT           DATA                    DESCRIPTION OF MNEMONIC
#---------    -------------------            -------------------------------
# Generated from Intellog Unique Number	CS_77_79/WELL/857
WELL.         HB THORNBURY LAKE              : Well_name    - WELL
LOC .         00/05-19-078-12W4/0            : Location     - LOCATION
UWI .         00/05-19-078-12W4/0            : Uwi          - UNIQUE WELL ID
ENTR.         JHS                            : Entered      - ENTERED BY
SRVC.         SCHLUMBERGER                   : Scn          - SERVICE COMPANY
STRT.M        243.84                         : top_depth    - START DEPTH
STOP.M        456.84                         : bot_depth    - STOP DEPTH
STEP.M        0.25                           : increment    - STEP LENGTH
 NULL. -999.2500:NULL Value
~CURVE INFORMATION BLOCK
#MNEM UNIT       ERCB CURVE CODE    CURVE DESCRIPTION
#-----------   ------------------   ----------------------------------
DEPT.M        00 001 00 00         : DEPTH        - DEPTH
RHOB.KG/M3    00 350 00 00         : DENS         - BULK DENSITY
GR  .API      00 310 00 00         : GR           - GAMMA RAY
DPHI.V/V      00 890 00 00         : PHID         - DENSITY POROSITY (SANDSTONE)
NPHI.V/V      00 330 00 00         : PHIN         - NEUTRON POROSITY (SANDSTONE)
ILD .OHMM     00 120 00 00         : RESD         - DEEP RESISTIVITY (DIL)
~PARAMETER INFORMATION
#MNEM.UNIT           DATA             DESCRIPTION OF MNEMONIC
#---------         -----------     ------------------------------
GL  .M        685.19               : gl           - GROUND LEVEL ELEVATION
EREF.M        685.19               : kb           - ELEVATION OF DEPTH REFERENCE
DATM.M        685.19               : datum        - DATUM ELEVATION
TDD .M        466.344              : tdd          - TOTAL DEPTH DRILLER
RUN .         ONE                  : Run          - RUN NUMBER
ENG .         BILL                 : Engineer     - RECORDING ENGINEER
WIT .         JIM                  : Witness      - WITNESSED BY
MUD .         GEL                  : Mud_type     - MUD TYPE
MATR.         SANDSTONE            : Logunit      - NEUTRON MATRIX
TMAX.C        26.6667              : BHT          - MAXIMUM RECORDED TEMPERATURE
BHTD.M        466.344              : BHTDEP       - MAXIMUM RECORDED TEMPERATURE
MATR.         1                    : LOGUNIT      - NEUTRON MATRIX
RMT .C        25                   : MDTP         - TEMPERATURE OF MUD
NEUT.         1                    : NEUTRON      - NEUTRON TYPE
RESI.         0                    : RESIST       - RESISTIVITY TYPE
RMC .OHMM     0.25                 : RMC          - RESISTIVITY OF MUD CAKE
RMF .OHMM     0.25                 : RMF          - RESISTIVITY OF MUD FILTRATE
SUFT.C        15                   : SUFT         - SURFACE TEMPERATURE
~A  DEPTH     DENS       GR     PHID     PHIN     RESD
# ...
  353.340    0.000  105.376    0.224    0.571    2.484
  353.590    0.000  107.013    0.220    0.595    2.491
  353.840   -0.000  104.889    0.226    0.609    2.495
  354.090   -0.000  103.386    0.226    0.609    2.413
  354.340   -0.000  102.342    0.223    0.602    2.315
  354.590    0.000  102.647    0.224    0.583    2.197
  354.840    0.000  100.967    0.245    0.559    2.253
  355.090   -0.000  102.302    0.256    0.557    2.322
  355.340   -0.000  103.698    0.233    0.577    2.471
  355.590   -0.000  101.719    0.231    0.589    2.631
  355.840    0.000   98.140    0.236    0.606    2.705
  356.090    0.000   99.295    0.220    0.610    2.681
  356.340    0.000   97.370    0.209    0.594    2.663
  356.590   -0.000   96.367    0.207    0.566    2.759
  356.840   -0.000   98.035    0.207    0.529    2.831
  357.090   -0.000  100.718    0.211    0.510    2.989
  357.340    0.000  101.490    0.219    0.534    3.243
  357.590    0.000  105.846    0.224    0.562    3.433
  357.840    0.000  110.350    0.209    0.565    3.467
  358.090   -0.000  113.645    0.224    0.515    3.552
  358.340   -0.000  112.218    0.255    0.457    3.682
  358.590    0.000   99.866    0.232    0.375    3.941
  358.840    0.000   81.640    0.284    0.321    4.608
  359.090    0.000   80.723    0.324    0.287    5.685
  359.340   -0.000   83.680    0.341    0.264    7.905
  359.590   -0.000   91.984    0.329    0.271   11.640
  359.840   -0.000   96.322    0.310    0.317   13.181
  360.090    0.000   98.369    0.285    0.382   13.672
  360.340    0.000   95.636    0.268    0.445   12.098
  360.590    0.000   86.148    0.261    0.445   10.817
  360.840   -0.000   81.560    0.253    0.438    8.851
  361.090   -0.000   78.680    0.236    0.446    7.437
  361.340    0.000   74.988    0.218    0.462    6.985
  361.590    0.000   76.073    0.211    0.465    6.994
  361.840    0.000   77.385    0.219    0.451    6.994
  362.090   -0.000   78.008    0.189    0.469    6.999
  362.340   -0.000   77.199    0.165    0.436    7.041
  362.590   -0.000   73.770    0.112    0.366    7.622
  362.840    0.000   67.171    0.064    0.325    7.956
  363.090    0.000   68.054    0.069    0.294    8.402
  363.340    0.000   77.393    0.134    0.420    8.464
  363.590   -0.000   81.677    0.212    0.457    8.396
  363.840   -0.000   83.529    0.218    0.476    7.809
  364.090   -0.000   84.171    0.208    0.485    7.306
  364.340    0.000   85.789    0.197    0.488    6.937
  364.590    0.000   87.606    0.197    0.488    6.511
  364.840   -0.000   88.986    0.202    0.491    6.317
  365.090   -0.000   89.703    0.201    0.501    6.451
  365.340   -0.000   88.715    0.199    0.490    6.441
  365.590    0.000   86.169    0.207    0.473    6.551
  365.840    0.000   85.342    0.208    0.455    6.760
  366.090    0.000   82.258    0.212    0.439    6.978
  366.340   -0.000   86.516    0.216    0.432    7.198
  366.590   -0.000   87.668    0.204    0.440    7.385
  366.840   -0.000   86.703    0.208    0.445    7.379
  367.090    0.000   88.713    0.200    0.456    7.206
  367.340    0.000   89.160    0.212    0.467    6.784
  367.590   -0.000   87.998    0.229    0.475    6.259
  367.840   -0.000   85.669    0.214    0.486    6.136
  368.090   -0.000   85.657    0.209    0.495    6.115
  368.340    0.000   87.327    0.219    0.478    6.144
  368.590    0.000   87.388    0.246    0.455    6.207
  368.840    0.000   87.428    0.228    0.440    6.408
  369.090   -0.000   87.402    0.203    0.444    6.305
  369.340   -0.000   88.318    0.168    0.464    6.053
  369.590   -0.000   90.054    0.190    0.497    5.277
  369.840    0.000   92.662    0.228    0.518    4.625
  370.090    0.000   93.578    0.210    0.554    3.854
  370.340    0.000   92.242    0.204    0.563    3.346
  370.590   -0.000   86.513    0.205    0.554    3.150
  370.840   -0.000   88.280    0.229    0.525    3.063
  371.090    0.000   91.117    0.234    0.511    3.230
  371.340    0.000   91.742    0.225    0.525    3.470
  371.590    0.000   92.410    0.207    0.539    3.819
  371.840   -0.000   90.229    0.221    0.480    4.332
  372.090   -0.000   88.560    0.237    0.465    4.771
  372.340   -0.000   90.841    0.214    0.473    4.999
  372.590    0.000   93.364    0.193    0.484    5.084
  372.840    0.000   93.513    0.194    0.495    5.046
  373.090    0.000   91.164    0.183    0.503    4.993
  373.340   -0.000   88.735    0.211    0.488    4.906
  373.590   -0.000   87.473    0.228    0.464    4.948
  373.840    0.000   87.091    0.226    0.454    5.008
  374.090    0.000   88.128    0.213    0.447    5.190
  374.340    0.000   88.149    0.221    0.455    5.566
  374.590   -0.000   87.773    0.239    0.460    6.128
  374.840   -0.000   86.153    0.246    0.459    6.879
  375.090   -0.000   85.309    0.262    0.426    7.477
  375.340    0.000   85.349    0.283    0.398    7.992
  375.590    0.000   86.580    0.307    0.394    8.090
  375.840    0.000   87.917    0.276    0.448    8.185
  376.090   -0.000   89.126    0.238    0.430    7.962
  376.340   -0.000   88.257    0.218    0.415    7.683
  376.590   -0.000   85.959    0.203    0.421    7.606
  376.840    0.000   84.272    0.222    0.446    7.330
  377.090    0.000   81.612    0.237    0.457    7.158
  377.340   -0.000   78.905    0.248    0.462    7.080
  377.590   -0.000   76.157    0.253    0.338    7.296
  377.840   -0.000   74.645    0.267    0.300    7.738
  378.090    0.000   71.227    0.297    0.288    8.493
  378.340    0.000   67.682    0.295    0.290    9.253
  378.590    0.000   64.074    0.314    0.310    9.592
  378.840   -0.000   62.630    0.356    0.338    9.458
  379.090   -0.000   63.035    0.339    0.413    8.850
  379.340   -0.000   62.028    0.325    0.470    8.243
  379.590    0.000   59.788    0.319    0.486    7.628
  379.840    0.000   57.722    0.320    0.495    7.032
  380.090    0.000   59.715    0.312    0.505    6.634
  380.340   -0.000   62.829    0.312    0.506    6.646
  380.590   -0.000   63.192    0.312    0.471    6.677
  380.840    0.000   62.225    0.300    0.458    6.778
  381.090    0.000   59.874    0.301    0.463    6.854
  381.340    0.000   59.406    0.304    0.466    6.916
  381.590   -0.000   60.879    0.308    0.465    6.808
  381.840   -0.000   62.520    0.303    0.474    6.813
  382.090   -0.000   64.161    0.279    0.471    6.671
  382.340    0.000   65.095    0.279    0.464    6.597
  382.590    0.000   65.938    0.290    0.473    6.444
  382.840    0.000   65.216    0.295    0.479    6.325
  383.090   -0.000   63.014    0.310    0.463    6.349
  383.340   -0.000   62.234    0.304    0.456    6.210
  383.590    0.000   62.322    0.307    0.461    6.227
  383.840    0.000   61.321    0.292    0.460    6.238
  384.090    0.000   61.286    0.292    0.446    6.261
  384.340   -0.000   61.741    0.299    0.442    6.368
  384.590   -0.000   62.809    0.306    0.448    6.236
  384.840   -0.000   62.319    0.307    0.457    6.239
  385.090    0.000   62.452    0.285    0.461    6.052
  385.340    0.000   60.084    0.270    0.435    5.903
  385.590    0.000   57.429    0.239    0.411    6.045
  385.840   -0.000   51.775    0.192    0.295    6.409
  386.090   -0.000   49.419    0.092    0.206    7.111
  386.340   -0.000   47.391    0.000    0.154    8.480
  386.590    0.000   46.377   -0.001    0.141   12.857
  386.840    0.000   46.198   -0.000    0.136   20.417
  387.090   -0.000   46.817   -0.000    0.136   28.084
  387.340   -0.000   47.065   -0.000    0.142   41.154
  387.590   -0.000   48.786   -0.001    0.158   51.693
  387.840    0.000   48.179    0.014    0.188   52.985
  388.090    0.000   49.120    0.118    0.219   45.874
  388.340    0.000   57.082    0.202    0.303   17.122
  388.590   -0.000   61.928    0.264    0.431   11.998
  388.840   -0.000   64.722    0.333    0.467    8.398
  389.090   -0.000   65.655    0.311    0.484    7.191
  389.340    0.000   66.744    0.303    0.495    6.283
  389.590    0.000   65.944    0.298    0.472    6.168
