~VERSION INFORMATION
 VERS.                 2.0:   CWLS LOG ASCII STANDARD -VERSION 2.0
 WRAP.                  NO:   ONE LINE PER DEPTH STEP
~WELL INFORMATION BLOCK
#MNEM.UNIT           DATA                    DESCRIPTION OF MNEMONIC
#---------    -------------------            -------------------------------
# Generated from Intellog Unique Number	CS_69_70/WELL/702
NULL.         -999.25                        : NULL_VALUE
WELL.         HUSKY OIL OPERATION LTD        : Well_name    - WELL              
LOC .         00/05-23-070-06W4/0            : Location     - LOCATION          
UWI .         00/05-23-070-06W4/0            : Uwi          - UNIQUE WELL ID    
ENTR.         SP                             : Entered      - ENTERED BY        
SRVC.         SCHLUMBERGER                   : Scn          - SERVICE COMPANY   
STRT.M        300                            : top_depth    - START DEPTH       
STOP.M        540                            : bot_depth    - STOP DEPTH        
STEP.M        0.25                           : increment    - STEP LENGTH       
~CURVE INFORMATION BLOCK
#MNEM UNIT       ERCB CURVE CODE    CURVE DESCRIPTION
#-----------   ------------------   ----------------------------------
DEPT.M        00 001 00 00         : DEPTH        - DEPTH                       
ILD .OHMM     00 120 00 00         : RESD         - DEEP RESISTIVITY (DIL)      
DPHI.V/V      00 890 00 00         : PHID         - DENSITY POROSITY (LIMESTONE)
NPHI.V/V      00 330 00 00         : PHIN         - NEUTRON POROSITY (LIMESTONE)
GR  .API      00 310 00 00         : GR           - GAMMA RAY                   
~PARAMETER INFORMATION       
#MNEM.UNIT           DATA             DESCRIPTION OF MNEMONIC
#---------         -----------     ------------------------------
GL  .M        657                  : gl           - GROUND LEVEL ELEVATION      
EREF.M        660.6                : kb           - ELEVATION OF DEPTH REFERENCE
DATM.M        657                  : datum        - DATUM ELEVATION             
TDD .M        545                  : tdd          - TOTAL DEPTH DRILLER         
RUN .         ONE                  : Run          - RUN NUMBER                  
ENG .         BILL                 : Engineer     - RECORDING ENGINEER          
WIT .         JIM                  : Witness      - WITNESSED BY                
MUD .         GEL                  : Mud_type     - MUD TYPE                    
MATR.         LIMESTONE            : Logunit      - NEUTRON MATRIX              
TMAX.C        25                   : BHT          - MAXIMUM RECORDED TEMPERATURE
BHTD.M        545                  : BHTDEP       - MAXIMUM RECORDED TEMPERATURE
MATR.         1                    : LOGUNIT      - NEUTRON MATRIX              
RMT .C        25                   : MDTP         - TEMPERATURE OF MUD          
NEUT.         1                    : NEUTRON      - NEUTRON TYPE                
RESI.         0                    : RESIST       - RESISTIVITY TYPE            
RMC .OHMM     0.25                 : RMC          - RESISTIVITY OF MUD CAKE     
RMF .OHMM     0.25                 : RMF          - RESISTIVITY OF MUD FILTRATE 
SUFT.C        15                   : SUFT         - SURFACE TEMPERATURE         
~A  DEPTH     RESD     PHID     PHIN       GR
# ...
  517.500    5.591    0.300    0.364   47.172
  517.750    5.591    0.305    0.355   51.403
  518.000    5.489    0.287    0.343   59.245
  518.250    5.388    0.276    0.362   55.037
  518.500    5.289    0.300    0.366   47.823
  518.750    5.290    0.312    0.351   46.627
  519.000    5.390    0.313    0.345   44.829
  519.250    5.492    0.304    0.355   49.057
  519.500    5.596    0.250    0.376   68.949
  519.750    5.809    0.219    0.393   79.200
  520.000    6.030    0.259    0.373   64.154
  520.250    6.030    0.273    0.363   61.156
  520.500    6.144    0.207    0.364   62.367
  520.750    6.261    0.173    0.366   55.151
  521.000    6.146    0.235    0.363   49.739
  521.250    5.922    0.267    0.349   50.353
  521.500    5.601    0.277    0.358   55.785
  521.750    5.498    0.262    0.359   52.187
  522.000    5.200    0.283    0.347   51.592
  522.250    4.918    0.288    0.341   51.000
  522.500    4.828    0.291    0.352   45.589
  522.750    4.829    0.315    0.367   39.576
  523.000    4.920    0.329    0.367   41.395
  523.250    5.013    0.318    0.363   48.036
  523.500    5.108    0.304    0.354   54.674
  523.750    5.204    0.292    0.356   55.887
  524.000    5.205    0.280    0.365   54.095
  524.250    5.403    0.295    0.360   54.102
  524.500    5.404    0.284    0.354   57.132
  524.750    5.506    0.267    0.354   57.742
  525.000    5.610    0.255    0.368   57.149
  525.250    5.611    0.262    0.360   52.941
  525.500    5.824    0.276    0.343   47.532
  525.750    5.934    0.290    0.337   50.555
  526.000    6.047    0.274    0.343   65.026
  526.250    6.161    0.251    0.350   65.035
  526.500    6.162    0.242    0.350   58.422
  526.750    5.937    0.265    0.372   54.213
  527.000    5.721    0.283    0.384   49.406
  527.250    5.512    0.303    0.385   50.625
  527.500    5.513    0.310    0.361   53.042
  527.750    5.514    0.289    0.346   59.082
  528.000    5.831    0.270    0.330   61.500
  528.250    6.053    0.248    0.345   62.714
  528.500    6.167    0.247    0.352   60.922
  528.750    6.284    0.254    0.344   58.519
  529.000    6.285    0.264    0.339   54.917
  529.250    6.056    0.272    0.351   56.136
  529.500    5.835    0.276    0.350   56.748
  529.750    5.519    0.276    0.346   53.148
  530.000    5.219    0.282    0.344   50.141
  530.250    5.029    0.296    0.359   39.915
  530.500    4.846    0.311    0.371   33.300
  530.750    4.757    0.319    0.356   29.697
  531.000    4.847    0.329    0.320   28.499
  531.250    5.126    0.339    0.305   53.812
  531.500    5.627    0.271    0.316   61.655
  531.750    6.293    0.216    0.325   64.678
  532.000    6.780    0.195    0.332   60.478
  532.250    7.170    0.219    0.320   64.705
  532.500    7.583    0.234    0.317   69.534
  532.750    8.171    0.216    0.321   73.760
  533.000    8.481    0.209    0.325   68.352
  533.250    8.804    0.199    0.320   65.951
  533.500    9.139    0.193    0.331   73.794
  533.750    9.487    0.177    0.333   80.430
  534.000    9.848    0.170    0.325   85.864
  534.250   10.224    0.159    0.333   86.478
  534.500   10.612    0.148    0.344   81.067
  534.750   11.223    0.131    0.327   74.452
  535.000   12.787    0.072    0.258   62.416
  535.250   15.122   -0.001    0.212   51.584
  535.500   17.883   -0.010    0.190   43.762
  535.750   20.757   -0.009    0.200   40.761
  536.000   22.364   -0.008    0.211   44.389
  536.250   23.651   -0.008    0.218   46.811
  536.500   25.484    0.008    0.211   48.026
  536.750   26.454    0.015    0.207   49.846
  537.000   27.461    0.006    0.204   50.458
  537.250   27.979   -0.011    0.202   51.069
  537.500   28.509   -0.012    0.200   52.289
  537.750   27.986   -0.012    0.202   52.301
  538.000   27.475   -0.011    0.201   52.310
  538.250   27.476    0.000    0.201   52.326
  538.500   26.973    0.006    0.202   52.336
  538.750   26.479    0.016    0.205   52.345
  539.000   26.482    0.024    0.219   52.356
  539.250   26.983    0.015    0.225   51.766
  539.500   26.985   -0.004    0.234   51.780
  539.750   26.988    0.002    0.232   51.791
  540.000   26.991    0.018    0.232   51.802
