~VERSION INFORMATION
 VERS.                 2.0:   CWLS LOG ASCII STANDARD -VERSION 2.0
 WRAP.                  NO:   ONE LINE PER DEPTH STEP
~WELL INFORMATION BLOCK
#MNEM.UNIT           DATA                    DESCRIPTION OF MNEMONIC
#---------    -------------------            -------------------------------
# Generated from Intellog Unique Number	CN_91_93/WELL/1069
WELL.         PARAMOUNT RESOURCES LTD.       : Well_name    - WELL
LOC .         00/04-07-091-19W4/0            : Location     - LOCATION
UWI .         00/04-07-091-19W4/0            : Uwi          - UNIQUE WELL ID
ENTR.         JOETTE                         : Entered      - ENTERED BY
SRVC.         SCHLUMBERGER                   : Scn          - SERVICE COMPANY
DATE.         01/31/92                       : Date         - LOG DATE
STRT.F        295.276                        : top_depth    - START DEPTH
STOP.F        761.155                        : bot_depth    - STOP DEPTH
STEP.F        0.82                           : increment    - STEP LENGTH
 NULL. -999.2500:NULL Value
~CURVE INFORMATION BLOCK
#MNEM UNIT       ERCB CURVE CODE    CURVE DESCRIPTION
#-----------   ------------------   ----------------------------------
DEPT.F        00 001 00 00         : DEPTH        - DEPTH
ILD .OHMM     00 120 00 00         : RESD         - DEEP RESISTIVITY (DIL)
DPHI.V/V      00 890 00 00         : PHID         - DENSITY POROSITY (SANDSTONE)
NPHI.V/V      00 330 00 00         : PHIN         - NEUTRON POROSITY (SANDSTONE)
CALI.IN       00 280 01 00         : CAL          - CALIPER
GR  .API      00 310 00 00         : GR           - GAMMA RAY
~PARAMETER INFORMATION
#MNEM.UNIT           DATA             DESCRIPTION OF MNEMONIC
#---------         -----------     ------------------------------
GL  .F        1674.54              : gl           - GROUND LEVEL ELEVATION
EREF.F        1684.71              : kb           - ELEVATION OF DEPTH REFERENCE
DATM.F        1684.71              : datum        - DATUM ELEVATION
TDD .F        766.404              : tdd          - TOTAL DEPTH DRILLER
RUN .         ONE                  : Run          - RUN NUMBER
ENG .         JO                   : Engineer     - RECORDING ENGINEER
WIT .         TIM                  : Witness      - WITNESSED BY
MUD .         GEL                  : Mud_type     - MUD TYPE
MATR.         SANDSTONE            : Logunit      - NEUTRON MATRIX
TMAX.F        71.6                 : BHT          - MAXIMUM RECORDED TEMPERATURE
BHTD.F        766.404              : BHTDEP       - MAXIMUM RECORDED TEMPERATURE
RMT .F        53.6                 : MDTP         - TEMPERATURE OF MUD
MUDD.LB/G     9.5                  : MWT          - MUD DENSITY
NEUT.         1                    : NEUTRON      - NEUTRON TYPE
RESI.         0                    : RESIST       - RESISTIVITY TYPE
RM  .OHMM     1.5                  : RM           - RESISTIVITY OF MUD
RMC .OHMM     6.5                  : RMC          - RESISTIVITY OF MUD CAKE
RMF .OHMM     5.7                  : RMF          - RESISTIVITY OF MUD FILTRATE
SUFT.F        39.2                 : SUFT         - SURFACE TEMPERATURE
~A  DEPTH     RESD     PHID     PHIN      CAL       GR
  295.276   40.573    0.361    0.416    7.421   39.264
  296.096   41.740    0.365    0.401    7.481   41.641
  296.916   40.920    0.356    0.398    7.290   42.261
  297.736   37.698    0.335    0.401    6.505   42.592
  298.556   34.742    0.325    0.402    6.430   42.629
  299.377   35.246    0.325    0.396    6.913   43.240
  300.197   35.515    0.340    0.404    7.203   44.738
  301.017   34.100    0.353    0.434    7.321   43.901
  301.837   31.208    0.363    0.412    7.362   47.153
  302.657   27.401    0.226    0.386    5.807   58.025
  303.478   22.771    0.238    0.406    5.828   82.965
  304.298   20.272    0.254    0.409    5.830   93.251
  305.118   18.551    0.264    0.417    5.929   87.426
  305.938   17.094    0.275    0.434    6.123   83.066
  306.759   16.642    0.277    0.436    6.164   85.736
  307.579   16.653    0.271    0.436    6.128   91.046
  308.399   16.103    0.264    0.436    6.130   91.670
  309.219   15.045    0.264    0.434    6.228   90.825
  310.039   14.545    0.263    0.434    6.250   89.975
  310.860   14.257    0.262    0.448    6.175   92.059
  311.680   14.270    0.253    0.434    6.120   98.541
  312.500   14.477    0.247    0.427    6.103  100.043
  313.320   14.689    0.244    0.474    6.086   98.315
  314.140   14.804    0.247    0.483    5.992   96.596
  314.961   14.711    0.249    0.471    5.860   94.579
  315.781   14.721    0.248    0.458    5.900  100.759
  316.601   14.936    0.246    0.446    6.075   98.747
  317.421   14.936    0.247    0.439    6.135   93.796
  318.241   15.275    0.248    0.434    6.061   88.557
  319.062   16.147    0.196    0.411    5.967   84.197
  319.882   16.727    0.188    0.410    5.835   80.129
  320.702   16.622    0.202    0.417    5.875   88.072
  321.522   16.186    0.227    0.414    6.070   90.754
  322.343   15.973    0.249    0.411    6.033   90.491
  323.163   15.771    0.250    0.458    5.901   91.106
  323.983   15.780    0.251    0.467    5.788   90.269
  324.803   15.903    0.252    0.470    5.886   86.779
  325.623   16.023    0.254    0.460    5.908   85.348
  326.444   16.256    0.258    0.441    5.891   85.679
  327.264   17.072    0.264    0.437    5.970   84.829
  328.084   17.805    0.272    0.471    6.318   87.215
  328.904   18.958    0.308    0.473    6.340   83.725
  329.724   19.233    0.341    0.473    6.381   78.486
  330.545   18.725    0.329    0.448    6.575   74.711
  331.365   17.859    0.272    0.423    6.500   73.870
  332.185   16.683    0.187    0.419    6.233   84.156
  333.005   15.477    0.202    0.434    6.062  102.355
  333.825   13.969    0.208    0.470    6.026  102.681
  334.646   13.232    0.280    0.474    6.048   99.204
  335.466   13.151    0.280    0.469    6.184   95.425
  336.286   13.344    0.264    0.474    6.184   91.944
  337.106   13.820    0.276    0.475    6.247   86.705
  337.927   15.021    0.282    0.475    6.365   79.704
  338.747   15.137    0.289    0.469    6.270   76.812
  339.567   14.738    0.271    0.443    6.157   78.018
  340.387   14.445    0.265    0.442    6.102   96.802
  341.207   13.776    0.276    0.449    6.066  102.109
  342.028   13.229    0.276    0.462    6.010  104.783
  342.848   12.707    0.272    0.469    5.974  103.645
  343.668   12.626    0.280    0.448    5.899  101.916
  344.488   12.899    0.287    0.462    5.825   95.799
  345.308   14.215    0.291    0.435    5.865   81.776
  346.129   17.248    0.277    0.439    5.982   73.599
  346.949   23.365    0.275    0.441    6.177   55.467
  347.769   30.165    0.289    0.435    6.679   41.733
  348.589   38.945    0.316    0.414    6.912   35.908
  349.409   42.621    0.354    0.402    7.030   34.770
  350.230   42.950    0.363    0.395    6.513   35.096
  351.050   43.878    0.357    0.394    6.361   36.888
  351.870   44.519    0.343    0.393    6.229   37.800
  352.690   44.864    0.342    0.391    6.424   37.248
  353.510   45.207    0.343    0.386    6.714   35.524
  354.331   45.552    0.337    0.389    6.602   33.507
  355.151   44.348    0.337    0.381    6.488   32.080
  355.971   42.887    0.344    0.372    6.317   32.996
  356.791   41.459    0.349    0.376    6.396   33.904
  357.612   38.462    0.355    0.385    6.418   33.653
  358.432   32.406    0.362    0.392    6.381   34.264
  359.252   28.260    0.356    0.398    6.557   43.383
  360.072   24.649    0.333    0.400    6.809   57.184
  360.892   23.341    0.253    0.392    6.657   94.724
  361.713   20.215    0.212    0.403    6.198   86.552
  362.533   20.652    0.223    0.414    5.912   76.333
  363.353   22.915    0.242    0.402    5.799   54.686
  364.173   32.131    0.258    0.382    5.916   43.584
  364.993   38.191    0.257    0.382    5.746   53.288
  365.814   44.781    0.257    0.373    5.729   59.189
  366.634   47.021    0.288    0.376    5.808   56.870
  367.454   48.373    0.299    0.387    5.810   51.045
  368.274   47.743    0.307    0.395    5.832   52.251
  369.094   47.138    0.308    0.392    5.815   50.234
  369.915   46.840    0.308    0.397    5.759   48.217
  370.735   45.289    0.303    0.397    5.742   49.426
  371.555   43.199    0.294    0.387    5.898   49.460
  372.375   42.632    0.276    0.384    6.055   49.786
  373.196   43.862    0.239    0.384    6.056   43.668
  374.016   45.736    0.289    0.380    6.039   39.308
  374.836   50.062    0.321    0.367    6.234   37.877
  375.656   50.449    0.342    0.367    6.102   37.915
  376.476   50.131    0.348    0.375    6.027   37.948
  377.297   52.292    0.348    0.382    6.029   38.270
  378.117   53.046    0.336    0.390    6.147   35.676
  378.937   53.456    0.337    0.398    6.014   34.530
  379.757   53.129    0.341    0.404    5.997   33.977
  380.577   52.446    0.346    0.406    6.115   35.187
  381.398   51.772    0.342    0.399    6.194   37.564
  382.218   52.528    0.304    0.371    6.081   37.313
  383.038   53.285    0.278    0.367    5.949   36.752
  383.858   53.329    0.235    0.361    6.066   37.376
  384.678   52.634    0.245    0.364    6.145   37.413
  385.499   51.605    0.306    0.370    6.128   37.447
  386.319   50.588    0.318    0.367    6.227   37.480
  387.139   49.586    0.343    0.364    6.171   36.924
  387.959   48.280    0.343    0.372    6.116   36.669
  388.780   47.650    0.332    0.379    6.061   37.581
  389.600   47.038    0.327    0.383    6.140   37.581
  390.420   46.433    0.315    0.380    6.123   38.837
  391.240   45.514    0.313    0.374    6.087   40.021
  392.060   44.006    0.317    0.376    6.088   42.105
  392.881   42.253    0.319    0.378    6.168   43.314
  393.701   40.023    0.313    0.370    6.170   44.519
  394.521   38.172    0.200    0.369    6.133   46.022
  395.341   36.908    0.190    0.380    6.098   46.637
  396.161   36.427    0.264    0.398    6.119   46.670
  396.982   36.210    0.305    0.412    6.063   46.122
  397.802   35.985    0.322    0.402    6.046   44.398
  398.622   35.276    0.333    0.399    5.895   43.549
  399.442   34.108    0.311    0.402    5.820   43.875
  400.262   32.304    0.280    0.400    5.822   45.679
  401.083   29.968    0.273    0.407    5.844   47.759
  401.903   26.496    0.275    0.406    5.866   51.010
  402.723   21.570    0.247    0.405    6.003   56.024
  403.543   18.174    0.195    0.440    6.120   69.536
  404.364   15.206    0.197    0.467    6.007  106.486
  405.184   13.538    0.223    0.490    5.932  112.378
  406.004   12.733    0.227    0.508    6.050  116.224
  406.824   12.061    0.228    0.524    6.187  117.731
  407.644   11.742    0.230    0.528    6.227  114.831
  408.465   11.671    0.236    0.498    6.191  113.107
  409.285   11.520    0.239    0.485    6.097  114.308
  410.105   11.293    0.241    0.483    6.022  113.760
  410.925   11.540    0.246    0.493    6.082  111.747
  411.745   12.034    0.256    0.499    6.123  109.730
  412.566   12.463    0.263    0.494    6.067  108.291
  413.386   12.732    0.244    0.485    6.031  106.859
  414.206   12.732    0.232    0.489    6.206  103.968
