~VERSION INFORMATION
 VERS.                 2.0:   CWLS LOG ASCII STANDARD -VERSION 2.0
 WRAP.                  NO:   ONE LINE PER DEPTH STEP
~WELL INFORMATION BLOCK
#MNEM.UNIT           DATA                    DESCRIPTION OF MNEMONIC
#---------    -------------------            -------------------------------
# Generated from Intellog Unique Number	CN_94_101/WELL/3208
NULL.         -999.25                        : NULL_VALUE
WELL.         NORTHSTAR ET AL ELLS           : Well_name    - WELL              
LOC .         05-09-095-16W4                 : Location     - LOCATION          
UWI .         00/05-09-095-16W400            : Uwi          - UNIQUE WELL ID    
ENTR.         JOETTE                         : Entered      - ENTERED BY        
SRVC.         HALLIBURTON                    : Scn          - SERVICE COMPANY   
DATE.         14 MAR 90                      : Date         - LOG DATE          
STRT.M        150                            : top_depth    - START DEPTH       
STOP.M        270                            : bot_depth    - STOP DEPTH        
STEP.M        0.25                           : increment    - STEP LENGTH       
~CURVE INFORMATION BLOCK
#MNEM UNIT       ERCB CURVE CODE    CURVE DESCRIPTION
#-----------   ------------------   ----------------------------------
DEPT.M        00 001 00 00         : DEPTH        - DEPTH                       
GR  .API      00 310 00 00         : GR           - GAMMA RAY                   
NPHI.V/V      00 330 00 00         : PHIN         - NEUTRON POROSITY (SANDSTONE)
DPHI.V/V      00 890 00 00         : PHID         - DENSITY POROSITY (SANDSTONE)
ILD .OHMM     00 120 00 00         : RESD         - DEEP RESISTIVITY (DIL)      
~PARAMETER INFORMATION       
#MNEM.UNIT           DATA             DESCRIPTION OF MNEMONIC
#---------         -----------     ------------------------------
GL  .M        534.8                : gl           - GROUND LEVEL ELEVATION      
EREF.M        538.4                : kb           - ELEVATION OF DEPTH REFERENCE
DATM.M        538.4                : datum        - DATUM ELEVATION             
TDD .M        283.5                : tdd          - TOTAL DEPTH DRILLER         
RUN .         ONE                  : Run          - RUN NUMBER                  
ENG .         JO                   : Engineer     - RECORDING ENGINEER          
WIT .         TIM                  : Witness      - WITNESSED BY                
MUD .         GEL                  : Mud_type     - MUD TYPE                    
MATR.         SANDSTONE            : Logunit      - NEUTRON MATRIX              
TMAX.C        35                   : BHT          - MAXIMUM RECORDED TEMPERATURE
BHTD.M        283.5                : BHTDEP       - MAXIMUM RECORDED TEMPERATURE
RMT .C        15                   : MDTP         - TEMPERATURE OF MUD          
MUDD.KG/M     1040                 : MWT          - MUD DENSITY                 
NEUT.         1                    : NEUTRON      - NEUTRON TYPE                
RESI.         0                    : RESIST       - RESISTIVITY TYPE            
RM  .OHMM     0.28                 : RM           - RESISTIVITY OF MUD          
RMC .OHMM     0.35                 : RMC          - RESISTIVITY OF MUD CAKE     
RMF .OHMM     0.3                  : RMF          - RESISTIVITY OF MUD FILTRATE 
SUFT.C        4                    : SUFT         - SURFACE TEMPERATURE         
~A  DEPTH       GR     PHIN     PHID     RESD
# ...
  193.500   99.429    0.460    0.180    5.987
  193.750  100.568    0.466    0.181    5.076
  194.000  100.522    0.479    0.192    4.545
  194.250   99.302    0.508    0.209    4.376
  194.500   97.485    0.503    0.228    4.451
  194.750   96.277    0.474    0.230    4.287
  195.000   94.459    0.462    0.241    4.055
  195.250   94.413    0.486    0.267    3.630
  195.500   97.312    0.505    0.309    3.310
  195.750  103.732    0.518    0.322    3.074
  196.000  108.968    0.529    0.331    3.072
  196.250  113.029    0.529    0.325    3.422
  196.500  109.462    0.520    0.298    4.100
  196.750  104.722    0.490    0.278    5.581
  197.000   99.970    0.462    0.275    6.687
  197.250   98.751    0.441    0.281    7.318
  197.500   98.705    0.427    0.287    7.862
  197.750   96.899    0.422    0.270    7.299
  198.000  100.972    0.428    0.242    6.776
  198.250  108.554    0.436    0.226    6.530
  198.500  110.257    0.448    0.233    6.175
  198.750  109.049    0.461    0.255    5.836
  199.000  107.231    0.472    0.250    5.728
  199.250  104.838    0.478    0.251    5.826
  199.500  102.445    0.469    0.252    6.610
  199.750  100.650    0.444    0.230    8.365
  200.000   97.658    0.404    0.203   10.972
  200.250   95.277    0.384    0.180   11.794
  200.500   89.938    0.352    0.143   13.139
  200.750   93.424    0.334    0.079   14.119
  201.000   96.888    0.324    0.099   13.844
  201.250   96.853    0.371    0.162   13.333
  201.500   97.394    0.412    0.215   12.841
  201.750  102.629    0.406    0.227   12.140
  202.000  104.332    0.395    0.232   11.914
  202.250  102.514    0.404    0.236   11.264
  202.500  101.318    0.415    0.241   10.845
  202.750  100.098    0.422    0.235   10.640
  203.000   98.879    0.428    0.230   10.435
  203.250   98.833    0.433    0.230   10.423
  203.500   99.949    0.428    0.233   10.223
  203.750  101.663    0.423    0.234   10.210
  204.000  102.802    0.422    0.227   10.195
  204.250  102.756    0.422    0.221   10.189
  204.500  102.123    0.423    0.220    9.993
  204.750  100.317    0.420    0.223    9.978
  205.000  101.445    0.418    0.227    9.967
  205.250  104.919    0.424    0.238   10.134
  205.500  105.449    0.434    0.238   10.312
  205.750  103.654    0.440    0.218   10.492
  206.000  101.261    0.424    0.218   11.061
  206.250   98.868    0.417    0.226   11.675
  206.500   95.301    0.398    0.235   12.772
  206.750   91.147    0.347    0.215   14.229
  207.000   87.569    0.309    0.132   14.208
  207.250   92.816    0.308    0.121   13.194
  207.500   98.638    0.337    0.114   12.025
  207.750  105.035    0.381    0.148   11.375
  208.000  105.001    0.406    0.222   10.758
  208.250  103.770    0.416    0.239   10.364
  208.500  101.388    0.417    0.259    9.984
  208.750   97.821    0.417    0.269    9.787
  209.000   93.656    0.415    0.278    9.602
  209.250   93.012    0.421    0.281    9.593
  209.500   94.151    0.426    0.280    9.576
  209.750   97.039    0.437    0.279    9.564
  210.000   98.167    0.443    0.276    9.556
  210.250   97.534    0.437    0.272    9.723
  210.500   95.728    0.424    0.274   10.247
  210.750   93.334    0.423    0.276   10.247
  211.000   90.366    0.422    0.282   10.806
  211.250   90.907    0.416    0.280   11.605
  211.500   94.968    0.403    0.272   12.249
  211.750   93.162    0.389    0.233   13.400
  212.000   75.512    0.357    0.197   17.587
  212.250   66.066    0.344    0.164   22.257
  212.500   61.913    0.303    0.104   23.055
  212.750   60.095    0.279    0.065   19.906
  213.000   70.634    0.287    0.038   17.503
  213.250   80.564    0.300    0.044   14.573
  213.500   88.733    0.390    0.087    9.576
  213.750   99.249    0.430    0.127    8.265
  214.000  102.724    0.478    0.184    7.137
  214.250  106.210    0.481    0.226    6.049
  214.500  109.673    0.475    0.247    5.828
  214.750  113.159    0.471    0.223    6.147
  215.000  116.634    0.460    0.213    6.251
  215.250  115.990    0.456    0.219    6.358
  215.500  113.597    0.505    0.230    6.467
  215.750  113.551    0.515    0.238    6.699
  216.000  114.678    0.493    0.249    7.067
  216.250  112.285    0.475    0.244    7.457
  216.500  109.904    0.461    0.234    7.868
  216.750  105.152    0.449    0.214    8.298
  217.000  106.866    0.433    0.214    8.440
  217.250  106.820    0.428    0.224    8.432
  217.500  107.948    0.434    0.230    8.270
  217.750  110.261    0.435    0.214    8.107
  218.000  115.496    0.435    0.199    8.099
  218.250  120.742    0.436    0.220    7.941
  218.500  128.325    0.439    0.232    7.791
  218.750  129.441    0.446    0.236    7.644
  219.000  124.712    0.452    0.232    7.495
  219.250  118.200    0.462    0.229    7.220
  219.500  118.154    0.480    0.240    7.081
  219.750  116.347    0.474    0.243    6.945
  220.000  113.368    0.459    0.237    6.812
  220.250  103.933    0.454    0.227    6.679
  220.500   99.779    0.446    0.207    6.673
  220.750  102.656    0.435    0.111    6.910
  221.000  106.142    0.437    0.152    6.775
  221.250  116.083    0.445    0.186    6.527
  221.500  116.037    0.454    0.205    6.404
  221.750  115.991    0.449    0.223    6.396
  222.000  114.185    0.448    0.237    6.747
  222.250  110.595    0.455    0.257    7.248
  222.500  111.136    0.467    0.256    7.646
  222.750  114.611    0.471    0.229    7.772
  223.000  118.097    0.465    0.228    7.765
  223.250  119.811    0.457    0.221    7.754
  223.500  118.005    0.445    0.218    7.749
  223.750  115.037    0.430    0.219    7.740
  224.000  108.524    0.417    0.206    7.731
  224.250  105.533    0.394    0.127    7.722
  224.500  109.606    0.418    0.146    7.712
  224.750  110.158    0.435    0.192    7.158
  225.000  110.699    0.433    0.208    6.896
  225.250  112.414    0.434    0.203    6.521
  225.500  116.475    0.442    0.190    6.167
  225.750  120.537    0.455    0.194    5.727
  226.000  116.970    0.480    0.189    5.221
  226.250  112.817    0.504    0.193    5.030
  226.500  114.519    0.517    0.200    4.756
  226.750  117.994    0.534    0.205    4.753
  227.000  115.003    0.534    0.206    5.012
  227.250  113.219    0.521    0.206    5.193
  227.500  110.228    0.499    0.208    5.477
  227.750  110.194    0.479    0.209    5.676
  228.000  108.974    0.461    0.209    6.210
  228.250  105.396    0.435    0.208    7.441
  228.500  103.014    0.421    0.201    9.247
  228.750   95.915    0.406    0.187   11.283
  229.000   77.679    0.386    0.162   14.018
  229.250   58.844    0.360    0.163   15.063
  229.500   58.798    0.330    0.200   13.988
  229.750   59.339    0.316    0.284   12.752
  230.000   58.108    0.331    0.312   11.839
  230.250   66.288    0.348    0.311   11.405
  230.500   75.631    0.364    0.302   10.988
  230.750   77.944    0.365    0.300   10.777
  231.000   79.060    0.358    0.306   13.154
  231.250   79.025    0.347    0.293   15.762
  231.500   72.525    0.337    0.216   19.234
  231.750   59.558    0.324    0.167   23.901
  232.000   51.884    0.308    0.114   32.542
  232.250   45.959    0.242    0.143   51.237
  232.500   47.086    0.249    0.198   56.053
  232.750   47.029    0.300    0.249   54.960
  233.000   47.006    0.319    0.309   55.903
  233.250   46.373    0.317    0.343   60.072
  233.500   45.740    0.304    0.355   77.418
  233.750   45.107    0.306    0.372   91.120
  234.000   42.703    0.311    0.380   99.655
  234.250   40.321    0.318    0.375   97.740
  234.500   37.928    0.340    0.362   97.594
  234.750   38.469    0.421    0.353  101.153
  235.000   41.345    0.444    0.348  102.889
  235.250   41.886    0.456    0.344  108.502
  235.500   42.427    0.457    0.345  114.422
  235.750   42.968    0.454    0.348  112.224
  236.000   42.346    0.444    0.355  106.195
  236.250   40.540    0.433    0.358   93.349
  236.500   38.734    0.420    0.358   85.151
  236.750   37.514    0.419    0.343   76.248
