~VERSION INFORMATION
 VERS.                 2.0:   CWLS LOG ASCII STANDARD -VERSION 2.0
 WRAP.                  NO:   ONE LINE PER DEPTH STEP
~WELL INFORMATION BLOCK
#MNEM.UNIT           DATA                    DESCRIPTION OF MNEMONIC
#---------    -------------------            -------------------------------
# Generated from Intellog Unique Number	CS_73_76/WELL/2389
WELL.         CAVALIER ENERGY INC.           : Well_name    - WELL
LOC .         00/07-24-075-16W4/0            : Location     - LOCATION
UWI .         00/07-24-075-16W4/0            : Uwi          - UNIQUE WELL ID
ENTR.         SP                             : Entered      - ENTERED BY
SRVC.         SCHLUMBERGER                   : Scn          - SERVICE COMPANY
STRT.M        362.712                        : top_depth    - START DEPTH
STOP.M        566.712                        : bot_depth    - STOP DEPTH
STEP.M        0.25                           : increment    - STEP LENGTH
 NULL. -999.2500:NULL Value
~CURVE INFORMATION BLOCK
#MNEM UNIT       ERCB CURVE CODE    CURVE DESCRIPTION
#-----------   ------------------   ----------------------------------
DEPT.M        00 001 00 00         : DEPTH        - DEPTH
GR  .API      00 310 00 00         : GR           - GAMMA RAY
DPHI.V/V      00 890 00 00         : PHID         - DENSITY POROSITY (SANDSTONE)
NPHI.V/V      00 330 00 00         : PHIN         - NEUTRON POROSITY (SANDSTONE)
ILD .OHMM     00 120 00 00         : RESD         - DEEP RESISTIVITY (DIL)
~PARAMETER INFORMATION
#MNEM.UNIT           DATA             DESCRIPTION OF MNEMONIC
#---------         -----------     ------------------------------
GL  .M        726.948              : gl           - GROUND LEVEL ELEVATION
EREF.M        729.691              : kb           - ELEVATION OF DEPTH REFERENCE
DATM.M        726.948              : datum        - DATUM ELEVATION
TDD .M        566.014              : tdd          - TOTAL DEPTH DRILLER
RUN .         ONE                  : Run          - RUN NUMBER
ENG .         BILL                 : Engineer     - RECORDING ENGINEER
WIT .         JIM                  : Witness      - WITNESSED BY
MUD .         GEL                  : Mud_type     - MUD TYPE
MATR.         SANDSTONE            : Logunit      - NEUTRON MATRIX
TMAX.C        23.3333              : BHT          - MAXIMUM RECORDED TEMPERATURE
BHTD.M        566.014              : BHTDEP       - MAXIMUM RECORDED TEMPERATURE
MATR.         1                    : LOGUNIT      - NEUTRON MATRIX
RMT .C        25                   : MDTP         - TEMPERATURE OF MUD
NEUT.         1                    : NEUTRON      - NEUTRON TYPE
RESI.         0                    : RESIST       - RESISTIVITY TYPE
RMC .OHMM     0.25                 : RMC          - RESISTIVITY OF MUD CAKE
RMF .OHMM     0.25                 : RMF          - RESISTIVITY OF MUD FILTRATE
SUFT.C        15                   : SUFT         - SURFACE TEMPERATURE
~A  DEPTH       GR     PHID     PHIN     RESD
# ...
  536.712   99.479    0.157    0.446    6.502
  536.962  100.675    0.139    0.451    6.807
  537.212   97.462    0.130    0.420    7.348
  537.462  101.291    0.117    0.389    7.713
  537.712  108.414    0.108    0.388    8.074
  537.962  112.373    0.133    0.395    8.523
  538.212  109.651    0.153    0.401    8.873
  538.462  106.943    0.142    0.383    9.010
  538.712  106.400    0.116    0.372    8.800
  538.962  108.739    0.093    0.376    8.447
  539.212  110.304    0.121    0.381    7.871
  539.462  112.677    0.137    0.399    7.218
  539.712  113.925    0.151    0.422    6.584
  539.962  110.790    0.169    0.441    6.244
  540.212  104.798    0.148    0.455    6.256
  540.462   97.814    0.107    0.434    6.160
  540.712  101.073    0.087    0.414    6.096
  540.962  107.611    0.112    0.424    5.894
  541.212  113.140    0.145    0.443    5.440
  541.462  116.577    0.169    0.456    4.930
  541.712  119.424    0.194    0.471    4.530
  541.962  120.573    0.207    0.485    4.334
  542.212  120.057    0.198    0.502    4.371
  542.462  119.294    0.191    0.485    5.070
  542.712  116.270    0.186    0.460    5.720
  542.962  111.787    0.175    0.453    6.599
  543.212  105.593    0.166    0.441    7.120
  543.462  100.487    0.160    0.428    7.507
  543.712   92.519    0.120    0.411    7.811
  543.962   92.359    0.102    0.425    8.209
  544.212  105.084    0.207    0.431    8.088
  544.462  112.214    0.212    0.408    7.860
  544.712  117.955    0.189    0.423    8.360
  544.962  119.792    0.192    0.443    8.794
  545.212  107.597    0.206    0.404    9.287
  545.462  103.447    0.182    0.382    9.672
  545.712  103.956    0.208    0.361    9.967
  545.962  110.453    0.181    0.374    9.567
  546.212  117.626    0.160    0.387    8.997
  546.462  122.435    0.153    0.407    8.222
  546.712  122.662    0.179    0.404    8.173
  546.962  111.809    0.204    0.382    9.439
  547.212  102.380    0.224    0.330   11.428
  547.462   93.763    0.244    0.315   13.537
  547.712   88.529    0.223    0.325   16.190
  547.962   86.456    0.194    0.334   17.705
  548.212   85.984    0.170    0.356   17.863
  548.462   86.509    0.193    0.383   17.800
  548.712   86.723    0.222    0.411   17.521
  548.962   89.150    0.240    0.405   16.307
  549.212   91.962    0.246    0.410   15.683
  549.462   95.097    0.235    0.411   14.956
  549.712   97.482    0.225    0.403   14.368
  549.962   95.799    0.207    0.401   13.773
  550.212   93.924    0.208    0.403   13.183
  550.462   96.227    0.216    0.404   12.710
  550.712   97.991    0.202    0.395   13.002
  550.962   93.496    0.191    0.389   13.287
  551.212   91.124    0.183    0.377   13.483
  551.462   93.270    0.186    0.361   13.174
  551.712  102.465    0.170    0.357   12.427
  551.962  108.150    0.163    0.390   12.056
  552.212  105.343    0.169    0.401   11.446
  552.462  104.286    0.181    0.399   11.024
  552.712  103.084    0.190    0.403   10.761
  552.962  103.118    0.197    0.413   10.800
  553.212  104.348    0.198    0.414   11.258
  553.462  105.572    0.188    0.401   11.867
  553.712  106.985    0.177    0.386   12.235
  553.962  106.388    0.160    0.398   11.872
  554.212  104.969    0.173    0.397   11.293
  554.462  105.915    0.155    0.386   10.924
  554.712  107.397    0.137    0.383   10.599
  554.962  109.101    0.161    0.388   10.301
  555.212  110.045    0.153    0.399    9.904
  555.462  110.603    0.168    0.413    9.655
  555.712  111.623    0.156    0.430    9.279
  555.962  113.648    0.144    0.427    8.888
  556.212  114.319    0.135    0.444    8.707
  556.462  113.313    0.145    0.446    8.547
  556.712  109.670    0.146    0.434    8.492
  556.962  107.376    0.160    0.423    8.532
  557.212  105.192    0.166    0.409    8.677
  557.462  102.698    0.171    0.407    9.001
  557.712  100.780    0.191    0.406    9.629
  557.962   98.183    0.210    0.390   10.471
  558.212   95.079    0.230    0.379   11.274
  558.462  106.318    0.227    0.371   11.658
  558.712  113.443    0.195    0.373   11.914
  558.962  114.611    0.178    0.376   11.976
  559.212  108.829    0.170    0.378   11.573
  559.462  101.039    0.172    0.395   11.038
  559.712   85.729    0.177    0.404   11.183
  559.962   69.627    0.174    0.416   12.612
  560.212   40.308    0.154    0.405   19.935
  560.462   18.069    0.116    0.347   26.465
  560.712   20.788    0.089    0.320   39.822
  560.962   24.127    0.072    0.301  128.114
  561.212   50.612    0.056    0.294  154.920
  561.462   68.793    0.057    0.287  156.665
  561.712   70.418    0.028    0.279  142.440
  561.962   71.891   -0.001    0.269  138.639
  562.212   72.448    0.004    0.262  131.114
  562.462   72.742   -0.000    0.259  121.457
  562.712   74.519    0.001    0.287  121.239
  562.962   75.459    0.017    0.291  172.738
  563.212   76.172    0.029    0.311  191.859
  563.462   75.129    0.053    0.387  199.879
  563.712   71.626    0.109    0.482  201.953
  563.962   68.712    0.152    0.506  201.842
  564.212   70.440    0.125    0.496  192.815
  564.462   73.836    0.098    0.492  153.350
  564.712   75.940    0.076    0.492  127.201
  564.962   76.252    0.076    0.493   73.441
  565.212   74.552    0.052    0.490   57.328
  565.462   76.549    0.026    0.482   52.664
  565.712   79.918    0.038    0.469   52.217
  565.962   83.181    0.022    0.451   52.245
  566.212   84.935   -0.002    0.444   52.285
  566.462   83.772    0.030    0.463   52.274
  566.712   80.845    0.045    0.481   53.572
