~VERSION INFORMATION
 VERS.                 2.0:   CWLS LOG ASCII STANDARD -VERSION 2.0
 WRAP.                  NO:   ONE LINE PER DEPTH STEP
~WELL INFORMATION BLOCK
#MNEM.UNIT           DATA                    DESCRIPTION OF MNEMONIC
#---------    -------------------            -------------------------------
# Generated from Intellog Unique Number	CN_91_93/WELL/3031
WELL.         PARAMOUNT RESOURCES LTD.       : Well_name    - WELL
LOC .         00/04-24-092-20W4/0            : Location     - LOCATION
UWI .         00/04-24-092-20W4/0            : Uwi          - UNIQUE WELL ID
ENTR.         JOETTE                         : Entered      - ENTERED BY
SRVC.         COMPUTALOG                     : Scn          - SERVICE COMPANY
DATE.         04/09/92                       : Date         - LOG DATE
STRT.M        110                            : top_depth    - START DEPTH
STOP.M        243                            : bot_depth    - STOP DEPTH
STEP.M        0.25                           : increment    - STEP LENGTH
 NULL. -999.2500:NULL Value
~CURVE INFORMATION BLOCK
#MNEM UNIT       ERCB CURVE CODE    CURVE DESCRIPTION
#-----------   ------------------   ----------------------------------
DEPT.M        00 001 00 00         : DEPTH        - DEPTH
CALI.MM       00 280 01 00         : CAL          - CALIPER
GR  .API      00 310 00 00         : GR           - GAMMA RAY
NPHI.V/V      00 330 00 00         : PHIN         - NEUTRON POROSITY (SANDSTONE)
DPHI.V/V      00 890 00 00         : PHID         - DENSITY POROSITY (SANDSTONE)
ILD .OHMM     00 120 00 00         : RESD         - DEEP RESISTIVITY (DIL)
~PARAMETER INFORMATION
#MNEM.UNIT           DATA             DESCRIPTION OF MNEMONIC
#---------         -----------     ------------------------------
GL  .M        520.2                : gl           - GROUND LEVEL ELEVATION
EREF.M        523.6                : kb           - ELEVATION OF DEPTH REFERENCE
DATM.M        523.6                : datum        - DATUM ELEVATION
TDD .M        241.3                : tdd          - TOTAL DEPTH DRILLER
RUN .         ONE                  : Run          - RUN NUMBER
ENG .         JO                   : Engineer     - RECORDING ENGINEER
WIT .         TIM                  : Witness      - WITNESSED BY
MUD .         GEL                  : Mud_type     - MUD TYPE
MATR.         SANDSTONE            : Logunit      - NEUTRON MATRIX
TMAX.C        17                   : BHT          - MAXIMUM RECORDED TEMPERATURE
BHTD.M        241.3                : BHTDEP       - MAXIMUM RECORDED TEMPERATURE
RMT .C        17.8                 : MDTP         - TEMPERATURE OF MUD
MUDD.KG/M     1080                 : MWT          - MUD DENSITY
NEUT.         1                    : NEUTRON      - NEUTRON TYPE
RESI.         0                    : RESIST       - RESISTIVITY TYPE
RM  .OHMM     1.9                  : RM           - RESISTIVITY OF MUD
RMC .OHMM     1.9                  : RMC          - RESISTIVITY OF MUD CAKE
RMF .OHMM     1.4                  : RMF          - RESISTIVITY OF MUD FILTRATE
SUFT.C        4                    : SUFT         - SURFACE TEMPERATURE
~A  DEPTH      CAL       GR     PHIN     PHID     RESD
# ...
  219.500  159.474   48.230    0.423    0.298   71.723
  219.750  159.568   44.545    0.400    0.303   82.136
  220.000  160.704   43.350    0.385    0.310  103.567
  220.250  160.821   42.781    0.375    0.315  130.589
  220.500  160.915   42.225    0.382    0.317  146.724
  220.750  162.028   42.268    0.386    0.322  135.952
  221.000  162.169   41.684    0.389    0.325  125.971
  221.250  162.263   41.754    0.390    0.327  116.700
  221.500  162.333   41.825    0.392    0.333  104.068
  221.750  162.403   42.478    0.397    0.336   98.302
  222.000  161.477   43.160    0.402    0.337  114.785
  222.250  161.571   46.359    0.397    0.336  124.047
  222.500  161.665   48.904    0.392    0.335  144.818
  222.750  161.759   49.586    0.389    0.332  169.066
  223.000  161.852   49.031    0.394    0.329  193.649
  223.250  160.903   47.238    0.407    0.328  217.575
  223.500  160.997   46.654    0.422    0.328  226.205
  223.750  161.114   46.711    0.410    0.332  239.842
  224.000  161.231   48.644    0.400    0.335  244.788
  224.250  161.302   51.217    0.388    0.336  244.930
  224.500  161.419   53.136    0.382    0.332  245.167
  224.750  161.466   55.056    0.391    0.331  245.404
  225.000  161.583   57.629    0.397    0.336  240.863
  225.250  161.653   58.297    0.388    0.338  218.924
  225.500  161.747   59.007    0.383    0.334  198.944
  225.750  161.864   59.689    0.379    0.322  177.375
  226.000  161.934   59.731    0.385    0.316  158.144
  226.250  162.028   59.161    0.405    0.306  138.335
  226.500  162.145   57.340    0.402    0.297  128.180
  226.750  162.239   56.145    0.385    0.295  123.409
  227.000  162.356   58.093    0.361    0.297  114.348
  227.250  162.450   55.020    0.362    0.299  103.953
  227.500  162.543   52.560    0.367    0.305   96.303
  227.750  163.680   53.867    0.369    0.312   84.257
  228.000  163.774   56.426    0.375    0.305   79.558
  228.250  163.891   60.251    0.388    0.293   65.687
  228.500  165.004   64.061    0.394    0.285   59.692
  228.750  165.121   67.260    0.385    0.285   67.054
  229.000  165.191   70.431    0.374    0.291   73.888
  229.250  166.304   71.113    0.374    0.298   76.849
  229.500  167.464   64.912    0.376    0.300   76.923
  229.750  167.535   67.471    0.384    0.292   69.916
  230.000  167.699   76.287    0.396    0.276   64.783
  230.250  167.769   80.112    0.404    0.270   67.379
  230.500  167.839   75.774    0.399    0.259   77.161
  230.750  167.933   71.464    0.395    0.266   81.813
  231.000  166.984   73.398    0.393    0.275   81.892
  231.250  166.035   79.711    0.386    0.275   77.340
  231.500  165.086   84.773    0.377    0.263   71.676
  231.750  163.094   88.583    0.381    0.247   75.997
  232.000  162.144   88.639    0.383    0.251   83.742
  232.250  161.242   81.813    0.383    0.278   90.517
  232.500  161.312   78.755    0.378    0.286   88.859
  232.750  162.449   86.305    0.373    0.283   79.210
  233.000  166.714  103.895    0.382    0.187   58.252
  233.250  172.069  109.583    0.393    0.163   17.000
  233.500  172.116  112.782    0.406    0.188   19.468
  233.750  171.167  104.690    0.405    0.219   22.294
  234.000  165.003   86.600    0.407    0.235   24.571
  234.250  160.949   79.148    0.400    0.235   26.047
  234.500  158.957   81.707    0.387    0.227   27.091
  234.750  157.985   84.906    0.385    0.232   28.187
  235.000  158.125   85.574    0.381    0.246   29.311
  235.250  158.195   86.882    0.377    0.259   32.304
  235.500  158.266   84.435    0.372    0.273   36.296
  235.750  158.359   82.002    0.372    0.271   39.217
  236.000  157.457   83.936    0.374    0.272   44.928
  236.250  156.461   83.992    0.380    0.278   47.627
  236.500  155.559   83.423    0.387    0.283   51.480
  236.750  154.610   82.853    0.398    0.286   52.522
  237.000  153.614   82.909    0.405    0.286   50.586
  237.250  152.665   84.843    0.406    0.277   49.650
  237.500  151.762   88.028    0.397    0.268   46.891
  237.750  150.790   88.709    0.388    0.263   44.293
  238.000  150.860   86.888    0.385    0.261   43.482
  238.250  148.892   85.068    0.373    0.266   45.232
  238.500  147.919   83.247    0.363    0.266   47.969
  238.750  146.970   84.554    0.362    0.267   51.849
  239.000  147.111   87.113    0.376    0.276   52.898
  239.250  147.228   87.823    0.379    0.286   51.929
  239.500  147.275   87.226    0.371    0.287   50.969
  239.750  147.392   84.779    0.362    0.279   47.236
  240.000  148.528   79.204    0.352    0.270   46.362
  240.250  151.750   73.003    0.352    0.262   50.112
  240.500  152.887   81.820    0.357    0.259   53.164
  240.750  152.981   97.532    0.362    0.259   53.195
  241.000  149.946   80.695    0.365    0.261   52.201
  241.250  148.997   74.480    0.371    0.259   49.319
  241.500  149.067   75.162    0.366    0.257   44.826
  241.750  149.184   79.626    0.359    0.255   40.735
  242.000  149.301   78.417    0.354    0.258   34.947
  242.250  149.348   74.733    0.356    0.261   29.409
  242.500  149.489   71.660    0.366    0.262   25.720
  242.750  150.625   69.214    0.374    0.260   22.941
  243.000  150.719   66.753    0.378    0.259   22.099
