~VERSION INFORMATION
 VERS.                 2.0:   CWLS LOG ASCII STANDARD -VERSION 2.0
 WRAP.                  NO:   ONE LINE PER DEPTH STEP
~WELL INFORMATION BLOCK
#MNEM.UNIT           DATA                    DESCRIPTION OF MNEMONIC
#---------    -------------------            -------------------------------
# Generated from Intellog Unique Number	CW_79_81/WELL/189
WELL.         06-07-079-01W5                 : Well_name    - WELL
LOC .         00/06-07-079-01W5/0            : Location     - LOCATION
UWI .         00/06-07-079-01W5/0            : Uwi          - UNIQUE WELL ID
ENTR.         JJ                             : Entered      - ENTERED BY
SRVC.         WESTERN ATLAS                  : Scn          - SERVICE COMPANY
DATE.         25 MAR                         : Date         - LOG DATE
STRT.M        405.384                        : top_depth    - START DEPTH
STOP.M        533.384                        : bot_depth    - STOP DEPTH
STEP.M        0.25                           : increment    - STEP LENGTH
 NULL. -999.2500:NULL Value
~CURVE INFORMATION BLOCK
#MNEM UNIT       ERCB CURVE CODE    CURVE DESCRIPTION
#-----------   ------------------   ----------------------------------
DEPT.M        00 001 00 00         : DEPTH        - DEPTH
ILD .OHMM     00 120 00 00         : RESD         - DEEP RESISTIVITY (DIL)
GR  .API      00 310 00 00         : GR           - GAMMA RAY
CALI.MM       00 280 01 00         : CAL          - CALIPER
DELT.US/F     00 520 00 00         : DELT         - SONIC TRAVEL TIME
~PARAMETER INFORMATION
#MNEM.UNIT           DATA             DESCRIPTION OF MNEMONIC
#---------         -----------     ------------------------------
GL  .M        594.665              : gl           - GROUND LEVEL ELEVATION
EREF.M        595.488              : kb           - ELEVATION OF DEPTH REFERENCE
DATM.M        595.488              : datum        - DATUM ELEVATION
TDD .M        525.17               : tdd          - TOTAL DEPTH DRILLER
RUN .         ONE                  : Run          - RUN NUMBER
ENG .         BERGLIND-MILLER      : Engineer     - RECORDING ENGINEER
WIT .         FOREMAN              : Witness      - WITNESSED BY
BASE.         EDM                  : Branch       - HOME BASE OF LOGGING UNIT
MUD .         GEL                  : Mud_type     - MUD TYPE
MATR.         SANDSTONE            : Logunit      - NEUTRON MATRIX
TMAX.C        22.7778              : BHT          - MAXIMUM RECORDED TEMPERATURE
BHTD.M        525.17               : BHTDEP       - MAXIMUM RECORDED TEMPERATURE
RMT .C        16.6667              : MDTP         - TEMPERATURE OF MUD
MUDD.KG/M     1140                 : MWT          - MUD DENSITY
NEUT.         1                    : NEUTRON      - NEUTRON TYPE
RESI.         0                    : RESIST       - RESISTIVITY TYPE
RM  .OHMM     4.54                 : RM           - RESISTIVITY OF MUD
RMC .OHMM     5.6                  : RMC          - RESISTIVITY OF MUD CAKE
RMF .OHMM     5                    : RMF          - RESISTIVITY OF MUD FILTRATE
SUFT.C        5                    : SUFT         - SURFACE TEMPERATURE
~A  DEPTH     RESD       GR      CAL     DELT
  405.384    7.297   65.766  234.135  395.437
  405.634    7.493   67.267  235.395  397.188
  405.884    7.847   69.579  235.827  403.206
  406.134    8.043   67.650  236.370  401.346
  406.384    8.338   68.434  236.910  395.474
  406.634    8.514   67.362  236.642  395.976
  406.884    8.590   66.958  236.178  388.394
  407.134    8.427   71.079  236.316  396.386
  407.384    8.184   66.720  236.146  387.622
  407.634    8.220   66.885  235.881  386.348
  407.884    8.854   70.675  234.401  400.586
  408.134    9.827   66.219  231.408  392.282
  408.384   11.020   64.719  228.415  389.890
  408.634   12.651   67.267  225.013  383.100
  408.884   14.641   66.624  221.716  392.077
  409.134   15.853   67.744  222.461  391.921
  409.384   16.667   66.671  225.936  364.757
  409.634   17.202   61.264  229.810  287.053
  409.884   17.696   55.901  230.453  253.579
  410.134   17.593   56.545  229.181  266.764
  410.384   16.912   59.718  228.001  245.842
  410.634   14.475   60.644  226.923  382.380
  410.884   11.760   63.144  227.369  381.107
  411.134   10.481   66.934  229.422  373.920
  411.384   10.716   65.958  231.887  370.414
  411.634   10.912   63.456  232.930  364.472
  411.884   11.127   61.239  233.169  351.767
  412.134   11.143   59.023  233.613  361.797
  412.384   11.219   60.906  233.854  360.393
  412.634   11.574   60.740  233.889  356.427
  412.884   11.890   60.334  233.928  340.697
  413.134   12.244   63.027  234.365  325.885
  413.384   12.121   64.480  234.404  333.946
  413.634   11.499   63.645  234.745  345.487
  413.884   10.977   62.765  234.782  354.135
  414.134   10.575   63.360  234.717  359.764
  414.384   10.392   63.146  235.255  366.049
  414.634   10.328   63.172  235.800  373.714
  414.884   10.484   62.860  234.119  367.119
  415.134   10.361   62.024  230.922  359.998
  415.384   10.257   61.715  227.829  366.217
  415.634   10.672   62.121  230.995  378.746
  415.884   10.808   64.099  232.246  370.047
  416.134   10.605   63.502  234.403  360.559
  416.384   10.182   68.294  231.206  368.159
  416.634    9.920   66.791  226.594  397.708
  416.884    9.577   69.679  232.793  396.893
  417.134    9.294   72.605  234.546  394.832
  417.384    8.931   74.156  235.192  391.327
  417.634    8.648   72.366  234.117  388.342
  417.884    8.386   71.391  231.730  392.786
  418.134    8.362   68.650  234.798  389.872
  418.384    8.697   72.393  236.250  391.362
  418.634    9.012   71.413  236.591  388.578
  418.884    9.447   65.816  236.323  366.145
  419.134    9.662   65.221  235.952  355.079
  419.384    9.340   66.339  235.284  348.941
  419.634    8.858   69.698  234.105  364.166
  419.884    8.375   70.438  234.653  399.301
  420.134    8.332   70.747  235.091  393.757
  420.384    8.548   71.247  235.735  385.385
  420.634    9.800   70.460  235.569  391.738
  420.884   11.252   68.674  232.675  391.975
  421.134   13.740   65.695  226.041  381.503
  421.384   16.348   64.956  221.835  387.000
  421.634   19.475   67.887  222.075  394.596
  421.884   22.262   65.768  222.116  389.711
  422.134   24.032   60.456  222.857  385.348
  422.384   26.501   58.619  222.391  380.595
  422.634   31.781   54.641  220.005  380.373
  422.884   37.579   50.852  218.827  394.742
  423.134   45.670   47.823  218.966  374.411
  423.384   49.274   43.797  220.520  283.760
  423.634   50.347   37.959  223.484  204.217
  423.884   50.563   38.841  229.477  195.452
  424.134   50.678   41.200  233.757  192.796
  424.384   50.555   43.702  232.385  192.907
  424.634   47.800   46.490  232.213  199.190
  424.884   42.553   50.468  237.706  214.940
  425.134   39.140   51.208  239.461  315.532
  425.384   36.604   52.947  240.114  336.931
  425.634   40.488   52.828  240.547  345.977
  425.884   47.801   54.573  241.090  346.148
  426.134   49.911   56.450  241.326  348.030
  426.384   49.070   54.042  241.466  297.536
  426.634   45.976   49.683  239.579  234.291
  426.884   40.310   48.325  236.082  198.449
  427.134   35.860   51.828  234.197  192.839
  427.384   30.932   57.808  233.031  332.008
  427.634   27.618   57.879  233.361  351.633
  427.884   25.342   56.092  234.214  347.402
  428.134   22.786   58.833  234.952  340.280
  428.384   20.889   58.285  235.998  349.524
  428.634   18.792   61.358  236.339  385.383
  428.884   16.475   66.053  236.177  381.940
  429.134   14.836   67.459  235.807  372.913
  429.384   14.314   64.816  234.938  366.054
  429.634   13.692   67.605  234.262  374.506
  429.884   12.592   70.773  233.394  369.687
  430.134   11.531   69.507  233.324  389.773
  430.384   11.229   68.388  233.261  386.330
  430.634   11.225   71.747  234.212  373.886
  430.884   11.381   71.201  235.357  355.461
  431.134   11.756   72.035  236.199  345.051
  431.384   12.310   69.486  236.640  339.765
  431.634   12.586   70.890  236.779  337.645
  431.884   12.722   72.345  237.117  339.524
  432.134   12.139   69.745  237.058  350.215
  432.384   11.418   68.818  237.193  387.586
  432.634   10.597   67.648  236.731  384.275
  432.884   10.653   66.103  236.156  407.910
  433.134   11.626   68.364  235.585  403.285
  433.384   13.795   63.240  234.105  381.969
  433.634   15.626   59.883  233.237  364.989
  433.884   17.277   61.382  233.270  372.256
  434.134   17.593   65.553  234.016  377.293
  434.384   15.754   70.009  234.960  378.979
  434.634   14.176   70.509  235.705  373.370
  434.884   13.056   66.577  235.644  357.311
  435.134   12.294   65.266  234.666  372.533
  435.384   12.310   64.622  233.694  384.535
  435.634   12.765   62.360  233.326  383.921
  435.884   13.220   65.578  233.566  379.755
  436.134   13.176   66.076  233.099  374.341
  436.384   13.073   67.294  232.128  372.676
  436.634   13.189   66.555  231.251  384.348
  436.884   13.903   63.337  230.073  375.584
  437.134   15.015   59.785  229.809  363.927
  437.384   16.028   61.099  231.063  363.773
  437.634   16.304   62.075  232.308  357.968
  437.884   15.244   64.193  234.463  370.888
  438.134   13.784   68.461  237.632  386.573
  438.384   12.684   71.533  238.173  384.642
  438.634   11.704   66.028  236.392  388.430
  438.884   11.361   66.576  238.852  388.207
  439.134   11.596   63.645  245.869  382.533
  439.384   12.649   64.147  251.153  388.818
  439.634   13.802   59.596  246.743  352.844
  439.884   15.393   58.621  245.768  323.314
  440.134   15.549   58.836  240.551  300.683
  440.384   13.790   60.715  231.094  294.349
  440.634   12.052   67.650  234.567  387.647
  440.884   10.852   74.012  237.033  391.234
  441.134    9.015   78.419  237.473  388.386
  441.384    8.792   75.774  237.607  391.843
  441.634    9.246   70.889  237.135  394.648
  441.884    9.561   68.007  235.055  380.232
  442.134    9.777   70.174  232.159  372.976
  442.384    9.972   72.295  225.628  366.512
  442.634   10.128   71.272  220.815  363.861
  442.884   10.245   71.249  227.419  362.521
  443.134   10.021   71.318  228.670  350.012
  443.384    9.399   74.442  236.789  362.080
  443.634    8.479   75.991  240.564  391.893
  443.884    7.259   78.253  242.622  408.496
  444.134    6.238   79.802  243.971  398.020
  444.384    6.394   79.302  240.772  380.122
  444.634    7.088   71.940  239.293  360.381
  444.884    8.360   68.295  240.747  344.388
  445.134   10.151   66.937  240.175  358.758
  445.384   14.354   66.627  238.595  381.932
  445.634   15.586   67.506  234.490  381.052
  445.884   15.143   61.715  234.527  368.149
  446.134   15.838   59.786  232.748  362.670
  446.384   18.147   58.573  233.392  367.050
  446.634   21.532   56.309  235.750  343.892
  446.884   24.779   53.854  237.608  276.900
  447.134   27.924   53.592  236.835  280.293
  447.384   29.636   54.425  235.454  299.000
  447.634   30.170   53.447  235.795  326.512
  447.884   28.412   53.094  237.149  323.925
  448.134   26.435   53.260  235.968  331.588
  448.384   24.078   54.999  238.531  351.545
  448.634   21.542   61.264  238.973  361.576
