~VERSION INFORMATION
 VERS.                 2.0:   CWLS LOG ASCII STANDARD -VERSION 2.0
 WRAP.                  NO:   ONE LINE PER DEPTH STEP
~WELL INFORMATION BLOCK
#MNEM.UNIT           DATA                    DESCRIPTION OF MNEMONIC
#---------    -------------------            -------------------------------
# Generated from Intellog Unique Number	CW_82_90/WELL/528
WELL.         06-19-083-22W4                 : Well_name    - WELL
LOC .         00/06-19-083-22W4/0            : Location     - LOCATION
UWI .         00/06-19-083-22W4/0            : Uwi          - UNIQUE WELL ID
ENTR.         JAYE                           : Entered      - ENTERED BY
SRVC.         SCHLUMBERGER                   : Scn          - SERVICE COMPANY
DATE.         11 FEB 86                      : Date         - LOG DATE
STRT.M        220                            : top_depth    - START DEPTH
STOP.M        435                            : bot_depth    - STOP DEPTH
STEP.M        0.25                           : increment    - STEP LENGTH
 NULL. -999.2500:NULL Value
~CURVE INFORMATION BLOCK
#MNEM UNIT       ERCB CURVE CODE    CURVE DESCRIPTION
#-----------   ------------------   ----------------------------------
DEPT.M        00 001 00 00         : DEPTH        - DEPTH
CALI.MM       00 280 01 00         : CAL          - CALIPER
GR  .API      00 310 00 00         : GR           - GAMMA RAY
NPHI.V/V      00 330 00 00         : PHIN         - NEUTRON POROSITY (SANDSTONE)
DPHI.V/V      00 890 00 00         : PHID         - DENSITY POROSITY (SANDSTONE)
ILD .OHMM     00 120 00 00         : RESD         - DEEP RESISTIVITY (DIL)
~PARAMETER INFORMATION
#MNEM.UNIT           DATA             DESCRIPTION OF MNEMONIC
#---------         -----------     ------------------------------
GL  .M        606.8                : gl           - GROUND LEVEL ELEVATION
EREF.M        610.4                : kb           - ELEVATION OF DEPTH REFERENCE
DATM.M        606.8                : datum        - DATUM ELEVATION
TDD .M        435                  : tdd          - TOTAL DEPTH DRILLER
RUN .         ONE                  : Run          - RUN NUMBER
ENG .         LAROSE               : Engineer     - RECORDING ENGINEER
WIT .         BLOTT                : Witness      - WITNESSED BY
BASE.         EDMONTON             : Branch       - HOME BASE OF LOGGING UNIT
MUD .         GEL CHEM             : Mud_type     - MUD TYPE
MATR.         SANDSTONE            : Logunit      - NEUTRON MATRIX
TMAX.C        46                   : BHT          - MAXIMUM RECORDED TEMPERATURE
BHTD.M        435                  : BHTDEP       - MAXIMUM RECORDED TEMPERATURE
RMT .C        18                   : MDTP         - TEMPERATURE OF MUD
MUDD.KG/M     1100                 : MWT          - MUD DENSITY
NEUT.         1                    : NEUTRON      - NEUTRON TYPE
RESI.         0                    : RESIST       - RESISTIVITY TYPE
RM  .OHMM     6.69                 : RM           - RESISTIVITY OF MUD
RMC .OHMM     0                    : RMC          - RESISTIVITY OF MUD CAKE
RMF .OHMM     8.7                  : RMF          - RESISTIVITY OF MUD FILTRATE
SUFT.C        0                    : SUFT         - SURFACE TEMPERATURE
~A  DEPTH      CAL       GR     PHIN     PHID     RESD
# ...
  366.000  247.878   58.289    0.271    0.073   39.864
  366.250  248.591   61.905    0.285    0.109   23.270
  366.500  249.718   71.583    0.314    0.170   13.738
  366.750  250.850   79.510    0.373    0.171   12.609
  367.000  252.396   79.559    0.313    0.116   12.060
  367.250  255.815   77.677    0.250    0.063   13.645
  367.500  257.884   73.105    0.299    0.128   16.966
  367.750  254.743   67.531    0.356    0.173   19.122
  368.000  250.871   65.147    0.394    0.233   22.338
  368.250  250.749   62.638    0.406    0.241   30.115
  368.500  251.463   60.440    0.400    0.248   34.592
  368.750  252.589   59.431    0.352    0.155   36.565
  369.000  254.343   59.983    0.292    0.131   35.247
  369.250  255.890   63.348    0.258    0.082   18.791
  369.500  256.711   70.276    0.236    0.053   14.610
  369.750  257.629   76.766    0.236    0.041   13.207
  370.000  257.720   79.382    0.238    0.037   12.213
  370.250  254.995   77.872    0.262    0.045   11.573
  370.500  254.664   78.174    0.358    0.093   11.154
  370.750  254.334   78.226    0.418    0.168   10.977
  371.000  254.008   76.904    0.429    0.183   10.988
  371.250  253.468   74.770    0.428    0.215   10.956
  371.500  253.557   73.760    0.427    0.237   11.005
  371.750  253.749   73.061    0.418    0.230   11.081
  372.000  254.149   72.990    0.413    0.218   11.131
  372.250  254.545   76.666    0.415    0.214   11.225
  372.500  254.841   81.720    0.435    0.208   11.277
  372.750  255.039   84.272    0.450    0.209   11.203
  373.000  255.645   84.013    0.468    0.211   11.149
  373.250  255.838   84.690    0.463    0.210   11.031
  373.500  256.656   84.866    0.442    0.208   10.982
  373.750  256.117   83.732    0.431    0.206   10.946
  374.000  254.851   80.223    0.429    0.205   10.957
  374.250  253.167   80.338    0.426    0.202   11.029
  374.500  250.649   79.454    0.439    0.181   11.017
  374.750  248.965   79.382    0.450    0.150   11.152
  375.000  247.806   78.433    0.433    0.169   11.291
  375.250  246.749   77.674    0.440    0.192   11.450
  375.500  245.481   76.852    0.460    0.215   11.613
  375.750  244.319   75.280    0.446    0.214   11.754
  376.000  244.929   72.457    0.418    0.200   11.831
  376.250  247.202   68.572    0.420    0.189   11.820
  376.500  249.478   66.875    0.434    0.181   11.696
  376.750  250.190   72.240    0.446    0.161   11.233
  377.000  248.188   76.417    0.453    0.137   10.848
  377.250  247.341   77.280    0.436    0.163   10.713
  377.500  246.182   78.835    0.412    0.194   10.524
  377.750  245.021   80.388    0.402    0.214   10.473
  378.000  244.273   82.378    0.395    0.209   10.500
  378.250  244.050   83.303    0.469    0.187   10.569
  378.500  243.616   83.734    0.471    0.165   10.764
  378.750  243.288   84.222    0.461    0.169   10.831
  379.000  243.269   84.838    0.451    0.181   10.864
  379.250  243.464   85.264    0.449    0.186   10.811
  379.500  244.694   85.630    0.449    0.158   10.777
  379.750  246.241   85.932    0.444    0.133   10.628
  380.000  247.996   86.360    0.445    0.141   10.575
  380.250  250.582   87.100    0.450    0.153   10.387
  380.500  252.652   88.340    0.454    0.166   10.069
  380.750  255.134   89.581    0.461    0.175   10.069
  381.000  256.890   90.759    0.483    0.177   10.069
  381.250  256.663   91.875    0.473    0.183    9.764
  381.500  256.129   93.615    0.433    0.191    9.768
  381.750  254.645   95.167    0.401    0.193    9.849
  382.000  254.527   96.157    0.383    0.189   10.180
  382.250  254.093   93.897    0.391    0.186   10.480
  382.500  253.767   83.137    0.418    0.186   10.628
  382.750  253.127   86.125    0.426    0.206   10.720
  383.000  253.009   89.431    0.420    0.186   10.829
  383.250  252.053   89.046    0.405    0.159   11.666
  383.500  251.827   83.784    0.386    0.138   12.736
  383.750  251.915   78.775    0.375    0.132   14.516
  384.000  251.690   71.016    0.374    0.151   16.024
  384.250  251.046   67.069    0.387    0.197   18.236
  384.500  251.239   68.993    0.419    0.192   20.018
  384.750  251.846   71.673    0.428    0.194   22.182
  385.000  250.689   72.662    0.405    0.211   23.984
  385.250  249.312   67.840    0.377    0.191   25.403
  385.500  247.940   65.144    0.334    0.141   26.599
  385.750  246.887   61.821    0.344    0.230   28.068
  386.000  246.136   65.809    0.395    0.264   28.797
  386.250  246.334   60.488    0.372    0.260   29.038
  386.500  246.110   57.854    0.341    0.216   29.005
  386.750  245.156   57.280    0.318    0.088   28.273
  387.000  244.620   57.459    0.305    0.102   26.491
  387.250  244.290   59.010    0.344    0.104   25.919
  387.500  243.854   60.876    0.290    0.097   26.844
  387.750  243.830   61.554    0.273    0.090   27.229
  388.000  243.613   60.919    0.292    0.095   27.038
  388.250  246.829   62.410    0.331    0.126   26.618
  388.500  245.246   65.712    0.347    0.145   26.582
  388.750  245.649   65.891    0.335    0.130   26.058
  389.000  245.943   61.005    0.318    0.100   25.599
  389.250  245.720   60.055    0.300    0.094   25.281
  389.500  245.602   60.857    0.334    0.123   24.927
  389.750  247.038   62.661    0.346    0.192   23.622
  390.000  248.068   67.778    0.332    0.176   22.422
  390.250  249.614   72.519    0.314    0.158   20.157
  390.500  250.950   75.195    0.300    0.116   17.188
  390.750  252.182   73.436    0.306    0.116   15.538
  391.000  252.895   74.799    0.355    0.158   14.425
  391.250  253.815   76.479    0.386    0.186   13.877
  391.500  254.738   70.032    0.409    0.211   15.375
  391.750  254.928   64.209    0.422    0.227   20.962
  392.000  255.228   56.512    0.407    0.226   25.148
  392.250  255.003   53.813    0.399    0.219   28.398
  392.500  254.567   55.241    0.404    0.218   31.464
  392.750  253.928   57.232    0.397    0.203   35.264
  393.000  253.805   57.596    0.365    0.183   36.793
  393.250  253.896   58.462    0.343    0.097   36.072
  393.500  253.775   60.638    0.312    0.080   34.967
  393.750  254.483   63.130    0.306    0.087   33.197
  394.000  254.991   67.682    0.304    0.083   31.097
  394.250  255.600   66.296    0.307    0.076   23.814
  394.500  255.480   60.913    0.324    0.064   19.121
  394.750  254.938   66.716    0.362    0.067   17.447
  395.000  254.614   72.706    0.371    0.094   16.286
  395.250  250.221   75.321    0.383    0.122   15.435
  395.500  247.497   70.873    0.394    0.122   14.849
  395.750  244.042   77.614    0.406    0.124   14.475
  396.000  241.421   77.665    0.418    0.183   14.484
  396.250  241.198   78.718    0.415    0.219   14.308
  396.500  242.639   80.834    0.408    0.224   13.950
  396.750  244.915   81.512    0.392    0.214   13.750
  397.000  247.709   83.001    0.394    0.202   13.584
  397.250  249.153   86.054    0.407    0.186   13.491
  397.500  250.490   84.669    0.424    0.170   13.376
  397.750  251.204   81.347    0.458    0.210   13.367
  398.000  250.457   81.524    0.468    0.207   13.452
  398.250  246.170   79.139    0.457    0.204   13.592
  398.500  235.319   79.566    0.441    0.206   13.731
  398.750  230.095   80.370    0.429    0.235   13.901
  399.000  222.996   78.422    0.439    0.268   13.938
  399.250  214.750   76.662    0.449    0.293   13.848
  399.500  208.584   76.652    0.423    0.299   13.705
  399.750  208.465   78.391    0.396    0.310   13.536
  400.000  212.096   81.757    0.397    0.323   13.245
  400.250  226.039   85.998    0.428    0.124   12.958
  400.500  240.084   89.425    0.428    0.123   12.584
  400.750  242.568   88.851    0.420    0.195   12.083
  401.000  235.778   89.716    0.413    0.229   11.668
  401.250  232.951   89.771    0.422    0.258   11.525
  401.500  237.725   82.948    0.442    0.207   11.891
  401.750  244.480   80.752    0.432    0.166   11.989
  402.000  248.108   83.428    0.427    0.189   11.978
  402.250  250.803   87.981    0.451    0.201   11.721
