~VERSION INFORMATION
 VERS.                 2.0:   CWLS LOG ASCII STANDARD -VERSION 2.0
 WRAP.                  NO:   ONE LINE PER DEPTH STEP
~WELL INFORMATION BLOCK
#MNEM.UNIT           DATA                    DESCRIPTION OF MNEMONIC
#---------    -------------------            -------------------------------
# Generated from Intellog Unique Number	CS_73_76/WELL/1080
WELL.         BOW VALLEY EXPLORATION         : Well_name    - WELL
LOC .         00/06-28-076-17W4/0            : Location     - LOCATION
UWI .         00/06-28-076-17W4/0            : Uwi          - UNIQUE WELL ID
ENTR.         SP                             : Entered      - ENTERED BY
SRVC.         SCHLUMBERGER                   : Scn          - SERVICE COMPANY
STRT.M        325                            : top_depth    - START DEPTH
STOP.M        542                            : bot_depth    - STOP DEPTH
STEP.M        0.25                           : increment    - STEP LENGTH
 NULL. -999.2500:NULL Value
~CURVE INFORMATION BLOCK
#MNEM UNIT       ERCB CURVE CODE    CURVE DESCRIPTION
#-----------   ------------------   ----------------------------------
DEPT.M        00 001 00 00         : DEPTH        - DEPTH
DPHI.V/V      00 890 00 00         : PHID         - DENSITY POROSITY (LIMESTONE)
NPHI.V/V      00 330 00 00         : PHIN         - NEUTRON POROSITY (LIMESTONE)
GR  .API      00 310 00 00         : GR           - GAMMA RAY
ILD .OHMM     00 120 00 00         : RESD         - DEEP RESISTIVITY (DIL)
~PARAMETER INFORMATION
#MNEM.UNIT           DATA             DESCRIPTION OF MNEMONIC
#---------         -----------     ------------------------------
GL  .M        692.7                : gl           - GROUND LEVEL ELEVATION
EREF.M        696                  : kb           - ELEVATION OF DEPTH REFERENCE
DATM.M        692.7                : datum        - DATUM ELEVATION
TDD .M        545                  : tdd          - TOTAL DEPTH DRILLER
RUN .         ONE                  : Run          - RUN NUMBER
ENG .         BILL                 : Engineer     - RECORDING ENGINEER
WIT .         JIM                  : Witness      - WITNESSED BY
MUD .         GEL                  : Mud_type     - MUD TYPE
MATR.         LIMESTONE            : Logunit      - NEUTRON MATRIX
TMAX.C        24                   : BHT          - MAXIMUM RECORDED TEMPERATURE
BHTD.M        545                  : BHTDEP       - MAXIMUM RECORDED TEMPERATURE
MATR.         1                    : LOGUNIT      - NEUTRON MATRIX
RMT .C        25                   : MDTP         - TEMPERATURE OF MUD
NEUT.         1                    : NEUTRON      - NEUTRON TYPE
RESI.         0                    : RESIST       - RESISTIVITY TYPE
RMC .OHMM     0.25                 : RMC          - RESISTIVITY OF MUD CAKE
RMF .OHMM     0.25                 : RMF          - RESISTIVITY OF MUD FILTRATE
SUFT.C        15                   : SUFT         - SURFACE TEMPERATURE
~A  DEPTH     PHID     PHIN       GR     RESD
  325.000    0.253    0.527  103.843    2.620
  325.250    0.240    0.519  106.875    2.670
  325.500    0.242    0.525  105.656    2.670
  325.750    0.246    0.517  106.258    2.772
  326.000    0.231    0.507  103.824    2.878
  326.250    0.208    0.500  101.996    2.987
  326.500    0.216    0.493  100.777    3.044
  326.750    0.237    0.507  100.164    3.102
  327.000    0.252    0.510  100.767    3.103
  327.250    0.251    0.510  100.763    3.104
  327.500    0.262    0.502   99.544    3.223
  327.750    0.252    0.491  100.146    3.284
  328.000    0.234    0.482  105.607    3.285
  328.250    0.222    0.496  107.423    3.286
  328.500    0.212    0.520  104.989    3.287
  328.750    0.212    0.530  103.769    3.228
  329.000    0.224    0.528  104.979    2.944
  329.250    0.219    0.522  105.582    2.786
  329.500    0.216    0.519  106.791    2.786
  329.750    0.225    0.509  108.609    2.736
  330.000    0.225    0.516  107.996    2.737
  330.250    0.233    0.527  106.777    2.789
  330.500    0.222    0.519  105.558    2.790
  330.750    0.234    0.527  105.553    2.791
  331.000    0.247    0.532  103.725    2.792
  331.250    0.235    0.526  101.899    2.953
  331.500    0.238    0.515   94.607    3.362
  331.750    0.254    0.501   86.707    3.829
  332.000    0.282    0.464   78.808    4.281
  332.250    0.288    0.424   81.233    4.966
  332.500    0.267    0.442   81.835    5.251
  332.750    0.250    0.455   87.296    5.253
  333.000    0.258    0.455   92.755    5.353
  333.250    0.255    0.433   91.537    5.985
  333.500    0.233    0.416   90.317    6.567
  333.750    0.256    0.394   89.705    7.619
  334.000    0.272    0.379   84.842    8.360
  334.250    0.258    0.371   81.800    9.880
  334.500    0.263    0.361   76.938   11.677
  334.750    0.283    0.365   71.467   12.578
  335.000    0.259    0.371   67.819   12.819
  335.250    0.237    0.372   70.241   12.823
  335.500    0.260    0.385   71.453   12.360
  335.750    0.267    0.383   75.699   11.064
  336.000    0.259    0.382   79.338   10.089
  336.250    0.257    0.388   82.369    9.547
  336.500    0.266    0.406   84.792    9.375
  336.750    0.260    0.413   86.003    9.378
  337.000    0.268    0.403   81.747    9.735
  337.250    0.285    0.389   71.418    9.922
  337.500    0.302    0.382   59.268   10.110
  337.750    0.283    0.382   66.550    9.928
  338.000    0.267    0.404   84.156    9.394
  338.250    0.266    0.420   87.795    8.727
  338.500    0.261    0.426   87.790    8.570
  338.750    0.248    0.426   79.891    8.732
  339.000    0.223    0.439   71.384    9.234
  339.250    0.183    0.428   65.307    9.766
  339.500    0.245    0.418   64.695   10.138
  339.750    0.304    0.431   61.653   10.721
  340.000    0.318    0.434   58.005   11.129
  340.250    0.325    0.440   54.963   11.553
  340.500    0.325    0.434   50.708   12.217
  340.750    0.316    0.422   50.703   12.919
  341.000    0.297    0.414   53.126   13.917
  341.250    0.273    0.378   57.372   14.717
  341.500    0.244    0.344   61.011   14.187
  341.750    0.191    0.364   76.189   12.936
  342.000    0.216    0.384   88.329   10.172
  342.250    0.231    0.421   97.434    8.455
  342.500    0.221    0.432  101.679    7.430
  342.750    0.232    0.438  103.496    6.651
  343.000    0.236    0.455  104.099    6.065
  343.250    0.249    0.471  102.879    5.955
  343.500    0.274    0.497   99.231    6.415
  343.750    0.305    0.450   94.975    7.442
  344.000    0.319    0.431   94.970    8.795
  344.250    0.308    0.427   96.787    9.832
  344.500    0.288    0.419  101.640   10.789
  344.750    0.276    0.417  104.672   10.995
  345.000    0.259    0.426  103.452   10.797
  345.250    0.260    0.449  101.018   10.801
  345.500    0.266    0.447   97.977   10.607
  345.750    0.277    0.434   94.936   11.011
  346.000    0.299    0.422   88.858   11.429
  346.250    0.304    0.372   72.457   12.314
  346.500    0.294    0.315   62.736   13.263
  346.750    0.348    0.279   53.622   15.387
  347.000    0.377    0.236   49.972   16.272
  347.250    0.386    0.339   63.936   15.686
  347.500    0.311    0.382   79.112   14.843
  347.750    0.238    0.394   83.359   12.568
  348.000    0.237    0.397   85.783   10.643
  348.250    0.228    0.397   82.134    9.180
  348.500    0.242    0.399   77.271    8.372
  348.750    0.251    0.413   76.052    8.221
  349.000    0.265    0.421   76.047    8.377
  349.250    0.285    0.416   78.470    8.380
  349.500    0.276    0.418   85.146    8.228
  349.750    0.245    0.437   97.287    7.231
  350.000    0.141    0.449  108.213    6.123
  350.250    0.114    0.452  111.852    5.583
  350.500    0.155    0.481  114.883    4.906
  350.750    0.152    0.500  114.878    4.474
  351.000    0.169    0.500  118.517    4.156
  351.250    0.188    0.487  122.156    3.790
  351.500    0.201    0.506  128.223    3.586
  351.750    0.220    0.523  129.433    3.393
  352.000    0.206    0.542  129.428    3.211
  352.250    0.219    0.543  131.853    3.153
  352.500    0.212    0.559  133.668    3.040
  352.750    0.206    0.562  133.665    2.985
  353.000    0.223    0.553  132.445    2.931
  353.250    0.240    0.526  131.225    2.932
  353.500    0.247    0.515  131.827    2.879
  353.750    0.253    0.523  133.038    2.880
  354.000    0.227    0.495  131.211    2.881
  354.250    0.229    0.460  122.097    2.936
  354.500    0.250    0.449  119.055    3.048
  354.750    0.224    0.446  120.265    3.602
  355.000    0.232    0.440  122.083    4.500
  355.250    0.243    0.436  122.684    5.621
  355.500    0.222    0.434  120.857    6.284
  355.750    0.223    0.447  119.638    6.524
  356.000    0.234    0.459  118.419    6.526
  356.250    0.250    0.455  117.807    6.291
  356.500    0.230    0.455  119.624    6.177
  356.750    0.254    0.483  119.012    5.955
  357.000    0.263    0.468  100.181    5.532
  357.250    0.284    0.422   91.674    5.432
  357.500    0.300    0.424   88.026    5.535
  357.750    0.306    0.415   84.377    5.963
  358.000    0.324    0.407   86.195    6.917
  358.250    0.330    0.413   90.440    8.175
  358.500    0.317    0.422   94.079    9.138
  358.750    0.302    0.446   96.504    9.664
  359.000    0.285    0.442   99.534    9.490
  359.250    0.273    0.439  102.567    9.148
  359.500    0.276    0.448  103.169    8.343
  359.750    0.294    0.436  106.199    8.191
  360.000    0.294    0.433  111.053    7.897
  360.250    0.306    0.436  120.764    7.612
  360.500    0.287    0.445  126.226    7.338
  360.750    0.267    0.448  126.828    7.205
  361.000    0.254    0.448  121.358    6.946
  361.250    0.261    0.441  112.243    6.696
  361.500    0.266    0.434  105.558    6.455
  361.750    0.290    0.444   99.481    6.338
  362.000    0.321    0.446   92.188    6.224
  362.250    0.349    0.405   85.504    6.112
  362.500    0.340    0.389   77.605    6.584
  362.750    0.348    0.400   76.991    7.780
  363.000    0.348    0.435   76.380    9.542
  363.250    0.340    0.458   72.732   10.666
  363.500    0.327    0.461   74.549   11.280
  363.750    0.326    0.464   73.936   11.709
  364.000    0.332    0.452   69.681   11.080
  364.250    0.343    0.429   65.425   10.293
  364.500    0.309    0.432   63.598    9.561
  364.750    0.316    0.445   67.237    9.047
  365.000    0.334    0.474   65.410    8.722
  365.250    0.350    0.498   61.762    8.564
  365.500    0.362    0.478   61.757   10.504
  365.750    0.368    0.495   64.180   11.107
  366.000    0.368    0.497   64.784   12.417
  366.250    0.367    0.489   67.207   14.140
  366.500    0.367    0.480   69.025   16.102
  366.750    0.360    0.467   69.626   19.030
  367.000    0.366    0.480   68.406   23.337
  367.250    0.366    0.479   68.402   24.680
  367.500    0.356    0.480   71.433   24.234
  367.750    0.336    0.483   74.465   22.099
  368.000    0.349    0.497   74.460   19.063
  368.250    0.351    0.491   70.812   17.707
