~VERSION INFORMATION
 VERS.                 2.0:   CWLS LOG ASCII STANDARD -VERSION 2.0
 WRAP.                  NO:   ONE LINE PER DEPTH STEP
~WELL INFORMATION BLOCK
#MNEM.UNIT           DATA                    DESCRIPTION OF MNEMONIC
#---------    -------------------            -------------------------------
# Generated from Intellog Unique Number	CW_73_75/WELL/3516
WELL.         1CGR MAXUS KELLY               : Well_name    - WELL
LOC .         00/02-01-073-19W4/0            : Location     - LOCATION
UWI .         00/02-01-073-19W4/0            : Uwi          - UNIQUE WELL ID
ENTR.         TIM                            : Entered      - ENTERED BY
SRVC.         SCHLUMBERGER                   : Scn          - SERVICE COMPANY
STRT.M        325                            : top_depth    - START DEPTH
STOP.M        555                            : bot_depth    - STOP DEPTH
STEP.M        0.25                           : increment    - STEP LENGTH
 NULL. -999.2500:NULL Value
~CURVE INFORMATION BLOCK
#MNEM UNIT       ERCB CURVE CODE    CURVE DESCRIPTION
#-----------   ------------------   ----------------------------------
DEPT.M        00 001 00 00         : DEPTH        - DEPTH
ILD .OHMM     00 120 00 00         : RESD         - DEEP RESISTIVITY (DIL)
DPHI.V/V      00 890 00 00         : PHID         - DENSITY POROSITY (SANDSTONE)
NPHI.V/V      00 330 00 00         : PHIN         - NEUTRON POROSITY (SANDSTONE)
CALI.MM       00 280 01 00         : CAL          - CALIPER
GR  .API      00 310 00 00         : GR           - GAMMA RAY
~PARAMETER INFORMATION
#MNEM.UNIT           DATA             DESCRIPTION OF MNEMONIC
#---------         -----------     ------------------------------
GL  .M        631.8                : gl           - GROUND LEVEL ELEVATION
EREF.M        635.6                : kb           - ELEVATION OF DEPTH REFERENCE
DATM.M        635.6                : datum        - DATUM ELEVATION
TDD .M        509                  : tdd          - TOTAL DEPTH DRILLER
RUN .         ONE                  : Run          - RUN NUMBER
ENG .         BILL                 : Engineer     - RECORDING ENGINEER
WIT .         JIM                  : Witness      - WITNESSED BY
MUD .         GEL                  : Mud_type     - MUD TYPE
MATR.         SANDSTONE            : Logunit      - NEUTRON MATRIX
TMAX.C        22                   : BHT          - MAXIMUM RECORDED TEMPERATURE
BHTD.M        509                  : BHTDEP       - MAXIMUM RECORDED TEMPERATURE
RMT .C        15                   : MDTP         - TEMPERATURE OF MUD
MUDD.KG/M     1090                 : MWT          - MUD DENSITY
NEUT.         1                    : NEUTRON      - NEUTRON TYPE
RESI.         0                    : RESIST       - RESISTIVITY TYPE
RM  .OHMM     3.11                 : RM           - RESISTIVITY OF MUD
RMC .OHMM     3.5                  : RMC          - RESISTIVITY OF MUD CAKE
RMF .OHMM     3.2                  : RMF          - RESISTIVITY OF MUD FILTRATE
SUFT.C        4                    : SUFT         - SURFACE TEMPERATURE
~A  DEPTH     RESD     PHID     PHIN      CAL       GR
# ...
  471.000    4.781    0.204    0.421  168.358   91.832
  471.250    5.070    0.201    0.421  167.399   92.464
  471.500    5.280    0.204    0.420  167.436   89.440
  471.750    5.496    0.209    0.418  166.458   88.244
  472.000    6.054    0.198    0.403  165.480   88.876
  472.250    6.536    0.177    0.382  163.486   88.898
  472.500    7.062    0.162    0.362  162.498   87.087
  472.750    7.774    0.157    0.332  160.514   81.631
  473.000    9.064    0.129    0.310  158.530   76.165
  473.250    9.971    0.115    0.261  158.548   73.146
  473.500   10.977    0.137    0.250  157.570   79.865
  473.750   11.860    0.195    0.271  156.601   85.376
  474.000   12.130    0.176    0.274  156.629   78.082
  474.250   11.504    0.115    0.272  155.651   72.621
  474.500   11.096    0.080    0.276  155.688   77.523
  474.750   10.137    0.096    0.294  154.719   81.195
  475.000    9.602    0.103    0.302  153.732   86.701
  475.250    8.599    0.134    0.383  153.769   89.160
  475.500    7.705    0.165    0.403  153.806   94.057
  475.750    6.905    0.196    0.411  153.853  103.833
  476.000    6.187    0.208    0.409  153.890  113.603
  476.250    5.868    0.201    0.408  153.927  109.970
  476.500    5.770    0.195    0.403  153.974  100.244
  476.750    5.576    0.185    0.399  154.001   95.392
  477.000    5.586    0.182    0.394  154.048   97.858
  477.250    5.500    0.185    0.390  154.095  100.311
  477.500    5.511    0.190    0.382  154.113  104.604
  477.750    5.528    0.192    0.381  154.169  107.667
  478.000    5.643    0.195    0.389  154.197  105.252
  478.250    5.665    0.201    0.392  154.225   89.434
  478.500    5.783    0.203    0.393  154.271   84.588
  478.750    5.911    0.181    0.392  154.309   88.260
  479.000    6.034    0.169    0.388  154.346   91.944
  479.250    6.163    0.184    0.382  154.383   88.919
  479.500    6.308    0.174    0.375  155.436   87.108
  479.750    6.316    0.164    0.365  155.473   84.699
  480.000    6.447    0.162    0.359  155.501   84.107
  480.250    6.472    0.188    0.361  155.557   84.738
  480.500    6.480    0.202    0.366  155.575   86.594
  480.750    6.500    0.194    0.363  153.582   87.226
  481.000    6.517    0.181    0.361  149.576   83.587
  481.250    6.538    0.165    0.357  148.597   81.787
  481.500    6.429    0.193    0.355  149.650   84.867
  481.750    6.325    0.206    0.366  150.693   85.487
  482.000    6.228    0.203    0.369  152.771   87.337
  482.250    6.124    0.192    0.367  154.839   87.969
  482.500    5.914    0.183    0.367  156.907   87.388
  482.750    5.711    0.172    0.367  156.944   85.588
  483.000    5.413    0.167    0.373  156.972   84.380
  483.250    5.131    0.189    0.380  157.009   81.966
  483.500    4.598    0.195    0.387  157.047   81.379
  483.750    4.120    0.204    0.389  157.102   83.234
  484.000    3.621    0.213    0.432  156.106   86.303
  484.250    2.955    0.227    0.459  156.143   89.981
  484.500    2.648    0.234    0.486  156.189   91.222
  484.750    2.373    0.230    0.482  156.227   91.244
  485.000    2.249    0.228    0.478  156.255   93.704
  485.250    2.258    0.225    0.474  156.292   97.382
  485.500    2.347    0.222    0.514  156.329   94.358
  485.750    2.682    0.218    0.532  157.400   88.896
  486.000    3.008    0.214    0.481  157.437   86.482
  486.250    3.505    0.102    0.438  157.484   85.285
  486.500    4.161    0.033    0.332  157.512   86.526
  486.750    4.492    0.098    0.326  157.540   88.986
  487.000    5.137    0.137    0.339  157.586   91.445
  487.250    5.058    0.176    0.372  157.614   90.858
  487.500    4.881    0.169    0.418  156.645   87.834
  487.750    4.630    0.134    0.417  156.673   82.982
  488.000    4.729    0.089    0.376  155.695   78.131
  488.250    5.012    0.033    0.339  155.732   92.775
  488.500    5.415    0.080    0.321  155.769  100.718
  488.750    5.742    0.109    0.343  154.791  101.350
  489.000    6.093    0.144    0.379  154.828   98.935
  489.250    6.227    0.169    0.374  154.875   91.037
  489.500    6.123    0.164    0.372  154.921   86.800
  489.750    6.033    0.154    0.368  154.949   84.380
  490.000    5.932    0.155    0.364  154.977   86.230
  490.250    5.841    0.156    0.361  156.049   95.402
  490.500    5.740    0.155    0.359  156.077   92.373
  490.750    5.758    0.150    0.419  156.114   85.693
  491.000    5.662    0.159    0.421  157.166   80.238
  491.250    5.575    0.170    0.404  157.204   79.645
  491.500    5.482    0.138    0.352  157.250   98.555
  491.750    5.294    0.066    0.317  157.287  131.483
  492.000    5.021    0.066    0.302  156.309  133.333
  492.250    4.762    0.111    0.309  156.346  108.370
  492.500    4.593    0.110    0.405  156.384   89.505
  492.750    4.438    0.140    0.413  155.396   84.055
  493.000    4.370    0.155    0.413  155.443   86.509
  493.250    4.297    0.185    0.415  155.480   92.618
  493.500    4.225    0.170    0.416  153.486   98.739
  493.750    4.163    0.138    0.415  153.514   97.537
  494.000    4.171    0.122    0.412  153.570   96.950
  494.250    4.181    0.129    0.408  153.598  107.945
  494.500    4.192    0.146    0.409  153.626  106.139
  494.750    4.205    0.168    0.408  153.663   99.460
  495.000    4.213    0.164    0.405  153.719   89.125
  495.250    4.229    0.158    0.401  153.747   89.153
  495.500    4.237    0.173    0.407  154.809   90.997
  495.750    4.325    0.180    0.427  154.846   91.031
  496.000    4.424    0.180    0.427  155.889   91.657
  496.250    4.513    0.180    0.424  155.926   92.283
  496.500    4.703    0.175    0.419  156.988   94.133
  496.750    4.801    0.166    0.410  157.016   95.374
  497.000    4.993    0.159    0.391  157.054   96.626
  497.250    5.500    0.155    0.388  157.091   96.637
  497.500    5.732    0.147    0.396  157.137   97.883
  497.750    6.074    0.139    0.407  158.181   97.906
  498.000    6.441    0.134    0.390  159.233   96.100
  498.250    7.357    0.139    0.372  160.305   95.513
  498.500    8.571    0.151    0.331  160.323   93.093
  498.750   11.166    0.154    0.195  160.360   79.711
  499.000   15.110    0.176    0.129  153.299   65.721
  499.250   18.961    0.303    0.128  152.321   64.524
  499.500   27.140    0.311    0.182  152.358   79.778
  499.750   43.463    0.283    0.202  153.420   93.819
  500.000   55.605    0.165    0.211  153.466   77.386
  500.250   54.748    0.128    0.209  153.485   49.382
  500.500   51.891    0.073    0.206  153.522   29.908
  500.750   50.080    0.029    0.198  153.578   20.791
  501.000   44.072   -0.006    0.194  153.606   20.204
  501.250   42.508    0.052    0.191  153.643   24.497
  501.500   38.115    0.140    0.200  152.674   26.951
  501.750   36.808    0.191    0.230  151.677   30.634
  502.000   38.308    0.213    0.249  150.699   31.260
  502.250   40.623    0.224    0.249  150.746   31.892
  502.500   44.747    0.223    0.235  150.792   31.914
  502.750   46.542    0.213    0.222  150.811   31.327
  503.000   45.795    0.180    0.219  150.857   32.568
  503.250   42.601    0.181    0.237  151.910   38.080
  503.500   37.490    0.187    0.275  151.938   52.115
  503.750   34.251    0.194    0.323  153.000   65.541
  504.000   32.443    0.191    0.342  154.062   40.584
  504.250   30.770    0.172    0.296  155.114   30.858
  504.500   29.677    0.154    0.277  155.161   35.754
  504.750   28.128    0.131    0.268  155.189   51.008
  505.000   26.678    0.113    0.265  155.235   60.169
  505.250   26.250    0.088    0.266  155.254   67.503
  505.500   26.813    0.105    0.289  155.291   62.042
  505.750   28.433    0.131    0.304  154.332   46.223
  506.000   31.300    0.101    0.295  153.335   37.107
  506.250   39.278    0.033    0.233  151.341   26.162
  506.500   49.288    0.027    0.217  150.372   21.920
  506.750   69.286    0.034    0.222  149.403   18.292
  507.000   79.180    0.042    0.236  148.416   15.872
  507.250   75.049    0.044    0.241  148.444   14.066
