~VERSION INFORMATION
 VERS.                 2.0:   CWLS LOG ASCII STANDARD -VERSION 2.0
 WRAP.                  NO:   ONE LINE PER DEPTH STEP
~WELL INFORMATION BLOCK
#MNEM.UNIT           DATA                    DESCRIPTION OF MNEMONIC
#---------    -------------------            -------------------------------
# Generated from Intellog Unique Number	CW_76_78/WELL/200
WELL.         AMOCO UN-TEX MARTEN HILLS DD-1 : Well_name    - WELL
LOC .         00/06-30-076-02W5/0            : Location     - LOCATION
UWI .         00/06-30-076-02W5/0            : Uwi          - UNIQUE WELL ID
ENTR.         JJ                             : Entered      - ENTERED BY
SRVC.         SCHLUMBERGER                   : Scn          - SERVICE COMPANY
DATE.         22 MAR 72                      : Date         - LOG DATE
STRT.M        670.56                         : top_depth    - START DEPTH
STOP.M        804.56                         : bot_depth    - STOP DEPTH
STEP.M        0.25                           : increment    - STEP LENGTH
 NULL. -999.2500:NULL Value
~CURVE INFORMATION BLOCK
#MNEM UNIT       ERCB CURVE CODE    CURVE DESCRIPTION
#-----------   ------------------   ----------------------------------
DEPT.M        00 001 00 00         : DEPTH        - DEPTH
DELT.US/F     00 520 00 00         : DELT         - SONIC TRAVEL TIME
GR  .API      00 310 00 00         : GR           - GAMMA RAY
CALI.MM       00 280 01 00         : CAL          - CALIPER
ILD .OHMM     00 120 00 00         : RESD         - DEEP RESISTIVITY (DIL)
~PARAMETER INFORMATION
#MNEM.UNIT           DATA             DESCRIPTION OF MNEMONIC
#---------         -----------     ------------------------------
GL  .M        886.054              : gl           - GROUND LEVEL ELEVATION
EREF.M        889.711              : kb           - ELEVATION OF DEPTH REFERENCE
DATM.M        889.711              : datum        - DATUM ELEVATION
TDD .M        804.062              : tdd          - TOTAL DEPTH DRILLER
RUN .         ONE                  : Run          - RUN NUMBER
ENG .         ANDERSON             : Engineer     - RECORDING ENGINEER
WIT .         DESAULNIERS          : Witness      - WITNESSED BY
BASE.         EDM                  : Branch       - HOME BASE OF LOGGING UNIT
MUD .         GEL                  : Mud_type     - MUD TYPE
MATR.         SANDSTONE            : Logunit      - NEUTRON MATRIX
TMAX.C        30                   : BHT          - MAXIMUM RECORDED TEMPERATURE
BHTD.M        802.843              : BHTDEP       - MAXIMUM RECORDED TEMPERATURE
RMT .C        10                   : MDTP         - TEMPERATURE OF MUD
MUDD.KG/M     1128                 : MWT          - MUD DENSITY
NEUT.         1                    : NEUTRON      - NEUTRON TYPE
RESI.         0                    : RESIST       - RESISTIVITY TYPE
RM  .OHMM     6.68                 : RM           - RESISTIVITY OF MUD
RMC .OHMM     13.5                 : RMC          - RESISTIVITY OF MUD CAKE
RMF .OHMM     3.48                 : RMF          - RESISTIVITY OF MUD FILTRATE
SUFT.C        5                    : SUFT         - SURFACE TEMPERATURE
~A  DEPTH     DELT       GR      CAL     RESD
  670.560  354.149   50.613  225.770    6.979
  670.810  346.821   48.730  228.294    6.791
  671.060  327.974   47.679  228.169    6.640
  671.310  326.304   45.915  222.419    6.255
  671.560  365.755   45.602  225.145    5.675
  671.810  384.846   48.241  226.761    5.172
  672.060  394.818   50.876  224.792    4.825
  672.310  396.529   53.211  223.032    4.596
  672.560  393.744   54.404  223.400    4.446
  672.810  391.041   54.863  225.932    4.374
  673.060  388.786   54.786  224.062    4.303
  673.310  387.226   55.198  221.176    4.271
  673.560  386.674   55.431  222.682    4.238
  673.810  386.888   55.762  224.794    4.286
  674.060  387.358   55.504  224.569    4.291
  674.310  387.324   55.438  223.725    4.338
  674.560  387.606   55.357  223.801    4.384
  674.810  388.213   55.225  224.990    4.390
  675.060  389.262   55.077  226.205    4.397
  675.310  389.941   55.301  224.639    4.405
  675.560  389.760   55.472  221.536    4.411
  675.810  388.086   55.872  220.795    4.419
  676.060  387.272   56.339  224.542    4.424
  676.310  388.842   56.683  225.347    4.431
  676.560  389.979   57.272  224.288    4.516
  676.810  391.428   57.434  222.622    4.523
  677.060  392.353   57.782  222.814    4.529
  677.310  392.577   58.004  223.387    4.498
  677.560  392.197   59.375  224.894    4.504
  677.810  391.840   61.113  226.913    4.511
  678.060  390.431   62.237  228.830    4.478
  678.310  383.415   64.037  229.507    4.409
  678.560  377.910   65.467  229.580    4.376
  678.810  372.468   66.108  228.324    4.342
  679.060  376.521   66.465  224.418    4.389
  679.310  377.054   66.209  225.514    4.395
  679.560  373.042   66.008  228.559    4.480
  679.810  365.184   66.236  230.664    4.566
  680.060  361.765   66.450  231.966    4.612
  680.310  359.966   68.125  232.348    4.620
  680.560  361.805   69.256  231.198    4.625
  680.810  365.015   67.556  230.371    4.593
  681.060  369.066   67.717  230.034    4.521
  681.310  372.861   70.175  230.409    4.489
  681.560  377.309   73.107  230.987    4.339
  681.810  382.341   74.664  232.598    4.268
  682.060  387.503   72.051  234.190    4.195
  682.310  386.674   69.618  235.292    4.164
  682.560  383.902   71.482  235.573    4.132
  682.810  386.582   74.414  235.867    4.137
  683.060  388.756   73.735  236.136    4.145
  683.310  386.168   69.917  236.202    4.152
  683.560  382.674   69.053  236.594    4.158
  683.810  380.164   70.730  236.551    4.086
  684.060  379.597   69.566  236.628    4.086
  684.310  385.473   67.677  237.019    4.024
  684.560  392.580   69.596  237.800    3.989
  684.810  397.031   72.473  238.287    3.956
  685.060  399.594   74.021  238.875    3.924
  685.310  395.248   73.462  238.950    3.932
  685.560  389.016   73.395  239.126    3.932
  685.810  387.026   74.162  238.878    3.946
  686.060  390.240   75.408  237.940    3.952
  686.310  393.383   77.196  236.889    3.959
  686.560  388.845   80.801  235.237    4.004
  686.810  379.889   78.432  233.983    4.050
  687.060  380.877   71.424  233.439    4.136
  687.310  383.895   69.294  235.144    4.222
  687.560  388.859   70.119  237.867    4.345
  687.810  390.707   72.154  234.793    4.548
  688.060  389.034   68.338  233.534    4.753
  688.310  390.032   67.295  231.879    4.837
  688.560  387.581   68.242  231.345    4.844
  688.810  386.427   71.124  230.888    4.772
  689.060  389.118   71.958  230.761    4.740
  689.310  389.394   71.996  230.437    4.706
  689.560  386.683   72.107  230.505    4.675
  689.810  383.448   73.355  230.690    4.680
  690.060  379.499   74.724  230.643    4.649
  690.310  376.724   75.864  231.034    4.617
  690.560  380.253   76.017  231.816    4.623
  690.810  385.540   75.637  235.473    4.551
  691.060  389.923   75.276  238.502    4.519
  691.310  393.141   75.063  241.232    4.566
  691.560  394.463   74.988  235.584    4.612
  691.810  386.986   75.032  231.580    4.775
  692.060  382.717   72.842  229.714    5.057
  692.310  378.504   68.659  228.265    5.180
  692.560  376.314   63.700  227.830    5.423
  692.810  376.210   61.749  227.692    5.625
  693.060  377.471   60.589  227.559    5.789
  693.310  378.392   60.215  227.632    5.953
  693.560  377.707   60.809  227.702    6.156
  693.810  375.508   62.411  227.677    6.241
  694.060  370.259   67.221  227.853    6.404
  694.310  370.213   71.544  228.145    6.529
  694.560  373.949   72.254  227.912    6.535
  694.810  381.318   68.737  227.681    6.622
  695.060  388.757   65.054  227.749    6.745
  695.310  387.279   64.179  227.507    6.988
  695.560  386.977   67.179  227.477    7.230
  695.810  383.552   64.814  227.255    7.394
  696.060  374.071   60.153  225.795    7.478
  696.310  368.692   57.063  221.679    7.565
  696.560  374.497   55.173  220.521    7.493
  696.810  383.498   59.742  221.933    7.342
  697.060  392.635   61.176  224.457    6.995
  697.310  383.673   61.645  227.198    6.650
  697.560  376.797   61.619  229.104    6.382
  697.810  381.045   62.208  229.894    5.996
  698.060  387.053   63.516  229.957    5.573
  698.310  385.575   67.845  229.943    5.147
  698.560  381.888   76.088  230.220    4.841
  698.810  377.876   82.410  231.211    4.377
  699.060  387.852   82.696  232.809    3.796
  699.310  398.415   78.577  236.875    2.862
  699.560  408.258   74.760  237.762    2.595
  699.810  411.144   73.666  237.026    3.268
  700.060  398.600   74.245  239.444    4.490
  700.310  385.612   73.088  243.800    5.986
  700.560  376.001   69.331  243.775    7.170
  700.810  317.521   63.824  234.869    8.273
  701.060  291.965   60.245  231.584    8.438
  701.310  276.692   59.039  230.230    8.131
  701.560  293.049   58.835  229.363    7.706
  701.810  339.533   58.946  229.035    6.968
  702.060  365.775   59.158  228.813    6.269
  702.310  381.414   59.558  228.360    5.923
  702.560  382.983   60.268  228.543    5.734
  702.810  380.477   60.913  229.232    5.545
  703.060  377.572   61.618  229.306    5.277
  703.310  375.246   62.447  229.693    5.048
  703.560  375.585   64.179  229.867    4.741
  703.810  376.846   66.936  230.146    4.515
  704.060  378.500   70.059  232.045    4.404
  704.310  379.431   72.697  235.800    4.331
  704.560  377.168   74.432  238.429    4.298
  704.810  373.543   75.137  236.058    4.267
  705.060  371.357   72.713  234.802    4.276
  705.310  372.023   69.133  235.074    4.280
  705.560  373.152   64.955  234.446    4.562
  705.810  373.491   67.473  233.810    4.960
  706.060  371.045   65.103  233.059    5.633
  706.310  356.559   59.959  232.713    7.953
  706.560  322.090   54.331  232.289    9.528
  706.810  261.724   47.260  231.650   11.534
  707.060  203.179   44.474  231.317   13.070
  707.310  186.276   44.274  230.984   13.313
  707.560  179.723   44.438  230.747   12.340
  707.810  180.659   44.904  230.626    9.170
  708.060  193.759   47.666  230.478    8.236
  708.310  257.877   53.436  230.654    6.988
  708.560  306.374   60.955  231.247    5.231
  708.810  329.625   67.695  232.037    4.847
  709.060  357.300   75.524  232.935    4.736
  709.310  364.931   78.400  233.304    4.741
  709.560  370.748   82.122  233.685    4.749
  709.810  369.139   83.436  234.178    4.756
  710.060  357.450   79.924  234.653    4.763
  710.310  346.668   76.403  234.930    4.769
  710.560  345.974   72.836  235.509    4.736
  710.810  356.536   71.664  235.178    4.704
  711.060  374.575   70.623  234.948    4.633
  711.310  373.288   68.197  231.547    4.601
  711.560  370.967   66.007  227.846    4.530
  711.810  370.604   68.226  228.835    4.460
  712.060  372.907   71.653  231.973    4.425
  712.310  380.669   74.528  235.438    4.432
  712.560  376.844   77.041  236.527    4.439
  712.810  373.805   79.140  236.595    4.446
  713.060  373.245   78.821  236.271    4.414
  713.310  381.137   74.162  235.923    4.419
  713.560  387.602   71.066  235.596    4.387
  713.810  382.931   68.883  234.127    4.512
