~VERSION INFORMATION
 VERS.                 2.0:   CWLS LOG ASCII STANDARD -VERSION 2.0
 WRAP.                  NO:   ONE LINE PER DEPTH STEP
~WELL INFORMATION BLOCK
#MNEM.UNIT           DATA                    DESCRIPTION OF MNEMONIC
#---------    -------------------            -------------------------------
# Generated from Intellog Unique Number	CS_67_68/WELL/644
WELL.         FISHER CREEK                   : Well_name    - WELL
LOC .         00/06-09-068-04W4/0            : Location     - LOCATION
UWI .         00/06-09-068-04W4/0            : Uwi          - UNIQUE WELL ID
ENTR.         SP                             : Entered      - ENTERED BY
SRVC.         SCHLUMBERGER                   : Scn          - SERVICE COMPANY
STRT.M        335                            : top_depth    - START DEPTH
STOP.M        565                            : bot_depth    - STOP DEPTH
STEP.M        0.25                           : increment    - STEP LENGTH
 NULL. -999.2500:NULL Value
~CURVE INFORMATION BLOCK
#MNEM UNIT       ERCB CURVE CODE    CURVE DESCRIPTION
#-----------   ------------------   ----------------------------------
DEPT.M        00 001 00 00         : DEPTH        - DEPTH
ILD .OHMM     00 120 00 00         : RESD         - DEEP RESISTIVITY (DIL)
DPHI.V/V      00 890 00 00         : PHID         - DENSITY POROSITY (LIMESTONE)
NPHI.V/V      00 330 00 00         : PHIN         - NEUTRON POROSITY (LIMESTONE)
GR  .API      00 310 00 00         : GR           - GAMMA RAY
~PARAMETER INFORMATION
#MNEM.UNIT           DATA             DESCRIPTION OF MNEMONIC
#---------         -----------     ------------------------------
GL  .M        692.65               : gl           - GROUND LEVEL ELEVATION
EREF.M        696.5                : kb           - ELEVATION OF DEPTH REFERENCE
DATM.M        692.65               : datum        - DATUM ELEVATION
TDD .M        568                  : tdd          - TOTAL DEPTH DRILLER
RUN .         ONE                  : Run          - RUN NUMBER
ENG .         BILL                 : Engineer     - RECORDING ENGINEER
WIT .         JIM                  : Witness      - WITNESSED BY
MUD .         GEL                  : Mud_type     - MUD TYPE
MATR.         LIMESTONE            : Logunit      - NEUTRON MATRIX
TMAX.C        20.5                 : BHT          - MAXIMUM RECORDED TEMPERATURE
BHTD.M        568                  : BHTDEP       - MAXIMUM RECORDED TEMPERATURE
MATR.         1                    : LOGUNIT      - NEUTRON MATRIX
RMT .C        25                   : MDTP         - TEMPERATURE OF MUD
NEUT.         1                    : NEUTRON      - NEUTRON TYPE
RESI.         0                    : RESIST       - RESISTIVITY TYPE
RMC .OHMM     0.25                 : RMC          - RESISTIVITY OF MUD CAKE
RMF .OHMM     0.25                 : RMF          - RESISTIVITY OF MUD FILTRATE
SUFT.C        15                   : SUFT         - SURFACE TEMPERATURE
~A  DEPTH     RESD     PHID     PHIN       GR
  335.000    2.648    0.235    0.560   92.620
  335.250    2.634    0.233    0.534   93.986
  335.500    2.596    0.235    0.531   95.905
  335.750    2.593    0.236    0.541   97.271
  336.000    2.653    0.230    0.553   93.607
  336.250    2.730    0.219    0.555   89.019
  336.500    2.835    0.211    0.536   88.176
  336.750    2.944    0.215    0.522   94.764
  337.000    3.030    0.235    0.511   97.169
  337.250    3.141    0.231    0.508   93.689
  337.500    3.268    0.216    0.499   92.415
  337.750    3.401    0.206    0.489   96.053
  338.000    3.513    0.199    0.468   91.957
  338.250    3.488    0.190    0.465   88.231
  338.500    3.355    0.178    0.462   89.905
  338.750    3.245    0.175    0.446   94.217
  339.000    3.081    0.203    0.477   98.590
  339.250    2.941    0.227    0.507   98.852
  339.500    2.888    0.228    0.524   97.334
  339.750    3.033    0.226    0.529   95.019
  340.000    3.115    0.221    0.510   94.118
  340.250    3.176    0.214    0.494   94.746
  340.500    3.189    0.208    0.482   96.049
  340.750    3.166    0.204    0.504   95.883
  341.000    3.127    0.206    0.516   94.365
  341.250    3.087    0.212    0.523   96.775
  341.500    3.083    0.220    0.538   99.801
  341.750    3.131    0.225    0.554   99.937
  342.000    3.209    0.220    0.563   94.188
  342.250    3.278    0.210    0.511   90.949
  342.500    3.310    0.202    0.467   98.451
  342.750    3.281    0.203    0.443  116.329
  343.000    3.258    0.211    0.446  121.563
  343.250    3.241    0.214    0.460  108.628
  343.500    3.236    0.210    0.471   97.168
  343.750    3.201    0.222    0.479   95.343
  344.000    3.091    0.224    0.496   92.046
  344.250    3.001    0.230    0.520   87.948
  344.500    3.134    0.216    0.518   82.013
  344.750    4.451    0.179    0.326   73.498
  345.000    6.042    0.106    0.257   65.963
  345.250    7.386    0.190    0.228   55.608
  345.500    9.622    0.263    0.208   49.670
  345.750   14.025    0.357    0.192   48.152
  346.000   19.656    0.385    0.177   58.296
  346.250   24.945    0.397    0.162   64.636
  346.500   27.303    0.410    0.153   72.691
  346.750   28.895    0.426    0.144   72.339
  347.000   29.181    0.425    0.182   66.158
  347.250   27.494    0.408    0.216   63.044
  347.500   23.860    0.388    0.249   61.468
  347.750   21.818    0.377    0.259   64.610
  348.000   20.713    0.373    0.253   73.465
  348.250   20.566    0.372    0.250   81.032
  348.500   21.441    0.391    0.239   86.019
  348.750   21.775    0.409    0.221   90.455
  349.000   20.748    0.423    0.206   93.908
  349.250   17.440    0.431    0.196   95.275
  349.500   13.224    0.438    0.198   90.321
  349.750   10.469    0.411    0.327   83.401
  350.000    8.685    0.363    0.364   78.939
  350.250    7.795    0.326    0.393   81.593
  350.500    7.101    0.303    0.414   84.310
  350.750    6.704    0.283    0.411   84.202
  351.000    6.412    0.250    0.414   88.947
  351.250    6.156    0.236    0.429   91.971
  351.500    6.033    0.230    0.460   94.011
  351.750    6.058    0.246    0.489   83.225
  352.000    6.304    0.266    0.475   60.102
  352.250    6.535    0.285    0.439   43.116
  352.500    6.775    0.302    0.406   48.475
  352.750    6.906    0.297    0.378   55.181
  353.000    7.093    0.272    0.363   60.474
  353.250    7.096    0.237    0.366   62.029
  353.500    7.059    0.223    0.366   65.298
  353.750    6.970    0.207    0.383   68.813
  354.000    6.936    0.234    0.408   71.897
  354.250    6.991    0.236    0.402   74.920
  354.500    7.249    0.233    0.396   77.823
  354.750    7.319    0.229    0.416   80.475
  355.000    7.404    0.234    0.430   85.895
  355.250    7.297    0.250    0.427   90.698
  355.500    7.508    0.263    0.414   95.625
  355.750    7.035    0.269    0.414  102.025
  356.000    6.629    0.265    0.436  107.751
  356.250    6.269    0.241    0.454  110.035
  356.500    5.681    0.213    0.452  103.055
  356.750    5.442    0.191    0.469  107.309
  357.000    5.186    0.177    0.495  106.218
  357.250    5.499    0.169    0.506   91.013
  357.500    5.929    0.216    0.500   72.800
  357.750    6.322    0.266    0.451   55.692
  358.000    6.432    0.320    0.424   46.563
  358.250    6.387    0.338    0.414   42.406
  358.500    6.318    0.343    0.426   43.345
  358.750    6.357    0.339    0.416   44.588
  359.000    6.444    0.334    0.407   47.244
  359.250    6.617    0.328    0.426   54.748
  359.500    6.899    0.316    0.419   61.273
  359.750    6.954    0.290    0.406   66.937
  360.000    6.815    0.279    0.400   71.738
  360.250    6.642    0.254    0.395   78.076
  360.500    6.658    0.231    0.402   83.557
  360.750    6.773    0.233    0.427   87.316
  361.000    7.009    0.229    0.435   91.259
  361.250    7.266    0.215    0.430   81.949
  361.500    7.603    0.200    0.452   77.668
  361.750    7.882    0.187    0.469   78.113
  362.000    7.945    0.171    0.469   79.482
  362.250    7.816    0.177    0.465   79.742
  362.500    7.775    0.216    0.464   80.006
  362.750    7.822    0.227    0.452   80.021
  363.000    7.885    0.225    0.445   79.242
  363.250    7.757    0.215    0.440   76.432
  363.500    7.531    0.215    0.445   77.124
  363.750    7.070    0.235    0.460   80.578
  364.000    6.624    0.250    0.475   81.391
  364.250    6.360    0.268    0.486   75.823
  364.500    6.186    0.301    0.467   70.560
  364.750    6.131    0.316    0.436   69.410
  365.000    6.168    0.322    0.422   70.655
  365.250    6.218    0.310    0.433   69.934
  365.500    6.397    0.306    0.437   67.987
  365.750    6.733    0.299    0.437   66.406
  366.000    6.888    0.301    0.444   65.626
  366.250    6.828    0.316    0.451   66.443
  366.500    6.817    0.323    0.436   67.562
  366.750    6.859    0.312    0.437   69.297
  367.000    6.992    0.274    0.426   70.662
  367.250    7.141    0.246    0.391   72.828
  367.500    7.252    0.220    0.369   76.096
  367.750    7.364    0.201    0.376   80.042
  368.000    7.479    0.188    0.403   81.838
  368.250    7.652    0.214    0.414   78.540
  368.500    7.859    0.233    0.400   73.339
  368.750    7.863    0.242    0.387   68.327
  369.000    7.749    0.244    0.380   65.332
  369.250    7.398    0.257    0.385   63.813
  369.500    6.945    0.265    0.396   64.873
  369.750    6.857    0.261    0.384   63.911
  370.000    6.809    0.263    0.405   61.347
  370.250    6.723    0.274    0.426   57.374
  370.500    6.577    0.284    0.414   53.524
  370.750    6.543    0.287    0.396   50.286
  371.000    6.558    0.301    0.381   47.112
  371.250    6.635    0.308    0.385   49.583
  371.500    6.713    0.289    0.403   54.390
  371.750    6.780    0.274    0.407   56.489
  372.000    6.833    0.291    0.410   56.691
  372.250    6.901    0.305    0.425   55.173
  372.500    6.982    0.292    0.436   54.329
  372.750    7.012    0.279    0.412   53.735
  373.000    7.001    0.280    0.416   53.263
  373.250    6.952    0.300    0.432   53.336
  373.500    6.981    0.309    0.441   53.721
  373.750    7.037    0.308    0.426   54.050
  374.000    7.093    0.307    0.421   54.736
  374.250    7.190    0.303    0.446   57.085
  374.500    7.233    0.309    0.461   59.248
  374.750    7.237    0.316    0.444   62.092
  375.000    7.186    0.312    0.426   62.413
  375.250    7.149    0.314    0.432   57.579
  375.500    7.086    0.314    0.416   52.995
  375.750    6.996    0.301    0.408   51.906
  376.000    6.856    0.293    0.422   52.964
  376.250    6.770    0.284    0.422   53.410
  376.500    6.735    0.266    0.434   53.549
  376.750    6.701    0.275    0.456   52.216
  377.000    6.691    0.296    0.453   53.092
  377.250    6.707    0.312    0.426   59.800
  377.500    6.660    0.314    0.410   64.970
  377.750    6.600    0.303    0.424   71.555
  378.000    6.493    0.290    0.441   75.930
  378.250    6.281    0.278    0.447   79.627
