~VERSION INFORMATION
 VERS.                 2.0:   CWLS LOG ASCII STANDARD -VERSION 2.0
 WRAP.                  NO:   ONE LINE PER DEPTH STEP
~WELL INFORMATION BLOCK
#MNEM.UNIT           DATA                    DESCRIPTION OF MNEMONIC
#---------    -------------------            -------------------------------
# Generated from Intellog Unique Number	CS_73_76/WELL/2168
WELL.         BOW VALLEY INDUSTRIES          : Well_name    - WELL
LOC .         00/06-25-074-17W4/0            : Location     - LOCATION
UWI .         00/06-25-074-17W4/0            : Uwi          - UNIQUE WELL ID
ENTR.         SP                             : Entered      - ENTERED BY
SRVC.         SCHLUMBERGER                   : Scn          - SERVICE COMPANY
STRT.M        228.600                        : top_depth    - START DEPTH
STOP.M        453.850                        : bot_depth    - STOP DEPTH
STEP.M        0.25                           : increment    - STEP LENGTH
 NULL. -999.2500:NULL Value
~CURVE INFORMATION BLOCK
#MNEM UNIT       ERCB CURVE CODE    CURVE DESCRIPTION
#-----------   ------------------   ----------------------------------
DEPT.M        00 001 00 00         : DEPTH        - DEPTH
GR  .API      00 310 00 00         : GR           - GAMMA RAY
DPHI.V/V      00 890 00 00         : PHID         - DENSITY POROSITY (SANDSTONE)
NPHI.V/V      00 330 00 00         : PHIN         - NEUTRON POROSITY (SANDSTONE)
ILD .OHMM     00 120 00 00         : RESD         - DEEP RESISTIVITY (DIL)
~PARAMETER INFORMATION
#MNEM.UNIT           DATA             DESCRIPTION OF MNEMONIC
#---------         -----------     ------------------------------
GL  .M        614                  : gl           - GROUND LEVEL ELEVATION
EREF.M        616.61               : kb           - ELEVATION OF DEPTH REFERENCE
DATM.M        616                  : datum        - DATUM ELEVATION
TDD .M        484.937              : tdd          - TOTAL DEPTH DRILLER
RUN .         ONE                  : Run          - RUN NUMBER
ENG .         BILL                 : Engineer     - RECORDING ENGINEER
WIT .         JIM                  : Witness      - WITNESSED BY
MUD .         GEL                  : Mud_type     - MUD TYPE
MATR.         SANDSTONE            : Logunit      - NEUTRON MATRIX
TMAX.C        13.8889              : BHT          - MAXIMUM RECORDED TEMPERATURE
BHTD.M        484.937              : BHTDEP       - MAXIMUM RECORDED TEMPERATURE
MATR.         1                    : LOGUNIT      - NEUTRON MATRIX
RMT .C        25                   : MDTP         - TEMPERATURE OF MUD
NEUT.         1                    : NEUTRON      - NEUTRON TYPE
RESI.         0                    : RESIST       - RESISTIVITY TYPE
RMC .OHMM     0.25                 : RMC          - RESISTIVITY OF MUD CAKE
RMF .OHMM     0.25                 : RMF          - RESISTIVITY OF MUD FILTRATE
SUFT.C        15                   : SUFT         - SURFACE TEMPERATURE
~A  DEPTH       GR     PHID     PHIN     RESD
# ...
  272.100  106.066    0.198    0.512    3.295
  272.350  102.371    0.201    0.521    3.401
  272.600  100.586    0.193    0.529    3.446
  272.850   96.299    0.186    0.512    3.734
  273.100   92.875    0.204    0.494    4.072
  273.350   88.392    0.192    0.452    4.941
  273.600   85.244    0.201    0.427    5.461
  273.850   90.174    0.226    0.422    6.175
  274.100   92.297    0.244    0.418    6.761
  274.350   92.084    0.241    0.414    7.406
  274.600   89.116    0.249    0.406    7.967
  274.850   81.930    0.261    0.402    8.643
  275.100   73.807    0.320    0.426    9.168
  275.350   65.107    0.426    0.451    9.345
  275.600   56.371    0.543    0.511    8.948
  275.850   63.693    0.597    0.599    8.310
  276.100   77.867    0.546    0.588    7.825
  276.350   87.931    0.367    0.517    7.391
  276.600   73.961    0.255    0.480    7.313
  276.850   64.128    0.264    0.458    7.707
  277.100   53.516    0.293    0.437    8.063
  277.350   52.474    0.309    0.422    8.591
  277.600   53.695    0.320    0.408    8.874
  277.850   55.743    0.327    0.407    8.941
  278.100   58.261    0.315    0.427    8.926
  278.350   60.222    0.305    0.424    9.121
  278.600   62.198    0.309    0.400    9.102
  278.850   66.623    0.318    0.390    9.227
  279.100   71.964    0.324    0.401    9.265
  279.350   77.619    0.316    0.413    9.269
  279.600   83.339    0.304    0.410    9.267
  279.850   87.803    0.303    0.409    9.269
  280.100   96.499    0.289    0.417    9.257
  280.350  101.883    0.277    0.417    9.456
  280.600  106.006    0.261    0.410    9.462
  280.850  102.320    0.248    0.419    9.616
  281.100   97.274    0.245    0.431    9.695
  281.350   96.259    0.261    0.435    9.795
  281.600   97.195    0.268    0.426    9.976
  281.850   99.221    0.270    0.431   10.036
  282.100  102.199    0.261    0.423   10.146
  282.350  101.635    0.251    0.417   10.349
  282.600  102.189    0.241    0.423   10.388
  282.850  102.182    0.224    0.432   10.515
  283.100   96.096    0.221    0.436   10.822
  283.350   86.530    0.250    0.430   11.469
  283.600   74.800    0.264    0.435   12.323
  283.850   64.910    0.277    0.439   14.522
  284.100   53.496    0.289    0.422   18.540
  284.350   44.399    0.283    0.408   26.092
  284.600   40.452    0.301    0.389   30.325
  284.850   36.517    0.309    0.387   33.454
  285.100   35.426    0.315    0.396   35.050
  285.350   36.823    0.311    0.406   34.533
  285.600   40.267    0.316    0.411   29.827
  285.850   45.461    0.321    0.417   26.271
  286.100   50.297    0.330    0.422   21.593
  286.350   59.119    0.330    0.424   17.066
  286.600   64.012    0.310    0.414   14.645
  286.850   69.656    0.295    0.404   12.624
  287.100   71.959    0.283    0.424   11.180
  287.350   73.100    0.274    0.436   10.067
  287.600   79.612    0.289    0.427    9.480
  287.850   84.695    0.286    0.416    8.457
  288.100   91.276    0.275    0.399    7.862
  288.350   96.784    0.240    0.392    7.388
  288.600  103.557    0.219    0.422    6.699
  288.850  107.108    0.186    0.439    6.194
  289.100  107.920    0.146    0.460    5.735
  289.350  112.463    0.113    0.446    5.327
  289.600  120.412    0.072    0.440    5.075
  289.850  126.846    0.104    0.472    4.692
  290.100  127.124    0.156    0.476    4.558
  290.350  125.887    0.186    0.472    4.327
  290.600  128.534    0.159    0.469    4.206
  290.850  130.109    0.150    0.475    4.089
  291.100  133.903    0.153    0.468    3.888
  291.350  135.311    0.152    0.485    3.839
  291.600  131.905    0.186    0.521    3.800
  291.850  130.676    0.212    0.569    3.752
  292.100  132.321    0.193    0.560    3.703
  292.350  130.532    0.192    0.542    3.672
  292.600  127.294    0.188    0.547    3.548
  292.850  122.269    0.176    0.536    3.794
  293.100  122.613    0.155    0.511    4.129
  293.350  130.349    0.123    0.491    4.761
  293.600  129.497    0.201    0.506    5.671
  293.850  122.301    0.196    0.485    6.577
  294.100  121.644    0.201    0.452    7.217
  294.350  124.629    0.206    0.440    7.809
  294.600  127.534    0.216    0.441    8.102
  294.850  122.287    0.224    0.446    8.422
  295.100  121.634    0.212    0.439    8.229
  295.350  123.977    0.220    0.446    8.086
  295.600  119.668    0.209    0.452    7.753
  295.850  115.756    0.215    0.458    7.455
  296.100  113.851    0.218    0.457    7.002
  296.350  113.525    0.224    0.465    6.574
  296.600  111.322    0.173    0.490    6.483
  296.850  106.227    0.132    0.475    6.659
  297.100  104.387    0.182    0.451    7.140
  297.350  103.415    0.222    0.420    7.993
  297.600  100.648    0.247    0.422    8.588
  297.850   96.488    0.262    0.432    9.271
  298.100   95.052    0.276    0.437    9.521
  298.350   94.404    0.283    0.419    9.411
  298.600   95.375    0.278    0.412    9.136
  298.850  101.320    0.248    0.403    8.695
  299.100  109.613    0.224    0.413    8.256
  299.350  115.481    0.226    0.420    7.902
  299.600  121.503    0.235    0.432    7.527
  299.850  125.266    0.240    0.439    7.280
  300.100  127.982    0.230    0.443    7.211
  300.350  123.498    0.225    0.444    7.086
  300.600  115.742    0.227    0.445    7.101
  300.850  105.745    0.222    0.444    6.955
  301.100   90.904    0.217    0.438    7.038
  301.350   83.904    0.219    0.428    7.476
  301.600   77.024    0.245    0.417    8.350
  301.850   75.577    0.266    0.411    9.038
  302.100   79.155    0.252    0.416    9.569
  302.350   82.250    0.257    0.404    9.673
  302.600   82.296    0.272    0.395    9.587
  302.850   82.303    0.275    0.411    9.284
  303.100   79.814    0.280    0.430    9.160
  303.350   74.900    0.280    0.448    8.966
  303.600   69.978    0.290    0.450    8.982
  303.850   67.408    0.312    0.446    8.984
  304.100   66.892    0.309    0.467    8.995
  304.350   70.338    0.309    0.483    8.814
  304.600   72.637    0.309    0.476    8.717
  304.850   75.739    0.304    0.465    8.423
  305.100   80.309    0.301    0.447    7.771
  305.350   84.270    0.297    0.435    7.422
  305.600   84.959    0.287    0.428    6.716
  305.850   82.836    0.273    0.435    6.050
  306.100   82.549    0.262    0.467    5.532
  306.350   81.435    0.258    0.493    5.092
  306.600   80.726    0.273    0.486    5.634
  306.850   83.318    0.287    0.463    5.911
  307.100   86.633    0.299    0.446    6.220
  307.350   91.166    0.285    0.440    6.503
  307.600   93.894    0.276    0.445    6.725
  307.850   94.775    0.256    0.450    6.935
  308.100   96.801    0.249    0.454    6.919
  308.350   96.776    0.248    0.443    7.076
  308.600   93.711    0.258    0.427    7.053
  308.850   91.281    0.259    0.415    7.187
  309.100   91.215    0.245    0.401    7.328
  309.350   92.272    0.232    0.418    7.440
  309.600   92.334    0.235    0.420    7.516
  309.850   91.563    0.236    0.430    7.586
  310.100   88.063    0.238    0.444    7.707
  310.350   85.146    0.235    0.455    7.785
  310.600   83.876    0.212    0.459    7.875
  310.850   84.600    0.210    0.454    8.024
  311.100   86.229    0.259    0.454    7.983
  311.350   85.619    0.257    0.460    7.731
  311.600   89.569    0.271    0.466    7.412
  311.850   93.644    0.247    0.454    7.109
  312.100   98.800    0.205    0.473    6.459
  312.350   90.612    0.195    0.478    6.256
  312.600   79.417    0.215    0.468    6.063
  312.850   72.020    0.237    0.459    5.974
  313.100   64.946    0.235    0.446    6.056
  313.350   57.810    0.236    0.431    6.455
  313.600   55.795    0.271    0.415    6.882
  313.850   56.118    0.293    0.408    7.272
  314.100   54.980    0.290    0.408    7.717
  314.350   54.285    0.297    0.406    8.192
  314.600   55.127    0.280    0.406    8.678
  314.850   56.659    0.292    0.409    8.762
  315.100   58.034    0.301    0.418    8.944
  315.350   57.938    0.296    0.423    8.930
