~VERSION INFORMATION
 VERS.                 2.0:   CWLS LOG ASCII STANDARD -VERSION 2.0
 WRAP.                  NO:   ONE LINE PER DEPTH STEP
~WELL INFORMATION BLOCK
#MNEM.UNIT           DATA                    DESCRIPTION OF MNEMONIC
#---------    -------------------            -------------------------------
# Generated from Intellog Unique Number	CC_80_83/WELL/2304
NULL.         -999.25                        : NULL_VALUE
WELL.         CAN SUP PONY                   : Well_name    - WELL
LOC .         07-26-082-07W4                 : Location     - LOCATION          
UWI .         00/07-26-082-07W4/0            : Uwi          - UNIQUE WELL ID    
ENTR.         DW                             : Entered      - ENTERED BY        
SRVC.         SCHLUMBERGER                   : Scn          - SERVICE COMPANY   
DATE.         22 FEB 77                      : Date         - LOG DATE
STRT.M        198.12                         : top_depth    - START DEPTH       
STOP.M        451.109                        : bot_depth    - STOP DEPTH        
STEP.M        0.305                          : increment    - STEP LENGTH       
~CURVE INFORMATION BLOCK
#MNEM UNIT       ERCB CURVE CODE    CURVE DESCRIPTION
#-----------   ------------------   ----------------------------------
DEPT.M        00 001 00 00         : DEPTH        - DEPTH                       
DPHI.V/V      00 890 00 00         : PHID         - DENSITY POROSITY (LIMESTONE)
NPHI.V/V      00 330 00 00         : PHIN         - NEUTRON POROSITY (LIMESTONE)
GR  .API      00 310 00 00         : GR           - GAMMA RAY                   
ILD .OHMM     00 120 00 00         : RESD         - DEEP RESISTIVITY (DIL)      
~PARAMETER INFORMATION       
#MNEM.UNIT           DATA             DESCRIPTION OF MNEMONIC
#---------         -----------     ------------------------------
GL  .M        651.967              : gl           - GROUND LEVEL ELEVATION      
EREF.M        655.625              : kb           - ELEVATION OF DEPTH REFERENCE
DATM.M        655.625              : datum        - DATUM ELEVATION             
TDD .M        457.81               : tdd          - TOTAL DEPTH DRILLER         
RUN .         ONE                  : Run          - RUN NUMBER                  
ENG .         BILL                 : Engineer     - RECORDING ENGINEER          
WIT .         JIM                  : Witness      - WITNESSED BY                
MUD .         GEL                  : Mud_type     - MUD TYPE                    
MATR.         LIMESTONE            : Logunit      - NEUTRON MATRIX              
TMAX.C        31.1111              : BHT          - MAXIMUM RECORDED TEMPERATURE
BHTD.M        457.81               : BHTDEP       - MAXIMUM RECORDED TEMPERATURE
MATR.         1                    : LOGUNIT      - NEUTRON MATRIX              
RMT .C        25                   : MDTP         - TEMPERATURE OF MUD          
NEUT.         1                    : NEUTRON      - NEUTRON TYPE                
RESI.         0                    : RESIST       - RESISTIVITY TYPE            
RMC .OHMM     0.25                 : RMC          - RESISTIVITY OF MUD CAKE     
RMF .OHMM     0.25                 : RMF          - RESISTIVITY OF MUD FILTRATE 
SUFT.C        4                    : SUFT         - SURFACE TEMPERATURE         
~A  DEPTH     PHID     PHIN       GR     RESD
# ...
  357.228    0.280    0.421   75.797    7.519
  357.533    0.285    0.436   79.464    6.700
  357.837    0.221    0.468   84.354    5.971
  358.142    0.222    0.487   88.627    5.529
  358.447    0.226    0.490   89.827    5.317
  358.752    0.213    0.474   92.250    5.519
  359.057    0.204    0.471   93.464    5.839
  359.361    0.218    0.470   94.660    6.180
  359.666    0.232    0.449   94.638    6.664
  359.971    0.234    0.444   97.678    7.186
  360.276    0.233    0.455  100.115    7.602
  360.581    0.203    0.466   95.783    6.906
  360.885    0.228    0.478   96.369    4.803
  361.190    0.248    0.493   91.418    3.966
  361.495    0.270    0.515   86.474    3.213
  361.800    0.341    0.581   82.143    2.505
  362.105    0.351    0.588   80.880    2.320
  362.409    0.343    0.562   82.082    2.274
  362.714    0.302    0.510   82.064    2.452
  363.019    0.319    0.501   82.032    2.854
  363.324    0.298    0.498   85.080    3.450
  363.629    0.301    0.491   87.503    3.941
  363.934    0.251    0.444   87.483    4.587
  364.238    0.225    0.427   84.997    5.441
  364.543    0.214    0.436   85.570    5.868
  364.848    0.213    0.445   86.169    5.977
  365.153    0.227    0.441   87.983    6.087
  365.458    0.200    0.426   88.573    5.529
  365.762    0.168    0.493   93.292    4.064
  366.067    0.229    0.489   95.696    3.628
  366.372    0.226    0.490   95.656    3.428
  366.677    0.217    0.481   91.352    3.368
  366.982    0.233    0.485   92.534    3.371
  367.286    0.243    0.489   94.938    3.376
  367.591    0.251    0.497   94.281    3.381
  367.896    0.243    0.484   91.814    3.519
  368.201    0.241    0.482   90.557    3.659
  368.506    0.248    0.502   94.179    3.735
  368.810    0.216    0.486   97.804    3.599
  369.115    0.252    0.507   95.936    3.534
  369.420    0.238    0.501   95.896    3.538
  369.725    0.265    0.515   96.466    3.681
  370.030    0.252    0.524   94.602    3.904
  370.335    0.243    0.506   93.350    4.302
  370.639    0.231    0.478   92.704    4.927
  370.944    0.242    0.473   85.349    5.643
  371.249    0.227    0.478   85.921    6.218
  371.554    0.213    0.472   85.275    6.347
  371.859    0.193    0.442   84.019    6.116
  372.163    0.163    0.460   88.251    6.486
  372.468    0.190    0.445   82.108    7.148
  372.773    0.251    0.389   72.314    7.435
  373.078    0.277    0.396   69.236    7.735
  373.383    0.280    0.399   69.804    6.904
  373.687    0.277    0.393   72.211    6.160
  373.992    0.251    0.417   76.444    5.291
  374.297    0.262    0.459   77.011    5.296
  374.602    0.249    0.466   77.590    5.838
  374.907    0.255    0.420   67.185    5.413
  375.211    0.241    0.420   76.294    4.065
  375.516    0.232    0.515   86.013    3.053
  375.821    0.243    0.546   88.414    2.830
  376.126    0.253    0.538   87.767    2.780
  376.431    0.256    0.515   90.164    3.005
  376.736    0.258    0.497   96.840    3.936
  377.040    0.263    0.459   85.215    5.357
  377.345    0.241    0.408   80.307    7.153
  377.650    0.249    0.369   79.045    9.016
  377.955    0.250    0.341   79.010   10.320
  378.260    0.251    0.352   84.461   11.159
  378.564    0.254    0.363   81.987   10.547
  378.869    0.228    0.360   80.721    9.780
  379.174    0.236    0.366   76.415    9.071
  379.479    0.238    0.370   77.607    8.910
  379.784    0.241    0.372   81.839    8.749
  380.088    0.257    0.370   79.975    8.430
  380.393    0.276    0.359   77.499    8.443
  380.698    0.258    0.352   79.292    8.614
  381.003    0.236    0.345   87.180    8.795
  381.308    0.229    0.337   89.573    9.151
  381.612    0.251    0.335   85.277    9.338
  381.917    0.250    0.342   91.335    9.350
  382.222    0.255    0.350   94.347    9.184
  382.527    0.243    0.350   91.260    9.198
  382.832    0.249    0.344   87.566    9.205
  383.137    0.271    0.339   89.970    9.216
  383.441    0.267    0.347   92.981    9.407
  383.746    0.250    0.354   95.383    9.980
  384.051    0.261    0.349   91.079   10.182
  384.356    0.246    0.350   91.644   10.003
  384.661    0.252    0.364   86.736    9.638
  384.965    0.260    0.363   86.696    9.467
  385.270    0.249    0.368   92.763    9.663
  385.575    0.240    0.356   93.330    9.861
  385.880    0.252    0.357   89.636   10.262
  386.185    0.246    0.364   82.284   10.472
  386.489    0.238    0.372   69.437   11.103
  386.794    0.243    0.365   60.255   12.473
  387.099    0.270    0.359   55.341   14.562
  387.404    0.268    0.351   62.623   16.355
  387.709    0.271    0.354   68.071   20.614
  388.013    0.286    0.364   63.159   25.497
  388.318    0.280    0.356   49.707   28.097
  388.623    0.286    0.353   40.519   27.080
  388.928    0.301    0.363   44.136   26.080
  389.233    0.285    0.362   48.375   25.618
  389.538    0.273    0.379   53.218   28.782
  389.842    0.298    0.392   48.300   34.907
  390.147    0.292    0.390   42.780   42.336
  390.452    0.269    0.394   44.564   48.501
  390.757    0.310    0.406   41.486   51.433
  391.062    0.306    0.416   35.958   53.498
  391.366    0.306    0.390   32.265   54.617
  391.671    0.305    0.371   29.788   54.683
  391.976    0.316    0.359   29.137   55.816
  392.281    0.300    0.361   32.762   58.057
  392.586    0.295    0.380   34.557   58.131
  392.890    0.302    0.389   32.078   56.003
  393.195    0.314    0.387   34.477   45.410
  393.500    0.315    0.379   40.542   37.533
  393.805    0.301    0.376   49.038   33.487
  394.110    0.286    0.370   56.932   30.465
  394.414    0.259    0.369   50.171   28.797
  394.719    0.267    0.385   47.100   29.392
  395.024    0.274    0.380   45.238   32.395
  395.329    0.305    0.372   50.074   35.024
  395.634    0.283    0.379   50.647   36.424
  395.939    0.257    0.378   50.614   33.141
  396.243    0.278    0.353   59.107   31.331
  396.548    0.276    0.364   68.832   31.980
  396.853    0.260    0.415   68.185   33.908
  397.158    0.255    0.392   55.345   38.088
  397.463    0.308    0.366   37.617   46.195
  397.767    0.325    0.366   31.490   57.128
  398.072    0.323    0.376   30.223   65.419
  398.377    0.318    0.379   32.023   64.264
  398.682    0.322    0.375   33.209   57.331
  398.987    0.320    0.389   43.531   47.399
  399.291    0.319    0.392   44.104   43.118
  399.596    0.307    0.382   44.675   42.343
  399.901    0.309    0.383   47.691   44.056
  400.206    0.292    0.399   42.777   53.462
  400.511    0.314    0.401   37.859   58.881
  400.815    0.322    0.398   35.993   71.452
  401.120    0.336    0.419   34.739   75.781
  401.425    0.337    0.413   31.045   75.833
  401.730    0.355    0.425   27.953   70.338
  402.035    0.375    0.429   30.962   69.070
  402.340    0.357    0.419   32.761   70.519
  402.644    0.347    0.430   29.059   70.602
  402.949    0.350    0.418   27.200   70.683
  403.254    0.363    0.418   29.603   69.461
  403.559    0.361    0.431   32.007   69.536
  403.864    0.354    0.447   33.791   70.933
  404.168    0.346    0.422   33.152   69.703
  404.473    0.344    0.420   34.943   69.791
  404.778    0.343    0.438   34.297   69.853
  405.083    0.328    0.427   29.984   71.306
  405.388    0.331    0.410   29.347   74.199
  405.692    0.337    0.415   30.524   72.867
  405.997    0.348    0.422   31.714   62.600
  406.302    0.344    0.430   29.835   60.308
  406.607    0.343    0.419   30.421   59.224
  406.912    0.358    0.432   35.258   65.265
  407.216    0.330    0.463   35.834   71.933
  407.521    0.338    0.470   33.968   76.291
  407.826    0.344    0.461   33.931   77.839
  408.131    0.350    0.439   34.502   77.946
  408.436    0.338    0.423   34.466   81.099
  408.741    0.338    0.434   31.990   84.395
  409.045    0.349    0.453   29.502   86.113
  409.350    0.345    0.451   28.258   84.566
  409.655    0.343    0.421   30.049   69.903
  409.960    0.353    0.442   34.277   50.505
