~VERSION INFORMATION
 VERS.                 2.0:   CWLS LOG ASCII STANDARD -VERSION 2.0
 WRAP.                  NO:   ONE LINE PER DEPTH STEP
~WELL INFORMATION BLOCK
#MNEM.UNIT           DATA                    DESCRIPTION OF MNEMONIC
#---------    -------------------            -------------------------------
# Generated from Intellog Unique Number	CS_73_76/WELL/662
WELL.         AMOCO KIRBY                    : Well_name    - WELL
LOC .         00/06-31-073-04W4/0            : Location     - LOCATION
UWI .         00/06-31-073-04W4/0            : Uwi          - UNIQUE WELL ID
ENTR.         SP                             : Entered      - ENTERED BY
SRVC.         SCHLUMBERGER                   : Scn          - SERVICE COMPANY
STRT.M        270                            : top_depth    - START DEPTH
STOP.M        485                            : bot_depth    - STOP DEPTH
STEP.M        0.25                           : increment    - STEP LENGTH
 NULL. -999.2500:NULL Value
~CURVE INFORMATION BLOCK
#MNEM UNIT       ERCB CURVE CODE    CURVE DESCRIPTION
#-----------   ------------------   ----------------------------------
DEPT.M        00 001 00 00         : DEPTH        - DEPTH
DPHI.V/V      00 890 00 00         : PHID         - DENSITY POROSITY (LIMESTONE)
NPHI.V/V      00 330 00 00         : PHIN         - NEUTRON POROSITY (LIMESTONE)
GR  .API      00 310 00 00         : GR           - GAMMA RAY
ILD .OHMM     00 120 00 00         : RESD         - DEEP RESISTIVITY (DIL)
~PARAMETER INFORMATION
#MNEM.UNIT           DATA             DESCRIPTION OF MNEMONIC
#---------         -----------     ------------------------------
GL  .M        664.1                : gl           - GROUND LEVEL ELEVATION
EREF.M        669.1                : kb           - ELEVATION OF DEPTH REFERENCE
DATM.M        664.1                : datum        - DATUM ELEVATION
TDD .M        490                  : tdd          - TOTAL DEPTH DRILLER
RUN .         ONE                  : Run          - RUN NUMBER
ENG .         BILL                 : Engineer     - RECORDING ENGINEER
WIT .         JIM                  : Witness      - WITNESSED BY
MUD .         GEL                  : Mud_type     - MUD TYPE
MATR.         LIMESTONE            : Logunit      - NEUTRON MATRIX
TMAX.C        23                   : BHT          - MAXIMUM RECORDED TEMPERATURE
BHTD.M        490                  : BHTDEP       - MAXIMUM RECORDED TEMPERATURE
MATR.         1                    : LOGUNIT      - NEUTRON MATRIX
RMT .C        25                   : MDTP         - TEMPERATURE OF MUD
NEUT.         1                    : NEUTRON      - NEUTRON TYPE
RESI.         0                    : RESIST       - RESISTIVITY TYPE
RMC .OHMM     0.25                 : RMC          - RESISTIVITY OF MUD CAKE
RMF .OHMM     0.25                 : RMF          - RESISTIVITY OF MUD FILTRATE
SUFT.C        15                   : SUFT         - SURFACE TEMPERATURE
~A  DEPTH     PHID     PHIN       GR     RESD
# ...
  444.000    0.225    0.396   79.332    1.982
  444.250    0.228    0.389   78.719    1.947
  444.500    0.230    0.397   78.706    1.912
  444.750    0.242    0.415   79.886    1.809
  445.000    0.231    0.390   81.072    1.777
  445.250    0.202    0.373   81.658    1.880
  445.500    0.212    0.372   81.042    1.988
  445.750    0.219    0.394   80.421    2.141
  446.000    0.237    0.405   79.811    2.350
  446.250    0.247    0.414   77.990    2.677
  446.500    0.225    0.424   76.776    2.831
  446.750    0.224    0.408   76.167    3.166
  447.000    0.226    0.404   74.950    3.605
  447.250    0.232    0.419   72.537    4.031
  447.500    0.253    0.445   65.323    4.676
  447.750    0.274    0.435   62.907    5.326
  448.000    0.291    0.419   61.089    6.295
  448.250    0.288    0.428   60.475    7.038
  448.500    0.300    0.434   61.660    7.725
  448.750    0.282    0.438   64.045    8.170
  449.000    0.273    0.417   68.226    8.023
  449.250    0.267    0.408   70.015    7.183
  449.500    0.261    0.405   70.600    6.197
  449.750    0.252    0.406   68.176    5.758
  450.000    0.249    0.409   66.366    5.759
  450.250    0.270    0.421   63.954    5.980
  450.500    0.281    0.425   65.137    6.209
  450.750    0.257    0.408   68.715    6.210
  451.000    0.268    0.393   69.906    6.100
  451.250    0.263    0.383   71.091    5.562
  451.500    0.238    0.384   75.276    4.710
  451.750    0.239    0.401   74.662    4.140
  452.000    0.267    0.426   66.245    4.893
  452.250    0.293    0.451   60.830    6.832
  452.500    0.309    0.422   57.218    9.364
  452.750    0.280    0.433   53.003   10.864
  453.000    0.265    0.392   51.189   12.373
  453.250    0.243    0.398   48.772   13.582
  453.500    0.236    0.419   47.558   14.365
  453.750    0.275    0.433   46.343   14.372
  454.000    0.320    0.450   51.727   14.378
  454.250    0.318    0.427   64.910   13.859
  454.500    0.309    0.415   81.092   11.103
  454.750    0.295    0.403   84.677    9.229
  455.000    0.278    0.394   80.461    7.124
  455.250    0.263    0.395   73.844    5.603
  455.500    0.260    0.393   70.231    5.015
  455.750    0.257    0.401   67.217    4.408
  456.000    0.250    0.405   69.600    4.171
  456.250    0.234    0.378   72.587    3.805
  456.500    0.226    0.383   74.370    3.535
  456.750    0.248    0.388   71.954    3.471
  457.000    0.262    0.386   68.936    3.225
  457.250    0.253    0.391   68.326    3.167
  457.500    0.243    0.412   68.307    3.110
  457.750    0.233    0.416   66.494    3.351
  458.000    0.231    0.411   59.879    3.817
  458.250    0.247    0.412   53.866    4.036
  458.500    0.267    0.418   52.048    4.430
  458.750    0.282    0.385   56.234    4.685
  459.000    0.278    0.367   61.019    4.774
  459.250    0.265    0.355   65.802    4.777
  459.500    0.222    0.361   63.388    4.357
  459.750    0.222    0.366   58.574    3.900
  460.000    0.244    0.372   53.759    3.691
  460.250    0.269    0.397   53.743    3.976
  460.500    0.283    0.397   58.529    4.364
  460.750    0.211    0.371   63.912    4.702
  461.000    0.178    0.355   66.295    4.792
  461.250    0.167    0.376   69.279    4.536
  461.500    0.213    0.377   72.864    4.372
  461.750    0.243    0.364   71.646    3.772
  462.000    0.216    0.379   66.235    3.636
  462.250    0.255    0.390   59.021    4.219
  462.500    0.288    0.407   54.807    5.891
  462.750    0.317    0.419   61.988    8.379
  463.000    0.322    0.408   87.770   10.665
  463.250    0.318    0.408  109.948   11.705
  463.500    0.315    0.384  109.337   11.710
  463.750    0.274    0.373  102.723   10.679
  464.000    0.231    0.369   96.709    8.092
  464.250    0.217    0.370   96.092    6.248
  464.500    0.221    0.374   91.879    5.291
  464.750    0.234    0.376   94.861    4.649
  465.000    0.226    0.364   96.046    4.086
  465.250    0.205    0.359   95.430    3.939
  465.500    0.217    0.364   96.614    3.728
  465.750    0.242    0.370   97.201    3.594
  466.000    0.250    0.373   92.385    3.530
  466.250    0.206    0.364   85.171    3.531
  466.500    0.222    0.392   82.755    3.533
  466.750    0.240    0.401   87.539    3.667
  467.000    0.219    0.403   85.724    3.807
  467.250    0.205    0.417   82.111    4.179
  467.500    0.248    0.422   88.693    4.420
  467.750    0.295    0.376   96.475    4.422
  468.000    0.239    0.370   93.459    4.032
  468.250    0.215    0.386   87.446    3.610
  468.500    0.185    0.398   81.435    3.231
  468.750    0.202    0.410   82.020    3.174
  469.000    0.227    0.404   79.604    3.483
  469.250    0.239    0.407   73.590    4.272
  469.500    0.222    0.422   81.968    4.957
  469.750    0.238    0.434   89.752    5.340
  470.000    0.237    0.389   93.342    5.149
  470.250    0.197    0.398   82.528    4.360
  470.500    0.222    0.415   65.715    3.832
  470.750    0.278    0.431   53.700    4.877
  471.000    0.286    0.410   60.286    6.323
  471.250    0.304    0.379   90.265    7.474
  471.500    0.310    0.368   84.846    8.356
  471.750    0.252    0.397   75.236    8.516
  472.000    0.225    0.427   57.824    7.624
  472.250    0.271    0.447   47.610    5.364
  472.500    0.299    0.395   45.192    6.955
  472.750    0.295    0.403   42.781    9.019
  473.000    0.277    0.424   33.166   10.463
  473.250    0.304    0.430   28.948   12.598
  473.500    0.328    0.424   26.528   16.336
  473.750    0.332    0.440   25.320   20.410
  474.000    0.322    0.416   25.907   24.123
  474.250    0.313    0.411   27.692   25.514
  474.500    0.325    0.407   32.471   23.703
  474.750    0.340    0.419   34.258   20.829
  475.000    0.353    0.440   33.043   17.000
  475.250    0.361    0.465   30.026   15.501
  475.500    0.343    0.430   24.611   17.655
  475.750    0.323    0.405   21.001   22.061
  476.000    0.315    0.400   23.380   25.595
  476.250    0.320    0.398   27.563   28.616
  476.500    0.328    0.412   30.550   30.266
  476.750    0.336    0.410   35.335   24.242
  477.000    0.328    0.399   40.116   14.985
  477.250    0.316    0.398   41.905   11.567
  477.500    0.295    0.408   43.089    8.765
  477.750    0.287    0.432   31.077    9.445
  478.000    0.318    0.452   25.063   10.365
  478.250    0.348    0.449   23.847   11.168
  478.500    0.360    0.436   25.629   11.172
  478.750    0.361    0.440   28.015    4.857
  479.000    0.353    0.428   27.998    2.947
  479.250    0.357    0.418   27.984    2.275
  479.500    0.346    0.400   29.170    1.789
  479.750    0.344    0.383   30.355    1.433
  480.000    0.346    0.370   33.938    1.236
  480.250    0.291    0.359   42.320    1.170
  480.500    0.259    0.271   47.107    1.128
  480.750    0.238    0.251   39.289    1.171
  481.000    0.000    0.216   21.878    1.262
  481.250    0.002    0.192   19.462    3.246
  481.500    0.016    0.189   18.246    4.791
  481.750    0.008    0.177   17.033    7.205
  482.000    0.000    0.165   17.017    9.342
  482.250    0.006    0.158   16.995   10.839
  482.500    0.024    0.157   16.986   12.812
  482.750    0.042    0.157   16.973   13.802
  483.000    0.038    0.151   16.356   14.871
  483.250    0.026    0.148   15.140   15.438
  483.500    0.012    0.148   13.323   15.733
  483.750    0.024    0.143   12.705   16.035
  484.000    0.000    0.133   12.095   16.964
  484.250    0.000    0.129   12.081   18.617
  484.500    0.005    0.121   11.463   18.622
  484.750    0.017    0.119   10.852   19.337
  485.000    0.016    0.131   10.236   19.342
