~VERSION INFORMATION
 VERS.                 2.0:   CWLS LOG ASCII STANDARD -VERSION 2.0
 WRAP.                  NO:   ONE LINE PER DEPTH STEP
~WELL INFORMATION BLOCK
#MNEM.UNIT           DATA                    DESCRIPTION OF MNEMONIC
#---------    -------------------            -------------------------------
# Generated from Intellog Unique Number	CC_80_83/WELL/1045
LOC .         00/02-29-080-13W4/0            : Location     - LOCATION
UWI .         00/02-29-080-13W4/0            : Uwi          - UNIQUE WELL ID
ENTR.         DW                             : Entered      - ENTERED BY
SRVC.         SCHLUMBERGER                   : Scn          - SERVICE COMPANY
STRT.M        275                            : top_depth    - START DEPTH
STOP.M        504.75                         : bot_depth    - STOP DEPTH
STEP.M        0.25                           : increment    - STEP LENGTH
 NULL. -999.2500:NULL Value
~CURVE INFORMATION BLOCK
#MNEM UNIT       ERCB CURVE CODE    CURVE DESCRIPTION
#-----------   ------------------   ----------------------------------
DEPT.M        00 001 00 00         : DEPTH        - DEPTH
GR  .API      00 310 00 00         : GR           - GAMMA RAY
DPHI.V/V      00 890 00 00         : PHID         - DENSITY POROSITY (SANDSTONE)
NPHI.V/V      00 330 00 00         : PHIN         - NEUTRON POROSITY (SANDSTONE)
ILD .OHMM     00 120 00 00         : RESD         - DEEP RESISTIVITY (DIL)
~PARAMETER INFORMATION
#MNEM.UNIT           DATA             DESCRIPTION OF MNEMONIC
#---------         -----------     ------------------------------
GL  .M        698.4                : gl           - GROUND LEVEL ELEVATION
EREF.M        701.6                : kb           - ELEVATION OF DEPTH REFERENCE
DATM.M        701.6                : datum        - DATUM ELEVATION
TDD .M        509.5                : tdd          - TOTAL DEPTH DRILLER
RUN .         ONE                  : Run          - RUN NUMBER
ENG .         BILL                 : Engineer     - RECORDING ENGINEER
WIT .         JIM                  : Witness      - WITNESSED BY
MUD .         GEL                  : Mud_type     - MUD TYPE
MATR.         SANDSTONE            : Logunit      - NEUTRON MATRIX
TMAX.C        21.2                 : BHT          - MAXIMUM RECORDED TEMPERATURE
BHTD.M        509                  : BHTDEP       - MAXIMUM RECORDED TEMPERATURE
MATR.         1                    : LOGUNIT      - NEUTRON MATRIX
RMT .C        25                   : MDTP         - TEMPERATURE OF MUD
NEUT.         1                    : NEUTRON      - NEUTRON TYPE
RESI.         0                    : RESIST       - RESISTIVITY TYPE
RMC .OHMM     0.25                 : RMC          - RESISTIVITY OF MUD CAKE
RMF .OHMM     0.25                 : RMF          - RESISTIVITY OF MUD FILTRATE
SUFT.C        15                   : SUFT         - SURFACE TEMPERATURE
~A  DEPTH       GR     PHID     PHIN     RESD
  275.000  106.133    0.282    0.514    3.233
  275.250  106.064    0.266    0.523    3.224
  275.500  106.274    0.256    0.526    3.299
  275.750  105.398    0.255    0.536    3.477
  276.000  103.427    0.252    0.510    3.731
  276.250  103.407    0.239    0.456    3.945
  276.500  104.238    0.227    0.457    4.066
  276.750   98.271    0.220    0.481    4.210
  277.000  103.887    0.219    0.510    4.191
  277.250  111.613    0.221    0.516    4.062
  277.500  112.792    0.229    0.510    3.939
  277.750  109.207    0.240    0.508    3.798
  278.000  102.957    0.240    0.504    3.617
  278.250  101.962    0.238    0.516    3.549
  278.500  104.492    0.234    0.533    3.550
  278.750  105.650    0.233    0.553    3.527
  279.000  100.551    0.233    0.544    3.604
  279.250   94.421    0.229    0.509    3.780
  279.500   97.358    0.224    0.500    3.900
  279.750   98.748    0.206    0.502    4.211
  280.000   79.241    0.138    0.518    4.668
  280.250   56.930    0.187    0.443    5.928
  280.500   44.454    0.341    0.304   16.512
  280.750   39.701    0.440    0.205   35.051
  281.000   41.159    0.461    0.158   46.570
  281.250   41.234    0.463    0.164   49.895
  281.500   41.303    0.466    0.167   42.971
  281.750   42.893    0.480    0.187   31.367
  282.000   44.981    0.419    0.248   21.878
  282.250   46.224    0.319    0.322   16.698
  282.500   46.664    0.329    0.371   14.382
  282.750   47.109    0.324    0.401   13.163
  283.000   48.167    0.324    0.411   13.130
  283.250   48.582    0.338    0.404   13.560
  283.500   48.489    0.348    0.395   14.036
  283.750   47.409    0.344    0.391   14.391
  284.000   42.918    0.324    0.381   13.818
  284.250   45.000    0.279    0.375   11.972
  284.500   88.104    0.243    0.400   10.598
  284.750  106.614    0.232    0.433    9.370
  285.000   94.525    0.240    0.447    8.458
  285.250   90.199    0.252    0.432    8.392
  285.500   87.300    0.258    0.405    8.695
  285.750   92.588    0.253    0.393    9.166
  286.000  104.755    0.231    0.388    9.059
  286.250  111.787    0.223    0.422    8.489
  286.500  111.386    0.235    0.475    7.700
  286.750  107.897    0.229    0.480    6.667
  287.000  101.449    0.202    0.434    5.577
  287.250   96.216    0.211    0.425    4.888
  287.500  103.120    0.235    0.444    4.354
  287.750  110.390    0.247    0.465    3.979
  288.000  112.657    0.254    0.476    3.829
  288.250  109.827    0.263    0.481    3.778
  288.500  103.255    0.265    0.489    3.790
  288.750  110.311    0.254    0.503    4.100
  289.000  114.013    0.247    0.515    4.467
  289.250  109.639    0.253    0.510    5.273
  289.500   92.013    0.268    0.490    8.139
  289.750   67.718    0.297    0.454   12.279
  290.000   51.297    0.335    0.396   14.838
  290.250   30.519    0.349    0.368   16.691
  290.500   26.648    0.346    0.368   17.705
  290.750   30.549    0.332    0.392   18.307
  291.000   33.817    0.322    0.396   17.959
  291.250   38.797    0.327    0.392   16.195
  291.500   43.323    0.333    0.415   13.435
  291.750   51.187    0.305    0.371    9.714
  292.000   79.134    0.247    0.388    7.951
  292.250   98.987    0.212    0.429    7.295
  292.500  101.621    0.208    0.447    6.894
  292.750  101.068    0.212    0.452    6.827
  293.000  100.030    0.218    0.445    6.718
  293.250   99.486    0.218    0.440    6.915
  293.500   98.999    0.221    0.434    7.256
  293.750   98.205    0.155    0.458    7.572
  294.000   93.804    0.123    0.457    7.710
  294.250   88.273    0.188    0.414    8.408
  294.500   90.134    0.226    0.415   10.050
  294.750   96.565    0.258    0.439   10.581
  295.000   98.960    0.262    0.436   11.059
  295.250  100.262    0.269    0.421   11.508
  295.500   93.187    0.284    0.412   12.473
  295.750   78.413    0.296    0.403   13.859
  296.000   70.911    0.313    0.402   14.457
  296.250   66.450    0.323    0.420   15.149
  296.500   76.569    0.328    0.413   15.966
  296.750   79.149    0.321    0.404   16.417
  297.000   72.355    0.317    0.403   16.605
  297.250   71.039    0.330    0.411   16.914
  297.500   73.993    0.339    0.437   17.159
  297.750   78.795    0.329    0.428   16.899
  298.000   80.848    0.318    0.421   16.599
  298.250   80.244    0.325    0.426   16.342
  298.500   82.240    0.339    0.420   16.082
  298.750   85.071    0.342    0.401   15.804
  299.000   82.558    0.338    0.398   15.561
  299.250   82.611    0.329    0.411   15.573
  299.500   87.228    0.316    0.408   15.353
  299.750   94.331    0.300    0.407   15.218
  300.000   97.880    0.301    0.419   15.270
  300.250   95.314    0.320    0.429   15.223
  300.500   90.526    0.330    0.428   15.244
  300.750   84.956    0.331    0.417   15.758
  301.000   80.260    0.331    0.422   15.867
  301.250   90.579    0.325    0.417   15.836
  301.500  104.175    0.311    0.403   15.751
  301.750  104.792    0.294    0.409   15.460
  302.000   97.861    0.285    0.433   15.217
  302.250   82.877    0.288    0.451   14.802
  302.500   67.344    0.290    0.413   13.633
  302.750   74.579    0.291    0.382   12.137
  303.000   93.049    0.271    0.380   10.446
  303.250  101.566    0.229    0.378    8.739
  303.500  105.270    0.197    0.385    7.746
  303.750  105.936    0.183    0.420    7.385
  304.000  105.985    0.185    0.445    6.912
  304.250  110.589    0.175    0.460    6.742
  304.500  113.112    0.172    0.460    6.710
  304.750  111.495    0.189    0.443    6.469
  305.000  115.734    0.195    0.441    6.261
  305.250  120.922    0.202    0.470    5.786
  305.500  120.073    0.203    0.469    5.359
  305.750  122.402    0.190    0.459    5.200
  306.000  121.771    0.177    0.468    5.113
  306.250  113.761    0.185    0.482    5.244
  306.500  112.590    0.199    0.481    5.904
  306.750  115.925    0.180    0.480    6.343
  307.000  110.184    0.153    0.475    6.277
  307.250  110.110    0.173    0.469    5.814
  307.500  118.134    0.215    0.461    5.222
  307.750  119.998    0.223    0.454    4.654
  308.000  116.238    0.218    0.452    4.086
  308.250  122.566    0.228    0.455    3.580
  308.500  129.579    0.248    0.500    3.378
  308.750  134.362    0.255    0.552    4.032
  309.000  134.307    0.250    0.554    5.781
  309.250  125.387    0.262    0.513    8.218
  309.500  111.824    0.293    0.482   10.689
  309.750  104.087    0.307    0.453   12.696
  310.000  101.023    0.294    0.419   13.289
  310.250  101.357    0.263    0.407   12.872
  310.500  104.961    0.241    0.431   12.131
  310.750  104.475    0.243    0.447   11.374
  311.000   93.263    0.262    0.415   10.868
  311.250   86.379    0.294    0.411   10.722
  311.500   98.346    0.302    0.422   10.042
  311.750  114.826    0.275    0.437    8.418
  312.000  123.793    0.237    0.445    7.277
  312.250  126.997    0.219    0.455    7.482
  312.500  125.932    0.226    0.476    8.140
  312.750  118.713    0.234    0.466    9.123
  313.000  113.812    0.250    0.435    9.933
  313.250  114.847    0.263    0.413   10.778
  313.500  114.182    0.270    0.419   11.512
  313.750  105.853    0.282    0.438   11.694
  314.000   94.995    0.294    0.443   11.478
  314.250   87.615    0.296    0.442   11.453
  314.500   83.630    0.276    0.434   11.622
  314.750   98.096    0.262    0.419   11.787
  315.000  113.404    0.267    0.401   12.064
  315.250  110.370    0.285    0.386   12.450
  315.500  102.359    0.306    0.383   12.871
  315.750   93.541    0.318    0.387   13.741
  316.000   85.632    0.299    0.391   14.194
  316.250   77.713    0.294    0.403   13.898
  316.500   66.201    0.311    0.415   13.504
  316.750   55.216    0.320    0.416   13.286
  317.000   54.280    0.317    0.418   12.842
  317.250   59.424    0.309    0.435   12.579
  317.500   63.203    0.308    0.437   12.911
  317.750   65.342    0.310    0.425   13.238
  318.000   65.746    0.316    0.424   13.428
  318.250   62.426    0.326    0.440   13.607
