~VERSION INFORMATION
 VERS.                 2.0:   CWLS LOG ASCII STANDARD -VERSION 2.0
 WRAP.                  NO:   ONE LINE PER DEPTH STEP
~WELL INFORMATION BLOCK
#MNEM.UNIT           DATA                    DESCRIPTION OF MNEMONIC
#---------    -------------------            -------------------------------
# Generated from Intellog Unique Number	CS_73_76/WELL/2014
WELL.         EAGLE RESOURCES LTD.           : Well_name    - WELL
LOC .         00/08-22-076-18W4/0            : Location     - LOCATION
UWI .         00/08-22-076-18W4/0            : Uwi          - UNIQUE WELL ID
ENTR.         JO                             : Entered      - ENTERED BY
SRVC.         SCHLUMBERGER                   : Scn          - SERVICE COMPANY
DATE.         05/22/92                       : Date         - LOG DATE
STRT.M        200                            : top_depth    - START DEPTH
STOP.M        450                            : bot_depth    - STOP DEPTH
STEP.M        0.25                           : increment    - STEP LENGTH
 NULL. -999.2500:NULL Value
~CURVE INFORMATION BLOCK
#MNEM UNIT       ERCB CURVE CODE    CURVE DESCRIPTION
#-----------   ------------------   ----------------------------------
DEPT.M        00 001 00 00         : DEPTH        - DEPTH
GR  .API      00 310 00 00         : GR           - GAMMA RAY
NPHI.V/V      00 330 00 00         : PHIN         - NEUTRON POROSITY (SANDSTONE)
DPHI.V/V      00 890 00 00         : PHID         - DENSITY POROSITY (SANDSTONE)
ILD .OHMM     00 120 00 00         : RESD         - DEEP RESISTIVITY (DIL)
~PARAMETER INFORMATION
#MNEM.UNIT           DATA             DESCRIPTION OF MNEMONIC
#---------         -----------     ------------------------------
GL  .M        606.6                : gl           - GROUND LEVEL ELEVATION
EREF.M        610.2                : kb           - ELEVATION OF DEPTH REFERENCE
DATM.M        610.2                : datum        - DATUM ELEVATION
TDD .M        446                  : tdd          - TOTAL DEPTH DRILLER
RUN .         ONE                  : Run          - RUN NUMBER
ENG .         BILL                 : Engineer     - RECORDING ENGINEER
WIT .         JIM                  : Witness      - WITNESSED BY
MUD .         GEL                  : Mud_type     - MUD TYPE
MATR.         SANDSTONE            : Logunit      - NEUTRON MATRIX
TMAX.C        29                   : BHT          - MAXIMUM RECORDED TEMPERATURE
BHTD.M        446                  : BHTDEP       - MAXIMUM RECORDED TEMPERATURE
RMT .C        16.7                 : MDTP         - TEMPERATURE OF MUD
MUDD.KG/M     1100                 : MWT          - MUD DENSITY
NEUT.         1                    : NEUTRON      - NEUTRON TYPE
RESI.         0                    : RESIST       - RESISTIVITY TYPE
RM  .OHMM     3.6                  : RM           - RESISTIVITY OF MUD
RMC .OHMM     3.2                  : RMC          - RESISTIVITY OF MUD CAKE
RMF .OHMM     3.6                  : RMF          - RESISTIVITY OF MUD FILTRATE
SUFT.C        15                   : SUFT         - SURFACE TEMPERATURE
~A  DEPTH       GR     PHIN     PHID     RESD
# ...
  243.500  104.501    0.506    0.233    2.954
  243.750  106.909    0.482    0.224    3.018
  244.000  106.989    0.486    0.225    3.080
  244.250  101.246    0.483    0.230    3.145
  244.500  102.510    0.455    0.222    3.211
  244.750  104.898    0.452    0.201    3.281
  245.000  109.635    0.476    0.202    3.350
  245.250  112.064    0.492    0.214    3.421
  245.500  107.465    0.493    0.221    3.491
  245.750  101.140    0.493    0.219    3.565
  246.000  101.802    0.508    0.214    3.644
  246.250  106.559    0.518    0.202    3.650
  246.500  107.220    0.510    0.217    3.729
  246.750  109.629    0.506    0.230    3.735
  247.000  109.728    0.510    0.234    3.609
  247.250  106.876    0.514    0.226    3.548
  247.500  102.880    0.522    0.218    3.488
  247.750  102.960    0.519    0.205    3.563
  248.000  103.621    0.508    0.207    3.569
  248.250  104.885    0.489    0.216    3.790
  248.500  103.198    0.472    0.216    3.794
  248.750  102.695    0.454    0.213    3.738
  249.000  106.288    0.463    0.212    3.674
  249.250  104.038    0.474    0.218    3.610
  249.500  101.206    0.461    0.228    3.485
  249.750  100.121    0.435    0.215    3.428
  250.000  100.201    0.441    0.220    3.435
  250.250   99.116    0.452    0.233    3.509
  250.500   93.353    0.447    0.220    3.791
  250.750   78.294    0.414    0.208    4.331
  251.000   67.291    0.333    0.235    5.138
  251.250   53.377    0.283    0.379    7.779
  251.500   49.983    0.269    0.425    9.402
  251.750   49.480    0.225    0.461   15.633
  252.000   51.306    0.193    0.433   24.573
  252.250   55.461    0.172    0.402   30.261
  252.500   56.143    0.208    0.369   31.484
  252.750   53.893    0.241    0.356   29.844
  253.000   52.788    0.255    0.378   26.233
  253.250   56.963    0.248    0.394   23.482
  253.500   61.118    0.239    0.362   20.652
  253.750   65.293    0.244    0.334   19.193
  254.000   63.044    0.259    0.314   17.855
  254.250   61.376    0.287    0.309   17.894
  254.500   59.709    0.298    0.320   20.066
  254.750   57.440    0.278    0.331   24.252
  255.000   51.114    0.235    0.378   38.843
  255.250   47.098    0.196    0.431   47.834
  255.500   44.849    0.176    0.430   54.684
  255.750   44.346    0.166    0.431   49.902
  256.000   43.261    0.178    0.431   40.676
  256.250   53.840    0.221    0.404   27.011
  256.500   63.838    0.246    0.347   19.311
  256.750   69.740    0.279    0.326   16.965
  257.000   62.832    0.305    0.337   16.073
  257.250   54.760    0.315    0.362   15.809
  257.500   51.908    0.307    0.365   17.728
  257.750   51.988    0.313    0.356   19.532
  258.000   53.854    0.332    0.320   19.933
  258.250   56.242    0.344    0.296   19.977
  258.500   60.397    0.361    0.263   18.936
  258.750   64.572    0.376    0.257   16.960
  259.000   64.089    0.390    0.243   15.181
  259.250   64.751    0.415    0.248   12.861
  259.500   58.968    0.428    0.290   11.958
  259.750   50.314    0.435    0.346   11.984
  260.000   47.522    0.444    0.365   13.189
  260.250   48.144    0.410    0.360   13.974
  260.500   48.223    0.389    0.351   15.094
  260.750   47.178    0.383    0.346   16.010
  261.000   47.218    0.395    0.343   16.675
  261.250   47.879    0.394    0.340   16.693
  261.500   52.054    0.386    0.332   16.123
  261.750   59.703    0.388    0.286   15.555
  262.000   77.269    0.398    0.252   12.451
  262.250   91.342    0.413    0.261   10.341
  262.500   93.188    0.427    0.258    8.755
  262.750   90.337    0.432    0.264    7.841
  263.000   89.834    0.427    0.272    8.479
  263.250   94.028    0.419    0.270    9.154
  263.500   96.999    0.406    0.259   10.464
  263.750  101.737    0.393    0.248   11.511
  264.000  103.602    0.381    0.242   13.159
  264.250   98.402    0.385    0.247   13.706
  264.500   90.330    0.389    0.254   13.466
  264.750   82.258    0.385    0.259   12.999
  265.000   75.331    0.389    0.259   13.034
  265.250   64.348    0.390    0.256   13.302
  265.500   50.434    0.386    0.260   14.384
  265.750   43.526    0.377    0.271   14.957
  266.000   37.763    0.371    0.286   16.479
  266.250   32.602    0.370    0.304   16.818
  266.500   34.429    0.374    0.310   17.488
  266.750   36.294    0.368    0.312   17.887
  267.000   36.936    0.335    0.315   17.906
  267.250   41.673    0.334    0.323   17.602
  267.500   56.329    0.347    0.326   16.376
  267.750   65.162    0.361    0.322   14.674
  268.000   72.830    0.358    0.265   14.150
  268.250   77.587    0.357    0.258   13.933
  268.500   74.736    0.361    0.264   13.948
  268.750   71.302    0.359    0.275   14.242
  269.000   71.983    0.357    0.279   14.559
  269.250   76.138    0.363    0.277   14.866
  269.500   77.382    0.364    0.275   14.890
  269.750   79.208    0.346    0.275   14.646
  270.000   92.739    0.348    0.271   13.883
  270.250   95.689    0.401    0.260   12.427
  270.500  103.940    0.443    0.241   10.135
  270.750  115.684    0.460    0.219    6.979
  271.000  118.093    0.493    0.210    6.251
  271.250  114.679    0.513    0.173    5.098
  271.500  111.847    0.514    0.155    4.319
  271.750  111.344    0.510    0.147    3.941
  272.000  113.772    0.507    0.195    3.802
  272.250  114.996    0.509    0.213    3.608
  272.500  118.569    0.518    0.215    3.545
  272.750  118.668    0.535    0.216    3.487
  273.000  119.912    0.564    0.219    3.431
  273.250  122.321    0.536    0.210    3.373
  273.500  126.476    0.509    0.206    3.444
  273.750  128.302    0.484    0.214    4.008
  274.000  128.401    0.510    0.229    4.847
  274.250  126.754    0.515    0.241    5.642
  274.500  126.251    0.490    0.246    6.327
  274.750  123.981    0.447    0.253    7.233
  275.000  120.547    0.415    0.246    7.813
  275.250  114.222    0.413    0.238    8.133
  275.500  115.466    0.399    0.235    8.151
  275.750  114.381    0.450    0.239    8.017
  276.000  117.974    0.468    0.245    7.889
  276.250  115.142    0.475    0.245    7.898
  276.500  112.290    0.444    0.230    7.772
  276.750  111.827    0.424    0.231    7.789
  277.000  103.133    0.410    0.242    7.810
  277.250   90.403    0.415    0.255    7.823
  277.500   83.476    0.432    0.274    8.777
  277.750   80.082    0.437    0.285    9.475
  278.000   77.813    0.428    0.297   11.258
  278.250   74.399    0.418    0.290   11.483
  278.500   76.807    0.407    0.285   11.738
  278.750   80.962    0.418    0.288   11.757
  279.000   87.466    0.443    0.290   11.558
  279.250   92.203    0.452    0.291   10.753
  279.500   95.194    0.455    0.290    9.998
  279.750   99.389    0.448    0.277    8.959
  280.000  101.777    0.441    0.263    8.807
  280.250  104.205    0.444    0.266    8.658
  280.500   99.607    0.442    0.279    8.677
  280.750  100.269    0.443    0.279    9.032
  281.000  106.190    0.453    0.261    9.392
  281.250  111.510    0.450    0.246    9.596
  281.500  122.672    0.422    0.246    9.617
  281.750  127.991    0.417    0.246    9.459
  282.000  123.413    0.430    0.242    9.131
  282.250  114.176    0.452    0.249    8.341
  282.500  108.413    0.457    0.259    7.898
  282.750   86.348    0.443    0.273    7.620
  283.000   80.023    0.438    0.286    7.089
  283.250   77.773    0.442    0.286    7.511
  283.500   76.688    0.428    0.286    8.423
  283.750   77.370    0.420    0.292    9.997
  284.000   79.196    0.425    0.299   10.401
  284.250   82.769    0.431    0.302   10.423
  284.500   86.341    0.426    0.307    8.992
  284.750   89.914    0.415    0.279    7.613
  285.000   92.343    0.406    0.266    5.978
  285.250   89.491    0.416    0.271    4.973
  285.500   79.672    0.440    0.283    5.467
  285.750   74.511    0.446    0.289    6.492
  286.000   72.242    0.425    0.288    7.141
  286.250   69.993    0.431    0.275    7.429
  286.500   77.079    0.416    0.271    7.042
  286.750   83.563    0.426    0.276    6.794
