~VERSION INFORMATION
 VERS.                 2.0:   CWLS LOG ASCII STANDARD -VERSION 2.0
 WRAP.                  NO:   ONE LINE PER DEPTH STEP
~WELL INFORMATION BLOCK
#MNEM.UNIT           DATA                    DESCRIPTION OF MNEMONIC
#---------    -------------------            -------------------------------
# Generated from Intellog Unique Number	CS_77_79/WELL/838
WELL.         CANADIAN WORLDWIDE ENERGY      : Well_name    - WELL
LOC .         00/02-14-077-04W4/0            : Location     - LOCATION
UWI .         00/02-14-077-04W4/0            : Uwi          - UNIQUE WELL ID
ENTR.         SP                             : Entered      - ENTERED BY
SRVC.         SCHLUMBERGER                   : Scn          - SERVICE COMPANY
STRT.M        195                            : top_depth    - START DEPTH
STOP.M        470                            : bot_depth    - STOP DEPTH
STEP.M        0.25                           : increment    - STEP LENGTH
 NULL. -999.2500:NULL Value
~CURVE INFORMATION BLOCK
#MNEM UNIT       ERCB CURVE CODE    CURVE DESCRIPTION
#-----------   ------------------   ----------------------------------
DEPT.M        00 001 00 00         : DEPTH        - DEPTH
ILD .OHMM     00 120 00 00         : RESD         - DEEP RESISTIVITY (DIL)
DPHI.V/V      00 890 00 00         : PHID         - DENSITY POROSITY (LIMESTONE)
NPHI.V/V      00 330 00 00         : PHIN         - NEUTRON POROSITY (LIMESTONE)
GR  .API      00 310 00 00         : GR           - GAMMA RAY
~PARAMETER INFORMATION
#MNEM.UNIT           DATA             DESCRIPTION OF MNEMONIC
#---------         -----------     ------------------------------
GL  .M        572.1                : gl           - GROUND LEVEL ELEVATION
EREF.M        575.75               : kb           - ELEVATION OF DEPTH REFERENCE
DATM.M        572.1                : datum        - DATUM ELEVATION
TDD .M        471.9                : tdd          - TOTAL DEPTH DRILLER
RUN .         ONE                  : Run          - RUN NUMBER
ENG .         BILL                 : Engineer     - RECORDING ENGINEER
WIT .         JIM                  : Witness      - WITNESSED BY
MUD .         GEL                  : Mud_type     - MUD TYPE
MATR.         LIMESTONE            : Logunit      - NEUTRON MATRIX
TMAX.C        25                   : BHT          - MAXIMUM RECORDED TEMPERATURE
BHTD.M        471.9                : BHTDEP       - MAXIMUM RECORDED TEMPERATURE
MATR.         1                    : LOGUNIT      - NEUTRON MATRIX
RMT .C        25                   : MDTP         - TEMPERATURE OF MUD
NEUT.         1                    : NEUTRON      - NEUTRON TYPE
RESI.         0                    : RESIST       - RESISTIVITY TYPE
RMC .OHMM     0.25                 : RMC          - RESISTIVITY OF MUD CAKE
RMF .OHMM     0.25                 : RMF          - RESISTIVITY OF MUD FILTRATE
SUFT.C        15                   : SUFT         - SURFACE TEMPERATURE
~A  DEPTH     RESD     PHID     PHIN       GR
# ...
  412.500    3.633    0.242    0.385   67.703
  412.750    3.434    0.292    0.377   43.452
  413.000    3.186    0.345    0.359   31.031
  413.250    3.012    0.351    0.347   31.049
  413.500    2.903    0.337    0.337   37.296
  413.750    2.852    0.333    0.341   34.831
  414.000    2.854    0.337    0.342   31.738
  414.250    2.855    0.337    0.338   26.782
  414.500    2.805    0.337    0.337   24.944
  414.750    2.807    0.336    0.346   24.337
  415.000    2.756    0.334    0.349   25.604
  415.250    2.811    0.332    0.355   26.873
  415.500    2.923    0.319    0.349   29.386
  415.750    2.981    0.312    0.343   32.519
  416.000    3.098    0.306    0.338   36.273
  416.250    3.159    0.306    0.332   36.299
  416.500    3.284    0.312    0.324   30.098
  416.750    3.413    0.312    0.319   33.232
  417.000    3.549    0.299    0.311   39.474
  417.250    3.688    0.281    0.308   40.743
  417.500    3.691    0.259    0.302   40.140
  417.750    3.693    0.234    0.297   46.387
  418.000    3.628    0.235    0.301   50.766
  418.250    3.430    0.257    0.324   41.452
  418.500    3.183    0.303    0.334   36.495
  418.750    3.068    0.319    0.339   34.651
  419.000    3.012    0.320    0.334   41.518
  419.250    2.959    0.310    0.334   56.478
  419.500    2.960    0.300    0.332   58.372
  419.750    2.908    0.288    0.335   53.417
  420.000    2.911    0.304    0.340   47.837
  420.250    2.913    0.315    0.337   43.499
  420.500    2.861    0.315    0.336   41.651
  420.750    2.863    0.316    0.337   43.548
  421.000    2.812    0.321    0.358   45.435
  421.250    2.814    0.317    0.360   49.814
  421.500    2.763    0.314    0.359   52.326
  421.750    2.714    0.323    0.358   52.970
  422.000    2.665    0.328    0.358   54.866
  422.250    2.667    0.332    0.360   56.124
  422.500    2.619    0.333    0.368   58.015
  422.750    2.620    0.333    0.358   56.788
  423.000    2.574    0.333    0.361   51.831
  423.250    2.528    0.333    0.366   48.120
  423.500    2.529    0.335    0.369   45.656
  423.750    2.531    0.338    0.360   46.300
  424.000    2.583    0.335    0.354   49.430
  424.250    2.584    0.327    0.346   50.076
  424.500    2.586    0.319    0.338   46.992
  424.750    2.539    0.313    0.336   48.254
  425.000    2.495    0.310    0.336   48.280
  425.250    2.496    0.319    0.341   47.674
  425.500    2.499    0.330    0.351   42.096
  425.750    2.500    0.329    0.367   35.274
  426.000    2.504    0.330    0.367   37.783
  426.250    2.505    0.337    0.360   44.660
  426.500    2.507    0.341    0.368   50.281
  426.750    2.509    0.331    0.368   55.898
  427.000    2.511    0.326    0.358   54.056
  427.250    2.561    0.332    0.346   47.855
  427.500    2.515    0.332    0.345   44.141
  427.750    2.517    0.331    0.352   44.791
  428.000    2.519    0.330    0.353   44.185
  428.250    2.520    0.333    0.351   39.228
  428.500    2.523    0.339    0.347   36.761
  428.750    2.525    0.342    0.351   35.543
  429.000    2.575    0.342    0.353   33.701
  429.250    2.727    0.333    0.348   32.474
  429.500    3.362    0.328    0.349   31.247
  429.750    3.842    0.338    0.348   36.874
  430.000    4.225    0.338    0.340   48.097
  430.250    4.921    0.314    0.335   63.681
  430.500    5.516    0.248    0.332   74.903
  430.750    6.069    0.229    0.333   79.281
  431.000    6.190    0.212    0.335   78.680
  431.250    6.194    0.204    0.354   81.818
  431.500    6.082    0.198    0.359   84.328
  431.750    6.089    0.202    0.359   83.108
  432.000    6.209    0.201    0.360   84.373
  432.250    6.336    0.198    0.360   86.260
  432.500    6.340    0.197    0.358   84.425
  432.750    6.345    0.195    0.358   83.198
  433.000    6.348    0.199    0.358   81.974
  433.250    6.236    0.203    0.361   80.128
  433.500    6.122    0.205    0.362   78.280
  433.750    5.900    0.205    0.361   77.057
  434.000    5.579    0.201    0.361   82.066
  434.250    5.175    0.195    0.359   83.325
  434.500    4.712    0.194    0.352   79.619
  434.750    4.291    0.203    0.342   73.412
  435.000    3.981    0.236    0.337   55.390
  435.250    3.298    0.267    0.342   43.583
  435.500    3.002    0.286    0.358   34.893
  435.750    2.734    0.309    0.364   28.689
  436.000    2.585    0.331    0.353   23.736
  436.250    2.444    0.345    0.352   23.761
  436.500    2.446    0.355    0.361   24.408
  436.750    2.403    0.355    0.361   25.673
  437.000    2.498    0.348    0.355   26.942
  437.250    2.596    0.338    0.348   28.211
  437.500    2.697    0.330    0.351   28.847
  437.750    2.858    0.334    0.351   30.735
  438.000    2.970    0.322    0.346   33.250
  438.250    2.917    0.308    0.344   36.381
  438.500    2.974    0.299    0.352   39.519
  438.750    2.867    0.283    0.355   41.407
  439.000    2.763    0.271    0.343   44.541
  439.250    2.713    0.263    0.351   47.673
  439.500    2.665    0.266    0.358   45.827
  439.750    2.666    0.277    0.372   42.119
  440.000    2.669    0.289    0.383   39.024
  440.250    2.722    0.313    0.390   33.445
  440.500    2.776    0.339    0.398   27.868
  440.750    2.886    0.355    0.380   34.740
  441.000    2.942    0.338    0.356   40.984
  441.250    3.001    0.292    0.348   47.231
  441.500    2.947    0.279    0.342   44.761
  441.750    2.787    0.275    0.346   37.944
  442.000    2.635    0.278    0.356   32.985
  442.250    2.638    0.285    0.363   28.651
  442.500    2.690    0.306    0.374   25.555
  442.750    2.796    0.309    0.378   24.958
  443.000    3.076    0.299    0.365   26.848
  443.250    3.384    0.292    0.359   27.492
  443.500    3.867    0.278    0.354   29.383
  443.750    4.335    0.263    0.348   36.250
  444.000    4.769    0.245    0.340   61.786
  444.250    5.246    0.068    0.340   84.213
  444.500    5.455    0.050    0.371   89.838
  444.750    5.355    0.066    0.396   98.574
  445.000    5.259    0.100    0.411  113.534
  445.250    5.897    0.140    0.422  123.510
  445.500    7.133    0.170    0.415   85.568
  445.750    7.845    0.207    0.312   65.674
  446.000    8.965    0.218    0.245   47.647
  446.250    9.860    0.186    0.146   29.623
  446.500   10.247    0.104    0.141   30.266
  446.750   10.067    0.133    0.150   39.003
  447.000    9.517    0.171    0.189   52.719
  447.250    8.187    0.219    0.295   65.185
  447.500    7.313    0.251    0.313   60.235
  447.750    6.659    0.288    0.345   50.920
  448.000    6.064    0.306    0.338   44.092
  448.250    5.733    0.308    0.335   44.115
  448.500    5.524    0.300    0.322   44.146
  448.750    5.530    0.291    0.316   42.293
  449.000    5.534    0.289    0.310   43.561
  449.250    5.538    0.270    0.302   46.703
  449.500    5.648    0.241    0.307   46.713
  449.750    5.760    0.234    0.313   45.492
  450.000    5.990    0.243    0.327   45.514
  450.250    6.107    0.250    0.343   50.514
  450.500    6.113    0.244    0.365   57.384
  450.750    6.119    0.237    0.391   71.100
  451.000    6.007    0.234    0.403   85.435
  451.250    5.789    0.229    0.411   75.499
  451.500    5.474    0.232    0.360   66.184
  451.750    5.080    0.229    0.346   66.207
  452.000    4.803    0.228    0.350   75.567
  452.250    4.541    0.233    0.349   58.785
  452.500    4.294    0.250    0.314   33.910
  452.750    4.138    0.246    0.307   31.443
  453.000    4.141    0.245    0.309   30.222
  453.250    4.147    0.260    0.312   27.753
  453.500    4.310    0.256    0.308   30.890
  453.750    4.395    0.246    0.303   34.649
  454.000    4.566    0.237    0.309   33.421
  454.250    4.839    0.232    0.304   32.205
  454.500    4.934    0.225    0.290   34.089
  454.750    5.229    0.214    0.288   34.733
  455.000    5.538    0.211    0.285   33.511
  455.250    5.649    0.211    0.277   31.047
  455.500    5.985    0.201    0.273   27.953
  455.750    6.104    0.191    0.286   58.470
