~VERSION INFORMATION
 VERS.                 2.0:   CWLS LOG ASCII STANDARD -VERSION 2.0
 WRAP.                  NO:   ONE LINE PER DEPTH STEP
~WELL INFORMATION BLOCK
#MNEM.UNIT           DATA                    DESCRIPTION OF MNEMONIC
#---------    -------------------            -------------------------------
# Generated from Intellog Unique Number	CS_67_68/WELL/689
WELL.         DOME PETROLEUM LIMITED         : Well_name    - WELL
LOC .         00/06-26-068-02W4/0            : Location     - LOCATION
UWI .         00/06-26-068-02W4/0            : Uwi          - UNIQUE WELL ID
ENTR.         SP                             : Entered      - ENTERED BY
SRVC.         SCHLUMBERGER                   : Scn          - SERVICE COMPANY
STRT.M        385                            : top_depth    - START DEPTH
STOP.M        630                            : bot_depth    - STOP DEPTH
STEP.M        0.25                           : increment    - STEP LENGTH
 NULL. -999.2500:NULL Value
~CURVE INFORMATION BLOCK
#MNEM UNIT       ERCB CURVE CODE    CURVE DESCRIPTION
#-----------   ------------------   ----------------------------------
DEPT.M        00 001 00 00         : DEPTH        - DEPTH
ILD .OHMM     00 120 00 00         : RESD         - DEEP RESISTIVITY (DIL)
DPHI.V/V      00 890 00 00         : PHID         - DENSITY POROSITY (LIMESTONE)
NPHI.V/V      00 330 00 00         : PHIN         - NEUTRON POROSITY (LIMESTONE)
GR  .API      00 310 00 00         : GR           - GAMMA RAY
~PARAMETER INFORMATION
#MNEM.UNIT           DATA             DESCRIPTION OF MNEMONIC
#---------         -----------     ------------------------------
GL  .M        709.94               : gl           - GROUND LEVEL ELEVATION
EREF.M        713.29               : kb           - ELEVATION OF DEPTH REFERENCE
DATM.M        709.94               : datum        - DATUM ELEVATION
TDD .M        640                  : tdd          - TOTAL DEPTH DRILLER
RUN .         ONE                  : Run          - RUN NUMBER
ENG .         BILL                 : Engineer     - RECORDING ENGINEER
WIT .         JIM                  : Witness      - WITNESSED BY
MUD .         GEL                  : Mud_type     - MUD TYPE
MATR.         LIMESTONE            : Logunit      - NEUTRON MATRIX
TMAX.C        29                   : BHT          - MAXIMUM RECORDED TEMPERATURE
BHTD.M        640                  : BHTDEP       - MAXIMUM RECORDED TEMPERATURE
MATR.         1                    : LOGUNIT      - NEUTRON MATRIX
RMT .C        25                   : MDTP         - TEMPERATURE OF MUD
NEUT.         1                    : NEUTRON      - NEUTRON TYPE
RESI.         0                    : RESIST       - RESISTIVITY TYPE
RMC .OHMM     0.25                 : RMC          - RESISTIVITY OF MUD CAKE
RMF .OHMM     0.25                 : RMF          - RESISTIVITY OF MUD FILTRATE
SUFT.C        15                   : SUFT         - SURFACE TEMPERATURE
~A  DEPTH     RESD     PHID     PHIN       GR
# ...
  515.500    3.820    0.266    0.415   88.519
  515.750    3.721    0.265    0.434   87.652
  516.000    3.625    0.267    0.453   87.944
  516.250    3.486    0.272    0.468   90.004
  516.500    3.271    0.281    0.467   91.457
  516.750    3.076    0.288    0.462   92.358
  517.000    3.013    0.293    0.461   92.162
  517.250    3.198    0.290    0.463   90.255
  517.500    3.536    0.287    0.452   88.532
  517.750    3.704    0.284    0.446   86.993
  518.000    3.983    0.284    0.441   82.398
  518.250    4.050    0.286    0.438   80.556
  518.500    3.851    0.288    0.441   82.373
  518.750    3.703    0.291    0.456   84.740
  519.000    3.627    0.293    0.460   86.924
  519.250    3.627    0.293    0.460   88.922
  519.500    3.723    0.287    0.492   90.133
  519.750    3.835    0.285    0.510   91.644
  520.000    4.024    0.293    0.489   92.181
  520.250    4.146    0.304    0.461   91.067
  520.500    4.327    0.317    0.440   89.342
  520.750    4.644    0.334    0.425   87.928
  521.000    5.040    0.335    0.420   84.616
  521.250    5.339    0.306    0.435   82.040
  521.500    5.677    0.290    0.446   80.073
  521.750    5.991    0.281    0.447   79.632
  522.000    6.311    0.277    0.440   82.362
  522.250    6.501    0.275    0.442   83.450
  522.500    6.501    0.277    0.439   81.910
  522.750    6.512    0.277    0.437   82.506
  523.000    6.560    0.279    0.436   84.751
  523.250    6.572    0.287    0.441   85.715
  523.500    6.571    0.295    0.456   85.274
  523.750    6.632    0.299    0.467   83.428
  524.000    6.718    0.301    0.459   87.075
  524.250    6.680    0.289    0.449   90.606
  524.500    6.447    0.278    0.449   95.961
  524.750    6.165    0.267    0.469   99.307
  525.000    5.797    0.260    0.484  102.529
  525.250    5.471    0.256    0.466  104.897
  525.500    5.202    0.270    0.386  100.732
  525.750    5.904    0.103    0.307   85.883
  526.000    6.614    0.080    0.273   67.555
  526.250    7.718    0.067    0.246   52.828
  526.500    9.160    0.144    0.359   66.855
  526.750   10.591    0.217    0.419   78.624
  527.000    8.114    0.274    0.436   90.698
  527.250    7.029    0.281    0.442   98.316
  527.500    6.321    0.258    0.441  102.881
  527.750    5.932    0.247    0.437  100.791
  528.000    5.909    0.235    0.437   98.212
  528.250    5.444    0.244    0.440   95.025
  528.500    4.289    0.268    0.447   92.509
  528.750    3.520    0.287    0.461   90.725
  529.000    3.038    0.282    0.470   92.787
  529.250    2.672    0.274    0.480   96.620
  529.500    2.425    0.270    0.492  100.574
  529.750    2.039    0.284    0.504   99.584
  530.000    1.875    0.296    0.519   91.206
  530.250    1.871    0.303    0.533   87.225
  530.500    1.895    0.309    0.531   88.976
  530.750    1.924    0.310    0.527   90.001
  531.000    1.985    0.300    0.520   90.053
  531.250    2.139    0.299    0.513   88.938
  531.500    2.253    0.305    0.518   88.621
  531.750    2.365    0.296    0.510   90.378
  532.000    2.514    0.291    0.523   92.378
  532.250    2.505    0.290    0.505   94.440
  532.500    2.853    0.286    0.465   91.680
  532.750    3.166    0.265    0.444   86.355
  533.000    3.514    0.247    0.421   81.580
  533.250    3.981    0.234    0.442   84.798
  533.500    4.451    0.233    0.450   86.314
  533.750    4.840    0.239    0.446   88.004
  534.000    4.893    0.246    0.433   88.421
  534.250    4.767    0.257    0.416   88.166
  534.500    4.550    0.251    0.438   88.640
  534.750    4.199    0.246    0.453   90.397
  535.000    3.890    0.245    0.463   92.580
  535.250    3.531    0.248    0.472   95.192
  535.500    3.265    0.249    0.481   96.583
  535.750    3.093    0.248    0.502   95.531
  536.000    2.974    0.250    0.513   96.309
  536.250    2.913    0.256    0.519   98.861
  536.500    2.838    0.262    0.502  100.497
  536.750    2.785    0.271    0.509   99.261
  537.000    2.795    0.279    0.501   97.477
  537.250    2.874    0.290    0.442   94.961
  537.500    3.125    0.301    0.420   92.017
  537.750    3.593    0.295    0.409   88.154
  538.000    4.132    0.294    0.406   86.129
  538.250    5.061    0.296    0.419   83.490
  538.500    5.472    0.293    0.426   81.278
  538.750    5.928    0.289    0.430   80.472
  539.000    6.244    0.292    0.428   80.701
  539.250    6.457    0.296    0.418   80.566
  539.500    6.565    0.288    0.408   78.843
  539.750    6.577    0.287    0.413   76.632
  540.000    6.564    0.295    0.423   78.449
  540.250    6.551    0.293    0.429   79.410
  540.500    6.599    0.281    0.428   79.642
  540.750    6.786    0.268    0.423   77.064
  541.000    7.003    0.239    0.411   74.854
  541.250    7.282    0.194    0.382   72.702
  541.500    7.600    0.153    0.360   71.103
  541.750    8.035    0.168    0.367   70.843
  542.000    8.262    0.242    0.374   73.820
  542.250    8.401    0.261    0.373   76.007
  542.500    8.184    0.261    0.382   77.153
  542.750    7.884    0.268    0.405   76.039
  543.000    7.666    0.283    0.415   73.828
  543.250    7.496    0.301    0.415   69.907
  543.500    7.495    0.316    0.414   65.131
  543.750    7.736    0.326    0.398   61.089
  544.000    7.984    0.322    0.376   62.663
  544.250    7.705    0.293    0.394   67.655
  544.500    6.289    0.270    0.412   71.793
  544.750    5.540    0.287    0.418   74.221
  545.000    5.337    0.297    0.402   71.155
  545.250    5.219    0.306    0.391   73.581
  545.500    5.208    0.314    0.392   75.339
  545.750    5.257    0.323    0.387   76.303
  546.000    5.375    0.330    0.382   74.763
  546.250    5.558    0.337    0.377   71.514
  546.500    5.876    0.340    0.373   68.324
  546.750    6.167    0.343    0.372   68.129
  547.000    6.436    0.343    0.375   71.469
  547.250    6.680    0.343    0.370   73.533
  547.500    6.780    0.340    0.371   75.536
  547.750    6.830    0.333    0.385   77.292
  548.000    6.816    0.330    0.388   78.560
  548.250    6.816    0.329    0.388   79.219
  548.500    6.815    0.333    0.386   72.978
  548.750    6.763    0.330    0.393   74.368
  549.000    6.738    0.322    0.399   78.018
  549.250    6.712    0.309    0.391   80.874
  549.500    6.699    0.296    0.352   83.118
  549.750    6.824    0.283    0.328   84.386
  550.000    7.109    0.280    0.332   81.321
  550.250    7.433    0.281    0.339   81.307
  550.500    7.643    0.283    0.340   83.979
  550.750    7.829    0.275    0.347   86.649
  551.000    7.976    0.268    0.357   88.530
  551.250    8.340    0.261    0.352   90.898
  551.500    8.448    0.257    0.363   95.828
  551.750    8.542    0.254    0.368  101.370
  552.000    8.573    0.253    0.365  106.240
  552.250    8.620    0.259    0.356  102.563
  552.500    8.603    0.240    0.351   97.912
  552.750    8.491    0.219    0.351   92.096
  553.000    8.365    0.209    0.365   89.337
  553.250    8.194    0.204    0.373   86.821
  553.500    8.163    0.206    0.363   89.371
  553.750    8.362    0.211    0.348   90.761
  554.000    8.630    0.214    0.337   88.609
  554.250    8.775    0.210    0.325   88.048
  554.500    8.889    0.203    0.325   89.560
  554.750    9.022    0.198    0.336   92.170
  555.000    9.071    0.193    0.343   95.574
  555.250    9.087    0.201    0.346   97.578
  555.500    9.069    0.223    0.366   93.656
  555.750    9.051    0.244    0.362   87.109
  556.000    9.017    0.258    0.358   82.579
  556.250    8.949    0.242    0.358   84.581
  556.500    8.882    0.228    0.358   90.733
  556.750    8.832    0.218    0.360   94.138
  557.000    8.798    0.213    0.370   96.627
  557.250    8.765    0.214    0.375   98.444
  557.500    8.682    0.216    0.367   95.989
  557.750    8.601    0.215    0.357   90.723
  558.000    8.457    0.214    0.348   86.072
  558.250    8.347    0.214    0.343   87.096
  558.500    8.238    0.211    0.358   91.782
  558.750    8.085    0.205    0.370   97.812
