~VERSION INFORMATION
 VERS.                 2.0:   CWLS LOG ASCII STANDARD -VERSION 2.0
 WRAP.                  NO:   ONE LINE PER DEPTH STEP
~WELL INFORMATION BLOCK
#MNEM.UNIT           DATA                    DESCRIPTION OF MNEMONIC
#---------    -------------------            -------------------------------
# Generated from Intellog Unique Number	CW_70_72/WELL/702
NULL.         -999.25                        : NULL_VALUE
WELL.         LANDBANK ET AL VICTOR 06-26    : Well_name    - WELL              
LOC .         06-26-071-01W5                 : Location     - LOCATION          
UWI .         00/06-26-071-01W5/0            : Uwi          - UNIQUE WELL ID    
ENTR.         JAYE                           : Entered      - ENTERED BY        
SRVC.         SCHLUMBERGER                   : Scn          - SERVICE COMPANY   
DATE.         20 NOV 79                      : Date         - LOG DATE          
STRT.M        410                            : top_depth    - START DEPTH       
STOP.M        665                            : bot_depth    - STOP DEPTH        
STEP.M        0.25                           : increment    - STEP LENGTH       
~CURVE INFORMATION BLOCK
#MNEM UNIT       ERCB CURVE CODE    CURVE DESCRIPTION
#-----------   ------------------   ----------------------------------
DEPT.M        00 001 00 00         : DEPTH        - DEPTH                       
DPHI.V/V      00 890 00 00         : PHID         - DENSITY POROSITY (SANDSTONE)
NPHI.V/V      00 330 00 00         : PHIN         - NEUTRON POROSITY (SANDSTONE)
GR  .API      00 310 00 00         : GR           - GAMMA RAY                   
CALI.MM       00 280 01 00         : CAL          - CALIPER                     
ILD .OHMM     00 120 00 00         : RESD         - DEEP RESISTIVITY (DIL)      
~PARAMETER INFORMATION       
#MNEM.UNIT           DATA             DESCRIPTION OF MNEMONIC
#---------         -----------     ------------------------------
GL  .M        603.9                : gl           - GROUND LEVEL ELEVATION      
EREF.M        607.7                : kb           - ELEVATION OF DEPTH REFERENCE
DATM.M        603.9                : datum        - DATUM ELEVATION             
TDD .M        679                  : tdd          - TOTAL DEPTH DRILLER         
RUN .         ONE                  : Run          - RUN NUMBER                  
ENG .         WALTERHOUSE          : Engineer     - RECORDING ENGINEER          
WIT .         LOWTHER              : Witness      - WITNESSED BY                
BASE.         EDM                  : Branch       - HOME BASE OF LOGGING UNIT   
MUD .         GEL CHEM             : Mud_type     - MUD TYPE                    
MATR.         SANDSTONE            : Logunit      - NEUTRON MATRIX              
TMAX.C        41.7                 : BHT          - MAXIMUM RECORDED TEMPERATURE
BHTD.M        680                  : BHTDEP       - MAXIMUM RECORDED TEMPERATURE
RMT .C        20                   : MDTP         - TEMPERATURE OF MUD          
MUDD.KG/M     1090                 : MWT          - MUD DENSITY                 
NEUT.         1                    : NEUTRON      - NEUTRON TYPE                
RESI.         0                    : RESIST       - RESISTIVITY TYPE            
RM  .OHMM     2.97                 : RM           - RESISTIVITY OF MUD          
RMC .OHMM     0                    : RMC          - RESISTIVITY OF MUD CAKE     
RMF .OHMM     3.58                 : RMF          - RESISTIVITY OF MUD FILTRATE 
SUFT.C        0                    : SUFT         - SURFACE TEMPERATURE         
~A  DEPTH     PHID     PHIN       GR      CAL     RESD
# ...
  592.500    0.087    0.401   98.929  149.861    3.191
  592.750    0.045    0.393   95.535  149.833    3.715
  593.000    0.017    0.397   98.948  150.426    4.817
  593.250    0.030    0.387   98.615  151.007    6.151
  593.500    0.030    0.369  102.651  151.492    6.374
  593.750    0.034    0.361  110.308  151.556    6.229
  594.000    0.081    0.362  110.666  151.739    5.975
  594.250    0.101    0.373  111.206  152.539    5.774
  594.500    0.094    0.382  114.117  154.367    5.773
  594.750    0.086    0.376  111.473  156.308    5.959
  595.000    0.085    0.355  103.964  154.618    6.695
  595.250    0.076    0.334   96.645  152.708    7.299
  595.500    0.055    0.297   91.569  151.001    8.263
  595.750    0.026    0.319   88.611  150.143    9.249
  596.000   -0.006    0.299   85.221  150.308   10.831
  596.250    0.008    0.310   91.939  150.393   11.566
  596.500    0.051    0.338   97.724  151.280   10.584
  596.750    0.084    0.395  106.502  153.015    8.781
  597.000    0.114    0.406  105.924  155.269    7.410
  597.250    0.136    0.384  102.468  155.446    6.253
  597.500    0.111    0.388   98.645  152.499    5.820
  597.750    0.111    0.376   96.809  152.265    5.907
  598.000    0.097    0.365   94.854  152.010    6.562
  598.250    0.089    0.384   97.831  151.579    7.007
  598.500    0.105    0.398  101.927  151.756    7.032
  598.750    0.142    0.390  102.164  151.928    6.873
  599.000    0.129    0.375  100.575  152.292    6.730
  599.250    0.106    0.363   98.564  152.988    6.640
  599.500    0.086    0.359   96.731  153.585    6.539
  599.750    0.092    0.375   91.463  154.382    6.403
  600.000    0.072    0.386   79.458  154.242    6.235
  600.250    0.084    0.383   69.387  153.469    5.969
  600.500    0.134    0.367   54.513  151.575    5.390
  600.750    0.227    0.354   46.627  149.970    4.697
  601.000    0.259    0.361   34.496  148.382    3.994
  601.250    0.256    0.368   31.858  147.614    3.120
  601.500    0.269    0.373   34.335  147.372    2.801
  601.750    0.266    0.378   35.999  147.453    2.583
  602.000    0.262    0.372   34.917  147.819    2.445
  602.250    0.264    0.367   33.958  148.206    2.341
  602.500    0.265    0.365   34.194  148.485    2.279
  602.750    0.259    0.367   34.167  148.142    2.215
  603.000    0.257    0.371   35.459  147.162    2.173
  603.250    0.261    0.371   38.495  146.415    2.148
  603.500    0.261    0.367   37.849  146.469    2.132
  603.750    0.271    0.358   36.643  148.005    2.107
  604.000    0.270    0.350   36.684  149.428    2.110
  604.250    0.258    0.348   36.042  150.014    2.118
  604.500    0.254    0.354   33.340  150.285    2.133
  604.750    0.260    0.372   31.133  150.158    2.153
  605.000    0.261    0.375   31.923  150.221    2.148
  605.250    0.272    0.369   33.585  150.190    2.152
  605.500    0.270    0.372   35.632  150.264    2.159
  605.750    0.259    0.380   36.856  150.448    2.175
  606.000    0.261    0.388   37.706  150.713    2.220
  606.250    0.253    0.377   38.371  150.876    2.249
  606.500    0.262    0.379   38.979  150.646    2.248
  606.750    0.246    0.380   39.391  150.396    2.247
  607.000    0.255    0.378   40.063  150.374    2.247
  607.250    0.256    0.375   40.601  150.436    2.272
  607.500    0.253    0.370   42.013  150.509    2.284
  607.750    0.251    0.364   43.055  150.371    2.336
  608.000    0.239    0.356   41.724  149.811    2.380
  608.250    0.227    0.354   39.959  148.941    2.429
  608.500    0.214    0.354   38.937  147.866    2.460
  608.750    0.200    0.354   38.610  147.216    2.473
  609.000    0.184    0.357   39.213  147.185    2.496
  609.250    0.213    0.358   40.558  147.343    2.510
  609.500    0.241    0.359   42.855  148.560    2.509
  609.750    0.251    0.370   44.888  150.396    2.508
  610.000    0.249    0.369   45.117  151.096    2.484
  610.250    0.246    0.360   44.162  149.290    2.493
  610.500    0.246    0.363   45.826  147.276    2.506
  610.750    0.257    0.368   49.361  147.664    2.525
  611.000    0.250    0.366   48.342  150.022    2.548
  611.250    0.244    0.359   47.390  150.502    2.610
  611.500    0.235    0.359   47.677  150.268    2.669
  611.750    0.229    0.366   48.342  149.925    2.714
  612.000    0.223    0.374   49.008  149.266    2.760
  612.250    0.218    0.380   48.113  148.814    2.785
  612.500    0.235    0.378   47.468  148.457    2.816
  612.750    0.233    0.372   49.195  148.227    2.826
  613.000    0.223    0.368   51.547  147.674    2.831
  613.250    0.224    0.377   53.028  147.114    2.851
  613.500    0.228    0.378   53.507  146.775    2.850
  613.750    0.221    0.373   55.418  146.525    2.877
  614.000    0.218    0.376   57.646  147.010    2.919
  614.250    0.210    0.373   55.129  147.182    2.935
  614.500    0.197    0.371   54.606  147.560    2.990
  614.750    0.188    0.365   54.902  148.065    3.052
  615.000    0.180    0.351   57.377  148.432    3.121
  615.250    0.189    0.363   57.858  149.020    3.198
  615.500    0.217    0.368   56.648  149.621    3.307
  615.750    0.219    0.371   58.625  149.991    3.401
  616.000    0.199    0.358   59.416  150.174    3.517
  616.250    0.170    0.346   59.146  150.235    3.617
  616.500    0.154    0.353   58.749  150.312    3.741
  616.750    0.142    0.369   60.538  150.166    3.890
  617.000    0.176    0.369   60.579  150.232    3.963
  617.250    0.198    0.358   60.184  148.845    3.933
  617.500    0.204    0.359   64.287  146.422    3.880
  617.750    0.190    0.364   67.578  142.644    3.814
  618.000    0.181    0.368   69.674  144.587    3.742
  618.250    0.162    0.371   69.094  144.859    3.699
  618.500    0.166    0.375   66.078  145.761    3.670
  618.750    0.163    0.367   63.245  146.353    3.662
  619.000    0.170    0.368   64.472  146.841    3.675
  619.250    0.182    0.369   66.573  147.432    3.681
  619.500    0.173    0.360   67.493  148.337    3.708
  619.750    0.167    0.362   69.030  149.131    3.742
  620.000    0.193    0.371   71.318  149.412    3.776
  620.250    0.201    0.373   68.929  149.481    3.804
  620.500    0.213    0.370   67.347  149.145    3.824
  620.750    0.200    0.372   66.949  148.784    3.852
  621.000    0.176    0.371   66.620  148.765    3.917
  621.250    0.154    0.360   66.097  148.719    3.990
  621.500    0.144    0.353   66.520  148.376    4.050
  621.750    0.166    0.349   67.179  148.336    4.110
  622.000    0.161    0.341   68.843  148.093    4.132
  622.250    0.169    0.344   73.318  147.953    4.147
  622.500    0.181    0.345   75.363  148.022    4.153
  622.750    0.177    0.346   74.649  148.402    4.200
  623.000    0.167    0.353   73.442  148.891    4.238
  623.250    0.156    0.353   71.737  149.172    4.293
  623.500    0.168    0.353   70.473  149.149    4.382
  623.750    0.177    0.358   69.013  149.411    4.498
  624.000    0.184    0.353   64.561  149.793    4.388
  624.250    0.174    0.358   56.112  149.654    4.068
  624.500    0.199    0.366   59.401  149.723    3.808
  624.750    0.216    0.374   63.501  149.692    3.666
  625.000    0.210    0.380   68.102  149.864    3.610
  625.250    0.211    0.387   72.882  149.828    3.692
  625.500    0.195    0.382   78.542  150.003    3.768
  625.750    0.192    0.377   83.141  151.222    3.979
  626.000    0.190    0.371   79.751  152.331    4.538
  626.250    0.174    0.354   73.862  152.615    5.634
  626.500    0.155    0.325   66.849  152.683    6.968
  626.750    0.133    0.299   57.591  152.855    8.683
  627.000    0.117    0.286   53.140  152.811    9.867
  627.250    0.168    0.324   54.681  152.368   10.596
  627.500    0.198    0.378   56.847  152.023    9.917
  627.750    0.203    0.372   54.391  151.264    8.839
  628.000    0.187    0.372   55.740  150.706    7.658
  628.250    0.188    0.371   59.654  149.524    6.929
  628.500    0.183    0.345   62.317  147.511    6.473
  628.750    0.165    0.310   65.603  146.537    6.151
