~VERSION INFORMATION
 VERS.                 2.0:   CWLS LOG ASCII STANDARD -VERSION 2.0
 WRAP.                  NO:   ONE LINE PER DEPTH STEP
~WELL INFORMATION BLOCK
#MNEM.UNIT           DATA                    DESCRIPTION OF MNEMONIC
#---------    -------------------            -------------------------------
# Generated from Intellog Unique Number	CW_70_72/WELL/468
NULL.         -999.25                        : NULL_VALUE
WELL.         GLOBAL CALLING LAKE SOUTH 05-0 : Well_name    - WELL              
LOC .         05-06-071-21W4                 : Location     - LOCATION          
UWI .         00/05-06-071-21W4/0            : Uwi          - UNIQUE WELL ID    
ENTR.         JAYE                           : Entered      - ENTERED BY        
SRVC.         SCHLUMBERGER                   : Scn          - SERVICE COMPANY   
DATE.         13 MAR 83                      : Date         - LOG DATE          
STRT.M        432                            : top_depth    - START DEPTH       
STOP.M        620                            : bot_depth    - STOP DEPTH        
STEP.M        0.25                           : increment    - STEP LENGTH       
~CURVE INFORMATION BLOCK
#MNEM UNIT       ERCB CURVE CODE    CURVE DESCRIPTION
#-----------   ------------------   ----------------------------------
DEPT.M        00 001 00 00         : DEPTH        - DEPTH                       
DPHI.V/V      00 890 00 00         : PHID         - DENSITY POROSITY (SANDSTONE)
NPHI.V/V      00 330 00 00         : PHIN         - NEUTRON POROSITY (SANDSTONE)
GR  .API      00 310 00 00         : GR           - GAMMA RAY                   
CALI.MM       00 280 01 00         : CAL          - CALIPER                     
ILD .OHMM     00 120 00 00         : RESD         - DEEP RESISTIVITY (DIL)      
~PARAMETER INFORMATION       
#MNEM.UNIT           DATA             DESCRIPTION OF MNEMONIC
#---------         -----------     ------------------------------
GL  .M        681.1                : gl           - GROUND LEVEL ELEVATION      
EREF.M        685.6                : kb           - ELEVATION OF DEPTH REFERENCE
DATM.M        681.1                : datum        - DATUM ELEVATION             
TDD .M        622                  : tdd          - TOTAL DEPTH DRILLER         
RUN .         ONE                  : Run          - RUN NUMBER                  
ENG .         DUNLOP               : Engineer     - RECORDING ENGINEER          
WIT .         LOWTHER              : Witness      - WITNESSED BY                
BASE.         EDM                  : Branch       - HOME BASE OF LOGGING UNIT   
MUD .         GEL CHEM             : Mud_type     - MUD TYPE                    
MATR.         SANDSTONE            : Logunit      - NEUTRON MATRIX              
TMAX.C        20.6                 : BHT          - MAXIMUM RECORDED TEMPERATURE
BHTD.M        622.5                : BHTDEP       - MAXIMUM RECORDED TEMPERATURE
RMT .C        22.8                 : MDTP         - TEMPERATURE OF MUD          
MUDD.KG/M     1110                 : MWT          - MUD DENSITY                 
NEUT.         1                    : NEUTRON      - NEUTRON TYPE                
RESI.         0                    : RESIST       - RESISTIVITY TYPE            
RM  .OHMM     4.22                 : RM           - RESISTIVITY OF MUD          
RMC .OHMM     0                    : RMC          - RESISTIVITY OF MUD CAKE     
RMF .OHMM     2.83                 : RMF          - RESISTIVITY OF MUD FILTRATE 
SUFT.C        0                    : SUFT         - SURFACE TEMPERATURE         
~A  DEPTH     PHID     PHIN       GR      CAL     RESD
  432.000    0.218    0.502  110.550  180.122    2.439
  432.250    0.212    0.512  108.942  180.998    2.488
  432.500    0.194    0.513  107.084  181.337    2.528
  432.750    0.194    0.500  107.291  181.891    2.557
  433.000    0.217    0.491  110.693  182.241    2.554
  433.250    0.212    0.507  110.589  183.736    2.488
  433.500    0.210    0.524  108.983  185.123    2.413
  433.750    0.217    0.511  109.126  185.784    2.372
  434.000    0.222    0.508  109.209  185.817    2.336
  434.250    0.221    0.504  107.851  185.437    2.330
  434.500    0.218    0.493  104.428  184.006    2.365
  434.750    0.213    0.507  100.314  181.430    2.408
  435.000    0.215    0.510   96.074  176.874    2.484
  435.250    0.228    0.484   89.705  172.104    2.602
  435.500    0.243    0.468   85.716  167.334    2.812
  435.750    0.256    0.453   87.928  161.519    3.178
  436.000    0.278    0.450   86.070  156.438    3.475
  436.250    0.299    0.453   86.966  154.698    3.672
  436.500    0.296    0.473   96.257  155.359    3.754
  436.750    0.281    0.509  108.553  157.480    3.738
  437.000    0.305    0.535   96.047  158.243    3.864
  437.250    0.333    0.478   81.597  157.653    4.061
  437.500    0.381    0.476   75.480  155.805    4.341
  437.750    0.375    0.486   80.824  154.279    4.773
  438.000    0.268    0.459   78.904  154.725    5.236
  438.250    0.254    0.412   74.476  156.950    5.618
  438.500    0.242    0.413   74.309  159.281    5.289
  438.750    0.228    0.432   73.955  160.671    4.606
  439.000    0.195    0.465   72.596  161.020    4.314
  439.250    0.205    0.427   69.359  160.847    4.401
  439.500    0.224    0.402   65.244  160.354    4.695
  439.750    0.245    0.396   58.751  159.655    5.142
  440.000    0.242    0.384   54.950  158.970    5.506
  440.250    0.237    0.367   56.223  159.103    6.063
  440.500    0.232    0.354   56.869  159.443    6.409
  440.750    0.244    0.356   59.521  159.896    6.395
  441.000    0.247    0.370   64.800  159.929    5.966
  441.250    0.241    0.389   77.160  160.493    5.381
  441.500    0.267    0.430   84.008  161.045    4.721
  441.750    0.270    0.469   87.098  161.596    4.080
  442.000    0.253    0.452   90.126  162.051    3.506
  442.250    0.229    0.456   94.028  162.603    3.151
  442.500    0.206    0.465   96.928  162.949    3.040
  442.750    0.208    0.462   99.392  163.087    3.000
  443.000    0.233    0.468   99.789  163.123    3.043
  443.250    0.233    0.473   97.177  162.842    3.128
  443.500    0.248    0.453   94.127  162.770    3.203
  443.750    0.265    0.440   94.023  162.806    3.280
  444.000    0.260    0.431   96.548  163.152    3.391
  444.250    0.250    0.418   99.639  164.018    3.485
  444.500    0.245    0.401  101.912  167.605    3.623
  444.750    0.254    0.408  103.748  173.062    3.781
  445.000    0.246    0.420  102.455  180.403    3.885
  445.250    0.228    0.418   99.279  175.116    3.956
  445.500    0.218    0.405   93.475  166.800    4.044
  445.750    0.222    0.393   88.421  160.464    4.118
  446.000    0.229    0.386   85.561  154.022    4.155
  446.250    0.250    0.383   85.520  152.909    4.130
  446.500    0.263    0.388   85.038  153.776    4.096
  446.750    0.257    0.406   77.666  154.546    4.290
  447.000    0.249    0.399   67.288  155.101    4.663
  447.250    0.269    0.385   58.353  155.760    5.204
  447.500    0.288    0.375   51.358  156.000    5.805
  447.750    0.282    0.371   52.567  156.346    6.453
  448.000    0.286    0.398   58.852  156.695    6.214
  448.250    0.304    0.400   51.041  157.147    5.553
  448.500    0.302    0.355   59.331  157.076    4.809
  448.750    0.284    0.371   67.430  156.792    4.387
  449.000    0.269    0.399   63.441  156.205    3.921
  449.250    0.291    0.417   42.478  156.134    3.439
  449.500    0.304    0.389   32.665  156.275    2.885
  449.750    0.303    0.354   34.629  156.406    2.622
  450.000    0.280    0.336   60.266  156.863    2.465
  450.250    0.256    0.374   71.998  157.730    2.477
  450.500    0.238    0.386   83.919  158.596    2.604
  450.750    0.241    0.403   87.320  159.679    2.900
  451.000    0.227    0.391   90.221  160.437    3.315
  451.250    0.213    0.385   94.126  161.619    3.596
  451.500    0.223    0.395   98.029  162.698    3.866
  451.750    0.233    0.397  102.999  163.774    4.086
  452.000    0.227    0.387  107.589  164.641    4.336
  452.250    0.220    0.382  107.797  164.257    4.482
  452.500    0.217    0.389  105.751  162.627    4.564
  452.750    0.211    0.387  108.903  160.883    4.428
  453.000    0.208    0.384  116.315  159.660    4.146
  453.250    0.217    0.419  122.598  158.446    3.783
  453.500    0.228    0.474  122.618  157.747    3.399
  453.750    0.238    0.533  119.631  157.047    2.830
  454.000    0.250    0.547  123.598  156.455    2.525
  454.250    0.256    0.550  135.079  156.803    2.261
  454.500    0.257    0.549  141.112  157.985    2.070
  454.750    0.253    0.543  133.993  159.898    2.309
  455.000    0.245    0.528  128.439  163.271    2.645
  455.250    0.232    0.473  122.758  166.227    3.018
  455.500    0.215    0.432  115.138  167.412    3.361
  455.750    0.221    0.430  108.456  167.023    3.750
  456.000    0.242    0.438  100.522  165.600    4.084
  456.250    0.237    0.434   93.087  163.124    4.341
  456.500    0.183    0.453   94.298  159.713    4.588
  456.750    0.209    0.486   95.695  156.410    4.860
  457.000    0.328    0.496   91.269  155.189    5.041
  457.250    0.331    0.479   87.784  154.385    5.221
  457.500    0.316    0.459   85.549  155.048    5.509
  457.750    0.304    0.470   82.564  155.294    5.779
  458.000    0.305    0.470   80.451  155.321    6.030
  458.250    0.321    0.451   78.720  154.843    5.982
  458.500    0.317    0.440   80.306  154.765    5.836
  458.750    0.307    0.444   80.950  154.797    5.651
  459.000    0.291    0.450   81.285  155.142    5.273
  459.250    0.296    0.449   81.428  155.594    4.872
  459.500    0.308    0.439   81.830  156.255    4.315
  459.750    0.299    0.429   82.224  157.020    4.155
  460.000    0.287    0.425   82.868  157.992    4.061
  460.250    0.259    0.439   83.576  158.965    4.029
  460.500    0.247    0.433   85.790  158.790    4.080
  460.750    0.259    0.435   88.501  158.093    4.163
  461.000    0.263    0.441   90.466  156.872    4.223
  461.250    0.265    0.434   92.427  155.236    4.341
  461.500    0.265    0.418   96.642  154.016    4.529
  461.750    0.267    0.429   96.850  152.911    4.804
  462.000    0.278    0.444   87.727  152.629    5.292
  462.250    0.294    0.461   79.604  152.659    5.763
  462.500    0.320    0.480   72.922  153.108    6.056
  462.750    0.344    0.450   71.503  154.186    6.367
  463.000    0.350    0.436   71.772  154.218    6.246
  463.250    0.336    0.435   72.984  152.894    5.583
  463.500    0.329    0.443   75.071  151.676    4.943
  463.750    0.316    0.451   80.916  152.024    4.224
  464.000    0.298    0.458   89.579  154.039    3.747
  464.250    0.274    0.466   96.427  156.475    3.509
  464.500    0.248    0.478  102.083  158.599    3.429
  464.750    0.227    0.498  109.306  159.887    3.460
  465.000    0.229    0.476  107.950  160.855    3.557
  465.250    0.228    0.440  103.648  161.939    3.676
  465.500    0.228    0.433  102.602  162.699    3.793
  465.750    0.224    0.434  108.134  163.984    3.835
  466.000    0.239    0.459  115.858  164.856    3.846
  466.250    0.249    0.454  130.034  164.884    3.809
  466.500    0.234    0.456  129.243  164.820    3.716
  466.750    0.234    0.477  121.181  164.848    3.742
  467.000    0.247    0.489  110.865  164.883    3.818
  467.250    0.243    0.441   99.361  164.288    3.946
  467.500    0.237    0.419   91.927  161.920    4.148
  467.750    0.278    0.430   94.454  158.717    4.384
  468.000    0.304    0.443   87.771  155.309    4.828
  468.250    0.315    0.406   87.166  153.461    5.623
