~VERSION INFORMATION
 VERS.                 2.0:   CWLS LOG ASCII STANDARD -VERSION 2.0
 WRAP.                  NO:   ONE LINE PER DEPTH STEP
~WELL INFORMATION BLOCK
#MNEM.UNIT           DATA                    DESCRIPTION OF MNEMONIC
#---------    -------------------            -------------------------------
# Generated from Intellog Unique Number	CW_70_72/WELL/3300
NULL.         -999.25                        : NULL_VALUE
WELL.         CALSTAN SOBC MITSUE            : Well_name    - WELL              
LOC .         04-03-072-04W5                 : Location     - LOCATION          
UWI .         00/04-03-072-04W5/0            : Uwi          - UNIQUE WELL ID    
ENTR.         Campbell                       : Entered      - ENTERED BY        
SRVC.         SCHLUMBERGER                   : Scn          - SERVICE COMPANY   
DATE.         24 JULY 1965                   : Date         - LOG DATE          
STRT.M        621.792                        : top_depth    - START DEPTH       
STOP.M        765.042                        : bot_depth    - STOP DEPTH        
STEP.M        0.25                           : increment    - STEP LENGTH       
~CURVE INFORMATION BLOCK
#MNEM UNIT       ERCB CURVE CODE    CURVE DESCRIPTION
#-----------   ------------------   ----------------------------------
DEPT.M        00 001 00 00         : DEPTH        - DEPTH                       
DELT.US/F     00 520 00 00         : DELT         - SONIC TRAVEL TIME           
ILD .OHMM     00 120 00 00         : RESD         - DEEP RESISTIVITY (DIL)      
GR  .API      00 310 00 00         : GR           - GAMMA RAY                   
~PARAMETER INFORMATION       
#MNEM.UNIT           DATA             DESCRIPTION OF MNEMONIC
#---------         -----------     ------------------------------
GL  .M        739.597              : gl           - GROUND LEVEL ELEVATION      
EREF.M        744.626              : kb           - ELEVATION OF DEPTH REFERENCE
DATM.M        744.626              : datum        - DATUM ELEVATION             
TDD .M        1815.08              : tdd          - TOTAL DEPTH DRILLER         
RUN .         ONE                  : Run          - RUN NUMBER                  
ENG .         WOOLLAM              : Engineer     - RECORDING ENGINEER          
WIT .         CHANT                : Witness      - WITNESSED BY                
MUD .         GEL                  : Mud_type     - MUD TYPE                    
MATR.         SANDSTONE            : Logunit      - NEUTRON MATRIX              
TMAX.C        51.1111              : BHT          - MAXIMUM RECORDED TEMPERATURE
BHTD.M        1815.08              : BHTDEP       - MAXIMUM RECORDED TEMPERATURE
RMT .C        21.1111              : MDTP         - TEMPERATURE OF MUD          
MUDD.KG/M     10000                : MWT          - MUD DENSITY                 
NEUT.         1                    : NEUTRON      - NEUTRON TYPE                
RESI.         0                    : RESIST       - RESISTIVITY TYPE            
RM  .OHMM     1.9                  : RM           - RESISTIVITY OF MUD          
RMC .OHMM     2                    : RMC          - RESISTIVITY OF MUD CAKE     
RMF .OHMM     1.5                  : RMF          - RESISTIVITY OF MUD FILTRATE 
SUFT.C        20                   : SUFT         - SURFACE TEMPERATURE         
~A  DEPTH     DELT     RESD       GR
# ...
  730.292  348.755    6.346   55.480
  730.542  348.725    6.250   55.260
  730.792  353.867    6.155   56.917
  731.042  350.270    6.059   59.278
  731.292  356.059    5.866   57.179
  731.542  355.374    5.770   56.487
  731.792  354.046    5.577   55.794
  732.042  352.070    5.579   55.103
  732.292  342.973    5.581   56.528
  732.542  339.053    5.779   57.712
  732.792  337.724    5.977   58.197
  733.042  334.451    6.370   57.507
  733.292  333.446    6.666   56.345
  733.542  330.824    6.766   56.593
  733.792  326.584    6.769   56.370
  734.042  319.104    6.967   54.973
  734.292  308.713    7.164   54.282
  734.542  299.297    7.460   53.356
  734.792  296.343    8.147   53.134
  735.042  296.636    8.639   55.496
  735.292  296.602    9.130   56.919
  735.542  303.685    9.719   59.279
  735.792  315.298    9.819   60.701
  736.042  295.201    8.843   57.193
  736.292  260.542    7.965   59.319
  736.542  285.423    7.184   63.088
  736.792  296.065    6.502   66.390
  737.042  308.001    5.917   68.985
  737.292  305.698    5.429   71.346
  737.542  300.811    4.943   73.708
  737.792  315.335    4.358   75.600
  738.042  315.301    4.165   75.850
  738.292  330.148    4.167   72.808
  738.542  348.235    4.169   67.186
  738.792  337.521    4.465   64.146
  739.042  324.865    4.956   64.158
  739.292  312.210    5.447   65.816
  739.542  306.352    5.841   67.944
  739.792  298.226    6.332   69.833
  740.042  309.515    6.628   67.969
  740.292  329.543    6.924   68.686
  740.542  338.567    7.415   70.107
  740.792  328.823    7.711   70.121
  741.042  321.020    8.301   69.901
  741.292  343.636    9.183   69.677
  741.542  341.014   10.262   65.934
  741.792  310.561   11.830   63.600
  742.042  299.842   12.614   61.735
  742.292  294.959   10.268   63.158
  742.542  301.072    9.391   64.344
  742.792  325.625    8.903   68.112
  743.042  309.087    8.318   75.640
  743.292  321.351    8.320   73.306
  743.542  336.522    8.421   75.668
  743.792  323.866    8.716   74.505
  744.042  312.828    9.012   69.118
  744.292  306.647    9.504   66.316
  744.542  293.021    9.506   64.683
  744.792  294.928    9.019   63.523
  745.042  303.305    9.021   66.120
  745.292  309.741    9.121   64.724
  745.542  305.174    9.123   64.032
  745.792  310.963    9.223   64.043
  746.042  303.160    9.226   64.294
  746.292  306.361    9.032   66.656
  746.542  306.646    8.741   68.076
  746.792  303.376    8.254   69.028
  747.042  301.078    7.767   69.746
  747.292  306.220    6.986   70.229
  747.542  290.976    6.108   70.476
  747.792  225.579    5.523   70.725
  748.042  224.565    4.840   68.623
  748.292  233.598    3.962   70.985
  748.542  305.070    3.181   75.694
  748.792  351.307    2.498   71.012
  749.042  334.769    1.914   67.033
  749.292  313.055    1.329   68.219
  749.542  325.314    0.940   65.886
  749.792  344.368    0.747   62.141
  750.042  370.219    0.651   62.627
  750.292  360.475    0.653   64.045
  750.542  327.438    0.753   65.470
  750.792  265.599    0.951   66.187
  751.042  246.150    1.442   67.608
  751.292  272.320    1.934   67.857
  751.542  308.848    2.425   68.572
  751.792  328.552    3.406   65.533
  752.042  338.547    3.995   61.793
  752.292  301.300    4.682   63.917
  752.542  287.678    5.272   65.808
  752.792  272.111    5.567   67.466
  753.042  262.044    5.765   68.888
  753.292  260.064    5.963   70.542
  753.542  278.151    5.965   71.262
  753.792  282.322    6.163   71.039
  754.042  268.696    6.166   70.112
  754.292  264.452    6.070   68.015
  754.542  337.869    6.072   70.608
  754.792  339.125    6.074   72.030
  755.042  318.062    6.175   66.174
  755.292  315.435    5.884   62.665
  755.542  334.493    5.690   62.444
  755.792  356.458    5.300   63.632
  756.042  363.541    5.009   64.820
  756.292  369.653    5.012   66.239
  756.542  366.380    5.014   68.836
  756.792  381.232    5.212   69.086
  757.042  378.609    5.507   67.687
  757.292  350.421    5.705   63.709
  757.542  311.879    5.610   62.080
  757.792  290.485    5.514   62.327
  758.042  244.183    5.516   63.750
  758.292  242.532    5.910   65.172
  758.542  303.003    6.108   63.774
  758.792  400.360    6.599   63.788
  759.042  357.937    6.993   64.975
  759.292  333.635    7.093   64.285
  759.542  270.179    7.095   64.062
  759.792  253.317    6.804   65.485
  760.042  261.371    6.806   67.611
  760.292  281.723    7.591   70.911
  760.542  287.188    9.452   71.628
  760.792  294.267   11.607   71.406
  761.042  287.439   14.642   70.248
  761.292  306.492   18.558   65.328
  761.542  297.076   22.279   59.940
  761.792  285.715   28.152   54.552
  762.042  271.118   30.502   46.112
  762.292  259.109   31.776   41.197
  762.542  237.395   33.540   38.860
  762.792  232.181   33.542   38.168
  763.042  265.473   32.664   44.758
  763.292  295.526   30.905   44.535
  763.542  296.466   29.341   44.314
  763.792  301.932   27.778   44.328
  764.042  304.809   26.704   46.219
  764.292  306.069   25.826   47.404
  764.542  308.291   25.045   46.481
  764.792  307.614   24.264   46.962
  765.042  306.605   23.093   48.386
