~VERSION INFORMATION
 VERS.                 2.0:   CWLS LOG ASCII STANDARD -VERSION 2.0
 WRAP.                  NO:   ONE LINE PER DEPTH STEP
~WELL INFORMATION BLOCK
#MNEM.UNIT           DATA                    DESCRIPTION OF MNEMONIC
#---------    -------------------            -------------------------------
# Generated from Intellog Unique Number	CS_69_70/WELL/829
NULL.         -999.25                        : NULL_VALUE
WELL.         HB CCS PITLOCHRIE              : Well_name    - WELL              
LOC .         00/07-16-070-12W4/0            : Location     - LOCATION          
UWI .         00/07-16-070-12W4/0            : Uwi          - UNIQUE WELL ID    
ENTR.         SP                             : Entered      - ENTERED BY        
SRVC.         SCHLUMBERGER                   : Scn          - SERVICE COMPANY   
STRT.M        286.512                        : top_depth    - START DEPTH       
STOP.M        496.012                        : bot_depth    - STOP DEPTH        
STEP.M        0.25                           : increment    - STEP LENGTH       
~CURVE INFORMATION BLOCK
#MNEM UNIT       ERCB CURVE CODE    CURVE DESCRIPTION
#-----------   ------------------   ----------------------------------
DEPT.M        00 001 00 00         : DEPTH        - DEPTH                       
GR  .API      00 310 00 00         : GR           - GAMMA RAY                   
DPHI.V/V      00 890 00 00         : PHID         - DENSITY POROSITY (SANDSTONE)
NPHI.V/V      00 330 00 00         : PHIN         - NEUTRON POROSITY (SANDSTONE)
ILD .OHMM     00 120 00 00         : RESD         - DEEP RESISTIVITY (DIL)      
~PARAMETER INFORMATION       
#MNEM.UNIT           DATA             DESCRIPTION OF MNEMONIC
#---------         -----------     ------------------------------
GL  .M        604.388              : gl           - GROUND LEVEL ELEVATION      
EREF.M        607.436              : kb           - ELEVATION OF DEPTH REFERENCE
DATM.M        604.388              : datum        - DATUM ELEVATION             
TDD .M        499.872              : tdd          - TOTAL DEPTH DRILLER         
RUN .         ONE                  : Run          - RUN NUMBER                  
ENG .         BILL                 : Engineer     - RECORDING ENGINEER          
WIT .         JIM                  : Witness      - WITNESSED BY                
MUD .         GEL                  : Mud_type     - MUD TYPE                    
MATR.         SANDSTONE            : Logunit      - NEUTRON MATRIX              
TMAX.C        26.1111              : BHT          - MAXIMUM RECORDED TEMPERATURE
BHTD.M        499.872              : BHTDEP       - MAXIMUM RECORDED TEMPERATURE
MATR.         1                    : LOGUNIT      - NEUTRON MATRIX              
RMT .C        25                   : MDTP         - TEMPERATURE OF MUD          
NEUT.         1                    : NEUTRON      - NEUTRON TYPE                
RESI.         0                    : RESIST       - RESISTIVITY TYPE            
RMC .OHMM     0.25                 : RMC          - RESISTIVITY OF MUD CAKE     
RMF .OHMM     0.25                 : RMF          - RESISTIVITY OF MUD FILTRATE 
SUFT.C        15                   : SUFT         - SURFACE TEMPERATURE         
~A  DEPTH       GR     PHID     PHIN     RESD
# ...
  330.012   86.915    0.260    0.514    6.204
  330.262   87.731    0.264    0.512    6.021
  330.512   89.210    0.283    0.516    5.885
  330.762   92.607    0.299    0.520    5.891
  331.012   96.848    0.283    0.523    6.005
  331.262   98.787    0.271    0.529    6.172
  331.512   99.883    0.259    0.529    6.182
  331.762   99.725    0.256    0.533    5.982
  332.012   99.150    0.248    0.532    5.800
  332.262   98.442    0.243    0.523    5.837
  332.512   97.961    0.251    0.514    5.854
  332.762   97.678    0.267    0.513    5.971
  333.012   96.604    0.256    0.530    6.023
  333.262   94.627    0.264    0.525    6.112
  333.512   93.240    0.294    0.510    6.113
  333.762   92.002    0.283    0.505    5.975
  334.012   90.366    0.277    0.505    5.720
  334.262   92.875    0.276    0.507    5.657
  334.512   94.351    0.267    0.510    5.703
  334.762   94.856    0.267    0.517    5.733
  335.012   91.505    0.257    0.533    5.745
  335.262   83.265    0.279    0.526    5.770
  335.512   77.581    0.309    0.485    5.736
  335.762   78.572    0.309    0.465    5.698
  336.012   80.946    0.313    0.455    5.597
  336.262   82.675    0.317    0.452    5.495
  336.512   84.438    0.326    0.471    5.504
  336.762   85.094    0.318    0.487    5.562
  337.012   84.989    0.304    0.503    5.716
  337.262   86.149    0.298    0.515    5.957
  337.512   87.841    0.297    0.505    6.080
  337.762   89.440    0.299    0.496    6.271
  338.012   90.570    0.293    0.495    6.342
  338.262   90.691    0.284    0.503    6.355
  338.512   89.542    0.275    0.481    6.356
  338.762   87.937    0.268    0.464    6.480
  339.012   87.335    0.270    0.460    6.722
  339.262   88.083    0.268    0.463    6.961
  339.512   88.846    0.249    0.455    7.170
  339.762   90.484    0.238    0.448    7.316
  340.012   92.306    0.230    0.444    7.434
  340.262   94.368    0.245    0.438    7.452
  340.512   95.715    0.238    0.453    7.431
  340.762   95.940    0.237    0.469    7.399
  341.012   97.097    0.247    0.481    7.338
  341.262   99.674    0.247    0.475    7.256
  341.512  101.913    0.250    0.477    7.106
  341.762  103.528    0.252    0.487    6.925
  342.012  104.390    0.257    0.507    6.733
  342.262  104.332    0.263    0.491    6.498
  342.512  105.318    0.252    0.482    6.234
  342.762  100.516    0.244    0.505    5.991
  343.012   93.890    0.274    0.543    5.788
  343.262   86.019    0.310    0.569    5.657
  343.512   78.812    0.333    0.544    5.591
  343.762   73.186    0.333    0.518    5.591
  344.012   69.435    0.324    0.493    5.660
  344.262   69.207    0.324    0.483    5.758
  344.512   71.445    0.321    0.480    5.787
  344.762   72.266    0.316    0.497    5.802
  345.012   69.447    0.318    0.513    5.751
  345.262   68.126    0.324    0.514    5.667
  345.512   67.557    0.332    0.503    5.545
  345.762   64.363    0.336    0.501    5.404
  346.012   60.809    0.336    0.502    5.375
  346.262   59.696    0.337    0.483    5.515
  346.512   60.295    0.337    0.474    5.821
  346.762   61.231    0.324    0.478    6.174
  347.012   63.976    0.314    0.479    6.458
  347.262   68.892    0.305    0.472    6.568
  347.512   73.444    0.298    0.480    6.633
  347.762   78.319    0.299    0.491    6.593
  348.012   82.825    0.307    0.512    6.512
  348.262   87.734    0.299    0.514    6.547
  348.512   91.920    0.292    0.494    6.678
  348.762   94.796    0.301    0.487    6.890
  349.012   94.568    0.301    0.493    7.073
  349.262   93.466    0.294    0.486    7.240
  349.512   92.367    0.282    0.487    7.363
  349.762   90.602    0.270    0.493    7.371
  350.012   89.167    0.275    0.512    7.299
  350.262   88.114    0.290    0.505    7.177
  350.512   84.972    0.288    0.489    7.050
  350.762   82.108    0.286    0.478    6.871
  351.012   79.665    0.302    0.468    6.686
  351.262   79.825    0.299    0.469    6.555
  351.512   81.368    0.292    0.460    6.479
  351.762   81.924    0.286    0.448    6.414
  352.012   82.493    0.286    0.466    6.387
  352.262   81.789    0.309    0.470    6.425
  352.512   82.290    0.296    0.455    6.481
  352.762   80.173    0.278    0.462    6.523
  353.012   74.054    0.284    0.480    6.381
  353.262   69.553    0.304    0.498    6.014
  353.512   69.427    0.320    0.512    5.678
  353.762   71.256    0.334    0.521    5.473
  354.012   66.937    0.326    0.510    5.492
  354.262   65.884    0.318    0.503    5.376
  354.512   68.517    0.324    0.494    5.544
  354.762   72.091    0.330    0.496    5.696
  355.012   68.575    0.331    0.510    5.862
  355.262   67.563    0.337    0.495    5.943
  355.512   70.599    0.338    0.475    5.982
  355.762   77.492    0.331    0.480    5.850
  356.012   81.169    0.326    0.487    5.629
  356.262   85.104    0.318    0.488    5.379
  356.512   87.415    0.304    0.496    5.221
  356.762   88.348    0.293    0.518    5.238
  357.012   88.994    0.276    0.547    5.646
  357.262   87.218    0.261    0.571    6.162
  357.512   81.315    0.246    0.557    6.623
  357.762   76.644    0.301    0.535    6.973
  358.012   75.376    0.295    0.510    7.267
  358.262   76.173    0.313    0.511    7.495
  358.512   73.874    0.320    0.513    7.552
  358.762   72.046    0.333    0.503    7.592
  359.012   73.143    0.340    0.515    7.567
  359.262   72.661    0.338    0.529    7.484
  359.512   70.443    0.333    0.531    7.444
  359.762   68.868    0.330    0.515    7.449
  360.012   67.244    0.334    0.505    7.450
  360.262   66.001    0.330    0.497    7.576
  360.512   66.313    0.324    0.489    7.621
  360.762   67.437    0.320    0.487    7.754
  361.012   67.205    0.317    0.497    7.993
  361.262   66.245    0.319    0.486    8.349
  361.512   65.216    0.317    0.473    8.749
  361.762   65.900    0.313    0.485    9.044
  362.012   66.579    0.308    0.493    9.147
  362.262   66.798    0.305    0.484    9.220
  362.512   67.093    0.307    0.474    9.176
  362.762   68.048    0.312    0.475    9.124
  363.012   69.615    0.315    0.479    9.059
  363.262   71.175    0.315    0.479    8.981
  363.512   70.445    0.315    0.477    8.969
  363.762   70.670    0.315    0.482    8.962
  364.012   72.892    0.315    0.495    8.984
  364.262   73.574    0.314    0.493    9.049
  364.512   73.532    0.285    0.503    9.139
  364.762   72.800    0.289    0.496    9.237
  365.012   72.735    0.287    0.489    9.320
  365.262   73.182    0.275    0.483    9.391
  365.512   74.291    0.259    0.482    9.368
  365.762   77.009    0.262    0.487    9.252
  366.012   79.138    0.273    0.491    8.976
  366.262   78.020    0.290    0.522    8.727
  366.512   70.190    0.319    0.540    8.319
  366.762   64.475    0.343    0.521    8.151
  367.012   60.865    0.339    0.498    7.902
  367.262   60.320    0.333    0.489    7.721
  367.512   61.481    0.333    0.483    7.601
  367.762   62.462    0.340    0.494    7.521
  368.012   64.342    0.345    0.497    7.569
  368.262   65.497    0.347    0.491    7.590
  368.512   66.047    0.353    0.486    7.567
  368.762   65.598    0.354    0.496    7.329
  369.012   63.904    0.347    0.500    7.122
  369.262   62.826    0.351    0.510    6.937
  369.512   63.369    0.358    0.524    6.710
  369.762   64.213    0.356    0.535    6.543
  370.012   64.791    0.361    0.529    6.376
  370.262   64.604    0.364    0.519    6.258
  370.512   63.841    0.361    0.512    6.156
  370.762   62.197    0.359    0.514    6.136
  371.012   62.044    0.358    0.509    6.164
  371.262   62.730    0.363    0.502    6.180
  371.512   64.575    0.358    0.502    6.179
  371.762   66.426    0.357    0.499    6.154
  372.012   67.249    0.369    0.483    6.184
  372.262   67.697    0.364    0.480    6.276
  372.512   66.919    0.354    0.479    6.347
  372.762   65.048    0.350    0.478    6.605
  373.012   63.212    0.341    0.473    7.147
  373.262   62.775    0.319    0.455    8.438
