~VERSION INFORMATION
 VERS.                 2.0:   CWLS LOG ASCII STANDARD -VERSION 2.0
 WRAP.                  NO:   ONE LINE PER DEPTH STEP
~WELL INFORMATION BLOCK
#MNEM.UNIT           DATA                    DESCRIPTION OF MNEMONIC
#---------    -------------------            -------------------------------
# Generated from Intellog Unique Number	CW_70_72/WELL/773
NULL.         -999.25                        : NULL_VALUE
WELL.         CANOXY SMITH 06-29             : Well_name    - WELL              
LOC .         06-29-071-01W5                 : Location     - LOCATION          
UWI .         00/06-29-071-01W5/0            : Uwi          - UNIQUE WELL ID    
ENTR.         JAYE                           : Entered      - ENTERED BY        
SRVC.         SCHLUMBERGER                   : Scn          - SERVICE COMPANY   
DATE.         31 DEC 76                      : Date         - LOG DATE          
STRT.M        387.096                        : top_depth    - START DEPTH       
STOP.M        646.096                        : bot_depth    - STOP DEPTH        
STEP.M        0.25                           : increment    - STEP LENGTH       
~CURVE INFORMATION BLOCK
#MNEM UNIT       ERCB CURVE CODE    CURVE DESCRIPTION
#-----------   ------------------   ----------------------------------
DEPT.M        00 001 00 00         : DEPTH        - DEPTH                       
DPHI.V/V      00 890 00 00         : PHID         - DENSITY POROSITY (SANDSTONE)
NPHI.V/V      00 330 00 00         : PHIN         - NEUTRON POROSITY (SANDSTONE)
GR  .API      00 310 00 00         : GR           - GAMMA RAY                   
CALI.MM       00 280 01 00         : CAL          - CALIPER                     
ILD .OHMM     00 120 00 00         : RESD         - DEEP RESISTIVITY (DIL)      
~PARAMETER INFORMATION       
#MNEM.UNIT           DATA             DESCRIPTION OF MNEMONIC
#---------         -----------     ------------------------------
GL  .M        585.826              : gl           - GROUND LEVEL ELEVATION      
EREF.M        588.874              : kb           - ELEVATION OF DEPTH REFERENCE
DATM.M        585.826              : datum        - DATUM ELEVATION             
TDD .M        660.806              : tdd          - TOTAL DEPTH DRILLER         
RUN .         ONE                  : Run          - RUN NUMBER                  
BASE.         EDM                  : Branch       - HOME BASE OF LOGGING UNIT   
MATR.         SANDSTONE            : Logunit      - NEUTRON MATRIX              
TMAX.C        27.2222              : BHT          - MAXIMUM RECORDED TEMPERATURE
BHTD.M        660.502              : BHTDEP       - MAXIMUM RECORDED TEMPERATURE
RMT .C        8.33333              : MDTP         - TEMPERATURE OF MUD          
MUDD.KG/M     0                    : MWT          - MUD DENSITY                 
NEUT.         1                    : NEUTRON      - NEUTRON TYPE                
RESI.         0                    : RESIST       - RESISTIVITY TYPE            
RM  .OHMM     4.28                 : RM           - RESISTIVITY OF MUD          
RMC .OHMM     0                    : RMC          - RESISTIVITY OF MUD CAKE     
RMF .OHMM     3.46                 : RMF          - RESISTIVITY OF MUD FILTRATE 
SUFT.C        -17.7778             : SUFT         - SURFACE TEMPERATURE         
~A  DEPTH     PHID     PHIN       GR      CAL     RESD
# ...
  423.596    0.244    0.414   88.233  165.954    3.425
  423.846    0.249    0.413   72.587  166.001    3.252
  424.096    0.250    0.430   71.033  166.036    3.134
  424.346    0.228    0.435   73.123  166.283    2.948
  424.596    0.226    0.432   76.061  167.245    2.805
  424.846    0.239    0.416   79.670  170.577    2.718
  425.096    0.225    0.417   82.853  174.120    2.648
  425.346    0.208    0.431   88.162  175.393    2.585
  425.596    0.181    0.436   91.525  175.124    2.566
  425.846    0.191    0.436   92.947  173.316    2.547
  426.096    0.202    0.434   90.299  171.710    2.514
  426.346    0.238    0.432   84.857  170.115    2.445
  426.596    0.257    0.434   78.201  169.633    2.356
  426.846    0.277    0.433   71.484  169.166    2.300
  427.096    0.298    0.426   66.710  169.098    2.262
  427.346    0.281    0.420   64.729  169.146    2.233
  427.596    0.276    0.415   65.057  168.982    2.204
  427.846    0.266    0.439   66.723  169.225    2.188
  428.096    0.254    0.445   67.415  169.377    2.191
  428.346    0.247    0.440   67.803  169.412    2.207
  428.596    0.250    0.431   68.623  169.669    2.219
  428.846    0.254    0.421   69.735  169.710    2.223
  429.096    0.253    0.413   72.555  169.751    2.235
  429.346    0.259    0.426   75.373  169.783    2.247
  429.596    0.258    0.440   77.524  169.723    2.281
  429.846    0.253    0.449   77.001  169.869    2.314
  430.096    0.221    0.441   75.266  170.027    2.344
  430.346    0.223    0.437   72.130  170.160    2.410
  430.596    0.241    0.455   71.002  170.400    2.486
  430.846    0.255    0.432   71.878  170.652    2.593
  431.096    0.258    0.425   73.417  170.796    2.716
  431.346    0.256    0.443   76.781  170.630    2.886
  431.596    0.250    0.451   80.390  170.563    3.188
  431.846    0.219    0.446   82.661  170.714    3.375
  432.096    0.184    0.436   78.800  170.754    3.374
  432.346    0.165    0.422   73.356  170.695    3.088
  432.596    0.170    0.411   66.275  170.525    2.911
  432.846    0.194    0.422   64.296  170.052    2.836
  433.096    0.230    0.409   68.088  169.478    2.847
  433.346    0.241    0.405   71.819  169.215    2.937
  433.596    0.230    0.412   74.818  168.953    3.013
  433.846    0.214    0.423   77.820  168.996    3.075
  434.096    0.224    0.429   80.512  169.023    3.126
  434.346    0.215    0.435   84.364  169.181    3.137
  434.596    0.200    0.445   84.752  169.209    3.137
  434.846    0.239    0.436   80.890  169.472    3.096
  435.096    0.240    0.429   81.763  169.711    3.056
  435.346    0.236    0.422   81.910  169.956    3.022
  435.596    0.246    0.409   79.809  170.403    3.016
  435.846    0.241    0.406   79.288  170.755    3.038
  436.096    0.230    0.412   82.468  171.004    3.072
  436.346    0.206    0.413   89.602  171.767    3.175
  436.596    0.162    0.418   97.216  175.093    3.312
  436.846    0.128    0.448  103.617  182.849    3.481
  437.096    0.133    0.435  109.109  187.211    3.598
  437.346    0.140    0.431  110.712  189.414    3.706
  437.596    0.146    0.435  109.400  191.096    3.788
  437.846    0.143    0.450  109.245  192.689    3.865
  438.096    0.146    0.455  110.361  193.032    3.973
  438.346    0.155    0.448  110.385  193.071    4.032
  438.596    0.147    0.440  105.915  192.710    4.092
  438.846    0.145    0.433  108.004  192.024    4.121
  439.096    0.144    0.443  110.458  190.419    4.106
  439.346    0.159    0.448  106.415  188.101    4.075
  439.596    0.172    0.436  102.246  185.772    4.166
  439.846    0.199    0.447   94.861  182.525    4.585
  440.096    0.217    0.442   85.594  178.760    5.472
  440.346    0.257    0.461   75.354  176.647    6.740
  440.596    0.391    0.517   66.571  176.475    7.514
  440.846    0.531    0.593   56.815  177.445    7.853
  441.096    0.593    0.618   49.614  179.544    8.177
  441.346    0.510    0.638   54.678  182.878    8.390
  441.596    0.394    0.572   62.538  184.972    8.705
  441.846    0.459    0.520   51.993  179.255    8.948
  442.096    0.497    0.450   36.349  173.121    9.063
  442.346    0.458    0.423   39.290  174.814    8.962
  442.596    0.412    0.405   47.876  177.323    7.605
  442.846    0.194    0.399   56.526  179.526    6.585
  443.096    0.199    0.406   61.591  180.590    7.234
  443.346    0.212    0.411   58.884  179.920    7.859
  443.596    0.214    0.418   52.956  178.517    8.601
  443.846    0.221    0.423   50.489  177.014    9.414
  444.096    0.212    0.424   48.693  175.205   10.190
  444.346    0.235    0.423   47.808  173.802   10.709
  444.596    0.250    0.409   46.978  171.076   11.131
  444.846    0.260    0.399   45.911  169.565   11.655
  445.096    0.270    0.407   45.448  168.681   11.959
  445.346    0.264    0.400   45.229  168.213   11.355
  445.596    0.260    0.392   47.927  167.844   10.278
  445.846    0.263    0.393   50.562  167.778    9.149
  446.096    0.261    0.391   50.100  167.823    8.145
  446.346    0.247    0.391   46.664  167.758    7.237
  446.596    0.251    0.402   47.903  167.079    6.395
  446.846    0.246    0.410   49.567  166.299    5.456
  447.096    0.242    0.412   50.867  165.828    4.786
  447.346    0.240    0.406   52.959  165.454    4.160
  447.596    0.236    0.398   54.804  165.202    3.737
  447.846    0.241    0.391   55.923  164.925    3.206
  448.096    0.230    0.386   56.858  164.347    2.844
  448.346    0.239    0.377   52.813  163.871    2.641
  448.596    0.251    0.383   50.589  163.098    2.508
  448.846    0.272    0.393   51.710  162.518    2.448
  449.096    0.287    0.394   53.430  162.160    2.489
  449.346    0.281    0.393   56.980  161.778    2.512
  449.596    0.272    0.394   58.765  162.227    2.502
  449.846    0.258    0.397   59.882  162.482    2.488
  450.096    0.252    0.398   60.999  162.723    2.460
  450.346    0.269    0.398   62.059  162.770    2.420
  450.596    0.304    0.399   62.812  162.810    2.371
  450.846    0.306    0.401   63.502  162.849    2.323
  451.096    0.296    0.405   63.771  163.094    2.276
  451.346    0.303    0.419   64.097  163.339    2.226
  451.596    0.293    0.444   62.967  163.690    2.189
  451.846    0.284    0.429   60.326  163.951    2.161
  452.096    0.275    0.412   60.284  163.889    2.137
  452.346    0.273    0.401   62.980  163.819    2.137
  452.596    0.275    0.416   61.790  163.859    2.266
  452.846    0.264    0.422   58.536  163.795    2.646
  453.096    0.260    0.420   56.555  163.530    3.049
  453.346    0.260    0.410   56.580  163.369    3.527
  453.596    0.223    0.396   57.394  163.516    3.693
  453.846    0.187    0.367   57.055  163.657    3.324
  454.096    0.151    0.342   55.986  163.492    2.937
  454.346    0.226    0.359   55.099  163.738    2.644
  454.596    0.246    0.386   55.550  164.088    2.553
  454.846    0.265    0.403   57.092  164.128    2.678
  455.096    0.270    0.408   58.696  164.165    2.722
  455.346    0.255    0.404   57.627  164.312    2.561
  455.596    0.239    0.387   55.707  164.564    2.423
  455.846    0.215    0.360   52.937  164.911    2.280
  456.096    0.185    0.344   49.194  165.369    2.137
  456.346    0.256    0.410   48.796  165.613    2.048
  456.596    0.277    0.426   50.945  165.957    1.988
  456.846    0.277    0.441   54.492  166.309    1.959
  457.096    0.287    0.450   57.798  166.552    1.966
  457.346    0.294    0.457   61.282  166.601    1.969
  457.596    0.302    0.445   63.615  166.541    1.966
  457.846    0.309    0.420   59.510  166.265    1.958
  458.096    0.279    0.416   56.921  165.905    1.958
  458.346    0.260    0.430   56.888  165.635    1.968
  458.596    0.290    0.430   58.553  165.467    1.987
  458.846    0.290    0.430   60.943  165.608    2.019
  459.096    0.288    0.432   63.339  165.654    2.034
  459.346    0.283    0.449   64.331  165.703    2.053
  459.596    0.282    0.446   65.389  165.738    2.060
  459.846    0.277    0.434   64.809  165.886    2.087
