~VERSION INFORMATION
 VERS.                 2.0:   CWLS LOG ASCII STANDARD -VERSION 2.0
 WRAP.                  NO:   ONE LINE PER DEPTH STEP
~WELL INFORMATION BLOCK
#MNEM.UNIT           DATA                    DESCRIPTION OF MNEMONIC
#---------    -------------------            -------------------------------
# Generated from Intellog Unique Number	CS_69_70/WELL/774
WELL.         ET AL HEART LAKE               : Well_name    - WELL
LOC .         00/06-23-069-11W4/0            : Location     - LOCATION
UWI .         00/06-23-069-11W4/0            : Uwi          - UNIQUE WELL ID
ENTR.         SP                             : Entered      - ENTERED BY
SRVC.         SCHLUMBERGER                   : Scn          - SERVICE COMPANY
STRT.M        310                            : top_depth    - START DEPTH
STOP.M        505                            : bot_depth    - STOP DEPTH
STEP.M        0.25                           : increment    - STEP LENGTH
 NULL. -999.2500:NULL Value
~CURVE INFORMATION BLOCK
#MNEM UNIT       ERCB CURVE CODE    CURVE DESCRIPTION
#-----------   ------------------   ----------------------------------
DEPT.M        00 001 00 00         : DEPTH        - DEPTH
ILD .OHMM     00 120 00 00         : RESD         - DEEP RESISTIVITY (DIL)
DPHI.V/V      00 890 00 00         : PHID         - DENSITY POROSITY (LIMESTONE)
NPHI.V/V      00 330 00 00         : PHIN         - NEUTRON POROSITY (LIMESTONE)
GR  .API      00 310 00 00         : GR           - GAMMA RAY
~PARAMETER INFORMATION
#MNEM.UNIT           DATA             DESCRIPTION OF MNEMONIC
#---------         -----------     ------------------------------
GL  .M        634.4                : gl           - GROUND LEVEL ELEVATION
EREF.M        638.8                : kb           - ELEVATION OF DEPTH REFERENCE
DATM.M        634.4                : datum        - DATUM ELEVATION
TDD .M        507                  : tdd          - TOTAL DEPTH DRILLER
RUN .         ONE                  : Run          - RUN NUMBER
ENG .         BILL                 : Engineer     - RECORDING ENGINEER
WIT .         JIM                  : Witness      - WITNESSED BY
MUD .         GEL                  : Mud_type     - MUD TYPE
MATR.         LIMESTONE            : Logunit      - NEUTRON MATRIX
TMAX.C        20                   : BHT          - MAXIMUM RECORDED TEMPERATURE
BHTD.M        507                  : BHTDEP       - MAXIMUM RECORDED TEMPERATURE
MATR.         1                    : LOGUNIT      - NEUTRON MATRIX
RMT .C        25                   : MDTP         - TEMPERATURE OF MUD
NEUT.         1                    : NEUTRON      - NEUTRON TYPE
RESI.         0                    : RESIST       - RESISTIVITY TYPE
RMC .OHMM     0.25                 : RMC          - RESISTIVITY OF MUD CAKE
RMF .OHMM     0.25                 : RMF          - RESISTIVITY OF MUD FILTRATE
SUFT.C        15                   : SUFT         - SURFACE TEMPERATURE
~A  DEPTH     RESD     PHID     PHIN       GR
  310.000    2.557    0.236    0.557   99.225
  310.250    2.581    0.244    0.570   97.452
  310.500    2.624    0.234    0.510   95.068
  310.750    2.624    0.226    0.511   93.967
  311.000    2.614    0.231    0.530   93.663
  311.250    2.639    0.229    0.538   95.621
  311.500    2.729    0.223    0.518   93.236
  311.750    2.760    0.222    0.506   94.461
  312.000    2.755    0.185    0.530   97.949
  312.250    2.703    0.120    0.533   97.216
  312.500    2.683    0.092    0.538   94.341
  312.750    2.672    0.091    0.514   90.244
  313.000    2.672    0.138    0.481   99.421
  313.250    2.682    0.186    0.503  102.542
  313.500    2.738    0.230    0.500  101.626
  313.750    2.848    0.229    0.476  100.587
  314.000    2.946    0.213    0.494   99.854
  314.250    3.035    0.203    0.513  100.038
  314.500    3.181    0.199    0.523   99.794
  314.750    3.315    0.180    0.509   97.899
  315.000    3.501    0.124    0.493   90.620
  315.250    3.649    0.079    0.456   85.177
  315.500    3.676    0.120    0.441   80.834
  315.750    3.527    0.152    0.449   97.719
  316.000    3.302    0.181    0.467  102.798
  316.250    3.150    0.182    0.478  101.759
  316.500    3.044    0.197    0.491  101.087
  316.750    2.988    0.202    0.499  100.844
  317.000    2.970    0.196    0.511  100.722
  317.250    2.948    0.211    0.524  100.845
  317.500    2.931    0.220    0.533  101.213
  317.750    2.942    0.217    0.550  101.031
  318.000    2.998    0.227    0.564   98.707
  318.250    3.026    0.238    0.544   96.139
  318.500    3.031    0.211    0.527   95.100
  318.750    3.008    0.188    0.514   94.183
  319.000    3.002    0.201    0.511   94.857
  319.250    2.979    0.216    0.518   95.103
  319.500    2.940    0.229    0.517   94.798
  319.750    2.880    0.242    0.503   97.063
  320.000    2.815    0.222    0.507  101.774
  320.250    2.783    0.211    0.525  100.980
  320.500    2.863    0.218    0.514   95.781
  320.750    2.950    0.223    0.504   96.149
  321.000    3.057    0.257    0.517   94.560
  321.250    3.308    0.289    0.532   85.446
  321.500    3.731    0.308    0.544   78.962
  321.750    4.296    0.309    0.472   70.644
  322.000    4.800    0.283    0.433   67.280
  322.250    5.126    0.265    0.413   76.213
  322.500    5.403    0.255    0.398   80.006
  322.750    5.673    0.258    0.388   84.596
  323.000    5.781    0.257    0.402   87.349
  323.250    5.868    0.249    0.415   89.858
  323.500    5.867    0.240    0.425   91.817
  323.750    5.801    0.234    0.405   93.470
  324.000    5.768    0.235    0.398   96.040
  324.250    5.703    0.225    0.399   99.100
  324.500    5.659    0.207    0.405  101.731
  324.750    5.606    0.187    0.420  101.121
  325.000    5.574    0.194    0.431   99.470
  325.250    5.552    0.206    0.424   99.349
  325.500    5.510    0.211    0.427  101.919
  325.750    5.458    0.215    0.438  103.572
  326.000    5.468    0.218    0.432  105.408
  326.250    5.519    0.203    0.406  106.877
  326.500    5.561    0.217    0.403  105.899
  326.750    5.519    0.242    0.419   93.482
  327.000    5.334    0.244    0.357   78.373
  327.250    5.089    0.241    0.327   70.788
  327.500    4.882    0.242    0.358   66.813
  327.750    4.728    0.256    0.392   73.421
  328.000    4.613    0.268    0.415   65.469
  328.250    4.493    0.246    0.389   56.906
  328.500    4.401    0.223    0.375   46.691
  328.750    4.302    0.257    0.361   39.106
  329.000    4.246    0.284    0.356   32.806
  329.250    4.213    0.300    0.364   29.565
  329.500    4.317    0.309    0.377   27.547
  329.750    4.474    0.314    0.381   26.692
  330.000    4.499    0.292    0.372   37.092
  330.250    4.533    0.243    0.360   57.097
  330.500    4.541    0.222    0.368   69.700
  330.750    4.540    0.240    0.384   76.430
  331.000    4.548    0.284    0.399   74.413
  331.250    4.522    0.299    0.396   69.275
  331.500    4.438    0.272    0.393   71.234
  331.750    4.155    0.253    0.388   80.166
  332.000    3.817    0.241    0.389   85.245
  332.250    3.448    0.232    0.401   90.262
  332.500    3.228    0.222    0.437   95.646
  332.750    3.339    0.234    0.485  105.619
  333.000    3.794    0.266    0.526  110.147
  333.250    4.176    0.266    0.490   89.654
  333.500    4.692    0.263    0.456   78.522
  333.750    5.106    0.270    0.437   75.219
  334.000    5.464    0.241    0.445   71.917
  334.250    5.683    0.230    0.449   69.043
  334.500    5.868    0.227    0.453   67.331
  334.750    5.979    0.258    0.456   66.537
  335.000    6.057    0.270    0.445   67.639
  335.250    6.045    0.243    0.434   74.797
  335.500    6.000    0.218    0.435   80.916
  335.750    5.921    0.203    0.445   88.380
  336.000    5.691    0.220    0.448   97.007
  336.250    5.480    0.239    0.451  102.269
  336.500    5.238    0.222    0.452  102.392
  336.750    4.969    0.204    0.440  100.191
  337.000    4.696    0.197    0.449  104.413
  337.250    4.404    0.191    0.466  109.124
  337.500    4.139    0.186    0.474  108.636
  337.750    3.875    0.185    0.478  109.616
  338.000    3.809    0.207    0.486  112.614
  338.250    3.788    0.218    0.495  115.980
  338.500    3.787    0.202    0.475  118.489
  338.750    3.816    0.186    0.493  119.102
  339.000    3.925    0.177    0.532  117.940
  339.250    4.121    0.203    0.510  112.986
  339.500    4.279    0.240    0.487  103.934
  339.750    4.319    0.292    0.469   90.415
  340.000    4.262    0.333    0.460   78.059
  340.250    4.166    0.342    0.455   71.147
  340.500    4.158    0.340    0.449   68.640
  340.750    4.229    0.332    0.452   70.904
  341.000    4.482    0.320    0.446   76.105
  341.250    4.733    0.309    0.434   80.083
  341.500    4.951    0.301    0.433   80.512
  341.750    5.160    0.293    0.435   79.901
  342.000    5.228    0.278    0.421   80.759
  342.250    5.150    0.268    0.418   82.595
  342.500    5.063    0.256    0.426   85.288
  342.750    4.949    0.268    0.431   87.552
  343.000    4.829    0.285    0.432   90.061
  343.250    4.766    0.293    0.434   91.592
  343.500    4.703    0.300    0.455   94.101
  343.750    4.667    0.309    0.467   89.758
  344.000    4.632    0.316    0.479   86.028
  344.250    4.649    0.317    0.486   84.622
  344.500    4.675    0.312    0.454   84.011
  344.750    4.683    0.308    0.447   88.111
  345.000    4.665    0.307    0.454   90.620
  345.250    4.613    0.300    0.474   92.273
  345.500    4.561    0.289    0.489   90.377
  345.750    4.500    0.283    0.482   87.564
  346.000    4.492    0.293    0.471   85.118
  346.250    4.491    0.300    0.468   83.835
  346.500    4.491    0.307    0.476   86.160
  346.750    4.499    0.310    0.493   88.975
  347.000    4.516    0.311    0.502   90.873
  347.250    4.601    0.301    0.485   89.711
  347.500    4.777    0.280    0.475   88.122
  347.750    5.044    0.251    0.489   87.328
  348.000    5.140    0.212    0.492   82.068
  348.250    5.043    0.183    0.402   79.316
  348.500    4.912    0.199    0.371   79.500
  348.750    4.757    0.239    0.406   84.395
  349.000    4.564    0.265    0.480   87.822
  349.250    4.420    0.269    0.514   89.720
  349.500    4.272    0.259    0.490   90.516
  349.750    4.240    0.262    0.480   91.618
  350.000    4.304    0.278    0.480   93.148
  350.250    4.452    0.286    0.484   94.067
  350.500    4.790    0.274    0.469   96.087
  350.750    5.392    0.249    0.495   94.314
  351.000    5.770    0.050    0.520   79.205
  351.250    5.651    0.032    0.271   66.420
  351.500    5.442    0.042    0.242   63.791
  351.750    5.221    0.096    0.308   82.511
  352.000    5.009    0.252    0.417   92.361
  352.250    4.878    0.298    0.445   82.024
  352.500    4.841    0.311    0.455   69.668
  352.750    4.896    0.308    0.458   62.817
  353.000    4.951    0.298    0.433   65.816
  353.250    5.016    0.277    0.407   72.913
