~VERSION INFORMATION
 VERS.                 2.0:   CWLS LOG ASCII STANDARD -VERSION 2.0
 WRAP.                  NO:   ONE LINE PER DEPTH STEP
~WELL INFORMATION BLOCK
#MNEM.UNIT           DATA                    DESCRIPTION OF MNEMONIC
#---------    -------------------            -------------------------------
# Generated from Intellog Unique Number	CW_82_90/WELL/288
WELL.         04-19-083-23W4                 : Well_name    - WELL
LOC .         00/04-19-083-23W4/0            : Location     - LOCATION
UWI .         00/04-19-083-23W4/0            : Uwi          - UNIQUE WELL ID
ENTR.         JAYE                           : Entered      - ENTERED BY
SRVC.         SCHLUMBERGER                   : Scn          - SERVICE COMPANY
DATE.         22 JAN 76                      : Date         - LOG DATE
STRT.M        207.264                        : top_depth    - START DEPTH
STOP.M        417.514                        : bot_depth    - STOP DEPTH
STEP.M        0.25                           : increment    - STEP LENGTH
 NULL. -999.2500:NULL Value
~CURVE INFORMATION BLOCK
#MNEM UNIT       ERCB CURVE CODE    CURVE DESCRIPTION
#-----------   ------------------   ----------------------------------
DEPT.M        00 001 00 00         : DEPTH        - DEPTH
CALI.MM       00 280 01 00         : CAL          - CALIPER
GR  .API      00 310 00 00         : GR           - GAMMA RAY
NPHI.V/V      00 330 00 00         : PHIN         - NEUTRON POROSITY (SANDSTONE)
DPHI.V/V      00 890 00 00         : PHID         - DENSITY POROSITY (SANDSTONE)
ILD .OHMM     00 120 00 00         : RESD         - DEEP RESISTIVITY (DIL)
~PARAMETER INFORMATION
#MNEM.UNIT           DATA             DESCRIPTION OF MNEMONIC
#---------         -----------     ------------------------------
GL  .M        592.531              : gl           - GROUND LEVEL ELEVATION
EREF.M        595.884              : kb           - ELEVATION OF DEPTH REFERENCE
DATM.M        592.531              : datum        - DATUM ELEVATION
TDD .M        421.234              : tdd          - TOTAL DEPTH DRILLER
ENG .         DODSWORTH            : Engineer     - RECORDING ENGINEER
WIT .         7658                 : Witness      - WITNESSED BY
BASE.         EDMONTON             : Branch       - HOME BASE OF LOGGING UNIT
MUD .         GEL CHEM             : Mud_type     - MUD TYPE
MATR.         SANDSTONE            : Logunit      - NEUTRON MATRIX
TMAX.C        26.6667              : BHT          - MAXIMUM RECORDED TEMPERATURE
BHTD.M        421.234              : BHTDEP       - MAXIMUM RECORDED TEMPERATURE
RMT .C        -17.7778             : MDTP         - TEMPERATURE OF MUD
MUDD.KG/M     9000                 : MWT          - MUD DENSITY
NEUT.         1                    : NEUTRON      - NEUTRON TYPE
RESI.         0                    : RESIST       - RESISTIVITY TYPE
RM  .OHMM     0                    : RM           - RESISTIVITY OF MUD
RMC .OHMM     0                    : RMC          - RESISTIVITY OF MUD CAKE
RMF .OHMM     64.91                : RMF          - RESISTIVITY OF MUD FILTRATE
SUFT.C        -17.7778             : SUFT         - SURFACE TEMPERATURE
~A  DEPTH      CAL       GR     PHIN     PHID     RESD
# ...
  353.264  158.669   97.954    0.344    0.225   12.508
  353.514  159.228  101.655    0.384    0.226   12.472
  353.764  159.085  102.840    0.384    0.226   12.460
  354.014  159.313  101.701    0.382    0.235   12.563
  354.264  159.313  101.052    0.385    0.244   13.321
  354.514  161.378  100.954    0.387    0.230   13.805
  354.764  160.583   99.573    0.389    0.231   14.880
  355.014  160.583   99.843    0.388    0.235   16.582
  355.264  160.181  101.156    0.388    0.224   17.907
  355.514  160.392  102.462    0.385    0.219   19.370
  355.764  161.683  102.736    0.379    0.222   21.269
  356.014  161.725  102.328    0.379    0.233   21.764
  356.264  161.048   99.048    0.385    0.218   20.264
  356.514  160.665   95.827    0.385    0.213   17.011
  356.764  158.221   92.300    0.377    0.219   15.177
  357.014  157.432   90.180    0.373    0.211   13.644
  357.264  156.774   87.816    0.371    0.203   12.541
  357.514  156.484   88.456    0.363    0.183   11.251
  357.764  156.138   92.459    0.358    0.188   10.633
  358.014  156.152   94.203    0.352    0.220   10.782
  358.264  156.191   88.957    0.364    0.230   11.094
  358.514  156.268   85.800    0.368    0.236   11.250
  358.764  156.486   86.375    0.369    0.244   11.197
  359.014  158.530   88.545    0.367    0.259   10.900
  359.264  158.642   92.794    0.366    0.268   10.689
  359.514  157.991   94.778    0.364    0.250   10.600
  359.764  157.690   90.825    0.359    0.230   10.768
  360.014  156.594   90.423    0.352    0.235   11.162
  360.264  157.494   91.856    0.339    0.240   11.614
  360.514  157.507   93.533    0.324    0.230   12.018
  360.764  157.174   94.172    0.322    0.214   12.437
  361.014  157.075   92.662    0.332    0.200   12.701
  361.264  156.907   88.585    0.344    0.203   13.095
  361.514  157.261   84.566    0.360    0.228   13.679
  361.764  158.135   77.855    0.360    0.244   14.050
  362.014  158.278   70.837    0.347    0.229   14.457
  362.264  158.967   69.208    0.319    0.198   14.740
  362.514  159.089   67.945    0.262    0.141   14.916
  362.764  159.089   66.625    0.233    0.114   15.068
  363.014  161.352   64.323    0.228    0.097   15.366
  363.264  160.979   62.141    0.231    0.100   15.605
  363.514  160.402   64.805    0.237    0.106   16.148
  363.764  160.233   70.216    0.246    0.121   16.252
  364.014  160.072   78.815    0.260    0.139   17.037
  364.264  160.111   83.494    0.281    0.161   18.708
  364.514  159.749   88.974    0.302    0.176   19.720
  364.764  159.479   92.975    0.330    0.179   20.179
  365.014  159.479   96.496    0.340    0.189   19.645
  365.264  159.772   97.496    0.344    0.199   19.157
  365.514  159.597   95.806    0.351    0.211   19.140
  365.764  159.539   96.753    0.360    0.226   19.230
  366.014  159.374   98.675    0.374    0.228   19.784
  366.264  159.000  101.028    0.379    0.225   21.404
  366.514  159.903  102.157    0.376    0.220   22.940
  366.764  159.811  101.506    0.372    0.212   25.097
  367.014  160.192  102.086    0.371    0.217   26.603
  367.264  159.995  103.024    0.370    0.214   28.304
  367.514  160.148  104.642    0.372    0.206   29.395
  367.764  159.986  106.511    0.377    0.201   27.830
  368.014  159.004  107.876    0.380    0.209   25.624
  368.264  159.028  108.208    0.374    0.210   23.123
  368.514  159.484  105.972    0.368    0.199   21.531
  368.764  160.253  104.154    0.366    0.196   20.157
  369.014  161.765  103.140    0.366    0.194   18.390
  369.264  162.098  104.026    0.367    0.188   16.999
  369.514  162.556  104.967    0.366    0.191   15.772
  369.764  162.092  104.623    0.367    0.204   14.847
  370.014  162.647  105.260    0.372    0.207   14.108
  370.264  164.051  105.899    0.366    0.203   13.632
  370.514  164.073  104.758    0.363    0.209   13.199
  370.764  163.501  104.231    0.365    0.216   13.110
  371.014  163.017  104.992    0.368    0.218   13.221
  371.264  163.017  103.486    0.371    0.209   13.327
  371.514  163.020  102.592    0.366    0.201   13.415
  371.764  162.522  104.276    0.361    0.194   13.428
  372.014  162.880  105.091    0.362    0.197   13.437
  372.264  163.334  105.915    0.364    0.191   13.399
  372.514  163.899  106.121    0.373    0.181   13.238
  372.764  164.154  105.229    0.380    0.170   13.055
  373.014  162.114  103.540    0.382    0.161   12.803
  373.264  160.909  104.364    0.387    0.146   12.556
  373.514  160.746  105.734    0.390    0.142   12.498
  373.764  160.372  104.592    0.394    0.162   12.413
  374.014  160.525  102.910    0.398    0.161   12.265
  374.264  160.872  103.663    0.385    0.164   12.072
  374.514  162.572  105.527    0.381    0.183   11.972
  374.764  163.029  106.716    0.376    0.189   11.982
  375.014  161.844  107.045    0.373    0.185   12.150
  375.264  160.730  105.111    0.369    0.178   12.342
  375.514  160.876  106.730    0.363    0.172   12.583
  375.764  162.265  109.080    0.359    0.171   12.760
  376.014  164.731  109.350    0.368    0.185   12.793
  376.264  164.424  108.642    0.354    0.207   12.806
  376.514  163.951  107.870    0.347    0.216   12.766
  376.764  163.993  107.405    0.344    0.226   12.709
  377.014  163.119  104.858    0.338    0.221   12.716
  377.264  162.430  100.414    0.339    0.204   12.727
  377.514  162.353   95.599    0.361    0.219   12.694
  377.764  162.401   90.295    0.355    0.229   12.680
  378.014  162.128   87.256    0.339    0.211   12.665
  378.264  160.719   87.036    0.328    0.186   12.609
  378.514  161.072   84.489    0.314    0.163   12.527
  378.764  161.121   82.862    0.298    0.139   12.443
  379.014  159.290   83.440    0.271    0.119   12.338
  379.264  160.922   82.114    0.330    0.171   12.235
  379.514  161.241   75.591    0.356    0.222   12.110
  379.764  160.142   71.386    0.367    0.246   11.988
  380.014  161.118   68.411    0.310    0.212   11.908
  380.264  161.059   69.968    0.298    0.168   11.876
  380.514  161.218   71.829    0.285    0.127   11.929
  380.764  162.804   74.365    0.272    0.117   11.986
  381.014  158.486   77.334    0.271    0.156   12.173
  381.264  158.321   76.740    0.292    0.191   12.526
  381.514  158.364   74.010    0.315    0.200   13.940
  381.764  158.723   71.953    0.316    0.202   14.205
  382.014  160.533   73.326    0.287    0.140   15.367
  382.264  161.090   77.764    0.276    0.122   17.545
  382.514  162.266   80.605    0.282    0.138   19.406
  382.764  164.280   83.569    0.293    0.196   21.186
  383.014  162.772   81.510    0.314    0.217   22.965
  383.264  161.564   79.454    0.328    0.223   24.300
  383.514  160.777   75.375    0.329    0.219   25.332
  383.764  160.777   69.215    0.309    0.207   26.357
  384.014  160.767   65.870    0.296    0.194   27.577
  384.264  160.386   62.159    0.285    0.164   29.013
  384.514  159.502   62.674    0.274    0.134   31.332
  384.764  159.645   67.906    0.259    0.100   33.458
  385.014  159.645   71.422    0.246    0.099   35.332
  385.264  158.711   72.057    0.240    0.093   36.702
  385.514  158.942   71.963    0.250    0.093   36.660
  385.764  158.942   71.928    0.264    0.090   34.648
  386.014  159.783   72.867    0.275    0.103   31.847
  386.264  160.004   74.670    0.294    0.121   30.036
  386.514  160.004   76.718    0.309    0.128   28.179
  386.764  160.400   79.621    0.316    0.142   26.679
  387.014  160.542   83.931    0.334    0.162   25.115
  387.264  160.542   84.200    0.348    0.214   23.042
  387.514  161.273   83.430    0.355    0.226   21.021
  387.764  161.185   84.191    0.353    0.218   19.792
  388.014  161.452   86.175    0.344    0.209   19.850
  388.264  161.688   87.857    0.338    0.211   21.003
  388.514  161.626   88.557    0.336    0.205   22.302
  388.764  162.618   88.394    0.338    0.200   23.681
  389.014  163.370   88.114    0.343    0.196   26.199
  389.264  163.825   88.754    0.352    0.200   28.548
  389.514  163.774   88.714    0.360    0.201   31.520
