~VERSION INFORMATION
 VERS.                 2.0:   CWLS LOG ASCII STANDARD -VERSION 2.0
 WRAP.                  NO:   ONE LINE PER DEPTH STEP
~WELL INFORMATION BLOCK
#MNEM.UNIT           DATA                    DESCRIPTION OF MNEMONIC
#---------    -------------------            -------------------------------
# Generated from Intellog Unique Number	CS_67_68/WELL/778
WELL.         ICG RESOURCES LTD.             : Well_name    - WELL
LOC .         00/07-28-068-09W4/0            : Location     - LOCATION
UWI .         00/07-28-068-09W4/0            : Uwi          - UNIQUE WELL ID
ENTR.         SP                             : Entered      - ENTERED BY
SRVC.         SCHLUMBERGER                   : Scn          - SERVICE COMPANY
STRT.M        515                            : top_depth    - START DEPTH
STOP.M        735                            : bot_depth    - STOP DEPTH
STEP.M        0.25                           : increment    - STEP LENGTH
 NULL. -999.2500:NULL Value
~CURVE INFORMATION BLOCK
#MNEM UNIT       ERCB CURVE CODE    CURVE DESCRIPTION
#-----------   ------------------   ----------------------------------
DEPT.M        00 001 00 00         : DEPTH        - DEPTH
ILD .OHMM     00 120 00 00         : RESD         - DEEP RESISTIVITY (DIL)
DPHI.V/V      00 890 00 00         : PHID         - DENSITY POROSITY (LIMESTONE)
NPHI.V/V      00 330 00 00         : PHIN         - NEUTRON POROSITY (LIMESTONE)
GR  .API      00 310 00 00         : GR           - GAMMA RAY
~PARAMETER INFORMATION
#MNEM.UNIT           DATA             DESCRIPTION OF MNEMONIC
#---------         -----------     ------------------------------
GL  .M        839.1                : gl           - GROUND LEVEL ELEVATION
EREF.M        842.3                : kb           - ELEVATION OF DEPTH REFERENCE
DATM.M        839.1                : datum        - DATUM ELEVATION
TDD .M        739                  : tdd          - TOTAL DEPTH DRILLER
RUN .         ONE                  : Run          - RUN NUMBER
ENG .         BILL                 : Engineer     - RECORDING ENGINEER
WIT .         JIM                  : Witness      - WITNESSED BY
MUD .         GEL                  : Mud_type     - MUD TYPE
MATR.         LIMESTONE            : Logunit      - NEUTRON MATRIX
TMAX.C        23.8                 : BHT          - MAXIMUM RECORDED TEMPERATURE
BHTD.M        739                  : BHTDEP       - MAXIMUM RECORDED TEMPERATURE
MATR.         1                    : LOGUNIT      - NEUTRON MATRIX
RMT .C        25                   : MDTP         - TEMPERATURE OF MUD
NEUT.         1                    : NEUTRON      - NEUTRON TYPE
RESI.         0                    : RESIST       - RESISTIVITY TYPE
RMC .OHMM     0.25                 : RMC          - RESISTIVITY OF MUD CAKE
RMF .OHMM     0.25                 : RMF          - RESISTIVITY OF MUD FILTRATE
SUFT.C        15                   : SUFT         - SURFACE TEMPERATURE
~A  DEPTH     RESD     PHID     PHIN       GR
# ...
  689.000    7.031    0.111    0.356   73.865
  689.250    7.311    0.084    0.378   80.216
  689.500    7.268    0.194    0.400   80.218
  689.750    6.806    0.239    0.396   78.205
  690.000    6.704    0.273    0.374   78.085
  690.250    6.554    0.267    0.383   80.773
  690.500    6.371    0.256    0.391   82.546
  690.750    6.182    0.242    0.380   83.159
  691.000    5.899    0.220    0.360   82.855
  691.250    5.714    0.207    0.338   80.232
  691.500    5.575    0.208    0.319   78.403
  691.750    5.501    0.210    0.330   81.946
  692.000    5.490    0.196    0.325   89.396
  692.250    5.478    0.183    0.339   99.166
  692.500    5.436    0.177    0.354  106.128
  692.750    5.384    0.179    0.367  103.627
  693.000    5.714    0.176    0.355   86.412
  693.250    6.075    0.191    0.339   71.823
  693.500    6.154    0.218    0.327   65.049
  693.750    6.005    0.237    0.321   64.928
  694.000    5.719    0.248    0.347   63.526
  694.250    5.208    0.246    0.364   61.208
  694.500    4.743    0.251    0.345   59.135
  694.750    4.256    0.258    0.330   56.878
  695.000    3.897    0.269    0.346   56.941
  695.250    3.562    0.284    0.357   59.019
  695.500    3.412    0.293    0.362   61.340
  695.750    3.398    0.271    0.362   67.203
  696.000    3.547    0.235    0.373   75.203
  696.250    3.778    0.177    0.371   84.668
  696.500    3.987    0.119    0.377   97.674
  696.750    4.145    0.081    0.388  106.345
  697.000    4.238    0.042    0.397  115.077
  697.250    4.308    0.058    0.420  118.559
  697.500    4.308    0.035    0.443  113.799
  697.750    4.266    0.047    0.458  124.485
  698.000    4.202    0.076    0.460  132.668
  698.250    4.193    0.098    0.472  121.437
  698.500    4.184    0.125    0.432  108.984
  698.750    4.199    0.153    0.398   96.288
  699.000    4.261    0.189    0.369   84.690
  699.250    4.284    0.212    0.353   76.817
  699.500    4.103    0.218    0.355   68.699
  699.750    3.750    0.228    0.379   62.901
  700.000    3.340    0.253    0.392   55.516
  700.250    3.099    0.274    0.407   49.108
  700.500    2.957    0.290    0.393   55.398
  700.750    3.074    0.294    0.382   61.017
  701.000    3.263    0.302    0.377   63.705
  701.250    3.541    0.287    0.374   65.905
  701.500    3.807    0.269    0.368   69.204
  701.750    4.018    0.250    0.360   74.883
  702.000    4.193    0.235    0.345   82.394
  702.250    4.425    0.216    0.333   88.440
  702.500    4.705    0.196    0.337   94.486
  702.750    5.059    0.182    0.346   96.625
  703.000    5.439    0.177    0.348   99.680
  703.250    5.602    0.173    0.344  102.551
  703.500    5.518    0.168    0.337  103.896
  703.750    5.496    0.162    0.332  102.067
  704.000    5.157    0.159    0.328  103.229
  704.250    5.734    0.157    0.330  109.091
  704.500    5.863    0.164    0.353  117.213
  704.750    5.938    0.171    0.369  109.523
  705.000    5.948    0.177    0.380   81.197
  705.250    5.782    0.192    0.358   66.486
  705.500    5.497    0.227    0.344   57.575
  705.750    5.053    0.256    0.332   60.263
  706.000    4.653    0.237    0.328   64.783
  706.250    4.334    0.216    0.323   69.242
  706.500    4.021    0.206    0.317   75.287
  706.750    3.983    0.213    0.324   84.203
  707.000    3.716    0.203    0.364   85.548
  707.250    3.461    0.219    0.390   75.477
  707.500    3.205    0.269    0.370   62.292
  707.750    3.098    0.278    0.351   48.740
  708.000    2.951    0.268    0.339   47.643
  708.250    2.853    0.267    0.345   49.783
  708.500    2.784    0.277    0.345   49.784
  708.750    2.711    0.285    0.341   48.749
  709.000    2.705    0.293    0.350   46.309
  709.250    2.695    0.304    0.359   43.197
  709.500    2.724    0.313    0.368   40.207
  709.750    2.785    0.318    0.376   38.622
  710.000    2.896    0.320    0.362   42.714
  710.250    3.011    0.305    0.337   50.959
  710.500    3.148    0.281    0.318   60.423
  710.750    3.304    0.260    0.338   67.690
  711.000    3.467    0.252    0.355   66.593
  711.250    3.571    0.263    0.366   60.246
  711.500    3.658    0.262    0.367   55.181
  711.750    3.623    0.244    0.376   55.854
  712.000    3.324    0.243    0.392   56.345
  712.250    3.084    0.265    0.403   52.989
  712.500    2.910    0.288    0.376   47.863
  712.750    2.746    0.299    0.369   43.652
  713.000    2.664    0.296    0.383   41.518
  713.250    2.610    0.307    0.397   38.772
  713.500    2.556    0.331    0.388   34.562
  713.750    2.541    0.350    0.384   31.939
  714.000    2.550    0.332    0.379   37.374
  714.250    2.656    0.304    0.373   47.633
  714.500    2.756    0.274    0.364   56.792
  714.750    2.925    0.263    0.373   54.902
  715.000    3.104    0.282    0.385   50.264
  715.250    3.234    0.277    0.377   55.272
  715.500    3.239    0.253    0.366   61.318
  715.750    3.096    0.238    0.371   66.387
  716.000    2.954    0.230    0.385   66.389
  716.250    2.819    0.260    0.392   49.908
  716.500    2.670    0.303    0.405   40.447
  716.750    2.571    0.330    0.390   36.786
  717.000    2.528    0.310    0.371   43.687
  717.250    2.523    0.287    0.352   48.817
  717.500    2.642    0.272    0.378   54.191
  717.750    2.825    0.281    0.392   56.635
  718.000    3.009    0.283    0.390   60.667
  718.250    3.031    0.277    0.402   62.928
  718.500    3.031    0.271    0.411   62.929
  718.750    3.007    0.273    0.392   62.870
  719.000    2.973    0.258    0.371   70.931
  719.250    2.923    0.245    0.356   81.373
  719.500    2.826    0.234    0.397   89.739
  719.750    2.711    0.315    0.421   49.020
  720.000    2.539    0.346    0.429   37.667
  720.250    2.409    0.343    0.393   28.816
  720.500    2.360    0.330    0.378   27.414
  720.750    2.408    0.320    0.355   37.856
  721.000    2.556    0.303    0.335   56.478
  721.250    2.763    0.277    0.346   66.981
  721.500    3.095    0.244    0.373   77.911
  721.750    3.285    0.232    0.394   90.673
  722.000    3.461    0.224    0.401   97.207
  722.250    3.585    0.216    0.406   93.363
  722.500    3.439    0.260    0.415   68.212
  722.750    3.168    0.291    0.412   50.326
  723.000    2.853    0.326    0.405   40.865
  723.250    2.642    0.340    0.406   31.832
  723.500    2.451    0.332    0.404   37.206
  723.750    2.321    0.317    0.405   45.267
  724.000    2.291    0.308    0.415   50.336
  724.250    2.382    0.333    0.426   44.905
  724.500    2.430    0.356    0.435   38.374
  724.750    2.476    0.355    0.438   32.149
  725.000    2.494    0.348    0.426   26.290
  725.250    2.474    0.341    0.415   21.408
  725.500    2.415    0.339    0.403   27.821
  725.750    2.274    0.321    0.390   41.437
  726.000    2.223    0.296    0.374   51.817
  726.250    2.239    0.275    0.366   59.084
  726.500    2.345    0.273    0.368   62.322
  726.750    2.503    0.271    0.370   59.943
  727.000    2.661    0.272    0.371   57.931
  727.250    2.845    0.271    0.369   57.871
  727.500    2.926    0.264    0.367   61.109
  727.750    3.030    0.251    0.347   64.530
  728.000    3.075    0.237    0.338   66.302
  728.250    3.103    0.237    0.347   55.132
  728.500    3.120    0.258    0.336   47.564
  728.750    3.113    0.251    0.319   49.153
  729.000    3.089    0.238    0.327   63.258
  729.250    3.071    0.234    0.358   68.022
  729.500    3.025    0.268    0.390   53.311
  729.750    2.980    0.292    0.366   39.943
  730.000    2.951    0.246    0.350   32.558
  730.250    3.000    0.175    0.333   60.399
  730.500    3.342    0.154    0.318   82.440
  730.750    3.923    0.130    0.311  109.671
  731.000    4.807    0.122    0.310  121.272
  731.250    5.476    0.126    0.397  130.737
  731.500    5.693    0.106    0.430  134.951
  731.750    5.629    0.112    0.447  137.457
  732.000    5.523    0.128    0.452  142.099
  732.250    5.636    0.142    0.441  146.557
