~VERSION INFORMATION
 VERS.                 2.0:   CWLS LOG ASCII STANDARD -VERSION 2.0
 WRAP.                  NO:   ONE LINE PER DEPTH STEP
~WELL INFORMATION BLOCK
#MNEM.UNIT           DATA                    DESCRIPTION OF MNEMONIC
#---------    -------------------            -------------------------------
# Generated from Intellog Unique Number	CC_84_87/WELL/1049
NULL.         -999.25                        : NULL_VALUE
WELL.         NOVALTA GRANOR                 : Well_name    - WELL              
LOC .         03-02-084-17W4                 : Location     - LOCATION          
UWI .         00/03-02-084-17W400            : Uwi          - UNIQUE WELL ID    
ENTR.         JHS                            : Entered      - ENTERED BY        
SRVC.         DRESSER ATLAS                  : Scn          - SERVICE COMPANY   
DATE.         13 FEB 83                      : Date         - LOG DATE
STRT.M        85                             : top_depth    - START DEPTH       
STOP.M        280.001                        : bot_depth    - STOP DEPTH        
STEP.M        0.3                            : increment    - STEP LENGTH       
~CURVE INFORMATION BLOCK
#MNEM UNIT       ERCB CURVE CODE    CURVE DESCRIPTION
#-----------   ------------------   ----------------------------------
DEPT.M        00 001 00 00         : DEPTH        - DEPTH                       
DPHI.V/V      00 890 00 00         : PHID         - DENSITY POROSITY (LIMESTONE)
NPHI.V/V      00 330 00 00         : PHIN         - NEUTRON POROSITY (LIMESTONE)
GR  .API      00 310 00 00         : GR           - GAMMA RAY                   
ILD .OHMM     00 120 00 00         : RESD         - DEEP RESISTIVITY (DIL)      
~PARAMETER INFORMATION       
#MNEM.UNIT           DATA             DESCRIPTION OF MNEMONIC
#---------         -----------     ------------------------------
GL  .M        542.48               : gl           - GROUND LEVEL ELEVATION      
EREF.M        545.48               : kb           - ELEVATION OF DEPTH REFERENCE
DATM.M        545.48               : datum        - DATUM ELEVATION             
TDD .M        285                  : tdd          - TOTAL DEPTH DRILLER         
RUN .         ONE                  : Run          - RUN NUMBER                  
ENG .         BILL                 : Engineer     - RECORDING ENGINEER          
WIT .         JIM                  : Witness      - WITNESSED BY                
MUD .         GEL                  : Mud_type     - MUD TYPE                    
MATR.         LIMESTONE            : Logunit      - NEUTRON MATRIX              
TMAX.C        24                   : BHT          - MAXIMUM RECORDED TEMPERATURE
BHTD.M        285                  : BHTDEP       - MAXIMUM RECORDED TEMPERATURE
MATR.         1                    : LOGUNIT      - NEUTRON MATRIX              
RMT .C        25                   : MDTP         - TEMPERATURE OF MUD          
NEUT.         1                    : NEUTRON      - NEUTRON TYPE                
RESI.         0                    : RESIST       - RESISTIVITY TYPE            
RMC .OHMM     0.25                 : RMC          - RESISTIVITY OF MUD CAKE     
RMF .OHMM     0.25                 : RMF          - RESISTIVITY OF MUD FILTRATE 
SUFT.C        15                   : SUFT         - SURFACE TEMPERATURE         
~A  DEPTH     PHID     PHIN       GR     RESD
# ...
  189.401    0.237    0.481   92.334    5.690
  189.701    0.208    0.410   82.002    7.271
  190.001    0.188    0.347   72.881   10.600
  190.301    0.227    0.329   67.404   11.874
  190.601    0.270    0.380   61.317   11.659
  190.901    0.297    0.423   62.520   11.233
  191.201    0.289    0.429   64.939    9.668
  191.501    0.270    0.418   68.570    7.717
  191.801    0.255    0.407   72.809    7.579
  192.101    0.263    0.419   84.940    7.581
  192.401    0.263    0.423   86.750    7.876
  192.701    0.261    0.414   84.308    8.823
  193.001    0.262    0.416   81.260    9.340
  193.301    0.262    0.414   82.464    9.344
  193.601    0.258    0.414   81.844    9.003
  193.901    0.242    0.414   80.010    8.199
  194.201    0.234    0.421   81.213    7.900
  194.501    0.235    0.441   83.629    7.757
  194.801    0.236    0.453   86.652    7.760
  195.101    0.238    0.444   89.678    7.764
  195.401    0.238    0.417   89.059    7.623
  195.701    0.238    0.417   86.011    7.485
  196.001    0.241    0.410   87.213    7.777
  196.301    0.248    0.391   84.165    7.928
  196.601    0.254    0.386   81.114    7.496
  196.901    0.257    0.389   81.710    7.643
  197.201    0.259    0.392   78.054    8.402
  197.501    0.249    0.384   75.615    8.406
  197.801    0.234    0.381   78.031    7.948
  198.101    0.223    0.414   77.412    6.971
  198.401    0.233    0.423   76.792    6.347
  198.701    0.240    0.419   76.781    6.596
  199.001    0.238    0.394   77.981    7.964
  199.301    0.191    0.390   76.150    8.921
  199.601    0.193    0.414   72.493    7.678
  199.901    0.255    0.414   65.800    6.484
  200.201    0.279    0.403   66.397    5.581
  200.501    0.296    0.416   70.635    5.278
  200.801    0.306    0.443   77.910    5.181
  201.101    0.311    0.428   78.505    6.141
  201.401    0.319    0.408   77.279    7.997
  201.701    0.321    0.385   74.838    8.793
  202.001    0.312    0.418   71.181    8.965
  202.301    0.307    0.444   68.740    8.967
  202.601    0.311    0.443   67.515    9.142
  202.901    0.313    0.427   68.717    8.976
  203.201    0.312    0.428   72.348    8.329
  203.501    0.310    0.444   71.727    8.177
  203.801    0.297    0.435   72.931    8.182
  204.101    0.283    0.428   72.312    8.185
  204.401    0.279    0.433   68.048    8.345
  204.701    0.291    0.422   66.213    8.509
  205.001    0.302    0.407   69.847    8.198
  205.301    0.290    0.419   73.475    7.327
  205.601    0.280    0.433   72.855    6.547
  205.901    0.256    0.423   72.240    5.964
  206.201    0.250    0.420   73.442    5.855
  206.501    0.255    0.420   76.464    5.857
  206.801    0.261    0.441   78.883    6.085
  207.101    0.263    0.432   79.476    5.863
  207.401    0.260    0.422   80.071    5.649
  207.701    0.255    0.440   81.881    5.444
  208.001    0.257    0.438   84.298    5.447
  208.301    0.261    0.420   86.713    5.553
  208.601    0.260    0.406   87.311    5.768
  208.901    0.256    0.410   84.869    5.992
  209.201    0.256    0.411   81.214    6.713
  209.501    0.254    0.404   81.809    7.379
  209.801    0.255    0.395   81.190    8.582
  210.101    0.280    0.389   77.532    9.613
  210.401    0.310    0.374   79.345   12.056
  210.701    0.323    0.338   72.045   14.836
  211.001    0.314    0.313   62.925   18.959
  211.301    0.216    0.268   56.837   25.156
  211.601    0.029    0.175   55.615   34.015
  211.901    0.007    0.132   48.922   45.990
  212.201    0.000    0.109   44.660   55.547
  212.501    0.000    0.105   42.216   58.800
  212.801    0.000    0.109   44.026   59.949
  213.101    0.000    0.115   45.838   58.864
  213.401    0.009    0.120   46.430   54.618
  213.701    0.067    0.133   45.811   35.445
  214.001    0.100    0.175   43.373   13.325
  214.301    0.190    0.246   42.146    8.647
  214.601    0.271    0.294   46.382    8.333
  214.901    0.273    0.409   50.622    8.496
  215.201    0.264    0.438   67.614    8.826
  215.501    0.263    0.433   80.353    9.343
  215.801    0.263    0.421   79.127    9.892
  216.101    0.263    0.384   71.827   10.085
  216.401    0.275    0.389   71.209   10.090
  216.701    0.265    0.402   71.196   10.286
  217.001    0.259    0.399   73.004   10.291
  217.301    0.262    0.401   73.600   10.105
  217.601    0.254    0.405   71.158    9.735
  217.901    0.246    0.397   73.576    9.205
  218.201    0.245    0.380   77.209    8.872
  218.501    0.257    0.390   77.799    9.044
  218.801    0.269    0.404   79.612    9.221
  219.101    0.271    0.387   80.207    9.225
  219.401    0.266    0.393   77.767    9.230
  219.701    0.251    0.394   81.397    9.063
  220.001    0.236    0.381   83.815    9.067
  220.301    0.235    0.382   83.195    8.902
  220.601    0.240    0.392   84.398    8.740
  220.901    0.238    0.421   83.167    8.582
  221.201    0.239    0.409   81.944    8.586
  221.501    0.246    0.394   77.681    8.755
  221.801    0.246    0.401   77.668    8.758
  222.101    0.244    0.398   83.729    8.764
  222.401    0.247    0.381   86.148    8.767
  222.701    0.250    0.382   85.528    8.609
  223.001    0.251    0.398   84.907    8.452
  223.301    0.244    0.447   87.933    8.456
  223.601    0.249    0.438   81.847    7.996
  223.901    0.255    0.422   79.406    7.704
  224.201    0.251    0.410   83.037    7.709
  224.501    0.243    0.396   86.063    7.713
  224.801    0.237    0.385   87.261    7.863
  225.101    0.238    0.392   87.252    7.866
  225.401    0.239    0.393   85.417    7.724
  225.701    0.233    0.406   87.229    7.443
  226.001    0.233    0.411   86.000    7.446
  226.301    0.240    0.397   86.596    7.450
  226.601    0.255    0.380   87.798    7.740
  226.901    0.266    0.399   86.571    8.194
  227.201    0.271    0.402   82.916    8.512
  227.501    0.260    0.412   78.048    9.182
  227.801    0.268    0.397   71.353   10.285
  228.101    0.287    0.375   70.126   11.740
  228.401    0.296    0.360   69.510   13.400
  228.701    0.285    0.365   67.068   16.183
  229.001    0.262    0.331   61.592   20.680
  229.301    0.043    0.182   56.719   26.425
  229.601    0.022    0.158   53.672   53.051
  229.901    0.035    0.155   50.625   59.431
  230.201    0.045    0.158   49.397   54.114
  230.501    0.054    0.168   45.742   41.603
  230.801    0.056    0.179   46.337   21.947
  231.101    0.071    0.197   50.574   13.209
  231.401    0.109    0.222   55.422    9.597
  231.701    0.238    0.314   64.519    7.955
  232.001    0.284    0.387   71.793    8.110
  232.301    0.296    0.420   74.817    8.748
  232.602    0.295    0.418   74.803    9.437
  232.902    0.291    0.400   74.185    9.622
  233.202    0.283    0.382   71.744    9.627
  233.502    0.273    0.379   68.697    9.814
  233.802    0.272    0.382   64.430   10.198
  234.102    0.277    0.393   65.028   10.202
  234.402    0.271    0.404   67.447   10.402
  234.702    0.266    0.398   72.899   10.406
  235.002    0.260    0.394   72.886   10.411
  235.302    0.252    0.387   71.661   10.222
  235.602    0.241    0.387   72.254   10.037
  235.902    0.225    0.404   74.064   10.232
  236.202    0.224    0.406   73.445   10.047
  236.502    0.257    0.401   73.431    9.500
  236.802    0.272    0.405   74.635    8.983
  237.102    0.267    0.404   78.266    8.180
  237.402    0.251    0.405   83.113    6.909
  237.702    0.235    0.435   92.210    6.411
  238.002    0.237    0.423   94.625    6.661
  238.302    0.242    0.407   94.613    6.919
  238.602    0.237    0.395   91.567    7.606
  238.902    0.233    0.386   85.478    8.519
  239.202    0.237    0.378   82.432    9.543
  239.502    0.244    0.371   83.028    9.548
  239.802    0.237    0.375   85.445    8.695
  240.102    0.215    0.396   81.181    7.073
  240.402    0.202    0.396   80.562    6.688
  240.702    0.215    0.407   84.194    6.691
  241.002    0.227    0.418   92.683    6.952
  241.302    0.236    0.410   97.530    7.222
