~VERSION INFORMATION
 VERS.                 2.0:   CWLS LOG ASCII STANDARD -VERSION 2.0
 WRAP.                  NO:   ONE LINE PER DEPTH STEP
~WELL INFORMATION BLOCK
#MNEM.UNIT           DATA                    DESCRIPTION OF MNEMONIC
#---------    -------------------            -------------------------------
# Generated from Intellog Unique Number	CC_84_87/WELL/1064
NULL.         -999.25                        : NULL_VALUE
WELL.         PARA ET AL GRANOR              : Well_name    - WELL              
LOC .         06-06-084-17W4                 : Location     - LOCATION          
UWI .         00/06-06-084-17W400            : Uwi          - UNIQUE WELL ID    
ENTR.         JHS                            : Entered      - ENTERED BY        
SRVC.         COMPUTALOG                     : Scn          - SERVICE COMPANY   
DATE.         25 JAN 82                      : Date         - LOG DATE
STRT.M        97                             : top_depth    - START DEPTH       
STOP.M        290.5                          : bot_depth    - STOP DEPTH        
STEP.M        0.3                            : increment    - STEP LENGTH       
~CURVE INFORMATION BLOCK
#MNEM UNIT       ERCB CURVE CODE    CURVE DESCRIPTION
#-----------   ------------------   ----------------------------------
DEPT.M        00 001 00 00         : DEPTH        - DEPTH                       
DPHI.V/V      00 890 00 00         : PHID         - DENSITY POROSITY (LIMESTONE)
NPHI.V/V      00 330 00 00         : PHIN         - NEUTRON POROSITY (LIMESTONE)
GR  .API      00 310 00 00         : GR           - GAMMA RAY                   
ILD .OHMM     00 120 00 00         : RESD         - DEEP RESISTIVITY (DIL)      
~PARAMETER INFORMATION       
#MNEM.UNIT           DATA             DESCRIPTION OF MNEMONIC
#---------         -----------     ------------------------------
GL  .M        536.88               : gl           - GROUND LEVEL ELEVATION      
EREF.M        540.48               : kb           - ELEVATION OF DEPTH REFERENCE
DATM.M        540.48               : datum        - DATUM ELEVATION             
TDD .M        291                  : tdd          - TOTAL DEPTH DRILLER         
RUN .         ONE                  : Run          - RUN NUMBER                  
ENG .         BILL                 : Engineer     - RECORDING ENGINEER          
WIT .         JIM                  : Witness      - WITNESSED BY                
MUD .         GEL                  : Mud_type     - MUD TYPE                    
MATR.         LIMESTONE            : Logunit      - NEUTRON MATRIX              
TMAX.C        22                   : BHT          - MAXIMUM RECORDED TEMPERATURE
BHTD.M        291                  : BHTDEP       - MAXIMUM RECORDED TEMPERATURE
MATR.         1                    : LOGUNIT      - NEUTRON MATRIX              
RMT .C        25                   : MDTP         - TEMPERATURE OF MUD          
NEUT.         1                    : NEUTRON      - NEUTRON TYPE                
RESI.         0                    : RESIST       - RESISTIVITY TYPE            
RMC .OHMM     0.25                 : RMC          - RESISTIVITY OF MUD CAKE     
RMF .OHMM     0.25                 : RMF          - RESISTIVITY OF MUD FILTRATE 
SUFT.C        15                   : SUFT         - SURFACE TEMPERATURE         
~A  DEPTH     PHID     PHIN       GR     RESD
   97.000    0.222    0.475   98.978    4.545
   97.300    0.239    0.525   93.449    5.288
   97.600    0.253    0.465   84.847    6.390
   97.900    0.341    0.449   66.409    7.869
   98.200    0.402    0.458   52.274   10.065
   98.500    0.422    0.504   54.123   12.872
   98.800    0.372    0.425   49.825   14.696
   99.100    0.333    0.425   51.674   15.852
   99.400    0.318    0.446   57.211   16.156
   99.700    0.327    0.444   67.666   14.152
  100.000    0.334    0.401   76.278   11.492
  100.300    0.337    0.426   84.275    9.511
  100.600    0.294    0.496   93.500    7.724
  100.900    0.220    0.412  100.268    7.298
  101.200    0.221    0.399   94.125    7.579
  101.500    0.238    0.408   82.449    8.022
  101.800    0.258    0.492   81.224    9.334
  102.100    0.264    0.495   76.311   11.279
  102.400    0.311    0.518   65.249   12.636
  102.700    0.342    0.434   65.254   13.890
  103.000    0.331    0.406   73.865   14.983
  103.300    0.305    0.437   83.092   14.703
  103.600    0.308    0.459   81.867   14.157
  103.900    0.331    0.452   61.584   14.703
  104.200    0.324    0.431   59.745   16.163
  104.500    0.322    0.431   64.053   16.473
  104.800    0.322    0.427   67.132   16.473
  105.100    0.305    0.419   64.677   15.564
  105.400    0.237    0.439   62.838   14.706
  105.700    0.217    0.497   64.072   12.403
  106.000    0.237    0.454   70.839    9.163
  106.300    0.243    0.382   83.138    6.898
  106.600    0.247    0.428   91.135    5.394
  106.900    0.249    0.466   92.369    4.298
  107.200    0.261    0.426  102.210    3.625
  107.500    0.265    0.385  104.674    3.425
  107.800    0.260    0.379   94.843    3.491
  108.100    0.249    0.413   91.774    3.837
  108.400    0.240    0.432   86.860    4.816
  108.700    0.245    0.422   77.029    5.931
  109.000    0.260    0.414   70.271    7.032
  109.300    0.249    0.426   69.661    8.028
  109.600    0.229    0.495   71.511    8.660
  109.900    0.275    0.486   69.671   10.268
  110.200    0.311    0.419   63.528   12.408
  110.500    0.323    0.392   56.155   14.713
  110.800    0.333    0.332   51.857   16.797
  111.100    0.318    0.335   58.008   16.483
  111.400    0.285    0.400   76.456   15.574
  111.700    0.292    0.496   78.306   15.574
  112.000    0.298    0.488   70.933   16.175
  112.300    0.293    0.435   67.249   17.448
  112.600    0.286    0.393   67.868   17.448
  112.900    0.276    0.392   76.480   16.801
  113.200    0.297    0.381   76.485   16.486
  113.500    0.306    0.366   75.874   16.487
  113.800    0.203    0.360   78.953   16.487
  114.100    0.232    0.420   78.343   16.803
  114.400    0.316    0.430   70.970   17.451
  114.700    0.320    0.409   70.360   17.452
  115.000    0.318    0.399   75.283   16.489
  115.300    0.311    0.381   85.739   15.001
  115.600    0.286    0.396   94.350   12.182
  115.900    0.230    0.457  101.117    8.503
  116.200    0.217    0.487  100.507    7.308
  116.500    0.235    0.470   99.282    7.172
  116.800    0.238    0.445   96.828    7.448
  117.100    0.227    0.461   90.685    7.884
  117.400    0.254    0.451   82.083   10.276
  117.700    0.303    0.443   80.243   11.956
  118.000    0.282    0.380   91.929   12.655
  118.300    0.246    0.367  104.843   12.655
  118.600    0.225    0.352  106.078   11.733
  118.900    0.225    0.364   95.631   10.878
  119.200    0.226    0.389   91.948   10.474
  119.500    0.229    0.399   99.329   10.674
  119.800    0.229    0.433   97.490   10.475
  120.100    0.224    0.439   95.650   10.086
  120.400    0.214    0.451   95.040    9.351
  120.700    0.210    0.482   91.971    8.669
  121.000    0.218    0.483   93.206    8.670
  121.300    0.212    0.392   95.669    8.507
  121.600    0.194    0.350   99.363    8.191
  121.900    0.189    0.400  104.899    7.312
  122.200    0.142    0.415  117.814    6.528
  122.500    0.151    0.456  119.049    5.827
  122.800    0.191    0.458  122.741    5.402
  123.100    0.188    0.462  117.214    5.301
  123.400    0.162    0.440  111.071    5.506
  123.700    0.166    0.482  114.764    5.611
  124.000    0.205    0.452  117.842    5.506
  124.300    0.230    0.440  120.921    5.105
  124.600    0.218    0.472  126.459    4.306
  124.900    0.221    0.552  120.316    3.844
  125.200    0.242    0.519  117.861    3.772
  125.500    0.246    0.509  117.866    4.225
  125.800    0.250    0.413  114.182    5.203
  126.100    0.263    0.362  106.195    6.912
  126.400    0.269    0.378   98.208    8.674
  126.700    0.257    0.397   97.598    9.903
  127.000    0.247    0.378  104.366    9.718
  127.300    0.246    0.385  108.673    8.512
  127.600    0.239    0.382  110.522    7.456
  127.900    0.236    0.434  109.297    6.656
  128.200    0.239    0.476  110.532    6.409
  128.500    0.293    0.368  104.388    6.532
  128.800    0.378    0.253   89.639    7.745
  129.100    0.421    0.225   79.192   10.095
  129.400    0.408    0.309   77.353   13.157
  129.700    0.367    0.363   74.284   15.309
  130.000    0.325    0.458   71.829   16.513
  130.300    0.329    0.451   72.449   15.900
  130.600    0.329    0.409   74.298   13.928
  130.900    0.327    0.390   76.762   13.928
  131.200    0.320    0.425   74.307   14.195
  131.500    0.326    0.452   71.853   14.466
  131.800    0.327    0.429   72.473   14.743
  132.100    0.322    0.409   72.478   14.743
  132.400    0.319    0.484   71.867   14.467
  132.700    0.300    0.500   66.953   13.669
  133.000    0.314    0.437   67.574   13.413
  133.300    0.325    0.458   73.725   12.916
  133.600    0.324    0.505   79.263   12.674
  133.900    0.337    0.468   76.809   12.674
  134.200    0.333    0.425   71.281   13.164
  134.500    0.340    0.405   71.286   14.470
  134.800    0.341    0.421   71.290   15.609
  135.100    0.342    0.436   69.451   17.159
  135.400    0.352    0.441   70.070   17.487
  135.700    0.346    0.405   71.919   17.159
  136.000    0.346    0.443   70.694   15.909
  136.300    0.364    0.436   74.387   14.749
  136.600    0.352    0.453   76.852   14.750
  136.900    0.338    0.452   75.626   15.319
  137.200    0.341    0.452   73.172   16.840
  137.500    0.348    0.430   72.563   17.490
  137.800    0.362    0.423   74.411   17.491
  138.100    0.354    0.422   76.259   16.842
  138.400    0.336    0.428   76.879   16.217
  138.700    0.333    0.458   71.965   15.322
  139.000    0.327    0.443   68.896   15.035
  139.300    0.321    0.383   72.590   14.206
  139.600    0.320    0.394   75.669   12.923
  139.900    0.312    0.460   76.287   11.757
  140.200    0.297    0.458   75.063   11.537
  140.500    0.291    0.418   71.994   12.211
  140.800    0.297    0.368   72.613   12.211
  141.100    0.304    0.389   72.003   12.212
  141.400    0.315    0.428   70.164   11.759
  141.700    0.331    0.468   71.398   11.322
  142.000    0.333    0.457   68.943   11.322
  142.300    0.311    0.516   60.956   10.902
  142.600    0.287    0.511   61.575    9.918
  142.900    0.290    0.483   65.269    9.550
  143.200    0.326    0.437   65.274   10.108
  143.500    0.336    0.434   61.591   11.761
  143.800    0.343    0.500   60.365   13.684
  144.100    0.350    0.468   64.058   15.042
  144.400    0.344    0.434   62.218   16.536
  144.700    0.337    0.426   62.839   16.852
  145.000    0.333    0.418   61.613   17.175
  145.300    0.334    0.432   59.159   16.853
  145.600    0.340    0.445   62.852   16.538
  145.900    0.333    0.479   69.005   16.228
  146.201    0.333    0.486   68.394   16.229
  146.501    0.331    0.495   67.170   16.229
  146.801    0.328    0.493   68.404   15.925
  147.101    0.334    0.472   67.179   15.627
  147.401    0.349    0.431   64.110   15.335
  147.701    0.349    0.440   62.885   15.335
  148.001    0.344    0.507   64.734   14.766
  148.301    0.337    0.528   67.813   14.490
  148.601    0.330    0.518   69.047   14.218
  148.901    0.340    0.451   68.437   13.691
