~VERSION INFORMATION
 VERS.                 2.0:   CWLS LOG ASCII STANDARD -VERSION 2.0
 WRAP.                  NO:   ONE LINE PER DEPTH STEP
~WELL INFORMATION BLOCK
#MNEM.UNIT           DATA                    DESCRIPTION OF MNEMONIC
#---------    -------------------            -------------------------------
# Generated from Intellog Unique Number	CS_77_79/WELL/3269
WELL.         AMOCO CANADA PETROLEUM CO.LTD. : Well_name    - WELL
LOC .         00/02-30-078-08W4/0            : Location     - LOCATION
UWI .         00/02-30-078-08W4/0            : Uwi          - UNIQUE WELL ID
ENTR.         JOETTE                         : Entered      - ENTERED BY
SRVC.         WESTERN ATLAS                  : Scn          - SERVICE COMPANY
DATE.         08-14-92                       : Date         - LOG DATE
STRT.M        165                            : top_depth    - START DEPTH
STOP.M        345                            : bot_depth    - STOP DEPTH
STEP.M        0.25                           : increment    - STEP LENGTH
 NULL. -999.2500:NULL Value
~CURVE INFORMATION BLOCK
#MNEM UNIT       ERCB CURVE CODE    CURVE DESCRIPTION
#-----------   ------------------   ----------------------------------
DEPT.M        00 001 00 00         : DEPTH        - DEPTH
ILD .OHMM     00 120 00 00         : RESD         - DEEP RESISTIVITY (DIL)
DPHI.V/V      00 890 00 00         : PHID         - DENSITY POROSITY (SANDSTONE)
NPHI.V/V      00 330 00 00         : PHIN         - NEUTRON POROSITY (SANDSTONE)
GR  .API      00 310 00 00         : GR           - GAMMA RAY
~PARAMETER INFORMATION
#MNEM.UNIT           DATA             DESCRIPTION OF MNEMONIC
#---------         -----------     ------------------------------
GL  .M        588.9                : gl           - GROUND LEVEL ELEVATION
EREF.M        592.4                : kb           - ELEVATION OF DEPTH REFERENCE
DATM.M        592.4                : datum        - DATUM ELEVATION
TDD .M        349.7                : tdd          - TOTAL DEPTH DRILLER
RUN .         ONE                  : Run          - RUN NUMBER
ENG .         BILL                 : Engineer     - RECORDING ENGINEER
WIT .         JIM                  : Witness      - WITNESSED BY
MUD .         GEL                  : Mud_type     - MUD TYPE
MATR.         SANDSTONE            : Logunit      - NEUTRON MATRIX
TMAX.C        29                   : BHT          - MAXIMUM RECORDED TEMPERATURE
BHTD.M        349.7                : BHTDEP       - MAXIMUM RECORDED TEMPERATURE
RMT .C        17                   : MDTP         - TEMPERATURE OF MUD
MUDD.KG/M     1100                 : MWT          - MUD DENSITY
NEUT.         1                    : NEUTRON      - NEUTRON TYPE
RESI.         0                    : RESIST       - RESISTIVITY TYPE
RM  .OHMM     4                    : RM           - RESISTIVITY OF MUD
RMC .OHMM     4.6                  : RMC          - RESISTIVITY OF MUD CAKE
RMF .OHMM     3.8                  : RMF          - RESISTIVITY OF MUD FILTRATE
SUFT.C        4                    : SUFT         - SURFACE TEMPERATURE
~A  DEPTH     RESD     PHID     PHIN       GR
# ...
  295.500    7.238    0.274    0.433   90.979
  295.750    7.243    0.271    0.420   91.667
  296.000    7.257    0.269    0.416   94.802
  296.250    7.268    0.275    0.469   96.707
  296.500    7.276    0.284    0.470   91.210
  296.750    7.429    0.299    0.480   88.190
  297.000    7.729    0.314    0.454   86.416
  297.250    8.037    0.330    0.431   83.997
  297.500    8.691    0.332    0.403   77.900
  297.750    8.704    0.288    0.418   74.879
  298.000    8.550    0.253    0.447   76.168
  298.250    8.244    0.344    0.452   76.842
  298.500    7.948    0.350    0.423   78.145
  298.750    7.663    0.344    0.432   78.188
  299.000    7.389    0.342    0.440   78.246
  299.250    7.124    0.338    0.442   79.564
  299.500    6.869    0.339    0.444   80.223
  299.750    6.755    0.340    0.451   80.896
  300.000    6.638    0.340    0.458   81.569
  300.250    6.643    0.337    0.466   81.612
  300.500    6.658    0.335    0.474   82.315
  300.750    6.665    0.330    0.448   83.603
  301.000    6.547    0.328    0.457   86.123
  301.250    5.853    0.328    0.433   87.412
  301.500    5.228    0.332    0.426   89.317
  301.750    4.672    0.337    0.437   92.438
  302.000    4.420    0.329    0.455  101.743
  302.250    4.343    0.293    0.471   93.169
  302.500    4.518    0.281    0.487   83.993
  302.750    5.369    0.278    0.432   82.835
  303.000    6.382    0.296    0.405   77.954
  303.250    7.031    0.309    0.427   79.242
  303.500    7.311    0.314    0.405   79.300
  303.750    7.322    0.317    0.399   71.356
  304.000    7.620    0.300    0.407   69.567
  304.250    7.635    0.305    0.408   71.471
  304.500    7.640    0.314    0.403   76.454
  304.750    7.513    0.304    0.394   78.973
  305.000    7.519    0.302    0.396   75.954
  305.250    7.681    0.305    0.391   79.719
  305.500    7.689    0.305    0.419   83.470
  305.750    7.849    0.295    0.430   82.912
  306.000    8.162    0.274    0.401   78.046
  306.250    8.657    0.248    0.379   75.641
  306.500    9.002    0.135    0.344   74.468
  306.750    8.523    0.135    0.335   74.526
  307.000    8.059    0.203    0.365   76.430
  307.250    6.939    0.271    0.375   75.887
  307.500    6.683    0.287    0.394   77.175
  307.750    6.203    0.295    0.392   80.296
  308.000    5.760    0.295    0.400   83.432
  308.250    5.551    0.283    0.413   87.813
  308.500    5.254    0.282    0.443   86.024
  308.750    4.972    0.280    0.447   84.836
  309.000    4.704    0.279    0.454   92.309
  309.250    4.620    0.279    0.447   97.277
  309.500    4.542    0.279    0.447   96.719
  309.750    4.634    0.282    0.466  100.470
  310.000    4.913    0.280    0.487  102.375
  310.250    5.111    0.283    0.492   91.968
  310.500    5.631    0.300    0.462   88.333
  310.750    5.856    0.274    0.442  101.331
  311.000    6.213    0.268    0.414  102.005
  311.250    6.464    0.257    0.414   98.384
  311.500    6.719    0.248    0.426   97.210
  311.750    6.729    0.249    0.420   99.716
  312.000    6.016    0.259    0.406   97.927
  312.250    5.477    0.265    0.413   95.522
  312.500    4.625    0.270    0.444   96.840
  312.750    3.547    0.265    0.464   98.716
  313.000    3.421    0.257    0.478  100.019
  313.250    3.059    0.263    0.484   97.600
  313.500    2.837    0.275    0.502   92.118
  313.750    2.536    0.310    0.489   92.176
  314.000    2.445    0.333    0.490   91.002
  314.250    2.313    0.338    0.518   86.751
  314.500    2.272    0.334    0.528   85.578
  314.750    2.191    0.330    0.505   83.804
  315.000    2.237    0.327    0.522   81.399
  315.250    2.283    0.317    0.513   78.995
  315.500    2.283    0.334    0.576   82.130
  315.750    2.473    0.347    0.554   85.251
  316.000    2.571    0.350    0.584   92.095
  316.250    2.726    0.335    0.583   96.475
  316.500    2.946    0.295    0.500   97.764
  316.750    3.243    0.268    0.451   99.654
  317.000    3.712    0.265    0.439  104.636
  317.250    4.086    0.258    0.410  100.385
  317.500    5.657    0.256    0.440   97.365
  317.750    6.232    0.259    0.411   89.421
  318.000    6.478    0.249    0.380   80.876
  318.250    7.003    0.205    0.375   77.212
  318.500    7.016    0.195    0.402   81.593
  318.750    6.508    0.245    0.409   85.959
  319.000    5.191    0.259    0.420   87.878
  319.250    4.727    0.268    0.438   87.306
  319.500    4.306    0.262    0.432   90.441
  319.750    3.997    0.261    0.459   94.822
  320.000    3.782    0.265    0.473  100.420
  320.250    3.715    0.270    0.456   98.631
  320.500    3.652    0.271    0.482   99.304
  320.750    3.656    0.270    0.486  101.824
  321.000    3.662    0.269    0.452  103.743
  321.250    3.667    0.269    0.444  100.708
  321.500    3.673    0.272    0.443  100.165
  321.750    3.677    0.270    0.474   99.607
  322.000    3.684    0.270    0.469   95.972
  322.250    3.688    0.273    0.449   95.414
  322.500    3.695    0.275    0.453   95.472
  322.750    3.844    0.272    0.474   97.362
  323.000    3.999    0.272    0.466   93.726
  323.250    4.158    0.268    0.427   88.860
  323.500    4.669    0.251    0.417   89.533
  323.750    5.144    0.232    0.430   93.299
  324.000    5.452    0.242    0.445   93.957
  324.250    6.009    0.246    0.436   88.475
  324.500    6.490    0.246    0.404   82.993
  324.750    6.881    0.241    0.371   77.525
  325.000    7.021    0.231    0.360   72.043
  325.250    7.167    0.195    0.351   65.931
  325.500    7.896    0.159    0.359   66.619
  325.750    8.699    0.259    0.361   69.139
  326.000    9.400    0.318    0.359   70.428
  326.250    9.240    0.320    0.353   68.009
  326.500    8.574    0.308    0.360   66.850
  326.750    7.958    0.290    0.371   66.908
  327.000    8.279    0.277    0.382   68.182
  327.250    8.953    0.268    0.389   70.087
  327.500    9.131    0.250    0.376   68.913
  327.750    9.499    0.235    0.385   74.525
  328.000    9.882    0.241    0.391   75.814
  328.250   10.083    0.271    0.414   70.332
  328.500   10.295    0.315    0.420   72.251
  328.750    9.740    0.319    0.415   77.233
  329.000    9.754    0.309    0.384   76.045
  329.250   10.944    0.322    0.380   65.639
  329.500   15.145    0.349    0.379   61.989
  329.750   17.996    0.384    0.388   59.614
  330.000   22.638    0.384    0.411   60.287
  330.250   26.899    0.374    0.422   61.576
  330.500   30.204    0.371    0.427   62.864
  330.750   30.272    0.372    0.400   64.769
  331.000   29.176    0.361    0.386   67.890
  331.250   25.091    0.352    0.383   71.641
  331.500   15.922    0.337    0.387   79.100
  331.750   12.695    0.319    0.395   85.943
  332.000   10.922    0.307    0.406   90.295
  332.250    9.580    0.337    0.421   89.121
  332.500    8.892    0.343    0.427   84.870
  332.750    8.738    0.350    0.389   80.619
  333.000    8.583    0.348    0.371   78.215
  333.250    8.279    0.349    0.371   80.749
  333.500    7.985    0.346    0.367   83.269
  333.750    7.994    0.310    0.394   87.006
  334.000    8.160    0.310    0.393   93.233
  334.250    8.169    0.306    0.383   92.075
  334.500    8.187    0.279    0.388   95.195
  334.750    8.514    0.278    0.389  102.640
  335.000    8.854    0.274    0.380  113.792
  335.250    9.571    0.263    0.418  123.082
  335.500   10.746    0.275    0.427  117.600
  335.750   12.298    0.285    0.418  102.255
  336.000   13.034    0.296    0.390   94.941
  336.250   13.819    0.307    0.375   85.136
  336.500   14.657    0.323    0.371   79.668
  336.750   14.668    0.302    0.369   83.405
  337.000   14.690    0.274    0.362   87.771
  337.250   14.994    0.263    0.347   92.768
  337.500   15.599    0.252    0.354   90.979
  337.750   17.508    0.281    0.358   87.329
  338.000   19.282    0.317    0.350   70.152
  338.250   26.180    0.366    0.400   60.346
  338.500   31.108    0.363    0.396   57.341
  338.750   36.269    0.361    0.427   61.092
