~VERSION INFORMATION
 VERS.                 2.0:   CWLS LOG ASCII STANDARD -VERSION 2.0
 WRAP.                  NO:   ONE LINE PER DEPTH STEP
~WELL INFORMATION BLOCK
#MNEM.UNIT           DATA                    DESCRIPTION OF MNEMONIC
#---------    -------------------            -------------------------------
# Generated from Intellog Unique Number	CX_WELLS/WELL/3115
WELL.         CDNOXY NEWBY                   : Well_name    - WELL
LOC .         00/07-06-083-03W4/0            : Location     - LOCATION
UWI .         00/07-06-083-03W400            : Uwi          - UNIQUE WELL ID
ENTR.         TIM                            : Entered      - ENTERED BY
SRVC.         SCHLUMBERGER                   : Scn          - SERVICE COMPANY
STRT.M        100                            : top_depth    - START DEPTH
STOP.M        300                            : bot_depth    - STOP DEPTH
STEP.M        0.25                           : increment    - STEP LENGTH
 NULL. -999.2500:NULL Value
~CURVE INFORMATION BLOCK
#MNEM UNIT       ERCB CURVE CODE    CURVE DESCRIPTION
#-----------   ------------------   ----------------------------------
DEPT.M        00 001 00 00         : DEPTH        - DEPTH
GR  .API      00 310 00 00         : GR           - GAMMA RAY
NPHI.V/V      00 330 00 00         : PHIN         - NEUTRON POROSITY (SANDSTONE)
DPHI.V/V      00 890 00 00         : PHID         - DENSITY POROSITY (SANDSTONE)
ILD .OHMM     00 120 00 00         : RESD         - DEEP RESISTIVITY (OTHER)
~PARAMETER INFORMATION
#MNEM.UNIT           DATA             DESCRIPTION OF MNEMONIC
#---------         -----------     ------------------------------
GL  .M        502.3                : gl           - GROUND LEVEL ELEVATION
EREF.M        507.1                : kb           - ELEVATION OF DEPTH REFERENCE
DATM.M        507.1                : datum        - DATUM ELEVATION
TDD .M        311                  : tdd          - TOTAL DEPTH DRILLER
RUN .         ONE                  : Run          - RUN NUMBER
ENG .         BILL                 : Engineer     - RECORDING ENGINEER
WIT .         JIM                  : Witness      - WITNESSED BY
MUD .         GEL                  : Mud_type     - MUD TYPE
MATR.         SANDSTONE            : Logunit      - NEUTRON MATRIX
TMAX.C        17                   : BHT          - MAXIMUM RECORDED TEMPERATURE
BHTD.M        311                  : BHTDEP       - MAXIMUM RECORDED TEMPERATURE
MATR.         1                    : LOGUNIT      - NEUTRON MATRIX
RMT .C        17                   : MDTP         - TEMPERATURE OF MUD
NEUT.         1                    : NEUTRON      - NEUTRON TYPE
RESI.         4                    : RESIST       - RESISTIVITY TYPE
RMC .OHMM     7.7                  : RMC          - RESISTIVITY OF MUD CAKE
RMF .OHMM     8.4                  : RMF          - RESISTIVITY OF MUD FILTRATE
SUFT.C        4                    : SUFT         - SURFACE TEMPERATURE
~A  DEPTH       GR     PHIN     PHID     RESD
  100.000   77.287    0.482    0.396   26.261
  100.250   74.154    0.497    0.409   23.461
  100.500   72.269    0.506    0.418   24.358
  100.750   72.880    0.508    0.405   27.778
  101.000   79.097    0.449    0.341   25.766
  101.250   77.212    0.448    0.345   24.353
  101.500   70.963    0.452    0.345   22.169
  101.750   81.544    0.443    0.347   21.351
  102.000   82.775    0.447    0.360   20.953
  102.250   75.898    0.442    0.351   23.451
  102.500   71.519    0.419    0.324   26.247
  102.750   71.504    0.395    0.305   29.933
  103.000   76.478    0.402    0.302   31.666
  103.250   86.436    0.413    0.306   32.877
  103.500   97.640    0.430    0.316   32.875
  103.750   96.377    0.452    0.340   32.262
  104.000   89.505    0.464    0.348   31.071
  104.250   82.010    0.467    0.357   28.820
  104.500   66.411    0.464    0.323   25.748
  104.750   65.149    0.462    0.338   24.336
  105.000   75.729    0.458    0.350   21.741
  105.250   85.063    0.448    0.336   20.549
  105.500   90.030    0.431    0.310   20.547
  105.750   90.638    0.424    0.293   19.790
  106.000   92.492    0.433    0.299   17.680
  106.250   93.100    0.453    0.313   15.794
  106.500   92.460    0.455    0.315   16.093
  106.750   92.449    0.441    0.298   16.397
  107.000   91.182    0.435    0.284   15.792
  107.250   89.916    0.441    0.268   14.926
  107.500   89.900    0.455    0.298   14.647
  107.750   95.498    0.464    0.331   15.495
  108.000  105.452    0.460    0.318   15.788
  108.250  107.310    0.457    0.303   14.922
  108.500  104.801    0.460    0.304   14.104
  108.750   99.175    0.460    0.317   13.584
  109.000   94.169    0.457    0.331   13.082
  109.250   91.664    0.456    0.336   13.840
  109.500   96.012    0.451    0.301   15.202
  109.750  102.229    0.445    0.248   15.489
  110.000  105.949    0.446    0.219   15.488
  110.250  107.180    0.449    0.218   15.488
  110.500  108.411    0.449    0.227   14.916
  110.750  109.022    0.448    0.254   14.365
  111.000  109.630    0.448    0.266   12.834
  111.250  108.987    0.448    0.270   12.833
  111.500  105.855    0.449    0.270   12.832
  111.750  102.103    0.450    0.274   12.359
  112.000   93.984    0.450    0.290   12.128
  112.250   83.996    0.450    0.318   12.127
  112.500   75.254    0.445    0.353   13.573
  112.750   73.364    0.433    0.380   19.761
  113.000   78.339    0.436    0.333   27.192
  113.250   81.432    0.450    0.330   28.766
  113.500   83.909    0.462    0.346   28.765
  113.750   87.014    0.477    0.374   25.698
  114.000   91.989    0.475    0.380   24.750
  114.250   96.959    0.469    0.329   21.699
  114.500   97.555    0.461    0.315   19.025
  114.750   96.301    0.463    0.320   17.319
  115.000   90.675    0.469    0.334   16.680
  115.250   82.556    0.471    0.337   16.368
  115.500   75.684    0.486    0.444   16.678
  115.750   68.189    0.505    0.475   16.993
  116.000   60.070    0.520    0.510   17.643
  116.250   50.081    0.562    0.538   18.664
  116.500   48.196    0.589    0.524   19.745
  116.750   55.660    0.615    0.451   20.119
  117.000   59.384    0.426    0.311   21.284
  117.250   59.991    0.430    0.307   21.686
  117.500   59.976    0.434    0.309   21.685
  117.750   55.593    0.438    0.317   22.514
  118.000   53.088    0.448    0.328   22.939
  118.250   52.445    0.454    0.336   24.728
  118.500   53.052    0.454    0.340   25.673
  118.750   54.283    0.457    0.339   27.160
  119.000   56.761    0.451    0.334   28.197
  119.250   60.481    0.437    0.329   27.671
  119.500   62.339    0.448    0.318   27.155
  119.750   64.193    0.461    0.301   24.260
  120.000   67.290    0.434    0.308   21.673
  120.250   69.768    0.435    0.313   20.873
  120.500   72.245    0.445    0.316   20.484
  120.750   74.723    0.450    0.306   20.871
  121.000   75.958    0.446    0.299   22.498
  121.250   77.189    0.445    0.293   22.924
  121.500   74.056    0.441    0.300   23.357
  121.750   69.677    0.434    0.305   24.250
  122.000   71.531    0.427    0.310   25.177
  122.250   76.502    0.423    0.315   25.175
  122.500   80.222    0.429    0.307   23.795
  122.750   82.700    0.443    0.292   20.862
  123.000   84.558    0.462    0.278   18.638
  123.250   86.412    0.479    0.277   16.341
  123.500   83.276    0.492    0.275   14.061
  123.750   79.525    0.488    0.276   12.561
  124.000   72.029    0.469    0.284   11.652
  124.250   66.400    0.460    0.299   12.326
  124.500   68.881    0.457    0.317   13.796
  124.750   72.601    0.456    0.321   15.154
  125.000   75.075    0.454    0.311   16.335
  125.250   76.937    0.449    0.297   16.643
  125.500   78.791    0.446    0.291   16.333
  125.750   80.645    0.446    0.288   16.029
  126.000   81.872    0.445    0.287   15.437
  126.250   82.480    0.446    0.285   14.867
  126.500   83.087    0.451    0.285   14.866
  126.750   83.695    0.454    0.282   14.866
  127.000   83.679    0.443    0.282   14.050
  127.250   84.287    0.439    0.281   13.531
  127.500   84.898    0.443    0.277   13.531
  127.750   84.879    0.447    0.277   13.278
  128.000   84.867    0.448    0.279   12.788
  128.250   82.977    0.448    0.281   12.787
  128.500   79.841    0.448    0.285   12.787
  128.750   78.583    0.448    0.286   12.786
  129.000   76.697    0.449    0.282   13.028
  129.250   76.058    0.448    0.279   13.027
  129.500   79.155    0.447    0.278   12.784
  129.750   81.632    0.447    0.280   13.026
  130.000   81.617    0.448    0.287   12.783
  130.250   80.354    0.450    0.295   12.544
  130.500   79.092    0.452    0.303   12.781
  130.750   80.327    0.449    0.297   13.778
  131.000   84.047    0.437    0.270   15.134
  131.250   84.655    0.426    0.263   14.575
  131.500   84.635    0.435    0.256   12.541
  131.750   85.250    0.447    0.263   10.995
  132.000   85.858    0.452    0.271   10.995
  132.250   86.466    0.442    0.266   11.203
  132.500   86.450    0.435    0.272   11.414
  132.750   86.434    0.430    0.279   11.630
  133.000   87.042    0.431    0.275   11.413
  133.250   87.026    0.436    0.271   11.413
  133.500   86.383    0.443    0.267   11.412
  133.750   86.363    0.447    0.263   11.848
  134.000   86.352    0.446    0.261   12.072
  134.250   86.340    0.450    0.262   12.072
  134.500   86.324    0.451    0.266   11.626
  134.750   84.438    0.451    0.271   11.409
  135.000   80.679    0.450    0.276   10.783
  135.250   77.543    0.450    0.281   10.783
  135.500   75.034    0.446    0.288   10.987
  135.750   71.905    0.444    0.292   11.623
  136.000   71.886    0.445    0.294   12.529
  136.250   70.627    0.446    0.295   12.529
  136.500   67.491    0.446    0.299   12.766
  136.750   65.609    0.445    0.304   12.765
  137.000   63.724    0.446    0.315   13.253
  137.250   64.954    0.446    0.321   14.286
  137.500   66.805    0.444    0.326   14.556
  137.750   67.416    0.443    0.326   15.691
  138.000   68.024    0.447    0.316   15.988
  138.250   68.627    0.458    0.311   15.111
  138.500   68.612    0.466    0.315   14.017
  138.750   69.219    0.473    0.316   12.522
  139.000   71.074    0.477    0.311   10.574
  139.250   73.547    0.445    0.309    9.626
  139.500   74.786    0.445    0.309    9.994
  139.750   77.887    0.454    0.308   10.977
  140.000   80.360    0.466    0.313   11.185
  140.250   82.215    0.476    0.315   10.976
  140.500   83.445    0.474    0.311   10.771
  140.750   80.309    0.471    0.315   10.374
  141.000   79.055    0.470    0.324   10.180
  141.250   74.053    0.475    0.326    9.990
  141.500   66.553    0.484    0.325   10.179
  141.750   59.681    0.488    0.322   11.181
  142.000   55.925    0.471    0.330   11.828
  142.250   52.170    0.484    0.375   12.992
  142.500   47.791    0.505    0.413   13.745
  142.750   46.525    0.521    0.430   15.972
  143.000   47.132    0.482    0.368   17.217
  143.250   46.489    0.436    0.369   18.911
