~VERSION INFORMATION
 VERS.                 2.0:   CWLS LOG ASCII STANDARD -VERSION 2.0
 WRAP.                  NO:   ONE LINE PER DEPTH STEP
~WELL INFORMATION BLOCK
#MNEM.UNIT           DATA                    DESCRIPTION OF MNEMONIC
#---------    -------------------            -------------------------------
# Generated from Intellog Unique Number	CS_77_79/WELL/880
WELL.         CWWE HARDY                     : Well_name    - WELL
LOC .         00/06-22-078-04W4/0            : Location     - LOCATION
UWI .         00/06-22-078-04W4/0            : Uwi          - UNIQUE WELL ID
ENTR.         JHS                            : Entered      - ENTERED BY
SRVC.         SCHLUMBERGER                   : Scn          - SERVICE COMPANY
STRT.M        140                            : top_depth    - START DEPTH
STOP.M        400                            : bot_depth    - STOP DEPTH
STEP.M        0.25                           : increment    - STEP LENGTH
 NULL. -999.2500:NULL Value
~CURVE INFORMATION BLOCK
#MNEM UNIT       ERCB CURVE CODE    CURVE DESCRIPTION
#-----------   ------------------   ----------------------------------
DEPT.M        00 001 00 00         : DEPTH        - DEPTH
DPHI.V/V      00 890 00 00         : PHID         - DENSITY POROSITY (LIMESTONE)
NPHI.V/V      00 330 00 00         : PHIN         - NEUTRON POROSITY (LIMESTONE)
GR  .API      00 310 00 00         : GR           - GAMMA RAY
ILD .OHMM     00 120 00 00         : RESD         - DEEP RESISTIVITY (DIL)
RHOB.KG/M3    00 350 00 00         : DENS         - BULK DENSITY
~PARAMETER INFORMATION
#MNEM.UNIT           DATA             DESCRIPTION OF MNEMONIC
#---------         -----------     ------------------------------
GL  .M        554.5                : gl           - GROUND LEVEL ELEVATION
EREF.M        558.4                : kb           - ELEVATION OF DEPTH REFERENCE
DATM.M        558.4                : datum        - DATUM ELEVATION
TDD .M        410                  : tdd          - TOTAL DEPTH DRILLER
RUN .         ONE                  : Run          - RUN NUMBER
ENG .         BILL                 : Engineer     - RECORDING ENGINEER
WIT .         JIM                  : Witness      - WITNESSED BY
MUD .         GEL                  : Mud_type     - MUD TYPE
MATR.         LIMESTONE            : Logunit      - NEUTRON MATRIX
TMAX.C        26                   : BHT          - MAXIMUM RECORDED TEMPERATURE
BHTD.M        410                  : BHTDEP       - MAXIMUM RECORDED TEMPERATURE
MATR.         1                    : LOGUNIT      - NEUTRON MATRIX
RMT .C        25                   : MDTP         - TEMPERATURE OF MUD
NEUT.         1                    : NEUTRON      - NEUTRON TYPE
RESI.         0                    : RESIST       - RESISTIVITY TYPE
RMC .OHMM     0.25                 : RMC          - RESISTIVITY OF MUD CAKE
RMF .OHMM     0.25                 : RMF          - RESISTIVITY OF MUD FILTRATE
SUFT.C        15                   : SUFT         - SURFACE TEMPERATURE
~A  DEPTH     PHID     PHIN       GR     RESD     DENS
# ...
  176.500    0.346    0.391   65.050   27.709    0.000
  176.750    0.343    0.395   68.202   26.683    0.000
  177.000    0.343    0.392   68.218   26.184    0.000
  177.250    0.343    0.390   64.468   25.694    0.000
  177.500    0.343    0.375   62.602   24.742    0.000
  177.750    0.345    0.361   65.129   23.826    0.000
  178.000    0.348    0.359   68.912   22.943    0.000
  178.250    0.339    0.370   69.552   22.514    0.000
  178.500    0.328    0.372   70.196   22.514    0.000
  178.750    0.311    0.365   76.486   22.093    0.000
  179.000    0.286    0.350   81.522   22.093    0.000
  179.250    0.295    0.356   75.891   22.093    0.000
  179.500    0.451    0.427   66.491   22.093    0.000
  179.750    0.503    0.482   68.394   22.093    0.000
  180.000    0.545    0.528   75.310   22.093    0.000
  180.250    0.518    0.482   72.815   22.514    0.000
  180.500    0.431    0.445   52.122   22.514    0.000
  180.750    0.372    0.403   42.096   22.943    0.000
  181.000    0.349    0.375   38.975   23.380    0.000
  181.250    0.357    0.376   40.242   23.826    0.000
  181.500    0.352    0.384   44.652   24.280    0.000
  181.750    0.351    0.372   45.924   24.280    0.000
  182.000    0.357    0.363   45.312   23.826    0.000
  182.250    0.348    0.361   47.836   22.943    0.000
  182.500    0.337    0.385   52.875   22.093    0.000
  182.750    0.329    0.411   57.911   21.275    0.000
  183.000    0.313    0.404   66.711   20.487    0.000
  183.250    0.293    0.383   78.029   19.359    0.000
  183.500    0.273    0.368   78.667   18.642    0.000
  183.750    0.261    0.364   81.196   17.951    0.000
  184.000    0.253    0.367   84.974   17.951    0.000
  184.250    0.238    0.403   86.874   18.293    0.000
  184.500    0.228    0.400   79.986   18.293    0.000
  184.750    0.309    0.383   71.215   18.997    0.000
  185.000    0.330    0.402   63.701   19.728    0.000
  185.250    0.342    0.392   59.949   21.275    0.000
  185.500    0.342    0.376   65.613   21.680    0.000
  185.750    0.328    0.370   77.554   22.093    0.000
  186.000    0.306    0.375   81.962   22.093    0.000
  186.250    0.296    0.386   84.490   22.093    0.000
  186.500    0.290    0.390   83.248   21.680    0.000
  186.750    0.282    0.375   80.753   21.275    0.000
  187.000    0.279    0.363   83.908   21.275    0.000
  187.250    0.285    0.379   92.087   20.877    0.000
  187.500    0.286    0.403   92.097   20.877    0.000
  187.750    0.285    0.418   88.349   20.877    0.000
  188.000    0.295    0.407   88.992   21.275    0.000
  188.250    0.293    0.398   95.912   21.275    0.000
  188.500    0.286    0.391   98.436   21.680    0.000
  188.750    0.286    0.373   97.825   21.275    0.000
  189.000    0.293    0.360   97.841   21.275    0.000
  189.250    0.299    0.364  102.254   20.877    0.000
  189.500    0.309    0.360   97.875   20.487    0.000
  189.750    0.314    0.355   99.142   19.359    0.000
  190.000    0.278    0.356  109.827   18.293    0.000
  190.250    0.237    0.342  113.608   17.951    0.000
  190.500    0.221    0.331  108.604   17.616    0.000
  190.750    0.216    0.339   93.555   17.951    0.000
  191.000    0.273    0.366   73.490   18.997    0.000
  191.250    0.303    0.377   60.327   20.104    0.000
  191.500    0.304    0.377   60.344   22.514    0.000
  191.750    0.305    0.373   58.475   24.280    0.000
  192.000    0.315    0.356   63.513   24.742    0.000
  192.250    0.319    0.340   73.567   24.280    0.000
  192.500    0.295    0.333   77.976   23.380    0.000
  192.750    0.288    0.342   67.325   22.514    0.000
  193.000    0.304    0.354   71.731   22.093    0.000
  193.250    0.298    0.341   81.161   21.275    0.000
  193.500    0.288    0.341   81.805   20.877    0.000
  193.750    0.284    0.378   79.309   20.487    0.000
  194.000    0.290    0.368   76.188   19.728    0.000
  194.250    0.284    0.363   74.947   18.642    0.000
  194.500    0.276    0.371   87.518   18.293    0.000
  194.750    0.279    0.375   94.435   17.616    0.000
  195.000    0.276    0.366   98.846   17.286    0.000
  195.250    0.266    0.360   97.606   17.286    0.000
  195.500    0.265    0.354   93.228   17.286    0.000
  195.750    0.261    0.358   91.989   17.616    0.000
  196.000    0.256    0.351   98.279   17.616    0.000
  196.250    0.253    0.348  105.197   17.616    0.000
  196.500    0.248    0.345  105.219   17.951    0.000
  196.750    0.248    0.349  101.463   17.951    0.000
  197.000    0.255    0.362   91.437   17.951    0.000
  197.250    0.267    0.371   86.436   17.951    0.000
  197.500    0.298    0.361   85.194   17.951    0.000
  197.750    0.302    0.354   85.837   17.951    0.000
  198.000    0.299    0.350   88.992   17.286    0.000
  198.250    0.287    0.350   94.656   16.963    0.000
  198.500    0.272    0.345   99.692   16.335    0.000
  198.750    0.261    0.346  104.099   15.147    0.000
  199.000    0.258    0.362  112.904   14.586    0.000
  199.250    0.245    0.379  118.565   13.525    0.000
  199.500    0.219    0.381  122.975   12.542    0.000
  199.750    0.197    0.389  126.127   11.851    0.000
  200.000    0.181    0.379  127.399   11.412    0.000
  200.250    0.200    0.366  128.671   10.990    0.000
  200.500    0.208    0.369  133.707   10.784    0.000
  200.750    0.208    0.388  134.977   10.385    0.000
  201.000    0.211    0.404  129.974   10.385    0.000
  201.250    0.224    0.408  123.716   10.582    0.000
  201.500    0.232    0.401  120.588   10.990    0.000
  201.750    0.240    0.398  109.936   11.851    0.000
  202.000    0.268    0.396   94.889   12.781    0.000
  202.250    0.290    0.379   93.654   13.525    0.000
  202.500    0.299    0.370   98.058   14.313    0.000
  202.750    0.293    0.381  105.610   14.586    0.000
  203.000    0.279    0.391  100.601   14.864    0.000
  203.250    0.285    0.389   96.222   14.864    0.000
  203.500    0.294    0.383  105.024   14.864    0.000
  203.750    0.274    0.374  114.454   14.586    0.000
  204.000    0.245    0.360  121.377   14.586    0.000
  204.250    0.222    0.395  125.160   14.586    0.000
  204.500    0.198    0.395  127.053   14.313    0.000
  204.750    0.196    0.379  126.444   14.046    0.000
  205.000    0.213    0.382  123.320   13.783    0.000
  205.250    0.217    0.412  112.666   13.783    0.000
  205.500    0.217    0.403   98.247   14.046    0.000
  205.750    0.250    0.385   93.241   14.586    0.000
  206.000    0.281    0.385   99.534   15.730    0.000
  206.250    0.309    0.390  103.943   16.646    0.000
  206.500    0.344    0.380  100.193   17.286    0.000
  206.750    0.329    0.377   92.677   18.293    0.000
  207.000    0.313    0.386   90.810   18.293    0.000
  207.250    0.309    0.392   90.198   17.951    0.000
  207.500    0.317    0.386   84.564   16.646    0.000
  207.750    0.293    0.387   95.877   14.864    0.000
  208.000    0.252    0.398  111.584   11.630    0.000
  208.250    0.226    0.429  117.247   10.000    0.000
  208.500    0.226    0.450  119.776   10.000    0.000
  208.750    0.253    0.441  116.656   10.000    0.000
  209.000    0.287    0.424  112.273   10.191    0.000
  209.250    0.325    0.408  107.271   10.990    0.000
  209.500    0.339    0.393  102.262   12.542    0.000
  209.750    0.327    0.388   87.843   14.586    0.000
  210.000    0.310    0.377   86.605   16.335    0.000
  210.250    0.300    0.379   92.897   16.963    0.000
  210.500    0.293    0.382   96.050   16.963    0.000
  210.750    0.289    0.369   92.300   16.646    0.000
  211.000    0.280    0.363   89.806   16.029    0.000
  211.250    0.264    0.354   93.591   15.436    0.000
  211.500    0.254    0.354   96.115   14.864    0.000
  211.750    0.246    0.374   97.385   14.586    0.000
  212.000    0.247    0.402   94.889   14.046    0.000
  212.250    0.257    0.416   81.099   14.046    0.000
  212.500    0.266    0.423   71.700   14.586    0.000
  212.750    0.284    0.418   67.951   15.147    0.000
