~VERSION INFORMATION
 VERS.                 2.0:   CWLS LOG ASCII STANDARD -VERSION 2.0
 WRAP.                  NO:   ONE LINE PER DEPTH STEP
~WELL INFORMATION BLOCK
#MNEM.UNIT           DATA                    DESCRIPTION OF MNEMONIC
#---------    -------------------            -------------------------------
# Generated from Intellog Unique Number	CS_73_76/WELL/2392
WELL.         07-26-076-12W4                 : Well_name    - WELL
LOC .         00/07-26-076-12W4/0            : Location     - LOCATION
UWI .         00/07-26-076-12W4/0            : Uwi          - UNIQUE WELL ID
ENTR.         SP                             : Entered      - ENTERED BY
SRVC.         SCHLUMBERGER                   : Scn          - SERVICE COMPANY
STRT.M        283.464                        : top_depth    - START DEPTH
STOP.M        523.964                        : bot_depth    - STOP DEPTH
STEP.M        0.25                           : increment    - STEP LENGTH
 NULL. -999.2500:NULL Value
~CURVE INFORMATION BLOCK
#MNEM UNIT       ERCB CURVE CODE    CURVE DESCRIPTION
#-----------   ------------------   ----------------------------------
DEPT.M        00 001 00 00         : DEPTH        - DEPTH
GR  .API      00 310 00 00         : GR           - GAMMA RAY
DPHI.V/V      00 890 00 00         : PHID         - DENSITY POROSITY (SANDSTONE)
NPHI.V/V      00 330 00 00         : PHIN         - NEUTRON POROSITY (SANDSTONE)
ILD .OHMM     00 120 00 00         : RESD         - DEEP RESISTIVITY (DIL)
~PARAMETER INFORMATION
#MNEM.UNIT           DATA             DESCRIPTION OF MNEMONIC
#---------         -----------     ------------------------------
GL  .M        669.95               : gl           - GROUND LEVEL ELEVATION
EREF.M        672.998              : kb           - ELEVATION OF DEPTH REFERENCE
DATM.M        669.95               : datum        - DATUM ELEVATION
TDD .M        528.523              : tdd          - TOTAL DEPTH DRILLER
RUN .         ONE                  : Run          - RUN NUMBER
ENG .         BILL                 : Engineer     - RECORDING ENGINEER
WIT .         JIM                  : Witness      - WITNESSED BY
MUD .         GEL                  : Mud_type     - MUD TYPE
MATR.         SANDSTONE            : Logunit      - NEUTRON MATRIX
TMAX.C        35                   : BHT          - MAXIMUM RECORDED TEMPERATURE
BHTD.M        528.523              : BHTDEP       - MAXIMUM RECORDED TEMPERATURE
MATR.         1                    : LOGUNIT      - NEUTRON MATRIX
RMT .C        25                   : MDTP         - TEMPERATURE OF MUD
NEUT.         1                    : NEUTRON      - NEUTRON TYPE
RESI.         0                    : RESIST       - RESISTIVITY TYPE
RMC .OHMM     0.25                 : RMC          - RESISTIVITY OF MUD CAKE
RMF .OHMM     0.25                 : RMF          - RESISTIVITY OF MUD FILTRATE
SUFT.C        15                   : SUFT         - SURFACE TEMPERATURE
~A  DEPTH       GR     PHID     PHIN     RESD
# ...
  413.964   64.038    0.058    0.224    7.088
  414.214   60.505    0.059    0.244    8.469
  414.464   55.735    0.059    0.207    9.481
  414.714   54.790    0.037    0.185   10.367
  414.964   55.238    0.053    0.246   10.348
  415.214   57.823    0.089    0.376    9.495
  415.464   60.433    0.124    0.459    8.134
  415.714   63.511    0.177    0.491    7.153
  415.964   65.094    0.221    0.495    6.084
  416.214   66.840    0.310    0.490    5.475
  416.464   67.462    0.331    0.489    5.096
  416.714   67.444    0.322    0.493    4.783
  416.964   66.830    0.323    0.500    4.731
  417.214   66.097    0.324    0.499    4.784
  417.464   66.945    0.332    0.496    4.831
  417.714   67.404    0.334    0.500    4.890
  417.964   66.337    0.325    0.498    5.093
  418.214   66.857    0.327    0.486    5.201
  418.464   67.800    0.324    0.484    5.442
  418.714   68.555    0.326    0.492    5.567
  418.964   69.220    0.318    0.495    5.556
  419.214   70.312    0.317    0.497    5.554
  419.464   70.889    0.313    0.483    5.578
  419.714   68.489    0.307    0.426    5.753
  419.964   65.456    0.270    0.378    5.864
  420.214   64.471    0.211    0.361    5.860
  420.464   66.569    0.258    0.453    5.753
  420.714   68.943    0.312    0.478    5.531
  420.964   69.451    0.315    0.482    5.198
  421.214   70.075    0.318    0.487    4.895
  421.464   70.286    0.324    0.492    4.681
  421.714   68.850    0.324    0.501    4.592
  421.964   66.759    0.324    0.508    4.598
  422.214   67.695    0.324    0.499    4.593
  422.464   68.996    0.325    0.505    4.591
  422.714   68.112    0.327    0.497    4.658
  422.964   67.899    0.329    0.481    4.570
  423.214   69.509    0.335    0.488    4.667
  423.464   71.507    0.337    0.491    4.603
  423.714   72.568    0.336    0.490    4.675
  423.964   72.561    0.323    0.496    4.661
  424.214   71.784    0.323    0.500    4.651
  424.464   72.491    0.328    0.502    4.750
  424.714   71.389    0.320    0.504    4.739
  424.964   71.838    0.324    0.506    4.738
  425.214   72.506    0.332    0.495    4.736
  425.464   73.049    0.331    0.479    4.724
  425.714   72.265    0.332    0.474    4.821
  425.964   70.034    0.340    0.471    4.906
  426.214   69.733    0.331    0.485    4.831
  426.464   70.749    0.329    0.503    4.911
  426.714   72.349    0.330    0.508    4.897
  426.964   73.332    0.327    0.503    4.892
  427.214   74.263    0.336    0.498    4.878
  427.464   70.970    0.317    0.513    4.739
  427.714   68.632    0.308    0.534    4.413
  427.964   69.549    0.313    0.557    4.217
  428.214   71.467    0.328    0.586    4.300
  428.464   73.414    0.332    0.615    4.286
  428.714   75.359    0.331    0.575    4.372
  428.964   74.513    0.322    0.486    4.357
  429.214   77.010    0.313    0.509    4.455
  429.464   78.906    0.305    0.522    4.442
  429.714   80.213    0.301    0.520    4.521
  429.964   82.234    0.311    0.514    4.614
  430.214   83.746    0.299    0.524    4.596
  430.464   81.750    0.293    0.527    4.694
  430.714   75.691    0.308    0.514    4.693
  430.964   74.373    0.293    0.509    4.837
  431.214   75.810    0.281    0.504    4.939
  431.464   76.445    0.268    0.510    5.034
  431.714   77.975    0.243    0.496    5.090
  431.964   77.844    0.231    0.509    5.254
  432.214   75.783    0.287    0.522    5.306
  432.464   73.983    0.283    0.544    5.304
  432.714   75.391    0.278    0.537    5.305
  432.964   77.459    0.271    0.542    5.208
  433.214   80.109    0.292    0.555    5.108
  433.464   82.026    0.280    0.557    5.000
  433.714   80.970    0.277    0.540    5.009
  433.964   79.106    0.271    0.529    5.053
  434.214   81.166    0.269    0.527    5.102
  434.464   82.721    0.268    0.531    5.182
  434.714   83.960    0.259    0.541    5.288
  434.964   86.709    0.272    0.522    5.276
  435.214   81.796    0.281    0.511    5.272
  435.464   81.107    0.291    0.507    5.270
  435.714   82.282    0.284    0.501    5.268
  435.964   81.486    0.282    0.505    5.264
  436.214   81.089    0.297    0.513    5.260
  436.464   81.066    0.280    0.508    5.264
  436.714   81.754    0.265    0.506    5.151
  436.964   86.176    0.270    0.499    5.154
  437.214   88.546    0.283    0.493    5.238
  437.464   90.530    0.289    0.492    5.245
  437.714   93.202    0.281    0.497    5.243
  437.964   95.261    0.277    0.504    5.322
  438.214   95.827    0.260    0.487    5.373
  438.464   97.257    0.239    0.474    5.434
  438.714   98.941    0.233    0.468    5.516
  438.964   99.087    0.223    0.467    5.750
  439.214   97.861    0.210    0.465    5.830
  439.464   98.765    0.223    0.474    6.001
  439.714  101.740    0.223    0.490    6.151
  439.964  103.098    0.258    0.512    5.948
  440.214  105.046    0.266    0.508    5.761
  440.464  106.171    0.270    0.503    5.717
  440.714  104.651    0.285    0.539    5.715
  440.964  102.969    0.279    0.538    5.757
  441.214  104.442    0.236    0.517    5.816
  441.464  106.491    0.258    0.491    5.926
  441.714  106.585    0.266    0.485    5.943
  441.964  104.932    0.301    0.474    6.131
  442.214  101.362    0.333    0.485    5.990
  442.464  101.633    0.310    0.495    5.763
  442.714  103.599    0.243    0.496    5.220
  442.964  102.185    0.217    0.518    4.965
  443.214   97.978    0.247    0.532    4.601
  443.464   95.481    0.276    0.527    4.355
  443.714   94.594    0.255    0.512    3.741
  443.964   94.608    0.291    0.511    3.427
  444.214   94.154    0.243    0.543    2.970
  444.464   93.039    0.283    0.575    2.590
  444.714   89.661    0.311    0.606    2.303
  444.964   87.040    0.310    0.649    2.102
  445.214   85.869    0.327    0.672    1.976
  445.464   86.071    0.331    0.677    1.955
  445.714   86.950    0.345    0.666    1.977
  445.964   88.445    0.342    0.645    1.995
  446.214   91.200    0.314    0.643    2.026
  446.464   94.533    0.299    0.641    2.043
  446.714   97.698    0.262    0.628    2.058
  446.964  100.747    0.249    0.625    2.084
  447.214  103.440    0.243    0.635    2.188
  447.464  105.298    0.238    0.607    2.346
  447.714  102.705    0.235    0.576    2.516
  447.964  100.397    0.228    0.539    2.834
  448.214   98.641    0.218    0.519    3.129
  448.464   97.703    0.198    0.503    3.595
  448.714   96.011    0.188    0.525    4.160
  448.964   94.490    0.179    0.499    4.648
  449.214   94.064    0.165    0.472    5.248
  449.464   96.204    0.147    0.450    5.525
  449.714  101.208    0.190    0.458    5.435
  449.964  105.660    0.195    0.484    5.008
  450.214  106.948    0.221    0.502    4.719
  450.464  106.392    0.219    0.495    4.364
  450.714  107.118    0.224    0.506    4.107
  450.964  111.249    0.209    0.527    3.946
  451.214  116.032    0.243    0.532    3.769
  451.464  117.878    0.216    0.545    3.721
  451.714  118.966    0.215    0.552    3.598
  451.964  118.915    0.216    0.556    3.603
  452.214  118.634    0.226    0.554    3.519
  452.464  115.574    0.228    0.559    3.583
  452.714  112.279    0.215    0.566    3.688
  452.964  108.903    0.205    0.539    3.899
  453.214  106.472    0.212    0.511    4.128
  453.464  104.193    0.208    0.508    4.427
  453.714  102.581    0.183    0.496    4.744
  453.964  101.999    0.174    0.502    5.044
  454.214  102.160    0.177    0.507    5.314
  454.464  103.204    0.183    0.504    5.353
  454.714  101.841    0.187    0.501    5.699
  454.964   98.710    0.203    0.509    5.922
  455.214   94.356    0.207    0.515    6.171
  455.464   88.423    0.185    0.499    6.890
  455.714   83.837    0.150    0.510    7.334
  455.964   79.074    0.167    0.433    8.046
  456.214   85.040    0.067    0.414    8.758
  456.464   89.065    0.115    0.449    9.065
  456.714   93.860    0.181    0.464    8.639
  456.964   95.047    0.203    0.471    8.353
  457.214   93.999    0.196    0.475    8.271
