~VERSION INFORMATION
 VERS.                 2.0:   CWLS LOG ASCII STANDARD -VERSION 2.0
 WRAP.                  NO:   ONE LINE PER DEPTH STEP
~WELL INFORMATION BLOCK
#MNEM.UNIT           DATA                    DESCRIPTION OF MNEMONIC
#---------    -------------------            -------------------------------
# Generated from Intellog Unique Number	CW_76_78/WELL/416
WELL.         RR CHIEFCO PELICAN 06-03       : Well_name    - WELL
LOC .         00/06-03-077-22W4/0            : Location     - LOCATION
UWI .         00/06-03-077-22W4/0            : Uwi          - UNIQUE WELL ID
ENTR.         os                             : Entered      - ENTERED BY
SRVC.         SCHLUMBERGER                   : Scn          - SERVICE COMPANY
DATE.         25 JAN 1974                    : Date         - LOG DATE
STRT.M        438.912                        : top_depth    - START DEPTH
STOP.M        661.412                        : bot_depth    - STOP DEPTH
STEP.M        0.25                           : increment    - STEP LENGTH
 NULL. -999.2500:NULL Value
~CURVE INFORMATION BLOCK
#MNEM UNIT       ERCB CURVE CODE    CURVE DESCRIPTION
#-----------   ------------------   ----------------------------------
DEPT.M        00 001 00 00         : DEPTH        - DEPTH
ILD .OHMM     00 120 00 00         : RESD         - DEEP RESISTIVITY (DIL)
NPHI.V/V      00 330 00 00         : PHIN         - NEUTRON POROSITY (SANDSTONE)
DPHI.V/V      00 890 00 00         : PHID         - DENSITY POROSITY (SANDSTONE)
GR  .API      00 310 00 00         : GR           - GAMMA RAY
CALI.MM       00 280 01 00         : CAL          - CALIPER
~PARAMETER INFORMATION
#MNEM.UNIT           DATA             DESCRIPTION OF MNEMONIC
#---------         -----------     ------------------------------
GL  .M        756.94               : gl           - GROUND LEVEL ELEVATION
EREF.M        760.293              : kb           - ELEVATION OF DEPTH REFERENCE
DATM.M        756.94               : datum        - DATUM ELEVATION
TDD .M        675.742              : tdd          - TOTAL DEPTH DRILLER
RUN .         ONE                  : Run          - RUN NUMBER
ENG .         SIROIS & SMILEY      : Engineer     - RECORDING ENGINEER
WIT .         TAHMAZIAN            : Witness      - WITNESSED BY
BASE.         EDMONTON             : Branch       - HOME BASE OF LOGGING UNIT
MUD .         GEL CHEM             : Mud_type     - MUD TYPE
MATR.         SANDSTONE            : Logunit      - NEUTRON MATRIX
TMAX.C        28.8889              : BHT          - MAXIMUM RECORDED TEMPERATURE
BHTD.M        675.742              : BHTDEP       - MAXIMUM RECORDED TEMPERATURE
RMT .C        8.88889              : MDTP         - TEMPERATURE OF MUD
MUDD.KG/M     1080                 : MWT          - MUD DENSITY
NEUT.         1                    : NEUTRON      - NEUTRON TYPE
RESI.         0                    : RESIST       - RESISTIVITY TYPE
RM  .OHMM     4.42                 : RM           - RESISTIVITY OF MUD
RMC .OHMM     2.5                  : RMC          - RESISTIVITY OF MUD CAKE
RMF .OHMM     4.8                  : RMF          - RESISTIVITY OF MUD FILTRATE
SUFT.C        4.5                  : SUFT         - SURFACE TEMPERATURE
~A  DEPTH     RESD     PHIN     PHID       GR      CAL
# ...
  621.412    4.969    0.376    0.226   94.788  168.456
  621.662    5.035    0.394    0.157   98.063  169.534
  621.912    6.032    0.396    0.140   93.296  170.096
  622.162    7.106    0.404    0.150   93.380  170.766
  622.412    8.919    0.402    0.151   89.599  171.422
  622.662    9.974    0.376    0.125   81.395  172.599
  622.912   10.297    0.348    0.174   75.090  171.496
  623.162    9.978    0.330    0.240   65.781  166.751
  623.412    9.633    0.316    0.266   60.584  162.944
  623.662    9.112    0.319    0.242   64.353  163.617
  623.912    8.603    0.331    0.206   70.823  164.380
  624.162    8.508    0.328    0.222   76.127  164.221
  624.412    8.138    0.303    0.277   69.398  162.788
  624.662    8.019    0.291    0.284   59.780  162.099
  624.912    7.844    0.278    0.269   56.797  163.388
  625.162    7.503    0.259    0.252   57.861  163.642
  625.412    7.365    0.252    0.251   58.562  163.363
  625.662    7.804    0.249    0.246   58.583  163.098
  625.912    8.567    0.243    0.242   58.670  162.820
  626.162    9.422    0.236    0.233   55.867  162.752
  626.412   10.497    0.352    0.254   48.523  162.913
  626.662   12.506    0.350    0.269   46.763  163.052
  626.912   15.321    0.357    0.275   47.340  162.885
  627.162   18.665    0.357    0.264   48.593  162.810
  627.412   21.070    0.358    0.254   49.846  162.951
  627.662   21.709    0.364    0.253   51.522  162.885
  627.912   21.917    0.357    0.258   53.329  162.923
  628.162   21.637    0.353    0.253   53.964  162.968
  628.412   20.928    0.362    0.246   54.356  163.429
  628.662   19.870    0.372    0.239   54.378  163.785
  628.912   19.254    0.365    0.240   56.310  163.708
  629.162   18.417    0.356    0.231   58.231  163.532
  629.412   18.013    0.352    0.233   61.326  163.575
  629.662   17.652    0.348    0.240   61.165  163.409
  629.912   17.361    0.343    0.226   62.663  163.971
  630.162   16.981    0.342    0.219   65.694  164.106
  630.412   16.609    0.341    0.205   68.540  164.465
  630.662   16.095    0.340    0.209   71.509  164.293
  630.912   15.683    0.341    0.208   72.210  164.553
  631.162   14.946    0.348    0.216   70.329  165.003
  631.412   14.402    0.352    0.223   71.153  165.245
  631.662   13.674    0.349    0.200   72.892  166.017
  631.912   13.201    0.342    0.188   77.524  166.469
  632.162   12.509    0.335    0.180   80.246  166.917
  632.412   11.965    0.340    0.165   83.156  167.792
  632.662   11.552    0.341    0.151   86.618  168.462
  632.912   11.173    0.333    0.162   89.033  169.113
  633.162   10.827    0.335    0.157   90.963  169.575
  633.412   10.241    0.328    0.140   89.201  169.407
  633.662    9.438    0.317    0.136   85.909  169.336
  633.912    8.665    0.301    0.124   89.125  169.581
  634.162    7.795    0.315    0.112   92.711  170.971
  634.412    7.455    0.335    0.114   99.487  171.222
  634.662    7.347    0.345    0.138   98.222  170.434
  634.912    7.571    0.351    0.150   97.817  170.363
  635.162    7.642    0.349    0.148  100.846  170.825
  635.412    7.802    0.342    0.162  101.118  171.378
  635.662    7.950    0.331    0.154  101.199  171.645
  635.912    8.085    0.320    0.153   99.994  171.673
  636.162    7.982    0.325    0.151   97.196  170.981
  636.412    8.043    0.334    0.158   95.373  170.083
  636.662    8.105    0.321    0.153   94.417  169.597
  636.912    8.367    0.328    0.150   93.580  169.739
  637.162    8.653    0.332    0.130   93.112  170.506
  637.412    9.463    0.346    0.117   91.477  171.687
  637.662   10.485    0.334    0.118   89.046  171.938
  637.912   12.353    0.340    0.142   84.153  171.351
  638.162   15.332    0.356    0.121   72.142  170.870
  638.412   16.861    0.358    0.092   65.228  171.542
  638.662   14.451    0.339    0.105   48.120  170.220
  638.912   11.866    0.310    0.121   36.476  167.868
  639.162    8.522    0.300    0.111   40.063  165.931
  639.412    6.317    0.330    0.134   46.162  166.189
  639.662    5.187    0.372    0.169   54.965  166.544
  639.912    4.165    0.491    0.288   70.585  166.795
  640.162    3.947    0.560    0.336  103.703  166.002
  640.412    3.977    0.599    0.323  120.551  165.307
  640.662    4.152    0.552    0.286  121.863  166.067
  640.912    4.399    0.536    0.289  122.871  167.461
  641.162    4.966    0.548    0.269  124.858  168.951
  641.412    5.647    0.574    0.327  118.370  169.510
  641.662    6.085    0.578    0.342  116.002  167.369
  641.912    6.447    0.518    0.286  119.095  167.198
  642.162    6.806    0.476    0.224  110.768  166.719
  642.412    6.820    0.419    0.221  105.507  163.857
  642.662    6.535    0.434    0.225  108.785  163.885
  642.912    6.298    0.462    0.232  112.248  166.836
  643.162    6.024    0.454    0.239  115.900  167.395
  643.412    5.980    0.436    0.218  118.066  166.706
  643.662    6.301    0.428    0.174  117.170  168.621
  643.912    7.086    0.415    0.132  113.083  170.739
  644.162    7.954    0.398    0.166  108.985  171.715
  644.412   10.039    0.382    0.220   94.519  171.122
  644.662   11.761    0.364    0.298   80.727  169.085
  644.912   13.301    0.363    0.355   69.573  165.705
  645.162   12.442    0.414    0.375   61.247  164.593
  645.412   10.985    0.634    0.398   59.674  165.044
  645.662   10.805    0.626    0.457   55.767  166.127
  645.912   11.216    0.561    0.503   61.132  166.888
  646.162   13.388    0.501    0.414   68.400  166.822
  646.412   15.685    0.401    0.276   72.358  165.510
  646.662   17.937    0.391    0.289   68.819  164.616
  646.912   19.580    0.395    0.284   64.174  164.966
  647.162   20.026    0.403    0.281   64.870  166.150
  647.412   19.623    0.408    0.276   66.367  166.396
  647.662   18.254    0.412    0.283   71.365  166.227
  647.912   17.010    0.412    0.281   74.211  165.744
  648.162   14.524    0.417    0.287   76.754  165.476
  648.412   12.540    0.411    0.292   81.564  165.098
  648.662   11.197    0.399    0.270   88.284  165.656
  648.912   11.013    0.396    0.250   93.708  167.253
  649.162   11.454    0.384    0.245   93.363  168.124
  649.412   12.364    0.355    0.264   85.650  166.707
  649.662   12.931    0.366    0.265   78.554  162.280
  649.912   12.554    0.390    0.288   78.265  163.254
  650.162   11.613    0.411    0.299   73.992  165.890
  650.412   10.177    0.393    0.292   70.087  166.863
  650.662    9.172    0.383    0.284   73.302  165.244
  650.912    8.023    0.394    0.268   89.164  165.903
  651.162    7.203    0.416    0.259  100.733  168.235
  651.412    7.125    0.445    0.247  110.640  170.456
  651.662    7.206    0.512    0.272  119.934  171.739
  651.912    7.316    0.565    0.295  120.816  171.568
  652.162    7.385    0.585    0.306  125.570  170.891
  652.412    7.484    0.576    0.321  121.908  171.336
  652.662    7.569    0.510    0.338  114.071  169.927
  652.912    7.684    0.452    0.291  109.672  169.964
  653.162    7.830    0.433    0.293   96.312  165.424
  653.412    8.038    0.414    0.280   98.177  163.699
  653.662    8.236    0.460    0.271  104.339  165.923
  653.912    8.957    0.507    0.288  108.538  168.354
  654.162   10.243    0.556    0.328  111.017  169.844
  654.412   11.562    0.531    0.363  104.960  170.817
  654.662   12.296    0.314    0.314   82.143  169.300
  654.912   12.530    0.239    0.286   48.333  167.464
  655.162   12.187    0.245    0.303   33.376  163.448
  655.412   11.086    0.265    0.304   33.889  162.242
  655.662    9.378    0.299    0.298   42.448  160.616
  655.912    7.573    0.323    0.265   54.321  161.073
  656.162    6.965    0.317    0.251   72.643  163.293
  656.412    6.467    0.330    0.225  108.094  165.620
  656.662    6.290    0.351    0.151  142.992  166.805
  656.912    6.028    0.378    0.134  138.658  167.158
  657.162    5.765    0.374    0.159  136.408  166.365
  657.412    5.484    0.372    0.197  132.135  163.192
  657.662    5.245    0.354    0.201  124.233  160.830
