~VERSION INFORMATION
 VERS.                 2.0:   CWLS LOG ASCII STANDARD -VERSION 2.0
 WRAP.                  NO:   ONE LINE PER DEPTH STEP
~WELL INFORMATION BLOCK
#MNEM.UNIT           DATA                    DESCRIPTION OF MNEMONIC
#---------    -------------------            -------------------------------
# Generated from Intellog Unique Number	CW_70_72/WELL/3015
NULL.         -999.25                        : NULL_VALUE
WELL.         CHIEFCO POR ET AL DANCING 07-0 : Well_name    - WELL              
LOC .         07-01-070-27W4                 : Location     - LOCATION          
UWI .         00/07-01-070-27W4/0            : Uwi          - UNIQUE WELL ID    
ENTR.         J                              : Entered      - ENTERED BY        
SRVC.         SCHLUMBERGER                   : Scn          - SERVICE COMPANY   
DATE.         20 DEC 75                      : Date         - LOG DATE          
STRT.M        484.632                        : top_depth    - START DEPTH       
STOP.M        737.632                        : bot_depth    - STOP DEPTH        
STEP.M        0.25                           : increment    - STEP LENGTH       
~CURVE INFORMATION BLOCK
#MNEM UNIT       ERCB CURVE CODE    CURVE DESCRIPTION
#-----------   ------------------   ----------------------------------
DEPT.M        00 001 00 00         : DEPTH        - DEPTH                       
ILD .OHMM     00 120 00 00         : RESD         - DEEP RESISTIVITY (DIL)      
CALI.MM       00 280 01 00         : CAL          - CALIPER                     
GR  .API      00 310 00 00         : GR           - GAMMA RAY                   
NPHI.V/V      00 330 00 00         : PHIN         - NEUTRON POROSITY (SANDSTONE)
DPHI.V/V      00 890 00 00         : PHID         - DENSITY POROSITY (SANDSTONE)
~PARAMETER INFORMATION       
#MNEM.UNIT           DATA             DESCRIPTION OF MNEMONIC
#---------         -----------     ------------------------------
GL  .M        648.005              : gl           - GROUND LEVEL ELEVATION      
EREF.M        650.748              : kb           - ELEVATION OF DEPTH REFERENCE
DATM.M        648.005              : datum        - DATUM ELEVATION             
TDD .M        754.38               : tdd          - TOTAL DEPTH DRILLER         
RUN .         ONE                  : Run          - RUN NUMBER                  
ENG .         ROBSON               : Engineer     - RECORDING ENGINEER          
BASE.         RD                   : Branch       - HOME BASE OF LOGGING UNIT   
MUD .         GEL                  : Mud_type     - MUD TYPE                    
MATR.         SANDSTONE            : Logunit      - NEUTRON MATRIX              
TMAX.C        27.7778              : BHT          - MAXIMUM RECORDED TEMPERATURE
BHTD.M        754.075              : BHTDEP       - MAXIMUM RECORDED TEMPERATURE
RMT .C        17.7778              : MDTP         - TEMPERATURE OF MUD          
MUDD.KG/M     1176                 : MWT          - MUD DENSITY                 
NEUT.         1                    : NEUTRON      - NEUTRON TYPE                
RESI.         0                    : RESIST       - RESISTIVITY TYPE            
RM  .OHMM     3.72                 : RM           - RESISTIVITY OF MUD          
RMC .OHMM     2.5                  : RMC          - RESISTIVITY OF MUD CAKE     
RMF .OHMM     4.21                 : RMF          - RESISTIVITY OF MUD FILTRATE 
SUFT.C        -17.7778             : SUFT         - SURFACE TEMPERATURE         
~A  DEPTH     RESD      CAL       GR     PHIN     PHID
# ...
  667.132    3.995  161.599   85.810    0.377    0.120
  667.382    3.912  161.633   85.771    0.374    0.095
  667.632    3.873  161.467   89.494    0.391    0.073
  667.882    3.814  161.501   91.396    0.409    0.077
  668.132    3.769  161.639   92.572    0.396    0.102
  668.382    3.814  161.782   95.320    0.408    0.113
  668.632    3.915  162.025  100.012    0.419    0.121
  668.882    4.049  162.469   96.153    0.413    0.141
  669.132    4.127  162.812   92.719    0.404    0.130
  669.382    4.146  162.747   89.649    0.395    0.133
  669.632    4.075  162.578   86.634    0.387    0.120
  669.882    3.956  162.521   90.541    0.392    0.111
  670.132    3.888  162.652   94.200    0.394    0.108
  670.382    3.863  162.997   97.380    0.388    0.123
  670.632    3.866  163.143   98.490    0.400    0.123
  670.882    3.927  163.078   97.299    0.412    0.130
  671.132    4.061  162.808   94.832    0.404    0.152
  671.382    4.269  162.636   90.912    0.392    0.142
  671.632    4.636  162.463   88.026    0.383    0.136
  671.882    4.865  162.501   86.347    0.374    0.123
  672.132    4.782  162.335   84.426    0.361    0.108
  672.382    4.524  162.171   81.659    0.359    0.098
  672.632    4.062  161.482   78.227    0.359    0.089
  672.882    3.767  160.291   81.704    0.349    0.086
  673.132    3.506  160.425   91.429    0.406    0.058
  673.382    3.324  161.905   89.269    0.470    0.074
  673.632    3.469  166.357   84.984    0.473    0.130
  673.882    3.774  166.908   82.033    0.450    0.145
  674.132    4.297  161.395   80.721    0.412    0.158
  674.382    4.813  159.691   82.988    0.377    0.096
  674.632    5.208  159.013   83.130    0.390    0.113
  674.882    5.575  158.837   78.603    0.384    0.130
  675.132    5.839  159.180   74.013    0.366    0.163
  675.382    5.647  159.531   75.979    0.350    0.171
  675.632    5.352  159.359   76.852    0.344    0.128
  675.882    5.019  159.402   77.659    0.355    0.110
  676.132    4.835  159.642   80.413    0.361    0.097
  676.382    4.617  159.785   84.797    0.372    0.150
  676.632    4.473  159.821   88.642    0.400    0.136
  676.882    4.445  159.959   89.817    0.385    0.159
  677.132    4.474  160.001   89.839    0.363    0.152
  677.382    4.660  160.031   88.402    0.353    0.118
  677.632    4.988  160.062   86.303    0.341    0.104
  677.882    5.427  159.701   85.175    0.332    0.097
  678.132    5.683  159.323   83.859    0.342    0.086
  678.382    5.486  158.843   83.032    0.347    0.062
  678.632    5.033  160.216   85.726    0.332    0.041
  678.882    4.478  162.099   90.721    0.336    0.057
  679.132    4.019  163.881   96.809    0.361    0.094
  679.382    3.714  164.949  101.927    0.380    0.117
  679.632    3.625  165.502  105.218    0.399    0.122
  679.882    3.701  165.847  106.877    0.393    0.131
  680.132    3.842  165.875  102.897    0.391    0.132
  680.382    3.930  165.812   99.280    0.384    0.128
  680.632    3.934  165.542   94.508    0.383    0.125
  680.882    3.831  164.552   94.470    0.395    0.136
  681.132    3.698  163.563   97.586    0.385    0.144
  681.382    3.641  163.183   99.306    0.366    0.120
  681.632    3.685  163.228  100.119    0.367    0.125
  681.882    3.825  163.772  100.687    0.400    0.116
  682.132    3.962  164.324  100.401    0.413    0.129
  682.382    4.150  164.256   98.666    0.394    0.141
  682.632    4.230  163.889   93.833    0.378    0.106
  682.882    4.265  163.307   97.071    0.372    0.078
  683.132    4.284  162.723  104.431    0.382    0.062
  683.382    4.351  161.942  105.365    0.421    0.093
  683.632    4.615  161.158   97.747    0.416    0.131
  683.882    5.198  160.266   91.760    0.393    0.136
  684.132    5.717  159.481   82.081    0.368    0.124
  684.382    6.393  158.912   76.156    0.349    0.099
  684.632    6.781  157.707   70.599    0.328    0.079
  684.882    6.788  156.719   65.829    0.295    0.061
  685.132    6.182  155.629   64.698    0.298    0.048
  685.382    5.549  155.155   67.023    0.305    0.065
  685.632    5.000  155.607   73.902    0.325    0.090
  685.882    4.748  155.941   83.747    0.336    0.108
  686.132    4.787  157.218   91.655    0.350    0.145
  686.382    5.208  158.072   88.462    0.357    0.145
  686.632    5.637  158.829   84.417    0.345    0.130
  686.882    5.871  159.587   84.986    0.340    0.112
  687.132    5.952  159.724   88.647    0.334    0.096
  687.382    5.926  159.974   93.582    0.333    0.098
  687.632    5.845  160.112   97.910    0.340    0.119
  687.882    5.777  160.150  102.176    0.345    0.118
  688.132    5.730  159.868   98.744    0.335    0.110
  688.382    5.746  159.401   95.428    0.332    0.105
  688.632    5.740  159.223   96.179    0.327    0.112
  688.882    5.735  159.156   96.926    0.324    0.109
  689.132    5.793  158.996   95.799    0.321    0.111
  689.382    5.872  159.231   95.032    0.322    0.119
  689.632    6.117  159.475   94.142    0.325    0.115
  689.882    6.705  159.618   92.708    0.333    0.118
  690.132    7.620  159.239   87.395    0.331    0.117
  690.382    9.060  158.766   82.319    0.324    0.112
  690.632   10.834  156.850   77.610    0.313    0.137
  690.882   12.722  155.348   73.083    0.303    0.179
  691.132   14.043  154.867   68.071    0.299    0.218
  691.382   15.364  153.988   66.455    0.293    0.243
  691.632   16.419  153.613   64.966    0.288    0.239
  691.882   16.403  153.138   64.011    0.286    0.237
  692.132   15.633  152.759   62.458    0.285    0.233
  692.382   14.630  152.590   61.205    0.286    0.209
  692.632   13.016  152.623   65.718    0.273    0.176
  692.882   11.854  153.079   69.801    0.298    0.152
  693.132   10.450  153.524   74.552    0.319    0.169
  693.382    9.570  154.179   80.883    0.326    0.155
  693.632    8.529  155.449   87.153    0.332    0.146
  693.882    7.810  156.816   91.539    0.341    0.138
  694.132    7.775  158.498   90.288    0.349    0.133
  694.382    8.599  160.486   93.283    0.358    0.126
  694.632   10.061  161.444   93.363    0.357    0.118
  694.882   11.706  161.893   84.716    0.346    0.125
  695.132   13.870  162.242   78.550    0.331    0.125
  695.382   16.082  162.070   69.472    0.234    0.099
  695.632   18.781  161.592   55.789    0.215    0.065
  695.882   18.493  160.497   49.622    0.193    0.046
  696.132   16.481  159.409   52.678    0.206    0.029
  696.382   14.688  158.725   55.186    0.235    0.025
  696.632   12.396  158.457   57.149    0.253    0.031
  696.882   10.425  157.981   60.388    0.227    0.041
  697.132    8.438  157.703   66.472    0.236    0.040
  697.382    8.014  157.437   74.924    0.272    0.104
  697.632    8.378  157.065   75.977    0.318    0.132
  697.882    9.067  156.692   73.574    0.342    0.159
  698.132    9.495  156.422   71.961    0.335    0.128
  698.382    9.453  155.944   71.315    0.304    0.115
  698.632    8.929  155.974   72.124    0.291    0.131
  698.882    8.326  155.296   74.146    0.306    0.179
  699.132    7.583  154.716   76.350    0.319    0.192
  699.382    6.819  153.725   79.891    0.329    0.183
  699.632    6.383  151.299   82.945    0.338    0.180
  699.882    6.195  147.947   86.362    0.351    0.186
  700.132    6.201  148.293   88.875    0.347    0.151
  700.382    6.506  150.380   89.621    0.334    0.168
  700.632    6.901  154.318   92.615    0.355    0.166
  700.882    7.468  156.206   94.577    0.357    0.145
  701.132    8.170  156.857   90.232    0.327    0.152
  701.382    9.020  158.541   84.855    0.320    0.152
  701.632    9.762  159.502   86.824    0.329    0.132
  701.882   10.373  160.569   85.749    0.337    0.118
  702.132   10.824  161.831   80.311    0.317    0.103
  702.382   10.913  162.286   71.600    0.288    0.064
  702.632   10.438  161.908   64.162    0.237    0.035
  702.882    9.136  160.820   64.365    0.225    0.006
  703.132    7.782  159.413   75.850    0.253    0.017
  703.382    6.687  157.806   87.579    0.364    0.111
