~VERSION INFORMATION
 VERS.                 2.0:   CWLS LOG ASCII STANDARD -VERSION 2.0
 WRAP.                  NO:   ONE LINE PER DEPTH STEP
~WELL INFORMATION BLOCK
#MNEM.UNIT           DATA                    DESCRIPTION OF MNEMONIC
#---------    -------------------            -------------------------------
# Generated from Intellog Unique Number	CW_70_72/WELL/528
NULL.         -999.25                        : NULL_VALUE
WELL.         RAVENNA ET AL CALL 05-24       : Well_name    - WELL              
LOC .         05-24-071-19W4                 : Location     - LOCATION          
UWI .         00/05-24-071-19W4/0            : Uwi          - UNIQUE WELL ID    
ENTR.         JAYE                           : Entered      - ENTERED BY        
SRVC.         COMPUTALOG                     : Scn          - SERVICE COMPANY   
DATE.         31 JAN 82                      : Date         - LOG DATE          
STRT.M        310                            : top_depth    - START DEPTH       
STOP.M        477                            : bot_depth    - STOP DEPTH        
STEP.M        0.25                           : increment    - STEP LENGTH       
~CURVE INFORMATION BLOCK
#MNEM UNIT       ERCB CURVE CODE    CURVE DESCRIPTION
#-----------   ------------------   ----------------------------------
DEPT.M        00 001 00 00         : DEPTH        - DEPTH                       
DPHI.V/V      00 890 00 00         : PHID         - DENSITY POROSITY (SANDSTONE)
NPHI.V/V      00 330 00 00         : PHIN         - NEUTRON POROSITY (SANDSTONE)
GR  .API      00 310 00 00         : GR           - GAMMA RAY                   
CALI.MM       00 280 01 00         : CAL          - CALIPER                     
ILD .OHMM     00 120 00 00         : RESD         - DEEP RESISTIVITY (DIL)      
~PARAMETER INFORMATION       
#MNEM.UNIT           DATA             DESCRIPTION OF MNEMONIC
#---------         -----------     ------------------------------
GL  .M        589.6                : gl           - GROUND LEVEL ELEVATION      
EREF.M        593.2                : kb           - ELEVATION OF DEPTH REFERENCE
DATM.M        589.6                : datum        - DATUM ELEVATION             
TDD .M        480                  : tdd          - TOTAL DEPTH DRILLER         
RUN .         ONE                  : Run          - RUN NUMBER                  
ENG .         EISLER               : Engineer     - RECORDING ENGINEER          
WIT .         TAVATAVAI            : Witness      - WITNESSED BY                
BASE.         LLOYDMINISTER        : Branch       - HOME BASE OF LOGGING UNIT   
MUD .         GEL CHEM             : Mud_type     - MUD TYPE                    
MATR.         SANDSTONE            : Logunit      - NEUTRON MATRIX              
TMAX.C        22                   : BHT          - MAXIMUM RECORDED TEMPERATURE
BHTD.M        479.4                : BHTDEP       - MAXIMUM RECORDED TEMPERATURE
RMT .C        17.2                 : MDTP         - TEMPERATURE OF MUD          
MUDD.KG/M     1110                 : MWT          - MUD DENSITY                 
NEUT.         1                    : NEUTRON      - NEUTRON TYPE                
RESI.         0                    : RESIST       - RESISTIVITY TYPE            
RM  .OHMM     5.2                  : RM           - RESISTIVITY OF MUD          
RMC .OHMM     0                    : RMC          - RESISTIVITY OF MUD CAKE     
RMF .OHMM     5                    : RMF          - RESISTIVITY OF MUD FILTRATE 
SUFT.C        0                    : SUFT         - SURFACE TEMPERATURE         
~A  DEPTH     PHID     PHIN       GR      CAL     RESD
  310.000    0.191    0.395  118.034  173.551    3.281
  310.250    0.187    0.404  116.401  175.559    3.234
  310.500    0.180    0.382  117.795  175.570    3.218
  310.750    0.180    0.391  120.071  173.480    3.263
  311.000    0.181    0.389  120.015  172.543    3.310
  311.250    0.191    0.394  117.877  171.188    3.331
  311.500    0.200    0.392  115.740  169.097    3.384
  311.750    0.187    0.388  118.019  169.213    3.439
  312.000    0.175    0.389  119.600  168.068    3.487
  312.250    0.160    0.377  121.560  165.136    3.476
  312.500    0.170    0.381  121.693  167.354    3.388
  312.750    0.176    0.409  119.555  172.620    3.308
  313.000    0.180    0.452  115.905  176.518    3.224
  313.250    0.183    0.434  116.039  160.345    3.160
  313.500    0.175    0.422  118.882  166.766    3.091
  313.750    0.166    0.404  121.095  171.717    3.058
  314.000    0.181    0.452  119.967  173.305    3.067
  314.250    0.202    0.440  117.388  173.946    3.104
  314.500    0.212    0.436  113.864  174.797    3.154
  314.750    0.225    0.420  109.582  175.859    3.266
  315.000    0.208    0.437  103.536  180.494    3.375
  315.250    0.217    0.347   98.246  179.243    3.644
  315.500    0.194    0.343   87.218  168.956    3.918
  315.750    0.208    0.354   74.615  162.556    4.222
  316.000    0.245    0.403   67.811  161.622    4.438
  316.250    0.283    0.337   66.998  160.897    4.518
  316.500    0.268    0.321   79.741  160.908    4.565
  316.750    0.247    0.366   92.737  160.498    4.646
  317.000    0.207    0.395   98.293  160.614    4.695
  317.250    0.161    0.397  100.946  161.361    4.698
  317.500    0.206    0.380  102.466  163.998    4.684
  317.750    0.236    0.396   99.067  165.480    4.643
  318.000    0.254    0.419   89.617  165.597    4.543
  318.250    0.274    0.421   77.643  165.607    4.469
  318.500    0.292    0.346   70.084  166.249    4.413
  318.750    0.292    0.333   72.171  167.099    4.442
  319.000    0.275    0.318   85.796  166.902    4.505
  319.250    0.242    0.355   99.233  165.860    4.611
  319.500    0.223    0.352  107.184  164.718    4.775
  319.750    0.236    0.356  107.821  164.411    4.973
  320.000    0.232    0.325  104.486  163.688    5.179
  320.250    0.219    0.309  106.384  163.383    5.342
  320.500    0.209    0.298  111.056  163.395    5.532
  320.750    0.196    0.304  115.098  163.404    5.630
  321.000    0.192    0.323  119.014  163.940    5.646
  321.250    0.198    0.355  115.679  164.897    5.586
  321.500    0.201    0.375  111.650  165.853    5.445
  321.750    0.201    0.359  101.190  166.392    5.305
  322.000    0.209    0.354   93.379  166.400    5.102
  322.250    0.226    0.370   88.214  165.571    4.825
  322.500    0.241    0.363   81.222  164.531    4.684
  322.750    0.263    0.345   76.689  163.177    4.530
  323.000    0.262    0.317   73.858  162.662    4.440
  323.250    0.263    0.331   72.288  162.041    4.444
  323.500    0.272    0.389   73.303  161.631    4.480
  323.750    0.282    0.390   77.409  161.537    4.579
  324.000    0.279    0.394   82.522  161.549    4.617
  324.250    0.270    0.371   87.006  161.349    4.629
  324.500    0.255    0.377   89.975  160.836    4.659
  324.750    0.247    0.366   95.278  160.636    4.689
  325.000    0.242    0.357  100.077  161.276    4.667
  325.250    0.242    0.352  104.434  162.338    4.634
  325.500    0.240    0.355  107.971  161.719    4.543
  325.750    0.229    0.372  108.734  161.519    4.486
  326.000    0.215    0.371  109.497  161.844    4.480
  326.250    0.187    0.368  111.647  163.538    4.367
  326.500    0.150    0.352  117.518  165.757    4.192
  326.750    0.104    0.345  116.515  167.343    4.039
  327.000    0.060    0.392  114.378  169.035    3.877
  327.250    0.047    0.415  117.033  171.883    3.652
  327.500    0.106    0.415  122.525  175.045    3.512
  327.750    0.143    0.393  127.954  179.365    3.410
  328.000    0.140    0.397  132.941  176.749    3.305
  328.250    0.133    0.423  135.596  172.241    3.232
  328.500    0.143    0.444  135.414  176.140    3.156
  328.750    0.164    0.425  134.790  180.145    3.093
  329.000    0.177    0.405  136.057  179.104    3.015
  329.250    0.184    0.503  138.397  172.389    2.972
  329.500    0.202    0.546  139.854  173.768    3.072
  329.750    0.219    0.582  140.175  177.457    3.222
  330.000    0.216    0.436  138.542  176.205    3.552
  330.250    0.211    0.408  134.702  177.267    3.975
  330.500    0.204    0.382  129.224  173.494    4.655
  330.750    0.188    0.392  123.051  163.627    5.180
  331.000    0.169    0.400  122.932  163.429    5.571
  331.250    0.176    0.402  120.542  167.012    5.790
  331.500    0.198    0.391  114.937  181.104    5.883
  331.750    0.200    0.354  106.620  170.607    5.933
  332.000    0.184    0.364   98.683  160.319    6.017
  332.250    0.141    0.326  102.094  159.176    6.112
  332.500    0.079    0.332  104.496  162.759    6.270
  332.750    0.064    0.331  107.529  167.288    6.371
  333.000    0.124    0.365  114.219  170.871    6.485
  333.250    0.164    0.369  120.216  170.778    6.551
  333.500    0.177    0.331  123.312  169.739    6.644
  333.750    0.184    0.341  117.013  167.961    6.687
  334.000    0.194    0.339  104.346  165.976    6.692
  334.250    0.216    0.347   97.985  165.146    6.697
  334.500    0.223    0.355   95.217  164.736    6.676
  334.750    0.220    0.349   93.647  164.221    6.669
  335.000    0.210    0.345   93.465  164.232    6.674
  335.250    0.192    0.352   93.533  164.349    6.667
  335.500    0.183    0.316   91.839  164.464    6.646
  335.750    0.184    0.309   90.646  165.002    6.651
  336.000    0.184    0.324   89.518  165.119    6.656
  336.250    0.174    0.333   90.092  165.338    6.699
  336.500    0.164    0.344   92.746  166.505    6.730
  336.750    0.177    0.354   96.158  167.567    6.722
  337.000    0.197    0.365   97.930  167.472    6.715
  337.250    0.199    0.362   98.630  164.856    6.657
  337.500    0.194    0.345   98.952  162.135    6.611
  337.750    0.178    0.327   99.968  163.091    6.504
  338.000    0.178    0.329  101.046  166.780    6.423
  338.250    0.176    0.346  100.989  166.895    6.284
  338.500    0.174    0.347   99.924  164.489    6.112
  338.750    0.170    0.328  100.308  163.449    5.923
  339.000    0.166    0.309  104.161  165.142    5.783
  339.250    0.164    0.327  112.049  169.251    5.734
  339.500    0.173    0.349  116.595  170.735    5.748
  339.750    0.182    0.372  116.918  170.008    5.764
  340.000    0.191    0.374  117.303  167.394    5.768
  340.250    0.195    0.358  119.074  165.827    5.772
  340.500    0.186    0.352  125.259  165.628    5.810
  340.750    0.191    0.340  132.832  166.690    5.848
  341.000    0.182    0.347  138.513  167.645    5.863
  341.250    0.180    0.380  132.908  168.918    5.845
  341.500    0.190    0.375  126.484  170.294    5.794
  341.750    0.190    0.326  120.185  172.091    5.690
  342.000    0.172    0.296  115.463  169.790    5.514
  342.250    0.150    0.294  121.081  168.540    5.184
  342.500    0.147    0.343  126.952  167.921    4.675
  342.750    0.145    0.415  129.416  167.302    4.231
  343.000    0.142    0.437  132.765  166.684    3.874
  343.250    0.133    0.419  134.727  166.590    3.580
  343.500    0.154    0.412  137.192  166.600    3.456
  343.750    0.168    0.404  143.566  167.345    3.579
  344.000    0.181    0.396  135.250  171.979    3.720
  344.250    0.195    0.390  126.556  172.307    3.940
  344.500    0.210    0.410  116.095  168.008    4.294
  344.750    0.213    0.420  107.842  168.754    4.662
  345.000    0.186    0.398  100.597  166.665    5.158
  345.250    0.167    0.389   98.838  164.152    5.621
  345.500    0.190    0.409  101.556  162.166    5.843
  345.750    0.216    0.430  100.554  159.865    5.705
  346.000    0.235    0.424   94.696  151.364    5.487
  346.250    0.245    0.386   91.236  150.534    5.398
