~VERSION INFORMATION
 VERS.                 2.0:   CWLS LOG ASCII STANDARD -VERSION 2.0
 WRAP.                  NO:   ONE LINE PER DEPTH STEP
~WELL INFORMATION BLOCK
#MNEM.UNIT           DATA                    DESCRIPTION OF MNEMONIC
#---------    -------------------            -------------------------------
# Generated from Intellog Unique Number	CS_67_68/WELL/620
WELL.         AEC FISH CREEK                 : Well_name    - WELL
LOC .         00/01-26-068-08W4/0            : Location     - LOCATION
UWI .         00/01-26-068-08W4/0            : Uwi          - UNIQUE WELL ID
ENTR.         SP                             : Entered      - ENTERED BY
SRVC.         SCHLUMBERGER                   : Scn          - SERVICE COMPANY
STRT.M        270                            : top_depth    - START DEPTH
STOP.M        495                            : bot_depth    - STOP DEPTH
STEP.M        0.25                           : increment    - STEP LENGTH
 NULL. -999.2500:NULL Value
~CURVE INFORMATION BLOCK
#MNEM UNIT       ERCB CURVE CODE    CURVE DESCRIPTION
#-----------   ------------------   ----------------------------------
DEPT.M        00 001 00 00         : DEPTH        - DEPTH
ILD .OHMM     00 120 00 00         : RESD         - DEEP RESISTIVITY (DIL)
DPHI.V/V      00 890 00 00         : PHID         - DENSITY POROSITY (LIMESTONE)
NPHI.V/V      00 330 00 00         : PHIN         - NEUTRON POROSITY (LIMESTONE)
GR  .API      00 310 00 00         : GR           - GAMMA RAY
~PARAMETER INFORMATION
#MNEM.UNIT           DATA             DESCRIPTION OF MNEMONIC
#---------         -----------     ------------------------------
GL  .M        602.15               : gl           - GROUND LEVEL ELEVATION
EREF.M        605.73               : kb           - ELEVATION OF DEPTH REFERENCE
DATM.M        602.15               : datum        - DATUM ELEVATION
TDD .M        505                  : tdd          - TOTAL DEPTH DRILLER
RUN .         ONE                  : Run          - RUN NUMBER
ENG .         BILL                 : Engineer     - RECORDING ENGINEER
WIT .         JIM                  : Witness      - WITNESSED BY
MUD .         GEL                  : Mud_type     - MUD TYPE
MATR.         LIMESTONE            : Logunit      - NEUTRON MATRIX
TMAX.C        22                   : BHT          - MAXIMUM RECORDED TEMPERATURE
BHTD.M        505                  : BHTDEP       - MAXIMUM RECORDED TEMPERATURE
MATR.         1                    : LOGUNIT      - NEUTRON MATRIX
RMT .C        25                   : MDTP         - TEMPERATURE OF MUD
NEUT.         1                    : NEUTRON      - NEUTRON TYPE
RESI.         0                    : RESIST       - RESISTIVITY TYPE
RMC .OHMM     0.25                 : RMC          - RESISTIVITY OF MUD CAKE
RMF .OHMM     0.25                 : RMF          - RESISTIVITY OF MUD FILTRATE
SUFT.C        15                   : SUFT         - SURFACE TEMPERATURE
~A  DEPTH     RESD     PHID     PHIN       GR
# ...
  400.500    2.611    0.433    0.429   98.422
  400.750    2.842    0.386    0.413   98.677
  401.000    3.071    0.314    0.425   93.952
  401.250    3.337    0.367    0.447   91.132
  401.500    3.552    0.421    0.460   93.478
  401.750    3.809    0.328    0.445   97.236
  402.000    3.970    0.291    0.415   99.519
  402.250    4.131    0.264    0.420   97.376
  402.500    4.314    0.249    0.444   98.123
  402.750    4.413    0.241    0.444  101.082
  403.000    4.464    0.235    0.440  103.735
  403.250    4.397    0.249    0.445  104.173
  403.500    4.372    0.260    0.454  103.322
  403.750    4.364    0.274    0.466  102.470
  404.000    4.380    0.286    0.477   99.403
  404.250    4.364    0.297    0.456   95.662
  404.500    4.364    0.304    0.451   97.762
  404.750    4.355    0.295    0.446   98.692
  405.000    4.331    0.286    0.434   97.778
  405.250    4.339    0.307    0.418   94.160
  405.500    4.339    0.326    0.408   87.899
  405.750    4.356    0.319    0.408   88.214
  406.000    4.389    0.306    0.420   91.789
  406.250    4.397    0.295    0.429   92.227
  406.500    4.422    0.285    0.415   89.347
  406.750    4.405    0.280    0.408   89.294
  407.000    4.380    0.297    0.404   92.131
  407.250    4.347    0.282    0.407   94.968
  407.500    4.339    0.275    0.410   95.897
  407.750    4.347    0.314    0.418   94.923
  408.000    4.364    0.378    0.405   94.931
  408.250    4.372    0.400    0.407   95.124
  408.500    4.422    0.289    0.422   95.133
  408.750    4.481    0.250    0.439   94.956
  409.000    4.541    0.233    0.454   93.305
  409.250    4.558    0.245    0.447   91.656
  409.500    4.541    0.259    0.440   92.277
  409.750    4.532    0.270    0.433   95.360
  410.000    4.549    0.277    0.429   98.381
  410.250    4.601    0.278    0.433   97.466
  410.500    4.751    0.280    0.439   88.561
  410.750    4.981    0.274    0.433   82.791
  411.000    5.124    0.280    0.427   85.935
  411.250    5.301    0.291    0.422   88.772
  411.500    5.537    0.297    0.432   90.379
  411.750    5.717    0.301    0.445   88.912
  412.000    5.926    0.295    0.453   90.580
  412.250    5.994    0.277    0.447   92.740
  412.500    6.028    0.226    0.441   92.872
  412.750    6.028    0.231    0.438   87.163
  413.000    5.893    0.271    0.445   81.764
  413.250    5.526    0.295    0.435   84.353
  413.500    5.202    0.286    0.427   95.243
  413.750    4.897    0.272    0.436  104.042
  414.000    4.645    0.273    0.443  106.571
  414.250    4.481    0.296    0.431  104.551
  414.500    4.299    0.311    0.405  106.097
  414.750    4.179    0.281    0.388  107.949
  415.000    4.085    0.211    0.388  105.499
  415.250    3.971    0.240    0.399   96.471
  415.500    3.724    0.276    0.415   94.635
  415.750    3.440    0.295    0.433   96.549
  416.000    3.178    0.320    0.450   86.599
  416.250    2.854    0.390    0.469   81.259
  416.500    2.486    0.420    0.467   79.054
  416.750    2.162    0.427    0.452   74.145
  417.000    1.905    0.431    0.449   74.338
  417.250    1.730    0.440    0.474   78.650
  417.500    1.616    0.444    0.464   78.720
  417.750    1.510    0.439    0.451   74.364
  418.000    1.454    0.450    0.448   73.943
  418.250    1.446    0.462    0.459   78.256
  418.500    1.471    0.475    0.476   80.783
  418.750    1.507    0.494    0.495   81.038
  419.000    1.565    0.468    0.504   79.694
  419.250    1.641    0.441    0.486   79.702
  419.500    1.691    0.438    0.475   77.005
  419.750    1.757    0.419    0.472   77.752
  420.000    1.814    0.377    0.469   82.679
  420.250    1.877    0.351    0.464   90.742
  420.500    1.916    0.356    0.473   98.434
  420.750    1.956    0.366    0.465  102.869
  421.000    1.997    0.335    0.460  101.771
  421.250    2.032    0.302    0.459   99.812
  421.500    2.078    0.285    0.475   96.378
  421.750    2.142    0.275    0.488   94.235
  422.000    2.179    0.271    0.475   97.133
  422.250    2.233    0.269    0.486  100.277
  422.500    2.267    0.283    0.498  102.192
  422.750    2.301    0.311    0.480   98.942
  423.000    2.327    0.338    0.445   93.848
  423.250    2.426    0.343    0.431   96.315
  423.500    2.641    0.305    0.455  104.808
  423.750    2.958    0.300    0.491  109.611
  424.000    3.178    0.311    0.506  106.546
  424.250    3.447    0.311    0.479   98.624
  424.500    3.635    0.275    0.449   94.084
  424.750    3.832    0.249    0.427   89.728
  425.000    3.964    0.230    0.407   87.278
  425.250    4.055    0.254    0.393   96.384
  425.500    4.156    0.281    0.397  103.954
  425.750    4.055    0.301    0.401  103.717
  426.000    3.775    0.320    0.408   99.976
  426.250    3.560    0.297    0.431  100.968
  426.500    3.447    0.280    0.455  104.052
  426.750    3.295    0.276    0.465  105.411
  427.000    3.137    0.285    0.451  106.096
  427.250    3.021    0.280    0.442  107.642
  427.500    2.887    0.262    0.435  109.618
  427.750    2.738    0.245    0.436  111.286
  428.000    2.612    0.236    0.440  108.958
  428.250    2.558    0.238    0.445  109.090
  428.500    2.534    0.242    0.457  113.033
  428.750    2.652    0.240    0.468  115.624
  429.000    2.822    0.240    0.473  114.341
  429.250    3.055    0.242    0.455  112.874
  429.500    3.252    0.248    0.438  105.690
  429.750    3.553    0.252    0.420   97.831
  430.000    3.972    0.253    0.399   95.871
  430.250    4.708    0.249    0.398   97.540
  430.500    5.243    0.237    0.390   98.163
  430.750    6.030    0.230    0.362   94.668
  431.000    6.843    0.072    0.333   86.192
  431.250    7.436    0.031    0.306   76.488
  431.500    7.795   -0.000    0.284   69.303
  431.750    7.899   -0.008    0.301   77.919
  432.000    7.737    0.241    0.411   90.101
  432.250    7.693    0.274    0.433   94.657
  432.500    8.126    0.280    0.416   92.455
  432.750    8.764    0.284    0.405   91.049
  433.000    9.084    0.288    0.412   89.150
  433.250    8.948    0.293    0.426   86.884
  433.500    8.487    0.297    0.410   92.426
  433.750    7.795    0.288    0.401  103.193
  434.000    7.592    0.271    0.389  111.378
  434.250    8.391    0.248    0.382  119.195
  434.500   10.309    0.231    0.387  124.182
  434.750   13.303    0.219    0.394  128.248
  435.000   14.593    0.277    0.403   98.317
  435.250   17.894    0.319    0.397   81.052
  435.500   23.309    0.328    0.385   48.969
  435.750   29.908    0.331    0.375   34.408
  436.000   38.374    0.326    0.367   49.109
  436.250   40.306    0.318    0.359   63.073
  436.500   35.583    0.314    0.358   75.193
  436.750   33.244    0.317    0.371   68.686
  437.000   29.627    0.317    0.369   63.591
  437.250   25.959    0.309    0.362   67.043
  437.500   20.892    0.303    0.361   72.891
  437.750   16.782    0.296    0.363   79.662
  438.000   13.278    0.291    0.364   76.105
  438.250   11.077    0.295    0.363   71.994
  438.500    9.542    0.299    0.361   72.126
  438.750    8.748    0.272    0.360   86.766
  439.000    8.297    0.234    0.360   99.684
  439.250    8.748    0.197    0.358  112.666
  439.500    9.560    0.214    0.360  123.370
  439.750   11.077    0.238    0.377  108.933
  440.000   12.336    0.257    0.383   94.002
  440.250   14.106    0.260    0.347   80.424
  440.500   16.376    0.234    0.326   86.519
  440.750   18.099    0.252    0.362   94.520
  441.000   19.336    0.304    0.382   85.307
  441.250   19.780    0.316    0.382   82.671
  441.500   18.375    0.319    0.381   89.688
  441.750   14.649    0.319    0.396   97.321
  442.000   12.267    0.320    0.408   93.272
  442.250   10.850    0.320    0.409   90.391
  442.500    9.947    0.305    0.383   90.584
  442.750    9.276    0.295    0.364   94.959
  443.000    8.569    0.281    0.352   97.978
  443.250    8.127    0.274    0.343  103.212
  443.500    7.841    0.268    0.355  107.832
  443.750    7.593    0.262    0.362  110.791
