~VERSION INFORMATION
 VERS.                 2.0:   CWLS LOG ASCII STANDARD -VERSION 2.0
 WRAP.                  NO:   ONE LINE PER DEPTH STEP
~WELL INFORMATION BLOCK
#MNEM.UNIT           DATA                    DESCRIPTION OF MNEMONIC
#---------    -------------------            -------------------------------
# Generated from Intellog Unique Number	CS_77_79/WELL/875
WELL.         HOME OIL COMPANY               : Well_name    - WELL
LOC .         00/06-16-077-06W4/0            : Location     - LOCATION
UWI .         00/06-16-077-06W4/0            : Uwi          - UNIQUE WELL ID
ENTR.         SP                             : Entered      - ENTERED BY
SRVC.         SCHLUMBERGER                   : Scn          - SERVICE COMPANY
STRT.M        143.256                        : top_depth    - START DEPTH
STOP.M        362.506                        : bot_depth    - STOP DEPTH
STEP.M        0.25                           : increment    - STEP LENGTH
 NULL. -999.2500:NULL Value
~CURVE INFORMATION BLOCK
#MNEM UNIT       ERCB CURVE CODE    CURVE DESCRIPTION
#-----------   ------------------   ----------------------------------
DEPT.M        00 001 00 00         : DEPTH        - DEPTH
GR  .API      00 310 00 00         : GR           - GAMMA RAY
DPHI.V/V      00 890 00 00         : PHID         - DENSITY POROSITY (SANDSTONE)
NPHI.V/V      00 330 00 00         : PHIN         - NEUTRON POROSITY (SANDSTONE)
ILD .OHMM     00 120 00 00         : RESD         - DEEP RESISTIVITY (DIL)
~PARAMETER INFORMATION
#MNEM.UNIT           DATA             DESCRIPTION OF MNEMONIC
#---------         -----------     ------------------------------
GL  .M        566.105              : gl           - GROUND LEVEL ELEVATION
EREF.M        569.641              : kb           - ELEVATION OF DEPTH REFERENCE
DATM.M        566.105              : datum        - DATUM ELEVATION
TDD .M        368.808              : tdd          - TOTAL DEPTH DRILLER
RUN .         ONE                  : Run          - RUN NUMBER
ENG .         BILL                 : Engineer     - RECORDING ENGINEER
WIT .         JIM                  : Witness      - WITNESSED BY
MUD .         GEL                  : Mud_type     - MUD TYPE
MATR.         SANDSTONE            : Logunit      - NEUTRON MATRIX
TMAX.C        23.3333              : BHT          - MAXIMUM RECORDED TEMPERATURE
BHTD.M        389.534              : BHTDEP       - MAXIMUM RECORDED TEMPERATURE
MATR.         1                    : LOGUNIT      - NEUTRON MATRIX
RMT .C        25                   : MDTP         - TEMPERATURE OF MUD
NEUT.         1                    : NEUTRON      - NEUTRON TYPE
RESI.         0                    : RESIST       - RESISTIVITY TYPE
RMC .OHMM     0.25                 : RMC          - RESISTIVITY OF MUD CAKE
RMF .OHMM     0.25                 : RMF          - RESISTIVITY OF MUD FILTRATE
SUFT.C        15                   : SUFT         - SURFACE TEMPERATURE
~A  DEPTH       GR     PHID     PHIN     RESD
  143.256  117.261    0.261    0.558    3.823
  143.506  115.363    0.257    0.557    3.705
  143.756  112.483    0.273    0.585    3.569
  144.006  108.529    0.250    0.598    3.304
  144.256  105.855    0.244    0.590    3.204
  144.506  103.823    0.212    0.570    3.107
  144.756  102.019    0.176    0.555    3.011
  145.006  104.099    0.297    0.555    3.010
  145.256  110.217    0.282    0.554    2.944
  145.506  110.226    0.277    0.530    2.953
  145.756  109.345    0.265    0.550    2.887
  146.006  108.388    0.267    0.560    2.891
  146.256  108.042    0.264    0.560    2.890
  146.506  110.437    0.248    0.563    2.887
  146.756  109.644    0.253    0.569    2.940
  147.006  111.616    0.267    0.559    2.994
  147.256  114.700    0.255    0.547    3.063
  147.506  117.189    0.250    0.552    3.207
  147.756  118.389    0.251    0.552    3.373
  148.006  117.269    0.257    0.549    3.552
  148.256  115.176    0.228    0.535    3.775
  148.506  114.973    0.233    0.505    3.878
  148.756  116.330    0.240    0.523    3.793
  149.006  117.263    0.252    0.540    3.750
  149.256  116.711    0.251    0.524    3.656
  149.506  113.279    0.250    0.530    3.588
  149.756  109.750    0.251    0.535    3.546
  150.006  111.563    0.245    0.495    3.540
  150.256  110.457    0.221    0.470    3.583
  150.506  105.871    0.213    0.457    3.692
  150.756   98.225    0.211    0.423    3.816
  151.006   89.655    0.186    0.385    4.266
  151.256   72.484    0.166    0.355    4.587
  151.506   62.233    0.134    0.370    5.056
  151.756   54.382    0.178    0.381    6.043
  152.006   54.452    0.170    0.370    8.030
  152.256   53.319    0.167    0.358   10.276
  152.506   59.649    0.210    0.389   13.882
  152.756   66.345    0.245    0.416   13.666
  153.006   77.452    0.259    0.454   10.039
  153.256   92.396    0.264    0.487    7.212
  153.506  103.556    0.253    0.461    5.480
  153.756  112.983    0.224    0.454    5.003
  154.006  114.927    0.216    0.462    4.517
  154.256  115.167    0.215    0.478    4.176
  154.506  113.031    0.226    0.480    4.233
  154.756  104.547    0.238    0.454    4.897
  155.006   97.617    0.244    0.435    5.684
  155.256   92.771    0.246    0.413    6.870
  155.506   97.255    0.225    0.408    8.741
  155.756   98.615    0.203    0.409   10.350
  156.006   98.772    0.201    0.416   12.111
  156.256  101.969    0.225    0.426   13.508
  156.506  105.644    0.249    0.438   14.836
  156.756  108.635    0.264    0.446   16.203
  157.006  111.092    0.275    0.438   18.126
  157.256  109.695    0.287    0.433   18.300
  157.506  104.768    0.281    0.443   17.242
  157.756  101.261    0.281    0.449   16.257
  158.006   98.279    0.281    0.427   15.632
  158.256   97.490    0.288    0.429   18.419
  158.506   90.972    0.304    0.451   22.514
  158.756   70.464    0.334    0.470   29.414
  159.006   46.279    0.354    0.479   36.795
  159.256   29.179    0.333    0.378   46.341
  159.506   26.857    0.325    0.359   45.267
  159.756   29.495    0.325    0.366   43.620
  160.006   31.977    0.315    0.374   43.063
  160.256   33.959    0.323    0.379   41.800
  160.506   36.029    0.324    0.390   40.567
  160.756   40.334    0.329    0.383   39.354
  161.006   47.041    0.343    0.388   38.187
  161.256   52.109    0.351    0.394   36.174
  161.506   57.155    0.343    0.403   32.835
  161.756   60.256    0.339    0.415   30.808
  162.006   63.739    0.334    0.427   27.550
  162.256   69.853    0.333    0.434   23.781
  162.506   74.463    0.327    0.439   21.259
  162.756   80.145    0.324    0.432   18.496
  163.006   88.474    0.303    0.435   16.762
  163.256   90.522    0.265    0.439   14.520
  163.506   95.162    0.257    0.446   12.438
  163.756  103.082    0.255    0.451   11.215
  164.006  113.902    0.261    0.461   10.137
  164.256  114.333    0.265    0.468    9.995
  164.506  108.105    0.261    0.478   10.748
  164.756   93.369    0.282    0.464   12.556
  165.006   81.899    0.305    0.447   14.845
  165.256   77.945    0.336    0.455   16.840
  165.506   76.299    0.356    0.485   19.381
  165.756   77.825    0.375    0.508   21.346
  166.006   77.616    0.372    0.519   23.116
  166.256   70.454    0.325    0.461   24.940
  166.506   60.070    0.310    0.411   26.182
  166.756   54.538    0.305    0.390   28.233
  167.006   51.508    0.313    0.390   29.433
  167.256   52.535    0.315    0.394   29.899
  167.506   58.322    0.326    0.398   28.916
  167.756   61.580    0.338    0.405   28.058
  168.006   65.058    0.340    0.414   27.392
  168.256   66.912    0.333    0.422   26.874
  168.506   68.728    0.338    0.422   26.019
  168.756   72.022    0.326    0.421   25.783
  169.006   72.784    0.326    0.417   25.426
  169.256   77.510    0.318    0.416   25.386
  169.506   85.900    0.310    0.427   21.931
  169.756   97.914    0.299    0.448   17.939
  170.006  115.719    0.235    0.463   13.976
  170.256  131.662    0.155    0.476   10.892
  170.506  135.512    0.140    0.490    8.394
  170.756  133.765    0.119    0.490    6.747
  171.006  132.523    0.134    0.468    6.017
  171.256  133.303    0.165    0.488    5.651
  171.506  131.146    0.194    0.491    5.368
  171.756  128.281    0.196    0.491    5.219
  172.006  118.076    0.215    0.494    5.097
  172.256  103.994    0.244    0.502    5.552
  172.506   90.317    0.265    0.510    7.434
  172.756   81.264    0.297    0.451    9.590
  173.006   68.660    0.326    0.410   12.883
  173.256   54.349    0.336    0.413   17.235
  173.506   54.119    0.336    0.415   24.819
  173.756   56.177    0.317    0.413   28.149
  174.006   65.732    0.303    0.416   25.000
  174.256   74.960    0.294    0.415   23.117
  174.506   81.459    0.267    0.405   20.187
  174.756   84.304    0.251    0.394   17.659
  175.006   84.468    0.242    0.397   15.657
  175.256   85.525    0.250    0.401   14.035
  175.506   87.639    0.252    0.412   13.075
  175.756   89.360    0.231    0.421   12.299
  176.006   89.987    0.232    0.416   13.166
  176.256   84.816    0.263    0.416   15.477
  176.506   71.856    0.287    0.422   17.650
  176.756   64.908    0.322    0.417   20.334
  177.006   59.997    0.329    0.398   22.472
  177.256   62.810    0.302    0.395   21.115
  177.506   71.073    0.277    0.408   18.622
  177.756   92.611    0.273    0.403   16.759
  178.006  105.341    0.278    0.421   14.195
  178.256  111.736    0.246    0.435   11.915
  178.506  125.871    0.196    0.460    9.870
  178.756  130.282    0.199    0.482    8.843
  179.006  128.993    0.200    0.476    7.817
  179.256  128.857    0.217    0.464    7.273
  179.506  130.340    0.218    0.463    6.849
  179.756  129.783    0.212    0.473    6.708
  180.006  128.438    0.259    0.478    8.151
  180.256  126.015    0.304    0.466    9.713
  180.506  122.085    0.349    0.450   11.601
  180.756  124.604    0.343    0.436   15.378
  181.006  135.362    0.336    0.443   19.871
  181.256  152.975    0.343    0.452   26.629
  181.506  158.438    0.351    0.456   30.555
  181.756  129.597    0.333    0.453   32.221
  182.006  107.891    0.328    0.453   29.690
  182.256   95.288    0.320    0.444   28.021
  182.506   84.116    0.316    0.439   25.349
  182.756   82.708    0.305    0.433   22.944
  183.006   88.230    0.294    0.434   20.218
  183.256   92.824    0.285    0.441   18.528
  183.506  101.080    0.269    0.451   16.912
  183.756  107.622    0.261    0.459   15.905
  184.006  112.632    0.280    0.465   15.035
  184.256  111.317    0.298    0.457   14.901
  184.506   96.986    0.300    0.432   15.338
  184.756   82.231    0.292    0.397   16.262
  185.006   73.058    0.311    0.389   18.126
  185.256   64.358    0.316    0.394   19.934
  185.506   62.054    0.307    0.403   22.530
  185.756   63.713    0.300    0.412   24.644
  186.006   66.846    0.323    0.408   26.400
  186.256   73.759    0.310    0.400   28.788
  186.506   79.106    0.305    0.395   26.560
