~VERSION INFORMATION
 VERS.                 2.0:   CWLS LOG ASCII STANDARD -VERSION 2.0
 WRAP.                  NO:   ONE LINE PER DEPTH STEP
~WELL INFORMATION BLOCK
#MNEM.UNIT           DATA                    DESCRIPTION OF MNEMONIC
#---------    -------------------            -------------------------------
# Generated from Intellog Unique Number	CN_94_101/WELL/3386
WELL.         PARAMOUNT RES                  : Well_name    - WELL
LOC .         00/03-28-095-18W4/0            : Location     - LOCATION
UWI .         00/03-28-095-18W400            : Uwi          - UNIQUE WELL ID
ENTR.         T                              : Entered      - ENTERED BY
SRVC.         SCHLUMBERGER                   : Scn          - SERVICE COMPANY
DATE.         07/07/92                       : Date         - LOG DATE
STRT.M        225                            : top_depth    - START DEPTH
STOP.M        400                            : bot_depth    - STOP DEPTH
STEP.M        0.25                           : increment    - STEP LENGTH
 NULL. -999.2500:NULL Value
~CURVE INFORMATION BLOCK
#MNEM UNIT       ERCB CURVE CODE    CURVE DESCRIPTION
#-----------   ------------------   ----------------------------------
DEPT.M        00 001 00 00         : DEPTH        - DEPTH
GR  .API      00 310 00 00         : GR           - GAMMA RAY
NPHI.V/V      00 330 00 00         : PHIN         - NEUTRON POROSITY (SANDSTONE)
DPHI.V/V      00 890 00 00         : PHID         - DENSITY POROSITY (SANDSTONE)
ILD .OHMM     00 120 00 00         : RESD         - DEEP RESISTIVITY (DIL)
~PARAMETER INFORMATION
#MNEM.UNIT           DATA             DESCRIPTION OF MNEMONIC
#---------         -----------     ------------------------------
GL  .M        680.3                : gl           - GROUND LEVEL ELEVATION
EREF.M        683.8                : kb           - ELEVATION OF DEPTH REFERENCE
DATM.M        683.8                : datum        - DATUM ELEVATION
TDD .M        398                  : tdd          - TOTAL DEPTH DRILLER
RUN .         ONE                  : Run          - RUN NUMBER
ENG .         JO                   : Engineer     - RECORDING ENGINEER
WIT .         TIM                  : Witness      - WITNESSED BY
MUD .         GEL                  : Mud_type     - MUD TYPE
MATR.         SANDSTONE            : Logunit      - NEUTRON MATRIX
TMAX.C        32                   : BHT          - MAXIMUM RECORDED TEMPERATURE
BHTD.M        398                  : BHTDEP       - MAXIMUM RECORDED TEMPERATURE
RMT .C        21                   : MDTP         - TEMPERATURE OF MUD
MUDD.KG/M     1100                 : MWT          - MUD DENSITY
NEUT.         1                    : NEUTRON      - NEUTRON TYPE
RESI.         0                    : RESIST       - RESISTIVITY TYPE
RM  .OHMM     4                    : RM           - RESISTIVITY OF MUD
RMC .OHMM     3.5                  : RMC          - RESISTIVITY OF MUD CAKE
RMF .OHMM     5                    : RMF          - RESISTIVITY OF MUD FILTRATE
SUFT.C        4                    : SUFT         - SURFACE TEMPERATURE
~A  DEPTH       GR     PHIN     PHID     RESD
# ...
  268.500  110.434    0.437    0.268    5.065
  268.750  102.152    0.443    0.260    5.069
  269.000  102.805    0.456    0.242    5.076
  269.250  104.734    0.465    0.245    5.083
  269.500  104.749    0.471    0.257    5.089
  269.750  100.290    0.467    0.273    5.096
  270.000   97.751    0.455    0.284    5.106
  270.250   97.766    0.437    0.285    5.111
  270.500   92.034    0.448    0.299    5.119
  270.750   88.856    0.472    0.317    5.223
  271.000   85.040    0.454    0.333    5.534
  271.250   74.200    0.408    0.332    6.089
  271.500   65.280    0.393    0.319    6.575
  271.750   70.398    0.417    0.319    7.097
  272.000   66.582    0.417    0.326    7.665
  272.250   55.104    0.414    0.329    7.970
  272.500   49.376    0.410    0.324    7.980
  272.750   48.752    0.376    0.319    7.841
  273.000   52.593    0.379    0.307    7.561
  273.250   65.377    0.401    0.297    7.293
  273.500   73.692    0.414    0.302    7.028
  273.750   82.006    0.414    0.314    6.654
  274.000   87.770    0.413    0.307    6.414
  274.250   92.257    0.411    0.294    6.071
  274.500   92.275    0.416    0.276    5.963
  274.750   92.290    0.429    0.268    5.748
  275.000   92.308    0.436    0.273    5.545
  275.250   92.315    0.441    0.276    5.346
  275.500   92.326    0.451    0.280    5.157
  275.750   93.621    0.466    0.285    5.065
  276.000   94.912    0.479    0.286    4.886
  276.250   96.842    0.477    0.288    4.710
  276.500   98.134    0.469    0.291    4.626
  276.750   98.787    0.465    0.296    4.377
  277.000   99.436    0.472    0.286    4.222
  277.250  100.092    0.480    0.272    4.073
  277.500  101.380    0.491    0.262    4.075
  277.750  103.310    0.484    0.269    4.080
  278.000  105.878    0.467    0.285    4.087
  278.250  102.065    0.450    0.255    4.250
  278.500   98.246    0.445    0.237    4.419
  278.750   93.156    0.441    0.245    4.594
  279.000   91.255    0.438    0.253    4.777
  279.250   90.631    0.436    0.260    4.783
  279.500   90.645    0.434    0.263    4.612
  279.750   92.575    0.437    0.274    4.363
  280.000   93.228    0.442    0.284    4.051
  280.250   93.881    0.451    0.285    3.835
  280.500   93.892    0.447    0.279    3.628
  280.750   93.268    0.442    0.276    3.633
  281.000   92.647    0.442    0.274    3.923
  281.250   92.662    0.444    0.276    4.237
  281.500   92.041    0.447    0.277    4.403
  281.750   91.414    0.448    0.275    4.938
  282.000   90.793    0.450    0.266    5.332
  282.250   90.800    0.452    0.256    5.340
  282.500   92.730    0.451    0.253    5.246
  282.750   94.660    0.451    0.260    5.156
  283.000   98.509    0.453    0.263    5.159
  283.250   98.527    0.448    0.267    4.975
  283.500   94.707    0.453    0.271    4.890
  283.750   95.998    0.460    0.273    4.806
  284.000  100.486    0.461    0.270    4.809
  284.250  101.777    0.453    0.263    4.727
  284.500   99.872    0.450    0.261    4.735
  284.750   97.972    0.451    0.262    4.738
  285.000   98.624    0.467    0.263    4.836
  285.250  103.108    0.482    0.263    4.844
  285.500  108.869    0.482    0.264    4.849
  285.750  105.056    0.470    0.264    4.856
  286.000  102.513    0.442    0.267    4.860
  286.250  101.250    0.443    0.269    4.866
  286.500   98.711    0.461    0.269    4.872
  286.750   95.537    0.465    0.267    4.878
  287.000   94.920    0.468    0.263    4.797
  287.250   94.931    0.473    0.258    4.801
  287.500   95.576    0.482    0.248    4.808
  287.750   95.591    0.492    0.236    4.724
  288.000   91.778    0.498    0.189    4.728
  288.250   89.235    0.503    0.130    4.649
  288.500   92.442    0.520    0.136    4.654
  288.750   99.479    0.510    0.174    4.403
  289.000  107.794    0.492    0.227    4.246
  289.250  109.724    0.496    0.261    4.093
  289.500  110.380    0.498    0.275    3.875
  289.750  110.395    0.493    0.265    3.807
  290.000  110.405    0.493    0.260    3.810
  290.250  110.420    0.474    0.256    3.818
  290.500  109.796    0.455    0.251    3.821
  290.750  109.172    0.468    0.242    3.825
  291.000  108.551    0.475    0.211    3.981
  291.250  103.454    0.467    0.151    4.061
  291.500   98.368    0.460    0.093    4.142
  291.750  100.295    0.479    0.116    4.146
  292.000  108.613    0.490    0.174    4.154
  292.250  110.539    0.501    0.209    4.158
  292.500  108.003    0.506    0.241    4.166
  292.750  105.460    0.500    0.265    4.092
  293.000  104.198    0.485    0.262    4.096
  293.250  105.489    0.475    0.256    4.028
  293.500  107.419    0.483    0.246    3.956
  293.750  109.349    0.498    0.241    3.961
  294.000  111.917    0.509    0.239    3.893
  294.250  113.847    0.521    0.242    3.899
  294.500  114.500    0.516    0.247    3.903
  294.750  113.237    0.467    0.250    3.906
  295.000  111.340    0.464    0.255    3.913
  295.250  110.716    0.472    0.263    3.918
  295.500  112.642    0.491    0.273    3.924
  295.750  110.741    0.514    0.273    3.928
  296.000  108.202    0.476    0.268    3.934
  296.250  106.939    0.435    0.263    4.012
  296.500  107.592    0.409    0.263    4.018
  296.750  107.606    0.421    0.264    4.101
  297.000  105.071    0.454    0.265    4.182
  297.250  102.528    0.488    0.266    4.189
  297.500   98.076    0.484    0.256    4.273
  297.750   95.533    0.469    0.233    4.278
  298.000  108.956    0.466    0.199    4.284
  298.250  107.693    0.463    0.150    4.211
  298.500  100.684    0.476    0.175    3.984
  298.750   96.868    0.496    0.200    3.914
  299.000  110.290    0.478    0.221    3.704
  299.250  115.412    0.473    0.252    3.639
  299.500  116.065    0.478    0.274    3.646
  299.750  116.725    0.479    0.266    3.719
  300.000  116.740    0.480    0.261    3.867
  300.250  112.281    0.459    0.258    3.946
  300.500  106.546    0.439    0.263    4.025
  300.750  102.733    0.438    0.266    4.186
  301.000  104.025    0.451    0.263    4.190
  301.250  109.147    0.464    0.256    4.120
  301.500  116.184    0.469    0.246    4.047
  301.750  117.483    0.473    0.248    3.901
  302.000  115.575    0.484    0.249    3.761
  302.250  109.843    0.506    0.254    3.696
  302.500  103.473    0.499    0.266    3.772
  302.750   98.379    0.479    0.283    3.922
  303.000   93.925    0.437    0.291    4.077
  303.250   90.747    0.445    0.282    4.320
  303.500   93.315    0.471    0.213    4.493
  303.750   97.160    0.507    0.177    4.585
  304.000   99.729    0.539    0.125    4.591
  304.250   93.997    0.495    0.109    4.596
  304.500   84.434    0.400    0.067    4.515
  304.750   78.703    0.321    0.150    4.356
  305.000   79.356    0.392    0.175    4.359
  305.250   95.332    0.460    0.199    4.366
  305.500  105.561    0.481    0.219    4.454
  305.750  117.068    0.485    0.228    4.544
  306.000  127.937    0.478    0.231    4.553
  306.250  130.508    0.477    0.231    4.472
  306.500  128.607    0.487    0.223    4.393
  306.750  127.980    0.492    0.214    4.082
  307.000  126.079    0.489    0.186    3.935
  307.250  124.185    0.483    0.177    3.793
  307.500  122.915    0.486    0.190    3.658
  307.750  118.461    0.501    0.214    3.463
  308.000  119.752    0.497    0.237    3.401
  308.250  119.128    0.489    0.256    3.279
  308.500  116.592    0.494    0.280    2.990
  308.750  115.333    0.507    0.296    2.937
  309.000  114.702    0.523    0.294    2.831
  309.250  114.078    0.540    0.291    2.781
  309.500  113.461    0.557    0.297    2.839
  309.750  112.199    0.553    0.305    3.064
  310.000  104.544    0.439    0.314    3.705
  310.250   88.597    0.381    0.331    4.315
  310.500   80.311    0.344    0.346    5.120
  310.750   73.941    0.352    0.322    6.074
  311.000   68.848    0.372    0.283    6.684
  311.250   68.224    0.429    0.290    7.219
  311.500   67.600    0.358    0.274    7.226
  311.750   64.426    0.330    0.227    7.240
